     3.05           OBSERVATION DATA    MIXED               RINEX VERSION / TYPE
TPS2RIN 1.0.29.3920 TPS-USER            20240801 093646 UTC PGM / RUN BY / DATE
Win64 build Feb 23, 2024 (c) Topcon Positioning Systems     COMMENT
SRC: 20240731_CAMI5.tps                                     COMMENT
OPT: -S -v 3.05                                             COMMENT
Observer            Agency                                  OBSERVER / AGENCY
O0M3X53SBGM         TPS HIPER_SR        4.8 HSR Jul,08,2022 REC # / TYPE / VERS
FW: 4.8 HSR Jul,08,2022 p3                                  COMMENT
SN: HiPer SR 1212-12575                                     COMMENT
000                 TPSHIPER_SR     NONE                    ANT # / TYPE
        1.8000        0.0000        0.0000                  ANTENNA: DELTA H/E/N
CAMI5                                                       MARKER NAME
  5388919.4974 -1597686.6946  3008704.0712                  APPROX POSITION XYZ
  2024     7    31    13    47   19.0000000     GPS         TIME OF FIRST OBS
  2024     7    31    14     2   22.0000000     GPS         TIME OF LAST OBS
     1.000                                                  INTERVAL
   904 EPOCHS                                               COMMENT
G   16 C1C L1C D1C S1C C1W L1W D1W S1W C2W L2W D2W S2W C2X  SYS / # / OBS TYPES
       L2X D2X S2X                                          SYS / # / OBS TYPES
R   16 C1C L1C D1C S1C C1P L1P D1P S1P C2P L2P D2P S2P C2C  SYS / # / OBS TYPES
       L2C D2C S2C                                          SYS / # / OBS TYPES
    13                                                      # OF SATELLITES
   G03   302   302   302   302   298   298   298   298   298PRN / # OF OBS
         298   298   298   286   286   286   286            PRN / # OF OBS
   G04   904   904   904   904   904   904   904   904   904PRN / # OF OBS
         904   904   904   904   904   904   904            PRN / # OF OBS
   G06   904   904   904   904   904   904   904   904   904PRN / # OF OBS
         904   904   904   904   904   904   904            PRN / # OF OBS
   G07   904   904   904   904   904   904   904   904   904PRN / # OF OBS
         904   904   904   904   904   904   904            PRN / # OF OBS
   G09   904   904   904   904   904   904   904   904   904PRN / # OF OBS
         904   904   904   904   904   904   904            PRN / # OF OBS
   G11   904   904   904   904   904   904   904   904   904PRN / # OF OBS
         904   904   904   904   904   904   904            PRN / # OF OBS
   G17   904   904   904   904   904   904   904   904   904PRN / # OF OBS
         904   904   904   904   904   904   904            PRN / # OF OBS
   G19   904   904   904   904   904   904   904   904   904PRN / # OF OBS
         904   904   904     0     0     0     0            PRN / # OF OBS
   G20   904   904   904   904   904   904   904   904   904PRN / # OF OBS
         904   904   904     0     0     0     0            PRN / # OF OBS
   G30   214   214   214   214   197   197   197   197   197PRN / # OF OBS
         197   197   197   188   188   188   188            PRN / # OF OBS
   R04   575   575   575   575   575   575   575   575   575PRN / # OF OBS
         575   575   575   566   566   566   566            PRN / # OF OBS
   R05   904   904   904   904   904   904   904   904   904PRN / # OF OBS
         904   904   904   904   904   904   904            PRN / # OF OBS
   R21   873   873   873   873   873   873   873   873   873PRN / # OF OBS
         873   873   873   873   873   873   873            PRN / # OF OBS
G L1C                                                       SYS / PHASE SHIFT
G L1W -0.25000                                              SYS / PHASE SHIFT
G L2W  0.00000                                              SYS / PHASE SHIFT
G L2X  0.25000                                              SYS / PHASE SHIFT
R L1C                                                       SYS / PHASE SHIFT
R L1P -0.25000                                              SYS / PHASE SHIFT
R L2P -0.25000                                              SYS / PHASE SHIFT
R L2C                                                       SYS / PHASE SHIFT
  3 R04  6 R05  1 R21  4                                    GLONASS SLOT / FRQ #
                                                            GLONASS COD/PHS/BIS
    18    18  1929     7GPS                                 LEAP SECONDS
                                                            END OF HEADER
> 2024 07 31 13 47 19.0000000  0 12
G09  20353613.020   106958957.136 8      1683.535          49.187    20353612.440   106958957.143 8      1683.535          50.312    20353618.300    83344665.395 8      1311.845          50.562    20353618.700    83344667.404 8      1311.845          50.187
R21  23055367.140   123373930.138 6      6759.287          38.375    23055368.180   123373930.174 6      6759.287          39.187    23055381.180    95957556.155 7      5257.224          42.125    23055380.820    95957562.153 6      5257.224          41.375
G20  24664851.300   129614662.205 6      4737.463          39.062    24664850.640   129614662.199 3      4737.463          23.125    24664859.740   100998452.526 3      3691.529          23.187
G11  23974471.940   125986700.267 7      5722.982          42.000    23974471.200   125986700.272 5      5722.982          30.812    23974477.920    98171477.756 5      4459.466          30.687    23974478.560    98171479.744 7      4459.466          46.937
G03  24161864.040   126971451.229 5       402.712          33.812    24161862.100   126971451.226 3       402.712          22.125    24161879.480    98938820.270 3       313.802          22.062    24161880.900    98938847.320 5       313.802          35.187
G06  20954788.520   110118158.273 7      4300.366          47.125    20954787.760   110118158.272 8      4300.366          49.187    20954794.960    85806378.610 8      3350.935          49.000    20954796.140    85806386.607 8      3350.935          51.062
R04  22971057.520   123008978.462 6      -810.310          40.250    22971060.420   123008978.525 6      -810.310          39.312    22971074.120    95673711.229 7      -630.241          42.437    22971073.240    95673713.230 7      -630.241          42.375
G17  21807866.260   114601097.668 8       213.861          48.062    21807865.640   114601097.673 7       213.861          46.125    21807874.520    89299589.979 7       166.645          46.187    21807874.820    89299597.981 7       166.645          47.062
R05  19973452.540   106769550.511 8       929.695          48.875    19973453.080   106769550.526 8       929.695          48.437    19973461.840    83043022.297 8       723.096          50.250    19973462.160    83043022.299 8       723.096          50.062
G07  23089494.440   121336113.056 7      4804.304          45.187    23089494.540   121336113.058 6      4804.304          41.500    23089507.780    94547685.055 6      3743.614          41.875    23089508.420    94547686.070 7      3743.614          43.437
G19  20880420.880   109727345.736 7      1172.453          46.250    20880418.240   109727345.741 6      1172.453          38.437    20880424.660    85501843.355 6       913.599          37.875
G04  22375388.320   117583439.917 7      -160.565          45.437    22375388.180   117583439.921 5      -160.565          33.687    22375395.800    91623473.559 5      -125.116          33.500    22375396.060    91623499.563 8      -125.116          48.062
> 2024 07 31 13 47 20.0000000  0 12
G09  20353292.660   106957273.632 8      1683.402          48.875    20353292.060   106957273.635 8      1683.402          50.312    20353297.860    83343353.573 8      1311.742          51.062    20353298.200    83343355.577 8      1311.742          50.562
R21  23054104.080   123367170.839 6      6759.420          38.375    23054104.920   123367170.862 6      6759.420          39.187    23054118.280    95952298.904 7      5257.326          42.125    23054117.380    95952304.908 6      5257.326          41.187
G20  24663949.780   129609924.586 6      4737.796          39.312    24663948.840   129609924.580 3      4737.796          23.125    24663958.300   100994760.879 3      3691.789          23.187
G11  23973382.980   125980977.307 6      5722.976          41.500    23973382.060   125980977.315 5      5722.976          30.812    23973389.060    98167018.311 5      4459.462          30.687    23973389.780    98167020.297 7      4459.462          46.687
G03  24161786.840   126971048.544 5       402.574          33.875    24161785.620   126971048.546 3       402.574          22.125    24161802.620    98938506.483 3       313.694          22.062    24161804.480    98938533.537 5       313.694          35.187
G06  20953970.360   110113857.817 7      4300.391          47.437    20953969.480   110113857.822 8      4300.391          49.625    20953976.620    85803027.607 8      3350.954          49.562    20953977.700    85803035.609 8      3350.954          51.562
R04  22971209.340   123009788.460 6      -809.905          40.250    22971212.100   123009788.491 6      -809.905          39.312    22971225.140    95674341.203 7      -629.926          42.125    22971224.640    95674343.202 7      -629.926          42.125
G17  21807825.400   114600883.765 8       213.814          48.687    21807824.860   114600883.769 7       213.814          45.937    21807833.900    89299423.293 7       166.608          46.500    21807834.540    89299431.292 7       166.608          47.125
R05  19973279.040   106768620.745 8       929.743          48.875    19973279.100   106768620.749 8       929.743          48.875    19973287.960    83042299.137 8       723.133          50.375    19973288.140    83042299.140 8       723.133          50.625
G07  23088580.000   121331308.684 7      4804.441          45.000    23088580.240   121331308.687 6      4804.441          41.750    23088593.400    94543941.401 7      3743.720          42.062    23088594.140    94543942.415 7      3743.720          43.125
G19  20880197.680   109726173.435 7      1172.097          45.750    20880195.120   109726173.440 6      1172.097          38.187    20880201.500    85500929.870 6       913.323          38.250
G04  22375418.940   117583600.437 7      -160.489          44.312    22375418.760   117583600.450 5      -160.489          33.687    22375426.300    91623598.642 5      -125.056          33.500    22375426.640    91623624.644 7      -125.056          47.875
> 2024 07 31 13 47 21.0000000  0 12
G09  20352972.580   106955590.600 8      1682.704          49.187    20352971.860   106955590.602 8      1682.704          50.250    20352977.720    83342042.114 8      1311.198          50.812    20352978.140    83342044.119 8      1311.198          50.187
R21  23052841.140   123360411.559 6      6759.214          38.375    23052840.820   123360411.577 6      6759.214          39.187    23052854.920    95947041.699 7      5257.166          42.125    23052854.240    95947047.701 6      5257.166          41.187
G20  24663047.980   129605186.895 6      4737.696          39.125    24663047.180   129605186.890 3      4737.696          23.125    24663056.740   100991069.174 3      3691.711          23.187
G11  23972294.120   125975254.229 7      5722.991          42.000    23972293.120   125975254.232 5      5722.991          31.000    23972299.860    98162558.768 5      4459.473          30.812    23972300.720    98162560.766 7      4459.473          46.937
G03  24161709.740   126970645.635 5       402.998          33.875    24161709.260   126970645.637 3       402.998          22.000    24161725.920    98938192.523 3       314.024          22.062    24161727.820    98938219.550 5       314.024          35.187
G06  20953152.080   110109557.632 7      4299.989          46.875    20953151.120   110109557.637 8      4299.989          48.750    20953158.300    85799676.814 8      3350.641          48.937    20953159.520    85799684.811 8      3350.641          51.687
R04  22971361.180   123010598.258 6      -809.859          39.812    22971363.160   123010598.321 6      -809.859          39.312    22971376.760    95674971.062 6      -629.890          41.812    22971375.780    95674973.061 7      -629.890          42.125
G17  21807784.820   114600670.155 8       213.423          48.750    21807784.440   114600670.158 7       213.423          46.312    21807793.220    89299256.830 7       166.303          46.812    21807793.840    89299264.829 7       166.303          47.187
R05  19973104.960   106767691.302 7       929.165          47.312    19973105.200   106767691.311 8       929.165          48.812    19973114.160    83041576.241 8       722.684          50.562    19973114.380    83041576.244 8       722.684          50.687
G07  23087666.060   121326504.455 7      4804.149          45.500    23087665.960   121326504.454 6      4804.149          41.625    23087679.140    94540197.847 6      3743.493          41.375    23087679.860    94540198.855 7      3743.493          42.375
G19  20879974.520   109725001.683 7      1171.407          46.687    20879972.220   109725001.682 6      1171.407          38.187    20879978.600    85500016.804 6       912.785          38.437
G04  22375449.620   117583761.183 7      -160.886          45.187    22375449.340   117583761.199 5      -160.886          33.687    22375456.820    91623723.896 5      -125.366          33.437    22375457.120    91623749.899 7      -125.366          47.750
> 2024 07 31 13 47 22.0000000  0 12
G09  20352652.220   106953907.961 8      1682.451          50.250    20352651.620   106953907.968 8      1682.451          50.250    20352657.480    83340730.971 8      1311.001          50.750    20352658.080    83340732.974 8      1311.001          49.875
R21  23051577.960   123353652.298 6      6759.187          38.375    23051577.060   123353652.340 6      6759.187          38.812    23051591.940    95941784.525 7      5257.145          42.312    23051591.220    95941790.529 6      5257.145          41.375
G20  24662146.880   129600449.026 6      4738.006          39.125    24662145.480   129600449.023 3      4738.006          23.125    24662155.040   100987377.330 3      3691.953          23.187
G11  23971204.660   125969531.065 7      5723.227          42.562    23971204.080   125969531.067 5      5723.227          31.000    23971210.840    98158099.155 5      4459.657          30.812    23971211.240    98158101.160 7      4459.657          46.750
G03  24161633.660   126970242.637 5       403.220          33.875    24161632.720   126970242.637 3       403.220          22.000    24161648.980    98937878.495 3       314.198          21.687    24161650.700    98937905.531 5       314.198          33.937
G06  20952333.880   110105257.636 7      4300.018          47.312    20952332.760   110105257.638 8      4300.018          48.875    20952340.080    85796326.164 8      3350.664          48.750    20952341.020    85796334.165 8      3350.664          51.312
R04  22971512.200   123011407.873 6      -809.301          39.812    22971514.660   123011407.942 6      -809.301          39.062    22971527.860    95675600.765 6      -629.457          41.812    22971527.040    95675602.765 7      -629.457          42.125
G17  21807744.020   114600456.796 8       213.296          48.250    21807743.820   114600456.795 7       213.296          46.500    21807752.600    89299090.561 7       166.205          46.750    21807753.140    89299098.560 7       166.205          46.812
R05  19972931.340   106766762.094 8       929.096          48.250    19972931.040   106766762.106 8       929.096          48.500    19972940.500    83040853.526 8       722.630          51.125    19972940.420    83040853.525 8       722.630          50.625
G07  23086752.060   121321700.301 7      4804.069          46.000    23086751.760   121321700.301 6      4804.069          41.750    23086764.860    94536454.361 6      3743.430          41.125    23086765.600    94536455.373 7      3743.430          42.937
G19  20879751.700   109723830.432 7      1171.055          46.125    20879749.280   109723830.437 6      1171.055          38.562    20879755.700    85499104.139 6       912.510          38.562
G04  22375480.520   117583922.077 7      -160.938          45.437    22375479.900   117583922.095 5      -160.938          33.937    22375487.400    91623849.264 5      -125.406          33.437    22375487.580    91623875.264 7      -125.406          47.937
> 2024 07 31 13 47 23.0000000  0 12
G09  20352332.260   106952225.892 8      1681.709          49.437    20352331.560   106952225.902 8      1681.709          50.937    20352337.440    83339420.269 8      1310.422          51.000    20352338.120    83339422.271 8      1310.422          50.312
R21  23050315.180   123346893.227 6      6758.965          38.375    23050314.340   123346893.253 6      6758.965          38.812    23050328.600    95936527.455 7      5256.972          42.062    23050328.200    95936533.463 6      5256.972          41.125
G20  24661245.000   129595711.225 6      4737.657          38.000    24661243.860   129595711.222 3      4737.657          22.375    24661253.480   100983685.542 3      3691.680          23.187
G11  23970115.540   125963807.966 6      5722.975          41.562    23970115.020   125963807.973 5      5722.975          31.000    23970121.620    98153639.602 5      4459.461          30.812    23970122.060    98153641.600 7      4459.461          46.312
G03  24161556.080   126969839.681 5       402.845          34.562    24161555.640   126969839.678 3       402.845          22.000    24161572.260    98937564.493 3       313.905          21.687    24161573.920    98937591.529 5       313.905          33.937
G06  20951515.640   110100958.042 7      4299.328          47.125    20951514.680   110100958.050 8      4299.328          48.937    20951521.960    85792975.837 8      3350.126          49.000    20951523.020    85792983.837 8      3350.126          51.125
R04  22971663.320   123012217.529 6      -809.648          39.812    22971665.840   123012217.598 6      -809.648          39.062    22971678.860    95676230.493 7      -629.726          42.062    22971678.560    95676232.491 7      -629.726          42.312
G17  21807703.460   114600243.838 8       212.653          48.125    21807703.340   114600243.840 7       212.653          46.625    21807712.140    89298924.614 7       165.704          47.125    21807712.460    89298932.615 7       165.704          46.937
R05  19972757.480   106765833.338 8       928.432          48.875    19972757.420   106765833.345 8       928.432          48.375    19972766.680    83040131.152 8       722.114          50.625    19972766.700    83040131.151 8       722.114          50.625
G07  23085837.600   121316896.384 7      4803.813          46.000    23085837.740   121316896.376 6      4803.813          41.500    23085850.780    94532711.047 6      3743.231          41.500    23085851.560    94532712.059 7      3743.231          42.937
G19  20879528.820   109722659.863 7      1170.196          46.625    20879526.840   109722659.865 6      1170.196          38.437    20879533.020    85498191.999 6       911.841          38.312
G04  22375511.180   117584083.291 7      -161.502          45.000    22375510.420   117584083.306 5      -161.502          33.937    22375518.060    91623974.881 5      -125.846          33.937    22375518.320    91624000.883 7      -125.846          47.875
> 2024 07 31 13 47 24.0000000  0 12
G09  20352012.220   106950544.294 8      1681.415          48.937    20352011.560   106950544.302 8      1681.415          50.500    20352017.560    83338109.928 8      1310.194          50.937    20352018.300    83338111.931 8      1310.194          50.062
R21  23049052.320   123340134.225 6      6759.155          36.875    23049051.100   123340134.243 6      6759.155          38.812    23049065.620    95931270.439 7      5257.120          42.187    23049065.160    95931276.439 6      5257.120          41.125
G20  24660343.700   129590973.333 6      4737.989          37.812    24660342.180   129590973.330 3      4737.989          22.375    24660351.800   100979993.679 3      3691.939          22.312
G11  23969026.600   125958084.815 6      5723.151          41.937    23969025.940   125958084.819 5      5723.151          30.937    23969032.520    98149179.999 5      4459.598          30.625    23969033.180    98149181.995 7      4459.598          46.875
G03  24161479.600   126969436.614 5       402.721          34.562    24161478.760   126969436.604 3       402.721          22.000    24161495.220    98937250.407 3       313.808          21.687    24161496.880    98937277.439 5       313.808          33.937
G06  20950697.400   110096658.703 7      4299.247          47.375    20950696.700   110096658.703 8      4299.247          49.187    20950703.800    85789625.699 8      3350.063          49.375    20950704.860    85789633.696 8      3350.063          51.125
R04  22971814.320   123013027.035 6      -809.451          39.812    22971817.440   123013027.104 6      -809.451          39.062    22971829.880    95676860.103 7      -629.573          42.125    22971829.640    95676862.106 7      -629.573          42.375
G17  21807663.220   114600031.185 8       212.474          48.500    21807663.040   114600031.185 7       212.474          46.750    21807671.720    89298758.898 7       165.564          47.125    21807672.140    89298766.906 7       165.564          47.250
R05  19972583.700   106764904.877 8       928.316          48.500    19972583.680   106764904.886 8       928.316          48.812    19972593.080    83039409.017 8       722.023          50.687    19972592.960    83039409.014 8       722.023          51.125
G07  23084923.600   121312092.630 7      4803.724          45.375    23084923.680   121312092.625 6      4803.724          41.375    23084936.520    94528967.871 6      3743.162          41.562    23084937.300    94528968.882 7      3743.162          43.125
G19  20879306.020   109721489.850 7      1169.678          47.125    20879304.200   109721489.852 6      1169.678          38.437    20879310.320    85497280.297 6       911.438          38.187
G04  22375541.680   117584244.699 7      -161.520          44.875    22375541.160   117584244.714 5      -161.520          33.625    22375549.040    91624100.652 5      -125.859          33.937    22375549.100    91624126.656 7      -125.859          47.687
> 2024 07 31 13 47 25.0000000  0 12
G09  20351692.360   106948863.169 8      1680.818          49.062    20351691.660   106948863.174 8      1680.818          50.625    20351697.560    83336799.959 8      1309.728          51.062    20351698.240    83336801.959 8      1309.728          49.937
R21  23047788.820   123333375.299 6      6758.873          36.875    23047787.020   123333375.322 6      6758.873          38.812    23047802.340    95926013.517 7      5256.901          42.187    23047802.100    95926019.519 6      5256.901          41.125
G20  24659441.780   129586235.361 6      4737.888          38.000    24659440.560   129586235.358 3      4737.888          22.375    24659450.100   100976301.751 3      3691.860          22.312
G11  23967937.200   125952361.595 6      5723.236          41.750    23967936.980   125952361.605 5      5723.236          30.937    23967943.580    98144720.347 5      4459.665          30.625    23967944.100    98144722.354 7      4459.665          46.812
G03  24161403.700   126969033.409 5       403.260          34.812    24161402.400   126969033.393 3       403.260          22.000    24161418.340    98936936.208 3       314.228          21.687    24161418.820    98936963.238 5       314.228          33.937
G06  20949879.180   110092359.630 7      4298.867          47.562    20949878.580   110092359.629 8      4298.867          49.187    20949885.700    85786275.769 8      3349.766          49.500    20949886.680    85786283.767 8      3349.766          51.062
R04  22971965.520   123013836.391 6      -809.345          39.187    22971969.140   123013836.462 6      -809.345          39.062    22971980.700    95677489.606 7      -629.491          42.062    22971980.940    95677491.605 7      -629.491          42.000
G17  21807622.800   114599818.826 8       212.143          48.562    21807622.520   114599818.826 7       212.143          46.500    21807631.280    89298593.417 7       165.306          46.937    21807631.680    89298601.423 7       165.306          47.250
R05  19972409.940   106763976.765 8       927.847          48.437    19972410.180   106763976.777 8       927.847          48.375    19972419.380    83038687.155 8       721.658          50.437    19972419.460    83038687.151 8       721.658          50.125
G07  23084009.560   121307288.995 7      4803.565          45.562    23084009.640   121307288.992 6      4803.565          41.000    23084022.400    94525224.784 6      3743.038          41.437    23084023.160    94525225.796 7      3743.038          42.187
G19  20879083.540   109720320.395 7      1169.116          46.625    20879081.620   109720320.399 6      1169.116          38.125    20879087.720    85496369.029 6       911.000          38.187
G04  22375572.520   117584406.323 7      -161.784          45.187    22375571.960   117584406.336 5      -161.784          33.625    22375579.820    91624226.588 5      -126.066          33.687    22375580.080    91624252.595 7      -126.066          47.812
> 2024 07 31 13 47 26.0000000  0 12
G09  20351372.540   106947182.580 8      1680.266          49.000    20351371.840   106947182.587 8      1680.266          50.437    20351377.760    83335490.408 8      1309.298          50.812    20351378.320    83335492.409 8      1309.298          50.812
R21  23046525.860   123326616.522 6      6758.526          36.875    23046524.000   123326616.540 6      6758.526          38.125    23046539.680    95920756.686 7      5256.631          42.312    23046539.140    95920762.697 6      5256.631          41.312
G20  24658540.380   129581497.353 6      4738.068          38.375    24658538.860   129581497.353 3      4738.068          22.375    24658548.380   100972609.801 3      3692.001          22.312
G11  23966848.200   125946638.441 6      5723.002          41.625    23966847.840   125946638.454 5      5723.002          30.937    23966854.580    98140260.747 5      4459.482          30.625    23966855.160    98140262.747 7      4459.482          46.687
G03  24161327.080   126968630.213 5       403.192          34.812    24161326.020   126968630.200 3       403.192          22.000    24161341.520    98936622.028 3       314.176          21.687    24161342.000    98936649.073 5       314.176          33.937
G06  20949061.300   110088060.893 7      4298.517          47.437    20949060.600   110088060.897 8      4298.517          48.812    20949067.660    85782926.110 8      3349.494          48.937    20949068.400    85782934.109 8      3349.494          51.062
R04  22972116.180   123014645.698 6      -809.142          39.187    22972120.540   123014645.762 6      -809.142          39.250    22972132.320    95678119.057 7      -629.333          42.062    22972131.920    95678121.052 7      -629.333          42.000
G17  21807582.460   114599606.846 8       211.670          49.437    21807582.180   114599606.848 7       211.670          46.562    21807591.040    89298428.234 7       164.938          46.500    21807591.280    89298436.242 7       164.938          47.062
R05  19972236.520   106763049.062 8       927.465          48.812    19972236.480   106763049.077 8       927.465          48.062    19972245.980    83037965.608 8       721.361          50.812    19972245.840    83037965.604 8       721.361          50.437
G07  23083095.420   121302485.582 7      4803.280          45.875    23083095.560   121302485.582 6      4803.280          41.250    23083108.340    94521481.869 6      3742.816          41.875    23083108.700    94521482.879 7      3742.816          43.000
G19  20878861.280   109719151.585 7      1168.373          47.187    20878859.220   109719151.588 6      1168.373          38.437    20878865.320    85495458.262 6       910.421          38.125
G04  22375603.180   117584568.231 7      -162.059          45.000    22375602.820   117584568.241 5      -162.059          33.562    22375610.680    91624352.742 5      -126.280          33.687    22375611.020    91624378.753 7      -126.280          47.687
> 2024 07 31 13 47 27.0000000  0 12
G09  20351052.900   106945502.440 8      1679.862          49.500    20351052.060   106945502.444 8      1679.862          50.750    20351058.100    83334181.204 8      1308.983          50.687    20351058.760    83334183.207 8      1308.983          50.750
R21  23045262.080   123319857.769 6      6758.567          36.875    23045260.900   123319857.795 6      6758.567          38.125    23045276.720    95915499.891 6      5256.663          41.687    23045276.060    95915505.897 6      5256.663          41.062
G20  24657638.920   129576759.313 6      4737.988          38.375    24657637.100   129576759.313 3      4737.988          22.375    24657646.740   100968917.824 3      3691.939          22.312
G11  23965759.220   125940915.192 6      5723.235          41.562    23965758.620   125940915.200 5      5723.235          30.937    23965765.560    98135801.072 5      4459.663          30.625    23965766.180    98135803.067 7      4459.663          46.750
G03  24161250.160   126968226.945 5       403.134          34.812    24161249.200   126968226.934 3       403.134          22.000    24161264.660    98936307.782 3       314.131          21.687    24161266.180    98936334.800 5       314.131          33.937
G06  20948243.380   110083762.408 8      4298.325          48.125    20948242.600   110083762.415 8      4298.325          49.187    20948249.680    85779576.639 8      3349.344          49.437    20948250.440    85779584.639 8      3349.344          51.250
R04  22972267.080   123015454.862 6      -809.087          39.187    22972271.420   123015454.946 6      -809.087          39.250    22972283.540    95678748.416 7      -629.290          42.125    22972283.220    95678750.412 7      -629.290          42.500
G17  21807542.080   114599395.131 8       211.598          48.812    21807541.920   114599395.134 7       211.598          46.562    21807550.860    89298263.247 7       164.882          47.125    21807551.340    89298271.253 7       164.882          47.375
R05  19972063.000   106762121.707 8       927.152          48.500    19972062.960   106762121.716 7       927.152          47.875    19972072.480    83037244.327 8       721.118          51.062    19972072.460    83037244.322 8       721.118          50.562
G07  23082181.520   121297682.291 7      4803.240          45.250    23082181.520   121297682.288 6      4803.240          41.875    23082194.460    94517739.047 7      3742.784          42.000    23082194.740    94517740.060 7      3742.784          42.937
G19  20878638.760   109717983.310 7      1167.909          46.625    20878637.020   109717983.314 6      1167.909          38.875    20878643.160    85494547.915 6       910.059          38.500
G04  22375633.860   117584730.354 7      -162.375          44.875    22375633.660   117584730.369 5      -162.375          33.750    22375641.400    91624479.072 5      -126.526          33.812    22375641.760    91624505.084 7      -126.526          47.875
> 2024 07 31 13 47 28.0000000  0 12
G09  20350733.240   106943822.907 8      1679.202          49.437    20350732.420   106943822.911 8      1679.202          50.750    20350738.520    83332872.477 8      1308.469          50.625    20350739.280    83332874.478 8      1308.469          50.687
R21  23044000.120   123313099.249 6      6758.501          36.875    23043997.300   123313099.264 6      6758.501          38.125    23044013.560    95910243.265 6      5256.612          41.812    23044012.840    95910249.271 6      5256.612          41.062
G20  24656737.280   129572021.305 6      4737.788          38.625    24656735.280   129572021.307 3      4737.788          22.375    24656745.040   100965225.869 3      3691.783          22.312
G11  23964669.980   125935192.028 6      5723.063          41.812    23964669.400   125935192.035 5      5723.063          30.937    23964676.440    98131341.468 5      4459.530          30.625    23964677.340    98131343.477 7      4459.530          46.750
G03  24161173.300   126967823.639 5       403.404          35.562    24161172.520   126967823.631 3       403.404          22.000    24161187.760    98935993.512 3       314.341          21.687    24161188.420    98936020.547 5       314.341          33.937
G06  20947425.580   110079464.325 7      4297.884          47.750    20947424.800   110079464.329 8      4297.884          49.062    20947431.820    85776227.484 8      3349.001          48.812    20947432.640    85776235.483 8      3349.001          51.000
R04  22972418.420   123016264.019 6      -809.223          39.187    22972423.360   123016264.096 6      -809.223          39.250    22972434.680    95679377.755 7      -629.395          42.062    22972434.440    95679379.754 7      -629.395          42.875
G17  21807502.020   114599183.884 8       211.044          48.562    21807501.640   114599183.884 7       211.044          46.875    21807510.700    89298098.627 7       164.450          47.125    21807511.060    89298106.626 7       164.450          47.250
R05  19971889.480   106761194.822 8       926.660          48.937    19971889.540   106761194.828 8       926.660          48.250    19971899.020    83036523.415 8       720.736          49.125    19971899.020    83036523.409 8       720.736          50.687
G07  23081267.680   121292879.272 7      4802.876          45.312    23081267.440   121292879.277 6      4802.876          41.375    23081280.460    94513996.439 6      3742.501          41.500    23081281.100    94513997.453 7      3742.501          42.937
G19  20878416.660   109716815.733 7      1167.285          46.312    20878414.960   109716815.735 6      1167.285          38.187    20878420.820    85493638.105 6       909.573          38.875
G04  22375664.860   117584892.789 7      -162.667          45.312    22375664.640   117584892.802 5      -162.667          33.750    22375672.520    91624605.643 5      -126.754          33.812    22375672.740    91624631.649 7      -126.754          47.375
> 2024 07 31 13 47 29.0000000  0 12
G09  20350413.740   106942143.749 8      1679.020          48.812    20350412.960   106942143.757 8      1679.020          49.562    20350419.020    83331564.047 8      1308.327          49.812    20350419.660    83331566.048 8      1308.327          50.437
R21  23042736.940   123306340.745 6      6758.644          37.625    23042735.140   123306340.736 6      6758.644          38.125    23042750.460    95904986.646 6      5256.723          41.812    23042749.940    95904992.652 6      5256.723          40.875
G20  24655835.560   129567283.115 6      4738.487          38.062    24655833.420   129567283.117 3      4738.487          22.375    24655843.200   100961533.778 3      3692.328          22.312
G11  23963581.020   125929468.755 6      5723.386          41.625    23963580.180   125929468.763 5      5723.386          30.937    23963587.360    98126881.773 5      4459.781          30.625    23963588.380    98126883.776 7      4459.781          47.312
G03  24161096.460   126967420.257 5       403.379          35.562    24161095.720   126967420.254 3       403.379          20.875    24161110.800    98935679.181 3       314.321          21.687    24161109.480    98935706.223 5       314.321          33.937
G06  20946607.660   110075166.447 8      4297.783          48.437    20946606.900   110075166.451 8      4297.783          48.312    20946613.920    85772878.488 8      3348.921          48.250    20946614.860    85772886.485 8      3348.921          50.812
R04  22972569.840   123017072.920 6      -808.758          39.187    22972574.480   123017072.997 6      -808.758          39.250    22972585.860    95680006.894 7      -629.034          42.062    22972585.680    95680008.887 7      -629.034          42.375
G17  21807461.780   114598972.847 8       210.988          48.500    21807461.580   114598972.847 7       210.988          46.687    21807470.460    89297934.170 7       164.407          46.750    21807470.680    89297942.171 7       164.407          47.250
R05  19971716.280   106760268.201 8       926.542          48.937    19971716.080   106760268.205 8       926.542          48.375    19971725.700    83035802.702 8       720.644          50.312    19971725.920    83035802.700 8       720.644          51.062
G07  23080353.540   121288076.330 7      4802.819          45.812    23080353.380   121288076.340 6      4802.819          41.812    23080366.680    94510253.895 6      3742.457          41.750    23080366.880    94510254.907 7      3742.457          42.875
G19  20878194.880   109715648.658 7      1166.843          47.187    20878192.940   109715648.662 6      1166.843          38.500    20878198.800    85492728.692 6       909.228          38.250
G04  22375695.700   117585055.375 7      -162.665          44.937    22375695.380   117585055.385 5      -162.665          33.812    22375703.400    91624732.329 5      -126.752          33.812    22375703.540    91624758.335 7      -126.752          47.875
> 2024 07 31 13 47 30.0000000  0 12
G09  20350094.320   106940465.086 8      1678.498          50.375    20350093.540   106940465.094 8      1678.498          50.937    20350099.600    83330255.998 8      1307.921          51.187    20350100.160    83330258.001 8      1307.921          50.812
R21  23041473.780   123299582.247 6      6758.640          37.625    23041471.660   123299582.259 6      6758.640          38.125    23041487.460    95899730.051 6      5256.720          41.687    23041486.780    95899736.063 6      5256.720          40.812
G20  24654933.620   129562544.897 6      4738.378          38.625    24654931.680   129562544.899 3      4738.378          21.562    24654941.600   100957841.661 3      3692.243          22.312
G11  23962492.060   125923745.441 7      5723.369          42.687    23962491.100   125923745.451 5      5723.369          30.937    23962498.280    98122422.054 5      4459.768          30.625    23962498.880    98122424.054 7      4459.768          46.875
G03  24161020.440   126967016.752 5       403.548          35.812    24161018.900   126967016.752 3       403.548          20.875    24161033.660    98935364.757 3       314.453          21.687    24161032.080    98935391.797 5       314.453          33.937
G06  20945789.840   110070868.826 8      4297.599          48.125    20945789.000   110070868.831 8      4297.599          48.687    20945796.160    85769529.692 8      3348.779          48.937    20945797.060    85769537.690 8      3348.779          50.687
R04  22972720.740   123017881.698 6      -808.627          39.187    22972725.220   123017881.785 6      -808.627          39.625    22972736.780    95680635.953 6      -628.932          41.750    22972736.560    95680637.951 7      -628.932          42.375
G17  21807421.580   114598762.123 8       210.683          48.375    21807421.300   114598762.122 7       210.683          47.062    21807430.400    89297769.959 7       164.169          47.000    21807430.860    89297777.958 7       164.169          46.937
R05  19971543.120   106759341.899 8       926.275          48.500    19971542.780   106759341.908 8       926.275          48.000    19971552.540    83035082.249 8       720.436          51.000    19971552.560    83035082.247 8       720.436          50.687
G07  23079439.440   121283273.519 7      4802.844          46.125    23079439.520   121283273.522 6      4802.844          41.750    23079452.740    94506511.441 6      3742.476          41.812    23079452.840    94506512.446 7      3742.476          43.125
G19  20877972.680   109714482.137 7      1166.367          46.562    20877971.020   109714482.142 6      1166.367          38.250    20877976.920    85491819.708 6       908.857          37.937
G04  22375726.860   117585218.171 7      -162.734          45.062    22375726.260   117585218.178 5      -162.734          33.562    22375734.340    91624859.179 5      -126.806          33.375    22375734.600    91624885.183 7      -126.806          47.812
> 2024 07 31 13 47 31.0000000  0 12
G09  20349775.000   106938786.912 8      1678.024          49.937    20349774.200   106938786.914 8      1678.024          51.187    20349780.280    83328948.323 8      1307.551          51.187    20349780.740    83328950.324 8      1307.551          50.375
R21  23040211.160   123292823.901 6      6758.382          37.625    23040209.240   123292823.897 6      6758.382          38.125    23040224.520    95894473.547 7      5256.519          42.062    23040224.060    95894479.555 6      5256.519          40.812
G20  24654032.060   129557806.628 6      4738.359          38.625    24654029.780   129557806.628 3      4738.359          21.562    24654040.020   100954149.504 3      3692.228          22.312
G11  23961402.960   125918022.090 6      5723.469          41.625    23961401.920   125918022.103 5      5723.469          30.937    23961409.280    98117962.302 5      4459.846          30.687    23961409.800    98117964.304 7      4459.846          47.437
G03  24160943.960   126966613.215 5       403.506          35.812    24160942.460   126966613.210 3       403.506          20.875    24160956.700    98935050.298 3       314.420          20.875    24160956.720    98935077.304 5       314.420          33.937
G06  20944971.980   110066571.518 8      4297.291          48.812    20944971.260   110066571.518 8      4297.291          49.562    20944978.420    85766181.139 8      3348.538          49.500    20944979.260    85766189.136 8      3348.538          50.687
R04  22972871.060   123018690.387 6      -808.465          39.187    22972876.140   123018690.461 6      -808.465          39.625    22972887.660    95681264.928 7      -628.806          42.250    22972887.680    95681266.921 7      -628.806          43.062
G17  21807381.780   114598551.722 7       210.380          47.562    21807381.280   114598551.721 7       210.380          46.812    21807390.380    89297606.004 7       163.933          47.000    21807390.800    89297614.005 7       163.933          46.750
R05  19971369.820   106758415.952 8       925.862          49.062    19971369.460   106758415.959 8       925.862          48.437    19971379.360    83034362.066 8       720.115          51.187    19971379.480    83034362.064 8       720.115          50.812
G07  23078525.520   121278470.882 7      4802.645          46.812    23078525.560   121278470.884 6      4802.645          41.750    23078539.020    94502769.128 7      3742.321          42.125    23078539.100    94502770.150 7      3742.321          43.562
G19  20877750.900   109713316.213 7      1165.836          46.562    20877749.180   109713316.215 6      1165.836          37.875    20877755.020    85490911.190 6       908.444          38.312
G04  22375757.880   117585381.216 7      -163.062          43.812    22375757.280   117585381.224 5      -163.062          33.562    22375765.340    91624986.223 5      -127.062          33.375    22375765.520    91625012.233 7      -127.062          47.687
> 2024 07 31 13 47 32.0000000  0 12
G09  20349455.740   106937109.249 8      1677.389          49.625    20349454.900   106937109.257 8      1677.389          51.000    20349461.000    83327641.058 8      1307.057          50.875    20349461.760    83327643.061 8      1307.057          50.062
R21  23038948.180   123286065.646 6      6758.327          37.625    23038946.080   123286065.658 6      6758.327          38.125    23038961.240    95889217.143 6      5256.477          41.687    23038961.140    95889223.155 6      5256.477          41.125
G20  24653130.680   129553068.331 6      4738.144          38.250    24653127.900   129553068.338 3      4738.144          21.562    24653138.440   100950457.328 3      3692.061          21.812
G11  23960314.000   125912298.784 7      5723.282          42.312    23960312.820   125912298.796 5      5723.282          30.937    23960320.060    98113502.582 5      4459.700          30.687    23960320.920    98113504.581 7      4459.700          47.125
G03  24160867.220   126966209.594 6       403.592          36.312    24160865.920   126966209.591 3       403.592          20.875    24160879.640    98934735.782 3       314.488          20.875    24160881.240    98934762.798 5       314.488          33.937
G06  20944154.500   110062274.531 8      4296.882          48.125    20944153.660   110062274.528 8      4296.882          49.062    20944160.720    85762832.831 8      3348.220          48.937    20944161.600    85762840.830 8      3348.220          50.875
R04  22973023.060   123019499.006 6      -808.480          39.187    22973027.480   123019499.099 6      -808.480          39.625    22973038.920    95681893.860 7      -628.818          42.125    22973038.560    95681895.853 7      -628.818          42.500
G17  21807341.680   114598341.686 8       209.857          48.125    21807341.320   114598341.691 7       209.857          47.000    21807350.440    89297442.329 7       163.525          47.187    21807350.840    89297450.333 7       163.525          47.375
R05  19971196.900   106757490.361 8       925.408          49.000    19971196.060   106757490.370 8       925.408          48.687    19971206.200    83033642.161 8       719.762          50.437    19971206.360    83033642.158 8       719.762          50.687
G07  23077611.640   121273668.434 7      4802.376          46.062    23077611.600   121273668.439 6      4802.376          41.875    23077625.440    94499026.969 7      3742.111          42.125    23077625.720    94499027.993 7      3742.111          43.937
G19  20877529.420   109712150.919 7      1165.054          46.562    20877527.340   109712150.919 6      1165.054          38.125    20877533.260    85490003.161 6       907.834          38.062
G04  22375789.360   117585544.519 7      -163.382          43.875    22375788.420   117585544.524 5      -163.382          33.437    22375796.520    91625113.470 5      -127.311          33.312    22375796.580    91625139.472 7      -127.311          47.875
> 2024 07 31 13 47 33.0000000  0 12
G09  20349136.620   106935432.215 8      1676.702          49.562    20349135.800   106935432.223 8      1676.702          51.000    20349141.960    83326334.276 8      1306.521          51.000    20349142.640    83326336.279 8      1306.521          50.875
R21  23037685.160   123279307.701 6      6757.691          37.625    23037682.760   123279307.711 6      6757.691          38.125    23037698.600    95883960.980 6      5255.982          41.687    23037698.120    95883966.989 6      5255.982          40.750
G20  24652229.620   129548330.084 6      4738.157          38.375    24652226.260   129548330.091 3      4738.157          21.562    24652236.640   100946765.190 3      3692.070          21.812
G11  23959224.900   125906575.553 7      5723.168          42.187    23959223.540   125906575.563 5      5723.168          30.687    23959231.000    98109042.925 5      4459.611          30.687    23959231.820    98109044.919 7      4459.611          47.500
G03  24160790.020   126965806.081 6       403.304          36.312    24160789.300   126965806.076 3       403.304          20.875    24160802.520    98934421.350 3       314.263          20.875    24160804.880    98934448.391 5       314.263          30.750
G06  20943336.700   110057977.969 8      4296.341          48.687    20943335.980   110057977.971 8      4296.341          49.062    20943343.220    85759484.863 8      3347.798          49.250    20943344.000    85759492.862 8      3347.798          51.062
R04  22973174.320   123020307.703 6      -808.760          39.187    22973178.280   123020307.791 6      -808.760          39.625    22973189.800    95682522.832 7      -629.035          42.125    22973189.780    95682524.825 7      -629.035          42.562
G17  21807301.760   114598132.105 8       209.306          48.312    21807301.400   114598132.104 7       209.306          46.812    21807310.520    89297279.005 7       163.095          46.562    21807311.120    89297287.008 7       163.095          47.000
R05  19971023.540   106756565.272 8       924.767          48.562    19971022.900   106756565.279 8       924.767          48.250    19971033.220    83032922.646 8       719.263          49.937    19971033.200    83032922.640 8       719.263          50.812
G07  23076697.800   121268866.309 7      4801.875          46.437    23076697.700   121268866.314 6      4801.875          41.625    23076711.700    94495285.057 6      3741.721          41.500    23076711.860    94495286.083 7      3741.721          43.687
G19  20877307.600   109710986.348 7      1164.184          47.250    20877305.860   109710986.350 6      1164.184          38.312    20877311.760    85489095.698 6       907.157          37.937
G04  22375820.100   117585708.205 7      -164.019          43.187    22375819.460   117585708.213 5      -164.019          33.437    22375827.540    91625241.016 5      -127.807          33.312    22375827.860    91625267.016 7      -127.807          47.687
> 2024 07 31 13 47 34.0000000  0 12
G09  20348817.600   106933755.814 8      1676.220          48.937    20348816.860   106933755.819 8      1676.220          51.187    20348822.960    83325027.988 8      1306.146          51.250    20348823.540    83325029.990 8      1306.146          50.375
R21  23036421.480   123272549.928 6      6757.787          37.562    23036420.460   123272549.932 6      6757.787          38.125    23036436.080    95878704.932 6      5256.056          41.937    23036435.000    95878710.940 6      5256.056          40.750
G20  24651327.860   129543591.907 6      4738.523          38.375    24651324.440   129543591.917 3      4738.523          21.562    24651335.020   100943073.108 3      3692.355          21.812
G11  23958135.620   125900852.460 7      5723.023          42.437    23958134.380   125900852.472 5      5723.023          30.687    23958141.980    98104583.373 5      4459.499          30.750    23958142.980    98104585.376 7      4459.499          47.375
G03  24160713.040   126965402.607 6       403.480          36.875    24160712.820   126965402.602 3       403.480          20.875    24160725.320    98934106.945 3       314.400          20.875    24160727.320    98934133.983 5       314.400          30.750
G06  20942519.300   110053681.833 8      4296.063          48.312    20942518.480   110053681.838 8      4296.063          49.250    20942525.580    85756137.228 8      3347.582          49.125    20942526.640    85756145.230 8      3347.582          50.875
R04  22973325.640   123021116.454 6      -808.676          39.187    22973329.540   123021116.520 6      -808.676          39.062    22973341.380    95683151.840 7      -628.970          42.187    22973340.740    95683153.841 7      -628.970          42.500
G17  21807262.260   114597922.991 7       209.013          47.562    21807261.640   114597922.985 7       209.013          46.812    21807270.840    89297116.045 7       162.867          47.000    21807271.320    89297124.046 7       162.867          47.375
R05  19970850.440   106755640.664 8       924.462          48.375    19970849.960   106755640.679 8       924.462          48.187    19970860.320    83032203.510 8       719.026          51.000    19970860.400    83032203.507 8       719.026          51.062
G07  23075784.140   121264064.468 7      4801.771          46.312    23075783.800   121264064.470 6      4801.771          41.500    23075797.840    94491543.369 7      3741.640          42.125    23075797.960    94491544.391 7      3741.640          43.937
G19  20877086.260   109709822.492 7      1163.670          46.875    20877084.620   109709822.497 6      1163.670          38.437    20877090.180    85488188.793 6       906.755          38.625
G04  22375851.400   117585872.233 7      -164.093          43.125    22375850.480   117585872.244 5      -164.093          33.750    22375858.860    91625368.826 5      -127.865          33.750    22375858.980    91625394.840 7      -127.865          47.687
> 2024 07 31 13 47 35.0000000  0 12
G09  20348498.480   106932079.862 8      1675.710          48.875    20348497.880   106932079.870 8      1675.710          51.125    20348504.020    83323722.051 8      1305.748          51.250    20348504.800    83323724.054 8      1305.748          50.125
R21  23035158.940   123265792.205 6      6757.703          37.562    23035157.660   123265792.214 6      6757.703          38.125    23035172.840    95873448.926 7      5255.992          42.437    23035172.280    95873454.928 6      5255.992          41.312
G20  24650425.800   129538853.720 6      4738.335          38.375    24650422.900   129538853.730 3      4738.335          21.562    24650433.540   100939381.017 3      3692.209          21.812
G11  23957046.660   125895129.293 7      5723.125          42.187    23957045.340   125895129.303 5      5723.125          30.687    23957052.880    98100123.764 5      4459.578          30.750    23957054.060    98100125.759 7      4459.578          47.375
G03  24160636.140   126964999.039 6       403.721          36.875    24160636.200   126964999.034 3       403.721          20.875    24160648.540    98933792.462 3       314.588          20.875    24160652.080    98933819.467 5       314.588          30.750
G06  20941701.660   110049385.957 7      4295.701          47.312    20941700.940   110049385.962 8      4295.701          49.250    20941708.220    85752789.793 8      3347.299          49.125    20941709.000    85752797.792 8      3347.299          50.875
R04  22973475.660   123021924.977 6      -808.365          39.000    22973481.120   123021925.038 6      -808.365          39.062    22973492.240    95683780.687 7      -628.728          42.312    22973491.820    95683782.682 7      -628.728          43.125
G17  21807222.400   114597714.153 7       208.692          47.062    21807221.740   114597714.150 7       208.692          46.875    21807231.120    89296953.306 7       162.617          46.750    21807231.760    89296961.307 7       162.617          47.625
R05  19970677.600   106754716.399 8       924.093          48.500    19970677.160   106754716.408 8       924.093          48.250    19970687.200    83031484.631 8       718.739          50.812    19970687.560    83031484.625 8       718.739          50.875
G07  23074870.200   121259262.763 7      4801.558          45.312    23074869.860   121259262.765 7      4801.558          42.187    23074884.180    94487801.783 6      3741.474          41.812    23074884.660    94487802.809 7      3741.474          43.875
G19  20876864.720   109708659.206 7      1163.016          46.187    20876863.300   109708659.208 6      1163.016          38.187    20876868.880    85487282.330 6       906.246          38.187
G04  22375882.820   117586036.495 7      -164.465          43.875    22375881.600   117586036.508 5      -164.465          33.500    22375890.020    91625496.820 5      -128.155          33.750    22375890.260    91625522.826 7      -128.155          47.750
> 2024 07 31 13 47 36.0000000  0 12
G09  20348179.880   106930404.221 8      1675.286          49.437    20348179.020   106930404.228 8      1675.286          51.187    20348185.220    83322416.355 8      1305.418          51.125    20348185.880    83322418.357 8      1305.418          50.500
R21  23033896.120   123259034.370 6      6757.769          37.562    23033894.960   123259034.390 6      6757.769          38.187    23033910.000    95868192.836 7      5256.043          42.312    23033909.480    95868198.838 6      5256.043          41.312
G20  24649524.160   129534115.281 6      4738.303          37.875    24649521.080   129534115.288 3      4738.303          21.562    24649531.800   100935688.728 3      3692.184          21.812
G11  23955957.460   125889405.913 7      5723.242          42.875    23955956.280   125889405.923 5      5723.242          31.187    23955963.920    98095663.990 5      4459.669          30.750    23955964.660    98095665.995 7      4459.669          47.625
G03  24160559.960   126964595.229 6       403.730          36.250    24160559.300   126964595.226 3       403.730          20.875    24160571.360    98933477.796 3       314.595          20.875    24160573.600    98933504.847 5       314.595          30.750
G06  20940884.140   110045090.184 8      4295.503          48.312    20940883.520   110045090.191 8      4295.503          49.062    20940890.660    85749442.439 8      3347.145          49.437    20940891.520    85749450.436 8      3347.145          51.000
R04  22973627.280   123022733.230 6      -808.418          39.000    22973631.420   123022733.304 6      -808.418          39.062    22973643.460    95684409.334 7      -628.770          42.500    22973643.000    95684411.330 7      -628.770          43.125
G17  21807182.600   114597505.470 7       208.397          47.812    21807181.960   114597505.475 7       208.397          46.687    21807191.400    89296790.688 7       162.387          47.187    21807191.900    89296798.681 7       162.387          47.437
R05  19970504.500   106753792.304 8       923.835          48.375    19970504.080   106753792.313 7       923.835          47.937    19970514.620    83030765.891 8       718.538          51.062    19970514.700    83030765.887 8       718.538          51.312
G07  23073956.480   121254461.027 7      4801.553          45.000    23073955.860   121254461.032 6      4801.553          41.625    23073970.280    94484060.179 6      3741.470          41.562    23073970.720    94484061.211 7      3741.470          43.687
G19  20876643.640   109707496.306 7      1162.579          46.000    20876641.900   109707496.305 6      1162.579          38.250    20876647.580    85486376.168 6       905.906          38.437
G04  22375914.220   117586200.789 7      -164.582          44.000    22375912.880   117586200.799 5      -164.582          33.500    22375921.160    91625624.832 5      -128.246          33.437    22375921.560    91625650.839 7      -128.246          47.625
> 2024 07 31 13 47 37.0000000  0 12
G09  20347861.160   106928729.262 8      1674.606          49.750    20347860.300   106928729.267 8      1674.606          51.125    20347866.520    83321111.190 8      1304.888          51.312    20347867.080    83321113.195 8      1304.888          50.375
R21  23032633.620   123252276.880 6      6757.434          37.562    23032632.720   123252276.898 6      6757.434          38.187    23032647.200    95862936.992 7      5255.782          42.312    23032646.880    95862942.994 6      5255.782          41.312
G20  24648622.720   129529376.952 6      4738.160          37.812    24648619.300   129529376.962 3      4738.160          21.562    24648629.940   100931996.526 3      3692.073          21.812
G11  23954868.120   125883682.716 7      5723.025          43.062    23954867.040   125883682.727 5      5723.025          31.187    23954874.760    98091204.355 5      4459.500          30.687    23954875.700    98091206.357 7      4459.500          47.312
G03  24160482.980   126964191.524 6       403.734          36.250    24160482.360   126964191.521 3       403.734          19.437    24160494.260    98933163.215 3       314.598          20.875    24160497.040    98933190.296 5       314.598          30.750
G06  20940067.000   110040794.891 8      4295.100          48.187    20940066.140   110040794.896 8      4295.100          49.062    20940073.220    85746095.453 8      3346.832          48.750    20940074.400    85746103.455 8      3346.832          51.000
R04  22973777.700   123023541.515 6      -808.309          39.000    22973782.580   123023541.584 6      -808.309          39.062    22973794.580    95685037.998 7      -628.685          42.500    22973793.800    95685039.993 7      -628.685          43.062
G17  21807143.120   114597297.303 8       207.890          48.625    21807142.320   114597297.302 7       207.890          46.812    21807151.800    89296628.465 7       161.993          47.062    21807152.480    89296636.456 7       161.993          47.187
R05  19970331.720   106752868.760 8       923.198          48.687    19970331.300   106752868.772 7       923.198          47.250    19970341.660    83030047.577 8       718.043          51.125    19970341.760    83030047.571 8       718.043          50.625
G07  23073043.100   121249659.656 7      4801.266          44.875    23073042.020   121249659.656 7      4801.266          42.000    23073056.660    94480318.855 7      3741.247          42.000    23073057.260    94480319.883 7      3741.247          44.000
G19  20876422.660   109706334.189 7      1161.754          46.375    20876420.840   109706334.194 6      1161.754          38.312    20876426.560    85485470.621 6       905.263          38.187
G04  22375945.420   117586365.479 7      -164.858          43.250    22375944.260   117586365.484 5      -164.858          33.437    22375952.580    91625753.160 5      -128.461          33.437    22375952.780    91625779.169 7      -128.461          47.687
> 2024 07 31 13 47 38.0000000  0 12
G09  20347542.420   106927054.490 8      1674.509          49.250    20347541.600   106927054.495 8      1674.509          50.375    20347547.780    83319806.173 8      1304.812          51.187    20347548.400    83319808.178 8      1304.812          50.250
R21  23031370.680   123245519.136 6      6757.580          38.562    23031369.780   123245519.154 6      6757.580          38.187    23031384.460    95857680.987 7      5255.896          42.062    23031383.940    95857686.992 6      5255.896          41.062
G20  24647721.120   129524638.271 6      4738.727          37.812    24647717.380   129524638.276 3      4738.727          22.125    24647728.280   100928304.049 3      3692.515          21.812
G11  23953778.900   125877959.195 7      5723.393          42.750    23953777.780   125877959.210 5      5723.393          31.187    23953785.580    98086744.474 5      4459.787          30.687    23953786.480    98086746.486 7      4459.787          47.437
G03  24160406.320   126963787.488 6       404.129          36.000    24160405.420   126963787.488 3       404.129          19.437    24160416.940    98932848.382 3       314.906          20.875    24160421.480    98932875.428 5       314.906          30.750
G06  20939249.600   110036499.609 8      4295.178          48.187    20939248.860   110036499.614 8      4295.178          49.187    20939255.980    85742748.478 8      3346.892          49.062    20939256.880    85742756.480 8      3346.892          51.062
R04  22973927.780   123024349.404 6      -807.902          39.000    22973933.220   123024349.502 6      -807.902          39.062    22973945.660    95685666.369 7      -628.368          42.625    22973944.900    95685668.364 7      -628.368          42.937
G17  21807103.440   114597089.161 7       207.954          47.625    21807102.740   114597089.161 7       207.954          47.000    21807112.200    89296466.264 7       162.042          47.000    21807112.460    89296474.260 7       162.042          47.312
R05  19970158.960   106751945.248 7       923.352          47.937    19970158.660   106751945.255 8       923.352          48.312    19970169.160    83029329.277 8       718.162          50.937    19970169.000    83029329.274 8       718.162          51.125
G07  23072129.440   121244858.154 7      4801.447          45.125    23072128.260   121244858.159 6      4801.447          41.500    23072143.060    94476577.433 6      3741.387          41.375    23072143.100    94476578.461 7      3741.387          43.812
G19  20876201.460   109705172.366 7      1161.590          46.375    20876199.920   109705172.371 6      1161.590          38.062    20876205.580    85484565.294 6       905.135          38.250
G04  22375976.640   117586530.138 7      -164.709          43.437    22375975.500   117586530.148 5      -164.709          33.437    22375983.920    91625881.464 5      -128.345          33.500    22375983.980    91625907.470 8      -128.345          48.125
> 2024 07 31 13 47 39.0000000  0 12
G09  20347223.880   106925380.347 8      1673.983          50.000    20347223.020   106925380.351 8      1673.983          51.687    20347229.220    83318501.645 8      1304.403          51.500    20347229.940    83318503.648 8      1304.403          50.312
R21  23030107.960   123238761.555 6      6757.774          38.562    23030106.880   123238761.581 6      6757.774          38.187    23030121.520    95852425.102 7      5256.046          42.062    23030121.000    95852431.114 6      5256.046          41.625
G20  24646819.360   129519899.695 6      4738.585          38.062    24646815.720   129519899.703 3      4738.585          22.125    24646826.380   100924611.657 3      3692.404          21.812
G11  23952689.360   125872235.786 7      5723.492          42.625    23952688.640   125872235.798 5      5723.492          30.812    23952696.420    98082284.676 5      4459.864          30.687    23952697.480    98082286.675 7      4459.864          47.875
G03  24160329.400   126963383.520 6       404.087          36.000    24160328.680   126963383.523 3       404.087          19.437    24160339.700    98932533.591 3       314.873          20.875    24160342.420    98932560.636 5       314.873          30.750
G06  20938432.220   110032204.763 8      4294.806          48.250    20938431.480   110032204.765 8      4294.806          49.562    20938438.700    85739401.843 8      3346.602          49.500    20938439.620    85739409.843 8      3346.602          51.312
R04  22974078.580   123025157.346 6      -807.851          39.000    22974084.280   123025157.441 6      -807.851          38.812    22974096.560    95686294.760 7      -628.328          42.437    22974095.780    95686296.761 7      -628.328          43.312
G17  21807063.660   114596881.477 8       207.587          48.312    21807063.240   114596881.479 7       207.587          47.250    21807072.680    89296304.424 7       161.756          47.250    21807072.900    89296312.424 7       161.756          47.312
R05  19969986.260   106751022.220 8       922.947          49.125    19969985.760   106751022.235 8       922.947          49.062    19969996.280    83028611.375 8       717.848          51.000    19969996.300    83028611.371 8       717.848          51.187
G07  23071216.040   121240056.962 7      4801.250          45.437    23071214.580   121240056.964 7      4801.250          42.000    23071229.340    94472836.248 6      3741.234          41.625    23071229.400    94472837.262 7      3741.234          43.625
G19  20875980.260   109704011.258 7      1161.009          46.750    20875978.960   109704011.260 6      1161.009          38.500    20875984.520    85483660.527 6       904.682          37.937
G04  22376008.340   117586695.183 7      -165.075          43.687    22376006.740   117586695.193 5      -165.075          33.812    22376015.400    91626010.064 5      -128.630          33.625    22376015.360    91626036.062 7      -128.630          47.437
> 2024 07 31 13 47 40.0000000  0 12
G09  20346905.340   106923706.773 8      1673.252          50.187    20346904.480   106923706.780 8      1673.252          52.000    20346910.720    83317197.558 8      1303.832          51.500    20346911.500    83317199.564 8      1303.832          50.875
R21  23028844.880   123232004.266 6      6757.304          38.562    23028844.380   123232004.281 6      6757.304          39.062    23028858.940    95847169.426 7      5255.681          42.687    23028858.480    95847175.436 7      5255.681          42.125
G20  24645917.660   129515161.093 6      4738.707          38.250    24645914.020   129515161.103 3      4738.707          22.125    24645924.740   100920919.242 3      3692.499          22.000
G11  23951600.320   125866512.435 7      5723.290          42.562    23951599.500   125866512.442 5      5723.290          30.812    23951607.280    98077824.924 5      4459.707          30.687    23951608.360    98077826.915 7      4459.707          47.687
G03  24160252.900   126962979.542 5       404.008          35.500    24160252.020   126962979.547 3       404.008          19.437    24160262.420    98932218.795 3       314.812          19.187    24160263.940    98932245.852 5       314.812          30.750
G06  20937615.000   110027910.275 8      4294.332          48.875    20937614.320   110027910.277 8      4294.332          49.312    20937621.540    85736055.486 8      3346.233          48.937    20937622.560    85736063.486 8      3346.233          51.187
R04  22974229.280   123025965.264 6      -808.031          38.812    22974234.680   123025965.362 6      -808.031          38.812    22974247.440    95686923.138 7      -628.469          42.312    22974246.400    95686925.144 7      -628.469          43.187
G17  21807024.320   114596674.190 8       207.129          48.562    21807023.820   114596674.186 7       207.129          46.250    21807033.260    89296142.887 7       161.399          46.750    21807033.600    89296150.891 7       161.399          46.875
R05  19969813.760   106750099.630 8       922.392          50.000    19969813.380   106750099.645 8       922.392          49.125    19969823.480    83027893.801 8       717.416          50.062    19969823.800    83027893.799 8       717.416          51.062
G07  23070302.180   121235256.016 7      4800.824          45.250    23070301.100   121235256.016 6      4800.824          41.437    23070315.740    94469095.254 6      3740.902          41.937    23070315.940    94469096.262 7      3740.902          43.375
G19  20875759.600   109702850.825 7      1160.133          47.375    20875758.040   109702850.830 6      1160.133          38.250    20875763.660    85482756.289 6       904.000          38.187
G04  22376039.800   117586860.511 7      -165.398          44.125    22376038.320   117586860.519 5      -165.398          33.625    22376046.860    91626138.883 5      -128.881          33.625    22376046.920    91626164.890 7      -128.881          47.437
> 2024 07 31 13 47 41.0000000  0 12
G09  20346586.960   106922033.588 8      1672.922          48.062    20346586.080   106922033.595 8      1672.922          50.750    20346592.460    83315893.777 8      1303.575          51.375    20346593.200    83315895.782 8      1303.575          50.875
R21  23027581.940   123225246.955 6      6757.437          38.562    23027582.020   123225246.973 6      6757.437          39.062    23027596.200    95841913.740 7      5255.784          42.125    23027595.820    95841919.748 6      5255.784          41.875
G20  24645015.820   129510422.407 6      4738.689          38.625    24645012.300   129510422.420 3      4738.689          22.125    24645023.140   100917226.763 3      3692.485          22.000
G11  23950511.500   125860788.949 7      5723.545          42.125    23950510.440   125860788.952 5      5723.545          30.812    23950518.320    98073365.062 5      4459.905          30.687    23950519.160    98073367.060 7      4459.905          47.687
G03  24160175.580   126962575.440 5       403.988          35.500    24160175.060   126962575.440 3       403.988          19.437    24160185.400    98931903.911 3       314.795          19.187    24160187.320    98931930.974 5       314.795          30.750
G06  20936797.820   110023615.983 8      4294.187          48.375    20936797.080   110023615.985 8      4294.187          49.187    20936804.320    85732709.283 8      3346.120          49.375    20936805.360    85732717.285 8      3346.120          51.250
R04  22974380.680   123026773.005 6      -807.906          38.812    22974386.080   123026773.095 6      -807.906          38.812    22974398.360    95687551.367 7      -628.372          42.625    22974397.500    95687553.371 7      -628.372          42.875
G17  21806985.080   114596467.125 8       206.953          48.687    21806984.480   114596467.128 7       206.953          47.125    21806993.800    89295981.530 7       161.262          47.000    21806994.100    89295989.534 7       161.262          47.437
R05  19969641.200   106749177.289 8       922.218          49.062    19969640.880   106749177.296 8       922.218          49.250    19969651.040    83027176.414 8       717.281          49.750    19969651.240    83027176.410 8       717.281          50.875
G07  23069388.420   121230455.126 7      4800.778          45.437    23069387.480   121230455.126 6      4800.778          41.750    23069402.380    94465354.313 6      3740.866          41.937    23069402.540    94465355.327 7      3740.866          44.125
G19  20875538.700   109701690.879 7      1159.684          46.937    20875537.380   109701690.876 6      1159.684          38.125    20875543.000    85481852.424 6       903.650          38.187
G04  22376071.080   117587025.984 7      -165.599          43.875    22376069.840   117587025.992 5      -165.599          33.625    22376078.300    91626267.822 5      -129.038          33.687    22376078.520    91626293.826 7      -129.038          47.875
> 2024 07 31 13 47 42.0000000  0 12
G09  20346268.760   106920360.794 8      1672.409          49.187    20346267.680   106920360.805 8      1672.409          50.500    20346274.080    83314590.300 8      1303.176          50.937    20346274.720    83314592.304 8      1303.176          50.875
R21  23026318.780   123218489.658 6      6757.178          39.500    23026318.660   123218489.681 6      6757.178          39.062    23026333.460    95836658.071 7      5255.583          42.625    23026333.240    95836664.075 6      5255.583          41.875
G20  24644113.940   129505683.508 6      4738.879          38.625    24644110.560   129505683.518 3      4738.879          22.125    24644121.380   100913534.114 3      3692.633          22.000
G11  23949422.440   125855065.338 7      5723.582          42.500    23949421.120   125855065.346 5      5723.582          30.625    23949429.000    98068905.109 5      4459.934          30.687    23949429.900    98068907.112 7      4459.934          47.937
G03  24160099.100   126962171.134 5       404.159          35.500    24160097.940   126962171.133 3       404.159          19.437    24160108.080    98931588.856 3       314.929          19.187    24160110.880    98931615.923 5       314.929          30.750
G06  20935980.720   110019321.881 8      4293.869          48.562    20935979.900   110019321.886 8      4293.869          48.875    20935987.080    85729363.231 8      3345.872          48.937    20935988.360    85729371.233 8      3345.872          51.375
R04  22974531.580   123027580.500 6      -807.693          38.812    22974537.120   123027580.574 6      -807.693          38.812    22974549.220    95688179.410 7      -628.205          42.875    22974548.200    95688181.410 7      -628.205          43.312
G17  21806945.660   114596260.298 8       206.541          48.375    21806945.200   114596260.297 7       206.541          46.687    21806954.440    89295820.352 7       160.941          46.687    21806954.960    89295828.353 7       160.941          47.437
R05  19969468.860   106748255.188 8       921.873          48.187    19969468.400   106748255.192 8       921.873          48.687    19969478.520    83026459.227 8       717.012          50.875    19969478.940    83026459.225 8       717.012          51.062
G07  23068475.000   121225654.294 7      4800.632          44.937    23068473.960   121225654.294 6      4800.632          41.812    23068488.960    94461613.415 6      3740.752          41.750    23068489.400    94461614.431 7      3740.752          44.500
G19  20875318.080   109700531.418 7      1159.057          46.500    20875316.680   109700531.418 6      1159.057          38.062    20875322.380    85480948.943 6       903.162          37.437
G04  22376102.540   117587191.592 7      -165.858          43.250    22376101.260   117587191.602 5      -165.858          33.750    22376109.960    91626396.862 5      -129.240          33.687    22376110.160    91626422.866 7      -129.240          47.937
> 2024 07 31 13 47 43.0000000  0 12
G09  20345950.580   106918688.600 8      1671.910          48.812    20345949.480   106918688.605 8      1671.910          50.125    20345955.940    83313287.287 8      1302.787          50.625    20345956.640    83313289.290 8      1302.787          50.687
R21  23025055.740   123211732.503 6      6757.068          39.500    23025056.140   123211732.523 6      6757.068          39.062    23025070.880    95831402.501 7      5255.497          42.625    23025070.400    95831408.509 7      5255.497          42.437
G20  24643212.440   129500944.709 6      4738.815          38.000    24643209.020   129500944.722 3      4738.815          22.125    24643219.580   100909841.550 3      3692.583          22.000
G11  23948333.140   125849341.822 6      5723.514          41.875    23948332.040   125849341.832 5      5723.514          30.625    23948339.820    98064445.228 5      4459.881          30.125    23948340.600    98064447.231 7      4459.881          47.437
G03  24160021.500   126961766.830 5       404.484          34.000    24160020.900   126961766.832 3       404.484          19.437    24160031.040    98931273.808 3       315.183          19.187    24160035.020    98931300.865 5       315.183          30.750
G06  20935163.560   110015028.175 8      4293.605          48.500    20935162.720   110015028.178 8      4293.605          48.562    20935170.100    85726017.487 8      3345.666          48.500    20935171.180    85726025.486 8      3345.666          51.375
R04  22974683.280   123028387.950 6      -807.272          38.812    22974687.860   123028388.021 6      -807.272          38.812    22974699.820    95688807.416 7      -627.878          42.875    22974699.120    95688809.416 7      -627.878          43.625
G17  21806906.440   114596053.875 8       206.234          49.562    21806906.000   114596053.879 7       206.234          46.375    21806915.320    89295659.490 7       160.702          46.687    21806915.800    89295667.492 7       160.702          47.687
R05  19969296.420   106747333.561 8       921.446          48.437    19969296.040   106747333.570 7       921.446          47.875    19969306.080    83025742.407 8       716.680          50.312    19969306.300    83025742.406 8       716.680          51.187
G07  23067561.620   121220853.740 7      4800.449          45.812    23067560.560   121220853.743 7      4800.449          42.000    23067575.680    94457872.732 6      3740.610          41.687    23067575.940    94457873.744 7      3740.610          44.500
G19  20875097.640   109699372.633 7      1158.481          47.187    20875096.100   109699372.630 6      1158.481          38.562    20875101.860    85480045.987 6       902.713          38.062
G04  22376134.340   117587357.514 7      -166.065          44.187    22376132.920   117587357.529 5      -166.065          33.750    22376141.320    91626526.150 5      -129.401          33.625    22376141.720    91626552.161 8      -129.401          48.125
> 2024 07 31 13 47 44.0000000  0 12
G09  20345632.260   106917016.726 8      1671.638          49.062    20345631.340   106917016.734 8      1671.638          50.562    20345637.760    83311984.530 8      1302.575          50.812    20345638.260    83311986.533 8      1302.575          50.562
R21  23023793.520   123204975.283 6      6757.148          39.500    23023793.420   123204975.306 6      6757.148          38.812    23023808.160    95826146.888 7      5255.560          42.187    23023807.520    95826152.900 7      5255.560          42.937
G20  24642309.940   129496205.697 6      4739.118          38.000    24642307.380   129496205.707 3      4739.118          22.125    24642317.840   100906148.811 3      3692.819          22.000
G11  23947244.000   125843618.137 7      5723.753          42.437    23947242.680   125843618.147 5      5723.753          30.625    23947250.740    98059985.214 5      4460.067          30.125    23947251.420    98059987.219 7      4460.067          47.687
G03  24159944.800   126961362.360 5       404.780          34.000    24159943.880   126961362.362 3       404.780          19.437    24159953.700    98930958.631 3       315.413          19.187    24159957.220    98930985.726 5       315.413          30.750
G06  20934346.540   110010734.635 8      4293.410          48.250    20934345.860   110010734.635 8      4293.410          49.437    20934353.060    85722671.867 8      3345.515          49.562    20934354.060    85722679.867 8      3345.515          51.125
R04  22974833.680   123029195.185 6      -807.055          38.812    22974838.140   123029195.259 6      -807.055          38.625    22974851.100    95689435.264 7      -627.709          42.875    22974849.760    95689437.269 7      -627.709          44.062
G17  21806867.100   114595847.633 7       206.094          47.937    21806866.860   114595847.635 7       206.094          46.750    21806876.020    89295498.776 7       160.593          46.625    21806876.620    89295506.772 7       160.593          47.500
R05  19969124.160   106746412.166 8       921.205          48.437    19969123.600   106746412.172 7       921.205          47.812    19969133.840    83025025.764 8       716.492          50.875    19969133.940    83025025.761 8       716.492          50.812
G07  23066647.960   121216053.213 7      4800.445          45.500    23066646.980   121216053.205 6      4800.445          41.937    23066662.240    94454132.059 7      3740.607          42.250    23066662.660    94454133.071 7      3740.607          45.000
G19  20874877.320   109698214.300 7      1158.027          46.937    20874875.500   109698214.299 6      1158.027          37.437    20874881.520    85479143.385 6       902.359          37.500
G04  22376165.920   117587523.552 7      -166.162          45.000    22376164.380   117587523.568 5      -166.162          33.812    22376172.960    91626655.524 5      -129.477          33.625    22376173.300    91626681.529 8      -129.477          48.000
> 2024 07 31 13 47 45.0000000  0 12
G09  20345314.320   106915345.389 8      1671.274          49.062    20345313.300   106915345.396 8      1671.274          50.562    20345319.740    83310682.187 8      1302.291          51.187    20345320.320    83310684.192 8      1302.291          50.312
R21  23022530.820   123198218.195 6      6757.279          39.500    23022530.300   123198218.204 6      6757.279          38.812    23022545.640    95820891.377 7      5255.661          43.187    23022545.060    95820897.385 7      5255.661          42.500
G20  24641408.260   129491466.627 6      4739.422          38.312    24641405.540   129491466.637 3      4739.422          22.125    24641416.020   100902456.031 3      3693.056          22.000
G11  23946154.720   125837894.449 6      5723.913          41.937    23946153.360   125837894.457 5      5723.913          30.500    23946161.480    98055525.202 5      4460.192          30.125    23946162.360    98055527.206 7      4460.192          47.187
G03  24159867.940   126960957.883 5       404.719          34.000    24159866.900   126960957.890 3       404.719          19.437    24159876.380    98930643.447 3       315.365          19.187    24159880.060    98930670.539 5       315.365          30.750
G06  20933529.680   110006441.390 8      4293.292          48.375    20933528.880   110006441.392 8      4293.292          49.187    20933536.060    85719326.485 8      3345.422          49.187    20933537.140    85719334.484 8      3345.422          51.000
R04  22974984.740   123030002.329 6      -806.851          38.375    22974988.380   123030002.409 6      -806.851          38.625    22975001.860    95690063.037 7      -627.551          42.687    22975000.600    95690065.044 7      -627.551          43.375
G17  21806828.000   114595641.748 8       205.923          48.312    21806827.560   114595641.753 7       205.923          46.812    21806836.700    89295338.337 7       160.460          46.687    21806837.740    89295346.334 7       160.460          47.125
R05  19968951.640   106745491.137 8       921.044          48.562    19968951.440   106745491.143 8       921.044          48.250    19968961.420    83024309.413 8       716.368          51.062    19968961.560    83024309.409 8       716.368          50.750
G07  23065734.640   121211252.859 7      4800.492          45.250    23065733.720   121211252.856 6      4800.492          41.937    23065748.780    94450391.528 6      3740.643          41.812    23065749.440    94450392.550 7      3740.643          45.062
G19  20874656.740   109697056.563 7      1157.679          47.187    20874655.280   109697056.568 6      1157.679          37.937    20874661.240    85478241.255 6       902.087          38.000
G04  22376197.400   117587689.835 7      -166.267          43.562    22376196.160   117587689.850 5      -166.267          34.000    22376204.660    91626785.095 5      -129.559          33.875    22376204.860    91626811.100 7      -129.559          47.875
> 2024 07 31 13 47 46.0000000  0 12
G09  20344996.220   106913674.469 8      1670.733          49.312    20344995.300   106913674.473 8      1670.733          50.500    20345001.780    83309380.172 8      1301.870          50.875    20345002.260    83309382.176 8      1301.870          50.562
R21  23021268.420   123191461.200 6      6756.735          39.500    23021268.400   123191461.220 6      6756.735          38.812    23021283.200    95815635.947 7      5255.238          42.812    23021282.560    95815641.955 7      5255.238          42.625
G20  24640506.540   129486727.513 6      4739.098          38.562    24640503.760   129486727.520 3      4739.098          22.500    24640514.140   100898763.215 3      3692.803          22.000
G11  23945065.580   125832170.704 7      5723.633          42.187    23945064.220   125832170.712 5      5723.633          30.500    23945072.340    98051065.147 5      4459.974          30.375    23945073.180    98051067.151 7      4459.974          47.625
G03  24159791.080   126960553.263 5       404.588          34.000    24159790.040   126960553.273 2       404.588          16.937    24159799.220    98930328.151 3       315.263          19.187    24159803.100    98930355.231 5       315.263          30.750
G06  20932712.640   110002148.386 8      4292.886          48.375    20932711.920   110002148.388 8      4292.886          49.250    20932719.080    85715981.289 8      3345.106          49.250    20932720.180    85715989.291 8      3345.106          50.687
R04  22975135.180   123030809.302 6      -806.932          38.375    22975139.680   123030809.387 6      -806.932          38.625    22975152.440    95690690.684 7      -627.614          42.812    22975151.380    95690692.692 7      -627.614          43.687
G17  21806788.860   114595436.127 8       205.527          48.437    21806788.520   114595436.129 7       205.527          47.125    21806797.620    89295178.102 7       160.151          47.375    21806798.100    89295186.101 7       160.151          47.562
R05  19968779.420   106744570.386 8       920.573          48.937    19968779.080   106744570.398 8       920.573          48.437    19968789.200    83023593.275 8       716.002          50.937    19968789.160    83023593.274 8       716.002          50.250
G07  23064820.940   121206452.618 7      4800.183          45.312    23064820.220   121206452.617 7      4800.183          42.187    23064835.320    94446651.090 7      3740.402          42.250    23064835.920    94446652.116 7      3740.402          45.000
G19  20874436.580   109695899.378 7      1156.961          46.625    20874435.220   109695899.380 6      1156.961          38.062    20874441.020    85477339.546 6       901.528          37.875
G04  22376229.080   117587856.280 7      -166.462          43.812    22376227.820   117587856.290 5      -166.462          34.000    22376236.400    91626914.791 5      -129.711          33.875    22376236.740    91626940.789 7      -129.711          47.625
> 2024 07 31 13 47 47.0000000  0 12
G09  20344678.400   106912004.093 8      1670.247          48.562    20344677.500   106912004.095 8      1670.247          50.812    20344684.020    83308078.580 8      1301.491          50.687    20344684.520    83308080.585 8      1301.491          50.687
R21  23020005.780   123184704.296 6      6756.998          38.562    23020005.580   123184704.311 6      6756.998          38.812    23020020.560    95810380.575 7      5255.443          42.750    23020019.720    95810386.585 7      5255.443          43.187
G20  24639604.420   129481988.324 6      4739.379          37.875    24639601.880   129481988.332 3      4739.379          22.500    24639612.300   100895070.343 3      3693.022          22.000
G11  23943976.520   125826446.943 7      5723.810          42.562    23943975.020   125826446.956 5      5723.810          30.500    23943983.160    98046605.075 5      4460.112          30.375    23943983.760    98046607.076 7      4460.112          47.187
G03  24159713.900   126960148.584 5       404.848          33.062    24159713.200   126960148.596 2       404.848          16.937    24159721.920    98930012.808 3       315.466          19.187    24159725.300    98930039.873 4       315.466          28.437
G06  20931895.800   109997855.715 8      4292.613          48.812    20931895.020   109997855.723 8      4292.613          49.125    20931902.280    85712636.353 8      3344.893          49.250    20931903.360    85712644.353 8      3344.893          50.937
R04  22975285.840   123031616.184 6      -806.618          38.375    22975291.080   123031616.266 6      -806.618          38.625    22975303.320    95691318.251 7      -627.370          43.187    22975302.020    95691320.256 7      -627.370          43.812
G17  21806749.740   114595230.889 8       205.190          48.000    21806749.560   114595230.888 7       205.190          46.500    21806758.600    89295018.164 7       159.888          46.625    21806759.080    89295026.161 7       159.888          47.000
R05  19968607.280   106743650.020 8       920.301          49.000    19968606.780   106743650.027 8       920.301          48.500    19968616.880    83022877.429 8       715.790          50.687    19968616.840    83022877.427 8       715.790          50.750
G07  23063907.760   121201652.600 7      4800.034          45.625    23063906.940   121201652.597 7      4800.034          42.625    23063921.800    94442910.821 7      3740.286          42.250    23063922.080    94442911.845 7      3740.286          45.062
G19  20874216.420   109694742.823 7      1156.372          47.187    20874215.140   109694742.823 6      1156.372          37.812    20874220.980    85476438.327 6       901.069          37.812
G04  22376260.880   117588023.030 7      -166.782          43.812    22376259.520   117588023.043 5      -166.782          33.437    22376268.200    91627044.722 5      -129.960          33.812    22376268.180    91627070.718 7      -129.960          47.750
> 2024 07 31 13 47 48.0000000  0 12
G09  20344360.600   106910334.189 8      1669.426          49.812    20344359.740   106910334.200 8      1669.426          50.500    20344366.200    83306777.359 8      1300.851          50.375    20344366.780    83306779.359 8      1300.851          50.812
R21  23018742.660   123177947.459 6      6756.787          38.562    23018743.760   123177947.471 6      6756.787          38.812    23018757.940    95805125.253 7      5255.279          42.875    23018757.020    95805131.263 7      5255.279          43.000
G20  24638702.600   129477249.121 6      4739.006          37.750    24638700.200   129477249.123 3      4739.006          22.500    24638710.580   100891377.459 3      3692.732          22.437
G11  23942887.060   125820723.180 7      5723.549          42.125    23942885.880   125820723.190 5      5723.549          30.562    23942894.060    98042145.002 5      4459.908          30.375    23942894.500    98042146.994 7      4459.908          47.500
G03  24159635.540   126959743.883 5       404.296          33.062    24159636.200   126959743.893 2       404.296          16.937    24159644.660    98929697.453 3       315.036          19.187    24159647.880    98929724.538 4       315.036          28.437
G06  20931078.800   109993563.350 7      4291.938          47.687    20931078.240   109993563.352 8      4291.938          48.937    20931085.440    85709291.649 8      3344.367          48.750    20931086.620    85709299.650 8      3344.367          50.875
R04  22975436.620   123032422.927 6      -806.859          38.375    22975441.620   123032423.014 6      -806.859          38.625    22975454.180    95691945.713 7      -627.557          42.875    22975452.720    95691947.725 7      -627.557          43.437
G17  21806710.800   114595025.961 8       204.487          48.312    21806710.560   114595025.963 7       204.487          46.437    21806719.580    89294858.471 7       159.341          46.375    21806719.980    89294866.473 7       159.341          47.562
R05  19968435.180   106742729.991 8       919.551          48.437    19968434.660   106742729.997 8       919.551          48.375    19968444.920    83022161.848 8       715.206          50.875    19968444.800    83022161.847 8       715.206          50.500
G07  23062994.300   121196852.735 7      4799.542          46.375    23062993.620   121196852.734 7      4799.542          42.687    23063008.360    94439170.670 7      3739.903          42.500    23063008.660    94439171.684 7      3739.903          44.625
G19  20873996.500   109693586.852 7      1155.413          47.125    20873995.160   109693586.852 6      1155.413          38.062    20874001.000    85475537.562 6       900.322          38.125
G04  22376292.640   117588189.983 7      -167.287          44.375    22376291.340   117588190.001 5      -167.287          33.812    22376300.000    91627174.811 5      -130.353          33.687    22376300.200    91627200.811 7      -130.353          47.687
> 2024 07 31 13 47 49.0000000  0 12
G09  20344042.720   106908664.909 8      1669.129          49.750    20344042.000   106908664.914 8      1669.129          50.937    20344048.600    83305476.615 8      1300.620          51.187    20344049.140    83305478.617 8      1300.620          50.687
R21  23017480.720   123171190.868 6      6756.737          38.562    23017481.820   123171190.886 6      6756.737          38.625    23017495.140    95799870.123 7      5255.240          42.750    23017494.820    95799876.133 7      5255.240          43.437
G20  24637801.040   129472509.967 6      4739.163          38.562    24637798.360   129472509.974 3      4739.163          22.500    24637808.820   100887684.614 3      3692.855          22.437
G11  23941798.040   125814999.482 6      5723.894          41.937    23941796.760   125814999.492 5      5723.894          30.562    23941804.760    98037684.975 5      4460.177          30.375    23941805.520    98037686.970 7      4460.177          47.625
G03  24159559.480   126959339.187 5       404.687          33.062    24159559.220   126959339.195 2       404.687          16.937    24159567.520    98929382.098 3       315.341          19.187    24159571.800    98929409.167 4       315.341          28.437
G06  20930262.040   109989271.386 7      4291.801          47.125    20930261.480   109989271.391 8      4291.801          49.500    20930268.700    85705947.264 8      3344.261          49.562    20930269.780    85705955.263 8      3344.261          51.125
R04  22975587.740   123033229.694 6      -806.714          38.375    22975592.180   123033229.786 6      -806.714          38.375    22975604.700    95692573.196 7      -627.444          42.562    22975603.760    95692575.202 7      -627.444          43.750
G17  21806671.760   114594821.464 8       204.404          48.687    21806671.720   114594821.466 7       204.404          46.687    21806680.740    89294699.113 7       159.276          47.125    21806681.040    89294707.116 7       159.276          47.625
R05  19968263.200   106741810.400 8       919.498          48.562    19968262.660   106741810.404 8       919.498          48.187    19968272.780    83021446.607 8       715.165          50.812    19968272.780    83021446.605 8       715.165          50.312
G07  23062081.380   121192053.151 7      4799.639          46.000    23062080.280   121192053.155 7      4799.639          42.125    23062094.860    94435430.739 7      3739.978          42.500    23062094.960    94435431.750 7      3739.978          44.375
G19  20873776.820   109692431.569 7      1155.083          46.750    20873775.320   109692431.569 6      1155.083          37.687    20873781.100    85474637.333 6       900.065          37.375
G04  22376324.460   117588357.313 7      -167.451          44.250    22376323.120   117588357.326 5      -167.451          33.812    22376331.880    91627305.194 5      -130.482          33.687    22376331.600    91627331.193 8      -130.482          48.062
> 2024 07 31 13 47 50.0000000  0 12
G09  20343725.120   106906996.172 8      1668.402          49.250    20343724.460   106906996.177 8      1668.402          51.125    20343731.060    83304176.300 8      1300.053          51.375    20343731.480    83304178.301 8      1300.053          50.062
R21  23016218.240   123164434.443 6      6756.368          39.375    23016218.960   123164434.455 6      6756.368          38.625    23016232.480    95794615.126 7      5254.953          43.250    23016231.840    95794621.142 7      5254.953          43.500
G20  24636899.120   129467770.797 6      4739.068          39.250    24636896.640   129467770.805 3      4739.068          22.500    24636907.040   100883991.761 3      3692.780          22.437
G11  23940709.040   125809275.878 7      5723.500          42.375    23940707.560   125809275.886 5      5723.500          30.562    23940715.620    98033225.025 5      4459.870          30.312    23940716.460    98033227.019 7      4459.870          47.375
G03  24159482.460   126958934.531 5       404.293          33.062    24159482.420   126958934.541 2       404.293          16.937    24159490.200    98929066.775 2       315.034          15.875    24159495.740    98929093.809 4       315.034          28.437
G06  20929445.520   109984979.772 7      4291.422          47.250    20929444.760   109984979.772 8      4291.422          49.437    20929452.020    85702603.145 8      3343.965          49.187    20929453.000    85702611.144 8      3343.965          51.125
R04  22975737.680   123034036.463 6      -806.818          38.375    22975743.140   123034036.542 6      -806.818          38.375    22975755.480    95693200.667 7      -627.525          42.562    22975753.840    95693202.670 7      -627.525          43.375
G17  21806632.960   114594617.369 8       203.808          48.625    21806632.820   114594617.373 7       203.808          46.437    21806641.920    89294540.067 7       158.812          46.875    21806642.280    89294548.071 7       158.812          47.750
R05  19968091.380   106740891.236 8       918.882          48.437    19968090.620   106740891.238 7       918.882          47.812    19968100.820    83020731.696 8       714.686          50.875    19968100.820    83020731.698 8       714.686          50.687
G07  23061167.660   121187253.795 7      4799.218          45.437    23061166.860   121187253.803 7      4799.218          42.687    23061181.440    94431690.995 7      3739.650          42.437    23061181.720    94431692.011 7      3739.650          44.312
G19  20873557.040   109691276.949 7      1154.269          46.937    20873555.340   109691276.951 6      1154.269          38.000    20873561.300    85473737.623 6       899.431          37.875
G04  22376356.240   117588524.915 7      -167.824          44.125    22376355.100   117588524.925 5      -167.824          33.687    22376363.600    91627435.787 5      -130.772          33.625    22376363.960    91627461.781 7      -130.772          47.750
> 2024 07 31 13 47 51.0000000  0 12
G09  20343407.800   106905327.893 8      1667.927          49.625    20343407.000   106905327.901 8      1667.927          50.937    20343413.560    83302876.343 8      1299.684          50.812    20343414.140    83302878.343 8      1299.684          51.000
R21  23014955.840   123157678.120 6      6756.216          39.375    23014957.280   123157678.121 6      6756.216          38.625    23014969.660    95789360.203 7      5254.834          43.187    23014969.680    95789366.216 7      5254.834          43.500
G20  24635997.240   129463031.562 6      4739.240          38.937    24635994.900   129463031.572 3      4739.240          22.500    24636005.180   100880298.854 3      3692.914          22.437
G11  23939619.680   125803552.183 7      5723.617          42.000    23939618.320   125803552.191 5      5723.617          30.875    23939626.320    98028764.998 5      4459.961          30.312    23939626.940    98028766.991 7      4459.961          47.375
G03  24159405.580   126958529.728 5       404.762          32.500    24159405.480   126958529.735 2       404.762          16.937    24159413.120    98928751.338 2       315.399          15.875    24159419.860    98928778.384 4       315.399          28.437
G06  20928628.660   109980688.426 8      4291.148          48.312    20928628.140   109980688.428 8      4291.148          49.375    20928635.440    85699259.239 8      3343.752          49.062    20928636.580    85699267.238 8      3343.752          51.187
R04  22975888.480   123034843.077 6      -806.542          38.125    22975893.380   123034843.159 6      -806.542          38.375    22975906.060    95693828.021 7      -627.311          42.562    22975904.740    95693830.035 7      -627.311          42.937
G17  21806594.200   114594413.544 8       203.656          48.625    21806594.220   114594413.544 7       203.656          47.000    21806603.080    89294381.231 7       158.693          46.812    21806603.740    89294389.232 7       158.693          47.437
R05  19967919.220   106739972.386 8       918.581          48.937    19967918.780   106739972.395 8       918.581          48.000    19967928.980    83020017.041 8       714.452          51.000    19967929.100    83020017.039 8       714.452          50.750
G07  23060254.520   121182454.605 7      4799.004          45.312    23060253.720   121182454.605 7      4799.004          42.375    23060268.160    94427951.365 7      3739.484          42.375    23060268.220    94427952.368 7      3739.484          44.437
G19  20873337.180   109690122.875 7      1153.748          46.750    20873335.680   109690122.874 6      1153.748          38.125    20873341.600    85472838.336 6       899.024          38.125
G04  22376388.120   117588692.729 7      -168.027          44.125    22376387.000   117588692.739 5      -168.027          33.687    22376395.540    91627566.545 5      -130.930          33.625    22376395.800    91627592.539 7      -130.930          47.750
> 2024 07 31 13 47 52.0000000  0 12
G09  20343090.340   106903660.158 8      1667.418          49.437    20343089.700   106903660.163 8      1667.418          50.312    20343096.240    83301576.811 8      1299.287          50.687    20343096.600    83301578.811 8      1299.287          49.437
R21  23013693.200   123150921.911 6      6756.044          39.375    23013694.220   123150921.950 6      6756.044          39.187    23013707.180    95784105.404 7      5254.701          42.875    23013707.260    95784111.420 7      5254.701          43.375
G20  24635095.560   129458292.342 6      4739.174          39.500    24635093.040   129458292.352 3      4739.174          22.500    24635103.300   100876605.960 3      3692.863          22.437
G11  23938530.720   125797828.517 6      5723.504          41.812    23938529.120   125797828.527 5      5723.504          30.875    23938537.200    98024305.005 5      4459.873          30.312    23938537.680    98024307.016 7      4459.873          47.500
G03  24159329.000   126958124.956 5       404.570          32.500    24159328.340   126958124.966 2       404.570          16.937    24159335.840    98928435.923 2       315.249          15.875    24159342.000    98928462.976 4       315.249          28.437
G06  20927812.160   109976397.430 7      4290.795          47.437    20927811.640   109976397.432 8      4290.795          49.062    20927818.880    85695915.607 8      3343.476          49.062    20927820.160    85695923.609 8      3343.476          49.437
R04  22976039.120   123035649.659 6      -806.483          38.125    22976044.640   123035649.717 6      -806.483          38.375    22976056.560    95694455.350 7      -627.264          42.375    22976055.180    95694457.353 7      -627.264          42.937
G17  21806555.440   114594210.132 7       203.138          47.812    21806555.520   114594210.132 7       203.138          46.937    21806564.280    89294222.718 7       158.289          46.500    21806565.000    89294230.715 7       158.289          46.812
R05  19967747.400   106739053.987 8       918.073          48.437    19967747.180   106739053.996 8       918.073          48.437    19967757.080    83019302.730 8       714.057          50.750    19967756.920    83019302.731 8       714.057          49.500
G07  23059341.320   121177655.615 7      4798.767          45.500    23059340.460   121177655.622 7      4798.767          42.437    23059355.180    94424211.902 7      3739.299          42.187    23059355.060    94424212.905 7      3739.299          44.312
G19  20873117.760   109688969.452 7      1153.019          46.000    20873116.100   109688969.454 6      1153.019          37.750    20873121.860    85471939.563 6       898.456          37.562
G04  22376419.880   117588860.825 7      -168.317          43.437    22376418.800   117588860.832 5      -168.317          33.375    22376427.500    91627697.522 5      -131.156          33.375    22376427.800    91627723.525 7      -131.156          46.875
> 2024 07 31 13 47 53.0000000  0 12
G09  20342773.100   106901992.948 8      1667.046          49.125    20342772.380   106901992.958 8      1667.046          50.812    20342779.000    83300277.686 8      1298.997          50.812    20342779.380    83300279.688 8      1298.997          50.375
R21  23012431.380   123144165.874 6      6756.023          39.500    23012432.080   123144165.908 6      6756.023          39.187    23012444.540    95778850.706 7      5254.684          42.875    23012444.600    95778856.725 7      5254.684          43.062
G20  24634193.620   129453553.096 6      4739.412          39.812    24634191.280   129453553.106 3      4739.412          22.500    24634201.460   100872913.041 3      3693.049          22.437
G11  23937441.320   125792104.866 6      5723.874          41.750    23937440.140   125792104.874 5      5723.874          30.875    23937447.880    98019845.019 5      4460.161          30.375    23937448.620    98019847.018 7      4460.161          47.562
G03  24159252.500   126957720.166 5       404.633          32.500    24159251.100   126957720.176 2       404.633          16.937    24159258.780    98928120.498 2       315.298          15.875    24159263.000    98928147.530 4       315.298          28.437
G06  20926995.820   109972106.775 7      4290.634          47.687    20926995.160   109972106.772 8      4290.634          48.750    20927002.320    85692572.237 8      3343.351          48.812    20927003.520    85692580.235 8      3343.351          50.687
R04  22976190.220   123036456.110 6      -806.228          38.125    22976194.600   123036456.170 6      -806.228          38.375    22976207.460    95695082.587 7      -627.066          42.500    22976205.940    95695084.593 7      -627.066          42.875
G17  21806516.960   114594007.065 7       202.923          47.625    21806516.800   114594007.064 7       202.923          46.125    21806525.740    89294064.473 7       158.122          46.125    21806526.520    89294072.468 7       158.122          47.562
R05  19967575.760   106738135.978 8       917.906          48.437    19967575.340   106738135.982 7       917.906          47.875    19967585.400    83018588.719 8       713.927          48.875    19967585.380    83018588.718 8       713.927          50.000
G07  23058427.820   121172856.827 7      4798.828          45.125    23058427.180   121172856.829 7      4798.828          42.000    23058442.280    94420472.587 6      3739.347          41.937    23058441.780    94420473.584 7      3739.347          44.750
G19  20872898.340   109687816.639 7      1152.700          45.875    20872896.700   109687816.644 6      1152.700          37.875    20872902.680    85471041.263 6       898.208          38.125
G04  22376452.040   117589029.188 7      -168.314          44.312    22376450.920   117589029.196 5      -168.314          33.375    22376459.460    91627828.710 5      -131.154          33.375    22376459.840    91627854.713 7      -131.154          47.875
> 2024 07 31 13 47 54.0000000  0 12
G09  20342455.920   106900326.164 8      1666.444          49.375    20342455.260   106900326.171 8      1666.444          51.125    20342461.820    83298978.891 8      1298.528          51.250    20342462.240    83298980.896 8      1298.528          50.875
R21  23011168.360   123137409.755 6      6756.152          39.500    23011170.240   123137409.802 6      6756.152          39.187    23011182.040    95773595.959 7      5254.785          42.812    23011182.160    95773601.973 7      5254.785          43.312
G20  24633291.660   129448813.719 6      4739.318          39.437    24633289.440   129448813.729 3      4739.318          22.937    24633299.700   100869220.026 3      3692.975          22.437
G11  23936351.960   125786381.160 7      5723.674          42.000    23936350.940   125786381.162 5      5723.674          30.437    23936358.680    98015384.989 5      4460.006          30.375    23936359.320    98015386.981 7      4460.006          47.687
G03  24159174.900   126957315.210 5       404.683          32.500    24159174.000   126957315.223 2       404.683          16.937    24159181.820    98927804.938 2       315.337          15.875    24159185.480    98927831.954 4       315.337          28.437
G06  20926179.580   109967816.332 8      4290.187          48.000    20926178.740   109967816.335 8      4290.187          49.500    20926185.920    85689229.038 8      3343.003          48.875    20926187.080    85689237.035 8      3343.003          51.375
R04  22976340.600   123037262.379 6      -806.333          38.125    22976345.140   123037262.450 6      -806.333          38.375    22976358.480    95695709.679 7      -627.148          42.750    22976356.640    95695711.685 7      -627.148          43.125
G17  21806478.360   114593804.231 8       202.627          48.687    21806478.240   114593804.230 7       202.627          46.750    21806487.120    89293906.410 7       157.891          46.375    21806487.520    89293914.408 7       157.891          46.875
R05  19967404.260   106737218.253 8       917.464          48.812    19967403.720   106737218.257 8       917.464          48.437    19967413.700    83017874.931 8       713.583          50.500    19967413.720    83017874.929 8       713.583          50.687
G07  23057514.720   121168058.136 7      4798.546          45.750    23057513.940   121168058.143 7      4798.546          42.687    23057529.540    94416733.357 7      3739.127          42.625    23057529.080    94416734.361 7      3739.127          45.125
G19  20872679.300   109686664.349 7      1152.016          45.312    20872677.340   109686664.351 6      1152.016          37.375    20872683.360    85470143.367 6       897.675          38.187
G04  22376484.380   117589197.704 7      -168.657          43.375    22376482.920   117589197.711 5      -168.657          33.375    22376491.580    91627960.017 5      -131.421          33.125    22376491.900    91627986.022 7      -131.421          47.687
> 2024 07 31 13 47 55.0000000  0 12
G09  20342138.820   106898659.907 8      1666.197          49.125    20342138.200   106898659.915 8      1666.197          50.937    20342144.760    83297680.507 8      1298.335          51.187    20342145.240    83297682.508 8      1298.335          50.562
R21  23009904.900   123130653.849 6      6755.973          39.500    23009907.960   123130653.901 6      6755.973          39.187    23009919.260    95768341.367 7      5254.646          42.812    23009919.620    95768347.380 7      5254.646          43.500
G20  24632389.940   129444074.334 6      4739.520          39.937    24632387.580   129444074.349 3      4739.520          22.937    24632397.660   100865527.001 3      3693.132          22.437
G11  23935263.360   125780657.444 7      5723.787          42.312    23935261.860   125780657.446 5      5723.787          30.437    23935269.440    98010924.954 5      4460.094          30.375    23935270.180    98010926.959 7      4460.094          47.562
G03  24159097.760   126956910.202 5       405.212          31.875    24159096.880   126956910.212 2       405.212          16.937    24159104.640    98927489.337 2       315.749          15.875    24159105.720    98927516.387 4       315.749          28.437
G06  20925363.140   109963526.240 7      4290.067          47.062    20925362.400   109963526.237 8      4290.067          49.125    20925369.540    85685886.106 8      3342.910          48.812    20925370.560    85685894.104 8      3342.910          51.312
R04  22976492.120   123038068.621 6      -806.159          38.125    22976496.100   123038068.673 6      -806.159          37.812    22976508.880    95696336.737 7      -627.013          42.750    22976506.900    95696338.739 7      -627.013          43.687
G17  21806439.940   114593601.788 8       202.404          48.187    21806439.780   114593601.785 7       202.404          46.500    21806448.580    89293748.655 7       157.717          46.312    21806449.040    89293756.650 7       157.717          46.875
R05  19967232.440   106736300.899 8       917.374          48.562    19967232.300   106736300.903 8       917.374          48.500    19967242.060    83017161.432 8       713.513          50.500    19967242.280    83017161.428 8       713.513          50.375
G07  23056601.640   121163259.660 7      4798.585          46.187    23056600.720   121163259.665 7      4798.585          42.750    23056616.640    94412994.292 7      3739.157          42.500    23056616.300    94412995.291 7      3739.157          45.625
G19  20872460.220   109685512.708 7      1151.501          46.375    20872458.240   109685512.708 6      1151.501          38.187    20872464.140    85469245.978 6       897.273          38.062
G04  22376516.460   117589366.525 7      -168.852          44.125    22376514.880   117589366.532 5      -168.852          33.312    22376523.540    91628091.568 5      -131.573          33.125    22376524.060    91628117.568 7      -131.573          47.875
> 2024 07 31 13 47 56.0000000  0 12
G09  20341821.940   106896994.098 8      1665.502          49.312    20341821.260   106896994.105 8      1665.502          51.000    20341827.800    83296382.474 8      1297.794          51.437    20341828.460    83296384.475 8      1297.794          50.625
R21  23008642.020   123123897.996 6      6755.628          39.500    23008644.980   123123898.043 6      6755.628          39.500    23008656.660    95763086.820 7      5254.377          42.937    23008657.140    95763092.830 7      5254.377          43.312
G20  24631488.180   129439334.867 6      4739.213          39.562    24631485.580   129439334.888 3      4739.213          22.937    24631495.780   100861833.914 3      3692.893          22.687
G11  23934173.960   125774933.670 6      5723.683          41.375    23934172.660   125774933.675 5      5723.683          30.437    23934180.440    98006464.870 5      4460.013          30.312    23934180.840    98006466.867 7      4460.013          47.625
G03  24159020.940   126956505.107 5       405.053          31.875    24159019.400   126956505.120 2       405.053          15.125    24159027.600    98927173.668 2       315.626          15.875    24159030.020    98927200.727 4       315.626          28.437
G06  20924546.900   109959236.373 7      4289.612          47.187    20924546.120   109959236.378 8      4289.612          49.687    20924553.240    85682543.355 8      3342.555          49.562    20924554.180    85682551.352 8      3342.555          50.812
R04  22976643.600   123038874.667 6      -806.187          38.125    22976645.360   123038874.728 6      -806.187          37.812    22976659.040    95696963.665 7      -627.034          42.312    22976657.600    95696965.666 7      -627.034          43.250
G17  21806401.620   114593399.611 8       201.921          48.187    21806401.100   114593399.611 7       201.921          46.250    21806410.140    89293591.102 7       157.341          46.687    21806410.420    89293599.104 7       157.341          46.937
R05  19967061.280   106735383.858 7       916.824          47.562    19967060.900   106735383.857 8       916.824          48.000    19967070.540    83016448.171 8       713.085          51.062    19967070.420    83016448.168 8       713.085          50.750
G07  23055688.240   121158461.316 7      4798.176          45.250    23055687.500   121158461.324 7      4798.176          42.812    23055704.000    94409255.328 7      3738.838          42.312    23055703.520    94409256.334 7      3738.838          46.000
G19  20872240.900   109684361.595 7      1150.768          46.375    20872239.160   109684361.597 6      1150.768          37.562    20872245.240    85468348.999 6       896.702          38.062
G04  22376548.740   117589535.511 7      -169.215          43.000    22376546.960   117589535.518 5      -169.215          33.312    22376555.720    91628223.243 5      -131.856          33.312    22376556.480    91628249.244 8      -131.856          48.000
> 2024 07 31 13 47 57.0000000  0 12
G09  20341505.160   106895328.874 8      1664.725          49.125    20341504.360   106895328.882 8      1664.725          51.062    20341510.940    83295084.895 8      1297.189          50.750    20341511.540    83295086.898 8      1297.189          50.687
R21  23007380.340   123117142.345 6      6755.506          39.687    23007383.320   123117142.378 6      6755.506          39.500    23007394.200    95757832.401 7      5254.283          43.187    23007394.480    95757838.413 7      5254.283          43.437
G20  24630585.900   129434595.438 6      4739.080          39.000    24630583.860   129434595.461 3      4739.080          22.937    24630593.860   100858140.852 3      3692.790          22.687
G11  23933084.740   125769209.946 6      5723.524          41.562    23933083.340   125769209.950 5      5723.524          30.562    23933091.240    98002004.830 5      4459.889          30.312    23933091.520    98002006.828 7      4459.889          47.687
G03  24158944.200   126956100.081 5       404.708          31.875    24158942.060   126956100.093 2       404.708          15.125    24158950.540    98926858.057 2       315.357          15.875    24158953.680    98926885.101 4       315.357          28.437
G06  20923730.560   109954946.916 7      4289.039          47.750    20923729.920   109954946.918 8      4289.039          49.562    20923736.940    85679200.917 8      3342.109          49.500    20923737.900    85679208.914 8      3342.109          51.187
R04  22976793.540   123039680.714 6      -806.127          38.437    22976795.780   123039680.753 6      -806.127          37.812    22976809.520    95697590.563 7      -626.987          42.625    22976808.000    95697592.562 7      -626.987          43.125
G17  21806363.160   114593197.852 7       201.342          47.562    21806362.560   114593197.854 7       201.342          46.687    21806371.680    89293433.877 7       156.890          47.062    21806372.080    89293441.883 7       156.890          47.250
R05  19966889.740   106734467.261 8       916.178          48.375    19966889.500   106734467.262 8       916.178          48.562    19966899.120    83015735.262 8       712.583          50.750    19966899.060    83015735.258 8       712.583          50.687
G07  23054775.540   121153663.235 7      4797.736          45.250    23054774.480   121153663.243 7      4797.736          42.812    23054791.040    94405516.570 7      3738.496          42.812    23054790.780    94405517.582 7      3738.496          46.062
G19  20872022.120   109683211.171 7      1149.940          46.562    20872020.140   109683211.173 6      1149.940          38.062    20872026.300    85467452.556 6       896.057          37.750
G04  22376580.720   117589704.828 7      -169.718          43.125    22376579.140   117589704.841 5      -169.718          33.125    22376587.840    91628355.175 5      -132.247          33.312    22376588.520    91628381.177 7      -132.247          47.625
> 2024 07 31 13 47 58.0000000  0 12
G09  20341188.300   106893664.171 8      1664.615          49.312    20341187.620   106893664.179 8      1664.615          50.562    20341194.140    83293787.726 8      1297.103          50.687    20341194.580    83293789.727 8      1297.103          50.687
R21  23006118.000   123110386.843 6      6755.573          39.687    23006119.740   123110386.900 6      6755.573          39.500    23006131.520    95752578.141 7      5254.334          42.625    23006132.000    95752584.159 7      5254.334          43.625
G20  24629683.620   129429855.976 6      4739.538          39.375    24629682.060   129429855.997 3      4739.538          22.937    24629692.060   100854447.767 3      3693.147          22.687
G11  23931995.100   125763486.253 6      5723.931          41.250    23931994.160   125763486.260 5      5723.931          30.562    23932001.780    97997544.814 5      4460.206          30.312    23932002.280    97997546.814 7      4460.206          47.687
G03  24158866.180   126955694.936 5       405.551          31.875    24158865.100   126955694.949 2       405.551          15.125    24158873.500    98926542.351 2       316.014          15.875    24158877.560    98926569.367 4       316.014          28.437
G06  20922914.460   109950657.780 7      4289.135          47.875    20922913.700   109950657.779 8      4289.135          49.125    20922920.800    85675858.735 8      3342.183          49.125    20922921.800    85675866.730 8      3342.183          50.875
R04  22976944.320   123040486.674 6      -805.791          38.437    22976946.240   123040486.724 6      -805.791          37.812    22976959.860    95698217.429 7      -626.726          42.500    22976958.740    95698219.433 7      -626.726          43.000
G17  21806324.820   114592996.448 7       201.431          47.875    21806324.360   114592996.453 7       201.431          46.687    21806333.420    89293276.930 7       156.959          46.500    21806333.880    89293284.936 7       156.959          47.375
R05  19966718.320   106733551.056 8       916.182          49.312    19966718.120   106733551.060 8       916.182          48.500    19966727.720    83015022.661 8       712.586          50.437    19966727.560    83015022.657 8       712.586          50.875
G07  23053862.520   121148865.354 7      4797.950          45.750    23053861.440   121148865.361 7      4797.950          42.937    23053878.080    94401777.969 7      3738.662          42.750    23053877.800    94401778.981 7      3738.662          46.187
G19  20871803.180   109682061.385 7      1149.583          46.000    20871801.220   109682061.384 6      1149.583          37.812    20871807.400    85466556.615 6       895.779          37.500
G04  22376613.020   117589874.413 7      -169.587          43.625    22376611.400   117589874.429 5      -169.587          33.125    22376620.180    91628487.315 5      -132.145          33.250    22376620.820    91628513.320 7      -132.145          47.750
> 2024 07 31 13 47 59.0000000  0 12
G09  20340871.780   106891999.770 8      1664.111          49.250    20340870.840   106891999.778 8      1664.111          50.687    20340877.340    83292490.786 8      1296.710          50.687    20340878.140    83292492.791 8      1296.710          50.687
R21  23004854.860   123103631.207 6      6755.585          39.687    23004857.000   123103631.251 6      6755.585          39.312    23004869.140    95747323.757 7      5254.344          42.875    23004870.140    95747329.772 7      5254.344          43.375
G20  24628781.720   129425116.260 6      4739.676          39.562    24628780.240   129425116.281 3      4739.676          22.937    24628789.920   100850754.486 3      3693.254          22.687
G11  23930905.900   125757762.376 6      5723.772          41.562    23930905.140   125757762.381 5      5723.772          30.562    23930912.660    97993084.652 5      4460.082          30.437    23930912.960    97993086.644 7      4460.082          47.062
G03  24158789.080   126955289.691 5       404.924          31.875    24158788.160   126955289.706 2       404.924          15.125    24158796.340    98926226.572 2       315.525          15.875    24158799.540    98926253.623 4       315.525          28.437
G06  20922098.360   109946368.756 7      4288.833          47.937    20922097.600   109946368.756 8      4288.833          49.625    20922104.600    85672516.641 8      3341.948          49.625    20922105.580    85672524.634 8      3341.948          50.687
R04  22977094.540   123041292.250 6      -805.284          38.437    22977095.380   123041292.316 6      -805.284          37.812    22977109.960    95698843.996 7      -626.332          42.375    22977109.020    95698846.000 7      -626.332          42.750
G17  21806286.440   114592795.193 7       201.068          47.062    21806285.760   114592795.190 7       201.068          46.250    21806295.120    89293120.092 7       156.677          46.250    21806295.540    89293128.093 7       156.677          47.250
R05  19966546.580   106732635.020 8       915.822          48.187    19966546.820   106732635.024 8       915.822          48.812    19966556.440    83014310.188 8       712.306          50.875    19966556.500    83014310.187 8       712.306          50.500
G07  23052949.460   121144067.456 7      4797.743          45.125    23052948.460   121144067.469 7      4797.743          42.875    23052964.920    94398039.358 7      3738.501          42.750    23052964.900    94398040.374 7      3738.501          46.125
G19  20871584.480   109680911.964 7      1149.140          45.375    20871582.480   109680911.966 6      1149.140          37.625    20871588.440    85465660.956 6       895.433          37.250
G04  22376645.320   117590044.043 7      -169.847          43.375    22376643.720   117590044.056 5      -169.847          33.375    22376652.600    91628619.490 5      -132.348          33.250    22376652.960    91628645.495 8      -132.348          48.187
> 2024 07 31 13 48  0.0000000  0 12
G09  20340555.100   106890335.913 8      1663.463          48.875    20340554.300   106890335.920 8      1663.463          51.000    20340560.760    83291194.274 8      1296.205          51.250    20340561.320    83291196.276 8      1296.205          50.625
R21  23003592.640   123096875.708 6      6755.271          39.687    23003594.200   123096875.752 6      6755.271          39.312    23003606.580    95742069.486 7      5254.099          42.812    23003607.540    95742075.497 7      5254.099          43.500
G20  24627880.400   129420376.518 6      4740.001          39.812    24627878.320   129420376.538 3      4740.001          22.937    24627888.040   100847061.180 3      3693.508          22.687
G11  23929816.820   125752038.513 6      5723.542          41.062    23929815.580   125752038.520 5      5723.542          30.562    23929823.540    97988624.501 5      4459.903          30.437    23929824.080    97988626.501 7      4459.903          47.750
G03  24158712.040   126954884.260 5       405.549          30.937    24158710.960   126954884.278 2       405.549          15.125    24158719.380    98925910.644 2       316.013          14.562    24158722.520    98925937.666 4       316.013          28.437
G06  20921282.360   109942080.075 7      4288.467          47.812    20921281.360   109942080.077 8      4288.467          49.812    20921288.340    85669174.811 8      3341.663          49.750    20921289.620    85669182.806 8      3341.663          50.875
R04  22977244.360   123042097.881 6      -805.570          38.437    22977245.400   123042097.942 6      -805.570          37.812    22977260.640    95699470.598 7      -626.554          42.375    22977259.480    95699472.600 7      -626.554          42.750
G17  21806248.020   114592594.314 7       200.577          46.875    21806247.480   114592594.314 7       200.577          46.125    21806256.780    89292963.555 7       156.294          46.125    21806257.540    89292971.554 7       156.294          47.187
R05  19966375.440   106731719.385 8       915.374          49.125    19966375.320   106731719.397 8       915.374          48.125    19966385.100    83013598.034 8       711.958          50.625    19966384.980    83013598.030 8       711.958          50.687
G07  23052036.560   121139269.782 7      4797.467          45.187    23052035.540   121139269.792 7      4797.467          43.000    23052051.920    94394300.915 7      3738.286          42.500    23052051.700    94394301.931 7      3738.286          45.750
G19  20871366.080   109679763.197 7      1148.464          45.687    20871363.760   109679763.197 6      1148.464          37.750    20871369.940    85464765.807 6       894.907          37.875
G04  22376677.760   117590213.946 7      -170.082          44.187    22376676.120   117590213.959 5      -170.082          33.375    22376684.880    91628751.880 5      -132.532          33.437    22376685.340    91628777.881 8      -132.532          48.562
> 2024 07 31 13 48  1.0000000  0 12
G09  20340238.560   106888672.621 8      1662.957          49.562    20340237.840   106888672.628 8      1662.957          50.937    20340244.240    83289898.202 8      1295.811          51.375    20340244.620    83289900.205 8      1295.811          50.812
R21  23002330.220   123090120.377 6      6755.362          39.687    23002331.900   123090120.421 6      6755.362          39.312    23002344.200    95736815.336 7      5254.171          42.687    23002344.920    95736821.346 7      5254.171          43.562
G20  24626978.640   129415636.886 6      4739.502          39.062    24626976.540   129415636.906 3      4739.502          22.375    24626986.120   100843367.962 3      3693.118          22.687
G11  23928727.880   125746314.684 6      5723.787          40.562    23928726.320   125746314.691 5      5723.787          30.562    23928734.320    97984164.376 5      4460.094          30.437    23928734.920    97984166.370 7      4460.094          47.812
G03  24158635.120   126954479.007 5       404.963          30.937    24158634.140   126954479.023 2       404.963          15.125    24158642.100    98925594.858 2       315.556          14.562    24158645.300    98925621.862 4       315.556          28.437
G06  20920466.400   109937791.787 7      4288.009          47.750    20920465.380   109937791.789 8      4288.009          49.125    20920472.420    85665833.286 8      3341.305          49.375    20920473.500    85665841.279 8      3341.305          50.750
R04  22977394.860   123042903.456 6      -805.447          38.437    22977395.760   123042903.528 6      -805.447          37.812    22977411.240    95700097.151 7      -626.459          42.437    22977409.720    95700099.152 7      -626.459          42.562
G17  21806209.940   114592393.832 7       200.248          47.625    21806209.220   114592393.829 7       200.248          46.375    21806218.640    89292807.320 7       156.038          46.625    21806219.380    89292815.322 7       156.038          47.500
R05  19966204.340   106730804.196 8       914.958          48.437    19966204.200   106730804.205 8       914.958          48.312    19966213.900    83012886.220 8       711.634          50.875    19966213.960    83012886.216 8       711.634          50.375
G07  23051123.320   121134472.350 7      4797.320          45.875    23051122.780   121134472.360 7      4797.320          42.937    23051138.880    94390562.662 7      3738.171          42.750    23051138.700    94390563.680 7      3738.171          46.000
G19  20871147.680   109678615.101 7      1147.799          45.812    20871145.220   109678615.101 6      1147.799          37.375    20871151.500    85463871.176 6       894.388          37.500
G04  22376709.900   117590384.194 7      -170.452          42.750    22376708.540   117590384.204 5      -170.452          33.250    22376717.240    91628884.536 5      -132.820          33.437    22376717.820    91628910.535 7      -132.820          47.500
> 2024 07 31 13 48  2.0000000  0 12
G09  20339922.180   106887009.914 8      1662.370          49.375    20339921.440   106887009.922 8      1662.370          50.812    20339927.840    83288602.585 8      1295.353          51.250    20339928.160    83288604.589 8      1295.353          50.437
R21  23001067.900   123083365.279 6      6754.917          39.687    23001069.040   123083365.340 6      6754.917          39.312    23001081.960    95731561.382 7      5253.824          42.750    23001082.380    95731567.388 7      5253.824          43.312
G20  24626075.960   129410897.256 6      4739.568          39.250    24626074.500   129410897.277 3      4739.568          22.375    24626084.160   100839674.746 3      3693.170          22.687
G11  23927638.360   125740590.933 6      5723.833          41.000    23927637.200   125740590.935 5      5723.833          30.562    23927644.920    97979704.313 5      4460.130          30.500    23927645.420    97979706.307 7      4460.130          47.562
G03  24158557.440   126954073.652 5       405.296          30.937    24158556.980   126954073.670 2       405.296          15.125    24158565.040    98925278.993 2       315.815          14.562    24158568.600    98925306.038 4       315.815          28.437
G06  20919650.260   109933503.867 7      4287.741          47.500    20919649.460   109933503.867 8      4287.741          49.250    20919656.480    85662492.044 8      3341.097          49.062    20919657.500    85662500.043 8      3341.097          50.562
R04  22977545.680   123043709.048 6      -805.389          38.437    22977546.040   123043709.098 6      -805.389          36.250    22977561.780    95700723.705 7      -626.413          42.250    22977560.440    95700725.702 7      -626.413          42.687
G17  21806171.760   114592193.767 8       199.828          48.375    21806171.120   114592193.767 7       199.828          46.000    21806180.700    89292651.416 7       155.710          46.125    21806181.540    89292659.415 7       155.710          47.187
R05  19966033.100   106729889.438 8       914.547          48.875    19966033.080   106729889.447 7       914.547          47.562    19966042.940    83012174.737 8       711.315          50.875    19966042.800    83012174.731 8       711.315          50.625
G07  23050210.840   121129675.175 7      4797.090          45.875    23050210.060   121129675.183 7      4797.090          42.937    23050225.800    94386824.608 7      3737.992          42.687    23050225.760    94386825.626 7      3737.992          46.062
G19  20870929.300   109677467.677 7      1147.056          45.937    20870926.920   109677467.682 6      1147.056          37.937    20870933.080    85462977.078 6       893.809          37.937
G04  22376742.480   117590554.749 7      -170.748          43.000    22376740.860   117590554.753 5      -170.748          33.250    22376749.720    91629017.428 5      -133.050          33.250    22376750.200    91629043.422 7      -133.050          47.812
> 2024 07 31 13 48  3.0000000  0 12
G09  20339605.920   106885347.820 8      1661.928          49.562    20339605.140   106885347.825 8      1661.928          51.062    20339611.500    83287307.444 8      1295.009          51.250    20339612.120    83287309.445 8      1295.009          50.125
R21  22999805.680   123076610.428 6      6754.822          39.062    22999806.920   123076610.472 6      6754.822          39.312    22999819.800    95726307.604 7      5253.750          42.750    22999820.260    95726313.610 7      5253.750          43.125
G20  24625173.840   129406157.724 6      4739.481          39.125    24625172.600   129406157.742 3      4739.481          22.375    24625182.340   100835981.604 3      3693.102          22.687
G11  23926549.220   125734867.332 6      5723.659          40.687    23926547.940   125734867.340 5      5723.659          30.625    23926555.720    97975244.366 5      4459.994          30.500    23926556.160    97975246.365 7      4459.994          47.500
G03  24158479.940   126953668.368 5       405.640          30.937    24158479.960   126953668.386 2       405.640          15.125    24158487.940    98924963.183 2       316.083          14.562    24158489.520    98924990.213 4       316.083          27.000
G06  20918834.280   109929216.384 7      4287.383          46.437    20918833.680   109929216.383 8      4287.383          49.125    20918840.600    85659151.152 8      3340.818          49.312    20918841.460    85659159.147 8      3340.818          50.687
R04  22977696.080   123044514.661 6      -805.550          38.437    22977696.780   123044514.727 6      -805.550          36.250    22977712.060    95701350.299 7      -626.539          42.500    22977710.700    95701352.290 7      -626.539          42.875
G17  21806133.880   114591994.155 7       199.528          47.562    21806133.180   114591994.160 7       199.528          46.375    21806142.720    89292495.867 7       155.476          45.875    21806143.320    89292503.869 7       155.476          47.312
R05  19965862.000   106728975.150 8       914.146          49.625    19965862.100   106728975.159 8       914.146          48.750    19965871.980    83011463.624 8       711.003          50.750    19965872.020    83011463.620 8       711.003          50.875
G07  23049297.880   121124878.316 7      4796.870          46.250    23049297.380   121124878.321 7      4796.870          42.312    23049312.780    94383086.802 7      3737.821          42.687    23049312.780    94383087.821 7      3737.821          45.500
G19  20870710.940   109676320.971 7      1146.447          46.187    20870708.940   109676320.975 6      1146.447          37.312    20870714.780    85462083.538 6       893.335          37.250
G04  22376775.160   117590725.661 7      -171.013          43.500    22376773.180   117590725.668 5      -171.013          33.312    22376782.440    91629150.600 5      -133.257          33.250    22376782.960    91629176.609 7      -133.257          47.437
> 2024 07 31 13 48  4.0000000  0 12
G09  20339289.860   106883686.107 8      1661.400          49.937    20339288.960   106883686.114 8      1661.400          49.500    20339295.360    83286012.605 8      1294.597          49.312    20339295.840    83286014.607 8      1294.597          48.937
R21  22998543.800   123069855.538 6      6754.716          39.062    22998543.820   123069855.572 6      6754.716          38.500    22998557.360    95721053.805 7      5253.668          42.625    22998558.040    95721059.809 7      5253.668          42.937
G20  24624271.920   129401417.976 6      4739.673          39.125    24624270.600   129401417.997 3      4739.673          22.375    24624280.100   100832288.299 3      3693.251          22.250
G11  23925460.180   125729143.569 6      5723.680          40.937    23925458.660   125729143.574 5      5723.680          30.625    23925466.560    97970784.291 5      4460.010          30.500    23925467.320    97970786.285 7      4460.010          47.312
G03  24158401.760   126953262.982 5       405.213          30.937    24158402.940   126953263.002 2       405.213          15.125    24158410.880    98924647.296 2       315.750          14.562    24158414.500    98924674.301 4       315.750          27.000
G06  20918018.320   109924929.087 8      4287.021          48.625    20918017.800   109924929.086 8      4287.021          48.187    20918024.840    85655810.401 8      3340.536          48.000    20918025.780    85655818.394 8      3340.536          49.812
R04  22977845.040   123045320.014 6      -805.274          38.437    22977846.900   123045320.063 6      -805.274          36.250    22977862.540    95701976.664 7      -626.324          42.500    22977861.040    95701978.659 7      -626.324          42.625
G17  21806095.960   114591794.763 7       199.199          47.125    21806095.220   114591794.763 7       199.199          46.000    21806104.820    89292340.485 7       155.220          45.812    21806105.580    89292348.482 7       155.220          46.625
R05  19965691.120   106728061.089 8       913.838          49.062    19965691.220   106728061.093 8       913.838          48.875    19965700.900    83010752.684 8       710.763          50.500    19965700.960    83010752.680 8       710.763          50.812
G07  23048384.740   121120081.509 7      4796.618          46.500    23048384.660   121120081.514 7      4796.618          42.000    23048399.720    94379349.036 6      3737.624          41.625    23048400.040    94379350.050 7      3737.624          45.125
G19  20870492.880   109675174.729 7      1145.867          46.625    20870490.680   109675174.739 6      1145.867          37.625    20870496.780    85461190.359 6       892.884          37.937
G04  22376807.680   117590896.688 7      -171.194          44.000    22376805.620   117590896.696 5      -171.194          32.812    22376814.820    91629283.867 5      -133.398          32.812    22376815.460    91629309.875 8      -133.398          48.125
> 2024 07 31 13 48  5.0000000  0 12
G09  20338973.640   106882024.720 8      1661.370          49.125    20338972.860   106882024.730 8      1661.370          50.562    20338979.160    83284718.017 8      1294.574          50.625    20338979.700    83284720.018 8      1294.574          50.562
R21  22997281.460   123063100.593 6      6755.181          39.062    22997281.020   123063100.619 6      6755.181          38.500    22997295.360    95715799.959 7      5254.030          42.812    22997295.500    95715805.961 7      5254.030          43.187
G20  24623370.100   129396678.052 6      4740.127          38.625    24623368.520   129396678.073 3      4740.127          22.375    24623378.200   100828594.856 3      3693.606          22.250
G11  23924370.920   125723419.613 6      5724.213          41.000    23924369.340   125723419.621 5      5724.213          30.625    23924377.420    97966324.072 5      4460.426          30.312    23924378.320    97966326.072 7      4460.426          47.750
G03  24158325.080   126952857.319 5       405.895          30.937    24158325.780   126952857.340 2       405.895          14.750    24158333.520    98924331.189 2       316.282          14.562    24158337.900    98924358.182 4       316.282          27.000
G06  20917202.600   109920641.910 8      4287.273          49.000    20917201.980   109920641.907 8      4287.273          49.000    20917208.940    85652469.740 8      3340.732          49.000    20917209.900    85652477.735 8      3340.732          50.750
R04  22977995.880   123046125.118 5      -804.879          35.937    22977996.540   123046125.159 6      -804.879          36.250    22978013.100    95702602.848 7      -626.017          42.500    22978011.280    95702604.839 7      -626.017          42.562
G17  21806058.040   114591595.531 7       199.343          47.625    21806057.280   114591595.528 7       199.343          45.625    21806066.960    89292185.227 7       155.332          45.375    21806067.640    89292193.227 7       155.332          46.875
R05  19965519.840   106727147.233 8       913.928          49.312    19965520.060   106727147.235 8       913.928          48.187    19965530.020    83010041.903 8       710.833          49.000    19965530.100    83010041.900 8       710.833          48.625
G07  23047471.900   121115284.705 7      4796.955          46.062    23047471.800   121115284.704 7      4796.955          42.000    23047486.920    94375611.267 6      3737.887          41.812    23047486.880    94375612.274 7      3737.887          45.250
G19  20870274.860   109674028.924 7      1145.699          46.000    20870272.700   109674028.929 6      1145.699          37.750    20870278.820    85460297.515 6       892.753          37.125
G04  22376840.500   117591067.790 7      -170.982          43.750    22376838.040   117591067.803 5      -170.982          32.812    22376847.360    91629417.194 5      -133.233          32.812    22376847.540    91629443.197 7      -133.233          47.375
> 2024 07 31 13 48  6.0000000  0 12
G09  20338657.480   106880363.976 8      1660.615          49.500    20338656.840   106880363.983 8      1660.615          51.000    20338663.120    83283423.929 8      1293.986          51.000    20338663.660    83283425.934 8      1293.986          49.812
R21  22996019.340   123056345.907 6      6754.845          39.062    22996019.100   123056345.946 6      6754.845          38.500    22996033.140    95710546.325 7      5253.768          42.687    22996033.260    95710552.329 7      5253.768          43.437
G20  24622468.480   129391938.207 6      4739.973          38.187    24622466.440   129391938.231 3      4739.973          22.375    24622476.320   100824901.474 3      3693.486          22.250
G11  23923281.520   125717695.826 6      5723.781          40.437    23923280.140   125717695.839 5      5723.781          30.625    23923288.300    97961863.980 5      4460.089          30.312    23923289.280    97961865.980 7      4460.089          47.750
G03  24158248.180   126952451.825 5       405.341          30.000    24158248.680   126952451.851 2       405.341          14.750    24158256.260    98924015.213 2       315.850          14.562    24158260.740    98924042.172 4       315.850          27.000
G06  20916386.840   109916355.197 8      4286.638          48.000    20916386.300   109916355.194 8      4286.638          49.562    20916393.280    85649129.441 8      3340.237          49.562    20916394.180    85649137.437 8      3340.237          50.937
R04  22978146.960   123046930.219 5      -804.886          35.937    22978145.640   123046930.258 6      -804.886          36.250    22978163.160    95703229.027 7      -626.023          42.562    22978161.580    95703231.016 7      -626.023          42.562
G17  21806020.340   114591396.775 7       198.660          47.687    21806019.360   114591396.772 7       198.660          45.750    21806029.100    89292030.342 7       154.800          45.875    21806029.660    89292038.344 7       154.800          46.687
R05  19965349.060   106726233.884 8       913.285          48.937    19965349.100   106726233.882 8       913.285          48.687    19965359.200    83009331.520 8       710.332          50.812    19965359.360    83009331.516 8       710.332          51.187
G07  23046559.480   121110488.203 7      4796.593          45.250    23046558.900   121110488.208 7      4796.593          42.187    23046574.080    94371873.741 6      3737.605          41.812    23046574.000    94371874.752 7      3737.605          45.187
G19  20870057.060   109672883.841 7      1144.881          46.375    20870054.840   109672883.843 6      1144.881          37.250    20870060.840    85459405.237 6       892.115          37.562
G04  22376872.960   117591239.277 7      -171.429          43.187    22376870.940   117591239.290 5      -171.429          32.875    22376879.920    91629550.817 5      -133.581          32.750    22376880.120    91629576.815 7      -133.581          47.875
> 2024 07 31 13 48  7.0000000  0 12
G09  20338341.620   106878703.753 8      1660.091          49.125    20338340.840   106878703.760 8      1660.091          50.625    20338347.160    83282130.247 8      1293.578          50.812    20338347.640    83282132.251 8      1293.578          50.312
R21  22994757.160   123049591.352 6      6754.764          39.625    22994756.900   123049591.394 6      6754.764          38.500    22994770.460    95705292.786 7      5253.706          43.062    22994771.100    95705298.788 7      5253.706          43.062
G20  24621566.340   129387198.342 6      4740.118          38.937    24621564.260   129387198.365 3      4740.118          22.375    24621574.480   100821208.068 3      3693.598          22.250
G11  23922192.180   125711972.020 6      5723.878          40.437    23922190.740   125711972.025 5      5723.878          30.375    23922198.980    97957403.870 5      4460.165          30.312    23922200.020    97957405.866 7      4460.165          47.875
G03  24158172.140   126952046.149 5       406.156          30.000    24158171.520   126952046.167 2       406.156          14.750    24158179.020    98923699.094 2       316.485          14.562    24158180.740    98923726.034 4       316.485          27.000
G06  20915571.180   109912068.788 8      4286.390          48.750    20915570.620   109912068.790 8      4286.390          49.250    20915577.620    85645789.389 8      3340.044          49.750    20915578.440    85645797.384 8      3340.044          51.312
R04  22978297.400   123047735.248 5      -804.499          35.937    22978297.840   123047735.279 6      -804.499          36.250    22978313.540    95703855.136 6      -625.721          41.937    22978311.760    95703857.125 7      -625.721          42.812
G17  21805982.520   114591198.356 7       198.417          47.125    21805981.720   114591198.355 7       198.417          46.500    21805991.520    89291875.719 7       154.611          46.500    21805991.760    89291883.721 7       154.611          47.000
R05  19965178.480   106725320.905 8       913.015          48.375    19965178.080   106725320.909 8       913.015          48.125    19965188.560    83008621.428 8       710.123          50.687    19965188.480    83008621.424 8       710.123          51.375
G07  23045646.780   121105691.911 7      4796.416          44.562    23045645.940   121105691.921 6      4796.416          41.875    23045661.200    94368136.383 6      3737.467          41.937    23045661.220    94368137.390 7      3737.467          45.125
G19  20869839.380   109671739.368 7      1144.347          45.812    20869837.120   109671739.373 6      1144.347          37.937    20869842.960    85458513.435 6       891.699          37.750
G04  22376905.680   117591411.017 7      -171.647          42.500    22376903.680   117591411.030 5      -171.647          32.875    22376912.420    91629684.638 5      -133.751          32.750    22376913.200    91629710.638 7      -133.751          47.750
> 2024 07 31 13 48  8.0000000  0 12
G09  20338025.660   106877043.879 8      1659.772          49.875    20338025.000   106877043.884 8      1659.772          50.812    20338031.320    83280836.836 8      1293.329          51.500    20338031.740    83280838.835 8      1293.329          50.312
R21  22993494.720   123042836.734 6      6754.720          39.625    22993494.180   123042836.770 6      6754.720          38.375    22993508.460    95700039.198 7      5253.671          42.937    22993508.840    95700045.198 7      5253.671          43.625
G20  24620664.540   129382458.302 6      4740.244          38.062    24620662.200   129382458.325 3      4740.244          22.375    24620672.300   100817514.533 3      3693.697          22.250
G11  23921103.080   125706248.073 6      5723.923          40.812    23921101.400   125706248.080 5      5723.923          30.375    23921109.660    97952943.653 5      4460.200          30.125    23921110.760    97952945.651 7      4460.200          47.875
G03  24158094.100   126951640.303 5       406.592          30.000    24158094.400   126951640.323 2       406.592          14.750    24158101.440    98923382.844 2       316.825          14.562    24158103.840    98923409.782 4       316.825          27.000
G06  20914755.640   109907782.558 7      4286.258          47.687    20914754.980   109907782.555 8      4286.258          49.500    20914761.900    85642449.463 8      3339.941          49.687    20914762.760    85642457.458 8      3339.941          51.062
R04  22978448.460   123048540.108 5      -804.732          35.937    22978447.360   123048540.129 6      -804.732          36.250    22978463.740    95704481.116 6      -625.903          41.937    22978461.660    95704483.109 7      -625.903          42.750
G17  21805944.920   114591000.123 7       198.267          46.937    21805944.080   114591000.128 7       198.267          46.437    21805953.840    89291721.244 7       154.493          46.187    21805954.120    89291729.249 7       154.493          47.312
R05  19965007.480   106724408.165 7       912.650          47.875    19965007.540   106724408.171 8       912.650          48.125    19965017.680    83007911.516 8       709.839          50.687    19965017.580    83007911.513 8       709.839          51.000
G07  23044733.920   121100895.671 7      4796.325          45.625    23044733.120   121100895.676 6      4796.325          41.375    23044748.620    94364399.051 6      3737.396          41.875    23044748.800    94364400.055 7      3737.396          45.312
G19  20869621.520   109670595.357 7      1143.852          45.937    20869619.400   109670595.359 6      1143.852          37.437    20869625.500    85457621.986 6       891.313          37.375
G04  22376938.320   117591582.878 7      -171.863          43.062    22376936.220   117591582.885 5      -171.863          33.000    22376944.980    91629818.545 5      -133.919          33.062    22376945.400    91629844.544 7      -133.919          47.562
> 2024 07 31 13 48  9.0000000  0 12
G09  20337709.720   106875384.446 8      1659.108          49.625    20337709.260   106875384.451 8      1659.108          51.062    20337715.500    83279543.772 8      1292.812          51.312    20337715.940    83279545.775 8      1292.812          50.687
R21  22992232.980   123036082.160 6      6754.365          39.625    22992232.480   123036082.202 6      6754.365          38.375    22992246.600    95694785.649 7      5253.395          43.125    22992246.460    95694791.649 7      5253.395          43.687
G20  24619762.300   129377718.168 6      4740.026          38.062    24619760.120   129377718.186 3      4740.026          21.937    24619770.080   100813820.926 3      3693.527          22.250
G11  23920013.840   125700524.015 6      5723.982          40.625    23920012.200   125700524.020 5      5723.982          30.375    23920020.380    97948483.350 5      4460.246          30.125    23920021.480    97948485.355 7      4460.246          47.687
G03  24158016.560   126951234.485 5       405.722          30.000    24158016.940   126951234.503 2       405.722          14.750    24158024.020    98923066.614 2       316.147          14.562    24158028.020    98923093.542 4       316.147          27.000
G06  20913940.040   109903496.556 7      4285.810          47.875    20913939.480   109903496.555 8      4285.810          49.250    20913946.360    85639109.725 8      3339.592          49.125    20913947.240    85639117.721 8      3339.592          50.812
R04  22978599.200   123049344.731 5      -804.914          35.937    22978597.660   123049344.772 6      -804.914          36.250    22978614.020    95705106.947 7      -626.045          42.062    22978612.320    95705108.938 7      -626.045          42.812
G17  21805907.160   114590802.176 7       197.711          47.375    21805906.440   114590802.184 7       197.711          46.437    21805916.020    89291566.991 7       154.060          46.062    21805916.520    89291574.999 7       154.060          47.625
R05  19964836.740   106723495.694 8       912.244          48.812    19964836.760   106723495.695 8       912.244          48.562    19964847.080    83007201.813 8       709.523          50.937    19964847.120    83007201.807 8       709.523          51.312
G07  23043821.020   121096099.535 7      4796.017          44.625    23043820.340   121096099.537 6      4796.017          41.375    23043835.860    94360661.808 6      3737.156          41.750    23043836.100    94360662.807 7      3737.156          45.187
G19  20869403.920   109669451.867 7      1143.133          46.687    20869401.860   109669451.872 6      1143.133          37.437    20869407.900    85456730.955 6       890.753          37.562
G04  22376971.340   117591754.894 7      -172.246          43.437    22376969.060   117591754.904 5      -172.246          33.000    22376977.660    91629952.579 5      -134.217          33.062    22376977.980    91629978.590 7      -134.217          47.437
> 2024 07 31 13 48 10.0000000  0 11
G09  20337394.160   106873725.584 8      1658.670          49.812    20337393.640   106873725.589 8      1658.670          50.812    20337399.880    83278251.152 8      1292.470          50.937    20337400.360    83278253.153 8      1292.470          50.312
R21  22990970.600   123029327.774 6      6754.357          39.437    22990970.580   123029327.810 6      6754.357          38.375    22990984.140    95689532.240 7      5253.389          43.437    22990984.280    95689538.236 7      5253.389          43.875
G20  24618860.440   129372978.053 6      4740.131          38.125    24618858.020   129372978.068 3      4740.131          21.937    24618867.980   100810127.334 3      3693.609          22.250
G11  23918924.640   125694800.044 6      5724.095          40.562    23918923.180   125694800.054 5      5724.095          30.625    23918931.220    97944023.115 5      4460.333          30.125    23918932.200    97944025.119 7      4460.333          47.562
G06  20913124.380   109899210.951 8      4285.535          48.187    20913123.900   109899210.951 8      4285.535          49.625    20913130.780    85635770.291 8      3339.378          49.625    20913131.800    85635778.284 8      3339.378          51.062
R04  22978751.340   123050149.304 5      -804.536          35.937    22978748.820   123050149.333 6      -804.536          36.250    22978764.360    95705732.710 7      -625.750          42.375    22978762.500    95705734.699 7      -625.750          42.625
G17  21805869.420   114590604.645 7       197.355          47.812    21805868.920   114590604.647 7       197.355          46.312    21805878.640    89291413.056 7       153.783          46.000    21805879.220    89291421.058 7       153.783          47.687
R05  19964666.140   106722583.664 8       911.947          48.500    19964666.180   106722583.671 8       911.947          48.312    19964676.420    83006492.458 8       709.292          51.000    19964676.540    83006492.453 8       709.292          51.687
G07  23042908.620   121091303.647 7      4795.839          44.812    23042907.620   121091303.657 6      4795.839          41.937    23042923.300    94356924.765 6      3737.018          41.875    23042923.700    94356925.771 7      3737.018          45.000
G19  20869186.340   109668309.062 7      1142.584          46.812    20869184.580   109668309.067 6      1142.584          37.687    20869190.380    85455840.451 6       890.325          37.937
G04  22377003.960   117591927.235 7      -172.419          43.312    22377001.600   117591927.250 5      -172.419          32.750    22377010.520    91630086.874 5      -134.352          32.312    22377010.840    91630112.878 7      -134.352          47.500
> 2024 07 31 13 48 11.0000000  0 12
G09  20337078.580   106872067.152 8      1658.047          49.312    20337078.000   106872067.157 8      1658.047          51.062    20337084.240    83276958.866 8      1291.984          51.250    20337084.640    83276960.866 8      1291.984          50.062
R21  22989708.260   123022573.457 6      6754.022          39.437    22989707.280   123022573.486 6      6754.022          38.375    22989722.240    95684278.882 7      5253.128          42.937    22989722.020    95684284.874 7      5253.128          43.437
G20  24617958.380   129368237.793 6      4740.173          38.812    24617955.940   129368237.808 3      4740.173          21.937    24617965.940   100806433.624 3      3693.641          22.250
G11  23917835.580   125689076.020 6      5723.897          39.687    23917833.800   125689076.028 5      5723.897          30.625    23917842.100    97939562.836 5      4460.180          30.125    23917843.060    97939564.833 8      4460.180          48.000
G03  24157860.240   126950422.659 5       405.652          30.000    24157862.220   126950422.671 2       405.652          14.750    24157869.740    98922437.996 2       316.093          13.437    24157872.500    98922452.906 4       316.093          27.000
G06  20912308.860   109894925.577 8      4285.062          48.500    20912308.440   109894925.577 8      4285.062          49.437    20912315.300    85632431.037 8      3339.009          49.312    20912316.300    85632439.034 8      3339.009          50.812
R04  22978901.500   123050953.747 5      -804.634          35.937    22978898.940   123050953.770 6      -804.634          36.250    22978913.980    95706358.378 7      -625.826          42.312    22978912.600    95706360.364 7      -625.826          42.687
G17  21805831.980   114590407.339 7       197.052          46.875    21805831.340   114590407.341 7       197.052          46.687    21805841.120    89291259.300 7       153.547          46.125    21805841.680    89291267.301 8       153.547          48.000
R05  19964495.440   106721671.923 8       911.400          49.000    19964495.780   106721671.930 8       911.400          48.625    19964505.960    83005783.325 8       708.867          51.250    19964506.060    83005783.317 8       708.867          51.312
G07  23041995.820   121086507.889 7      4795.531          45.812    23041995.340   121086507.896 6      4795.531          41.562    23042010.720    94353187.811 6      3736.777          41.625    23042011.080    94353188.820 7      3736.777          45.875
G19  20868969.060   109667166.780 7      1141.800          46.812    20868967.360   109667166.788 6      1141.800          37.937    20868972.940    85454950.358 6       889.714          37.812
G04  22377036.500   117592099.745 7      -172.796          43.250    22377034.420   117592099.760 5      -172.796          32.750    22377043.360    91630221.293 5      -134.646          32.312    22377043.580    91630247.291 7      -134.646          47.437
> 2024 07 31 13 48 12.0000000  0 12
G09  20336763.060   106870409.299 8      1657.522          49.250    20336762.440   106870409.307 8      1657.522          50.687    20336768.680    83275667.034 8      1291.576          51.062    20336769.060    83275669.035 8      1291.576          50.437
R21  22988445.760   123015819.317 6      6754.033          39.437    22988445.820   123015819.354 6      6754.033          38.937    22988460.040    95679025.671 7      5253.137          42.750    22988460.040    95679031.667 7      5253.137          43.312
G20  24617056.280   129363497.614 6      4740.166          37.562    24617054.040   129363497.629 3      4740.166          21.937    24617063.920   100802739.981 3      3693.636          21.375
G11  23916746.520   125683352.041 6      5723.926          40.562    23916744.840   125683352.043 5      5723.926          30.625    23916752.860    97935102.595 5      4460.202          30.437    23916753.960    97935104.596 7      4460.202          47.812
G03  24157784.120   126950016.615 5       406.306          30.000    24157784.740   126950016.630 2       406.306          14.750    24157792.760    98922121.586 2       316.602          13.437    24157794.500    98922136.463 4       316.602          27.000
G06  20911493.700   109890640.579 8      4284.879          48.250    20911493.040   109890640.582 8      4284.879          49.312    20911499.940    85629092.081 8      3338.867          49.750    20911501.020    85629100.077 8      3338.867          51.000
R04  22979050.480   123051758.163 5      -804.599          35.937    22979049.540   123051758.213 5      -804.599          35.125    22979064.040    95706984.049 7      -625.799          42.312    22979062.680    95706986.034 7      -625.799          42.687
G17  21805794.400   114590210.472 7       196.705          47.625    21805793.880   114590210.474 7       196.705          46.562    21805803.740    89291105.885 7       153.276          46.125    21805804.360    89291113.884 7       153.276          47.812
R05  19964325.300   106720760.599 8       911.134          48.875    19964325.260   106720760.603 8       911.134          48.437    19964335.420    83005074.517 8       708.660          51.250    19964335.500    83005074.511 8       708.660          50.875
G07  23041083.320   121081712.377 7      4795.445          46.687    23041082.960   121081712.380 6      4795.445          41.937    23041098.280    94349451.054 6      3736.710          41.687    23041098.140    94349452.066 7      3736.710          45.750
G19  20868751.860   109666025.174 7      1141.218          46.500    20868750.140   109666025.184 6      1141.218          38.062    20868755.700    85454060.788 6       889.260          37.812
G04  22377069.580   117592272.585 7      -173.011          42.937    22377067.440   117592272.598 5      -173.011          32.437    22377076.380    91630355.970 5      -134.813          32.500    22377076.380    91630381.964 7      -134.813          47.500
> 2024 07 31 13 48 13.0000000  0 12
G09  20336447.700   106868751.971 8      1657.134          48.562    20336447.100   106868751.974 8      1657.134          50.750    20336453.300    83274375.602 8      1291.273          51.062    20336453.720    83274377.604 8      1291.273          50.062
R21  22987183.420   123009065.343 6      6753.943          39.437    22987183.600   123009065.363 6      6753.943          38.937    22987197.880    95673772.576 7      5253.067          43.250    22987197.980    95673778.567 7      5253.067          43.875
G20  24616154.300   129358757.401 6      4740.239          37.562    24616151.840   129358757.414 3      4740.239          21.937    24616161.780   100799046.309 3      3693.693          21.375
G11  23915657.040   125677628.104 6      5723.823          39.875    23915655.460   125677628.106 5      5723.823          30.250    23915663.520    97930642.386 5      4460.122          30.437    23915664.500    97930644.389 7      4460.122          47.875
G03  24157707.860   126949610.643 5       405.550          30.000    24157707.520   126949610.661 2       405.550          14.750    24157715.280    98921805.232 2       316.013          13.437    24157718.140    98921820.184 4       316.013          27.000
G06  20910678.280   109886355.949 8      4284.499          48.437    20910677.700   109886355.946 8      4284.499          49.375    20910684.540    85625753.404 8      3338.571          49.187    20910685.280    85625761.398 8      3338.571          50.437
R04  22979200.620   123052562.432 5      -804.121          35.937    22979199.200   123052562.508 5      -804.121          35.125    22979214.260    95707609.608 6      -625.427          41.750    22979213.120    95707611.597 7      -625.427          42.250
G17  21805757.020   114590013.965 7       196.395          47.250    21805756.420   114590013.965 7       196.395          46.312    21805766.380    89290952.750 7       153.035          46.312    21805766.680    89290960.756 7       153.035          47.812
R05  19964154.900   106719849.690 8       910.718          49.875    19964154.740   106719849.694 8       910.718          48.187    19964164.880    83004366.030 8       708.336          51.000    19964165.140    83004366.026 8       708.336          51.062
G07  23040171.080   121076917.097 7      4795.277          45.937    23040170.680   121076917.097 6      4795.277          41.812    23040185.760    94345714.472 6      3736.579          41.937    23040185.520    94345715.488 7      3736.579          45.312
G19  20868534.580   109664884.179 7      1140.732          47.375    20868533.160   109664884.187 6      1140.732          37.562    20868538.640    85453171.693 6       888.882          37.562
G04  22377102.280   117592445.697 7      -173.221          42.500    22377100.300   117592445.704 5      -173.221          32.437    22377109.200    91630490.857 5      -134.977          32.500    22377109.540    91630516.850 7      -134.977          47.500
> 2024 07 31 13 48 14.0000000  0 11
G09  20336132.320   106867094.925 8      1656.948          49.625    20336131.760   106867094.930 8      1656.948          50.875    20336138.000    83273084.401 8      1291.128          51.187    20336138.080    83273086.401 8      1291.128          50.375
R21  22985921.400   123002311.206 6      6754.283          40.000    22985921.780   123002311.245 6      6754.283          38.937    22985935.700    95668519.376 7      5253.331          43.250    22985935.720    95668525.372 7      5253.331          43.750
G20  24615252.240   129354016.934 6      4740.670          38.250    24615249.600   129354016.949 3      4740.670          21.937    24615259.780   100795352.444 3      3694.029          21.375
G11  23914567.860   125671903.915 6      5724.195          41.000    23914566.400   125671903.917 5      5724.195          30.250    23914574.140    97926181.979 5      4460.411          30.437    23914575.280    97926183.988 7      4460.411          47.750
G06  20909862.880   109882071.380 8      4284.619          49.000    20909862.440   109882071.379 8      4284.619          49.562    20909869.300    85622414.777 8      3338.664          49.500    20909869.980    85622422.772 8      3338.664          50.937
R04  22979349.460   123053366.470 5      -804.034          35.937    22979349.640   123053366.544 5      -804.034          35.125    22979364.460    95708234.971 7      -625.360          42.125    22979363.120    95708236.960 7      -625.360          42.500
G17  21805719.700   114589817.569 7       196.330          47.312    21805719.120   114589817.574 7       196.330          46.312    21805729.160    89290799.706 7       152.984          46.562    21805729.460    89290807.713 7       152.984          47.812
R05  19963984.840   106718938.924 8       910.769          49.250    19963984.600   106718938.920 8       910.769          48.812    19963994.560    83003657.648 8       708.376          50.875    19963994.420    83003657.645 8       708.376          50.937
G07  23039258.600   121072121.759 7      4795.410          45.812    23039258.140   121072121.766 7      4795.410          42.000    23039273.100    94341977.858 6      3736.683          41.937    23039272.980    94341978.869 7      3736.683          45.250
G19  20868317.660   109663743.582 7      1140.440          46.875    20868316.080   109663743.592 6      1140.440          38.000    20868321.480    85452282.914 6       888.655          37.875
G04  22377135.060   117592618.819 7      -173.128          43.062    22377133.300   117592618.829 5      -173.128          32.625    22377142.180    91630625.754 5      -134.905          32.562    22377142.660    91630651.752 7      -134.905          47.500
> 2024 07 31 13 48 15.0000000  0 11
G09  20335817.140   106865438.380 8      1656.382          49.125    20335816.440   106865438.390 8      1656.382          51.125    20335822.800    83271793.589 8      1290.688          51.062    20335822.840    83271795.593 8      1290.688          50.125
R21  22984659.080   122995557.181 6      6754.067          40.000    22984660.020   122995557.228 6      6754.067          38.937    22984673.380    95663266.263 7      5253.163          42.875    22984674.020    95663272.252 7      5253.163          43.812
G20  24614350.240   129349276.437 6      4740.554          38.875    24614347.580   129349276.450 3      4740.554          21.937    24614357.640   100791658.554 3      3693.938          21.375
G11  23913478.340   125666179.720 6      5724.271          40.812    23913477.300   125666179.722 5      5724.271          30.250    23913484.880    97921721.574 5      4460.471          30.312    23913486.100    97921723.577 7      4460.471          47.625
G06  20909047.680   109877787.141 8      4284.166          48.500    20909047.140   109877787.141 8      4284.166          49.625    20909054.080    85619076.411 8      3338.311          49.562    20909055.000    85619084.408 8      3338.311          50.875
R04  22979500.240   123054170.337 5      -803.659          35.937    22979498.980   123054170.392 5      -803.659          35.125    22979514.680    95708866.186 6      -625.068          41.937    22979513.460    95708861.178 7      -625.068          42.437
G17  21805682.700   114589621.506 7       195.970          47.000    21805681.720   114589621.508 7       195.970          46.250    21805691.660    89290646.917 7       152.704          46.062    21805691.720    89290654.925 7       152.704          47.562
R05  19963814.660   106718028.533 8       910.300          48.125    19963814.400   106718028.540 8       910.300          48.500    19963824.280    83002949.570 8       708.011          51.187    19963824.500    83002949.563 8       708.011          51.062
G07  23038345.780   121067326.626 7      4795.132          45.875    23038345.580   121067326.623 6      4795.132          41.500    23038360.480    94338241.388 6      3736.466          41.187    23038361.000    94338242.400 7      3736.466          44.875
G19  20868100.480   109662603.583 7      1139.735          46.250    20868099.220   109662603.593 6      1139.735          38.062    20868104.780    85451394.595 6       888.105          37.687
G04  22377168.000   117592792.203 7      -173.431          43.250    22377166.600   117592792.214 5      -173.431          32.625    22377175.180    91630760.854 5      -135.141          32.562    22377175.780    91630786.847 7      -135.141          47.812
> 2024 07 31 13 48 16.0000000  0 11
G09  20335502.080   106863782.345 8      1655.586          49.125    20335501.320   106863782.352 8      1655.586          50.437    20335507.700    83270503.167 8      1290.067          50.312    20335507.780    83270505.168 8      1290.067          49.562
R21  22983396.960   122988803.309 6      6753.540          40.500    22983398.060   122988803.334 6      6753.540          39.187    22983411.400    95658013.238 7      5252.753          42.875    22983411.820    95658019.232 7      5252.753          43.562
G20  24613448.160   129344535.877 6      4740.368          37.875    24613445.280   129344535.893 3      4740.368          21.937    24613455.480   100787964.618 3      3693.793          21.375
G11  23912389.000   125660455.547 6      5723.900          40.125    23912387.920   125660455.549 5      5723.900          30.625    23912395.620    97917261.181 5      4460.182          30.312    23912396.780    97917263.169 7      4460.182          47.375
G06  20908232.400   109873503.194 8      4283.579          49.250    20908231.940   109873503.199 8      4283.579          49.312    20908238.820    85615738.274 8      3337.854          49.250    20908239.720    85615746.270 8      3337.854          49.812
R04  22979650.660   123054974.145 5      -803.840          35.937    22979649.860   123054974.209 5      -803.840          35.125    22979664.920    95709491.368 6      -625.209          41.937    22979663.560    95709486.358 7      -625.209          42.937
G17  21805645.360   114589425.782 7       195.332          47.437    21805644.600   114589425.785 7       195.332          46.375    21805654.660    89290494.393 7       152.207          46.312    21805654.480    89290502.399 7       152.207          47.562
R05  19963644.180   106717118.511 8       909.529          48.812    19963644.160   106717118.517 8       909.529          48.187    19963654.040    83002241.775 8       707.411          51.000    19963654.180    83002241.772 8       707.411          51.187
G07  23037433.500   121062531.658 7      4794.605          46.625    23037432.920   121062531.658 6      4794.605          41.750    23037448.000    94334505.058 6      3736.056          41.687    23037448.040    94334506.078 7      3736.056          45.562
G19  20867883.700   109661464.176 7      1138.843          46.375    20867882.540   109661464.184 6      1138.843          38.187    20867887.920    85450506.741 6       887.410          38.312
G04  22377201.360   117592965.806 7      -173.947          43.312    22377199.560   117592965.819 5      -173.947          33.062    22377208.200    91630896.131 5      -135.543          33.062    22377208.420    91630922.132 7      -135.543          46.750
> 2024 07 31 13 48 17.0000000  0 11
G09  20335186.980   106862126.896 8      1655.230          49.062    20335186.200   106862126.906 8      1655.230          49.250    20335192.660    83269213.207 8      1289.790          49.187    20335192.900    83269215.212 8      1289.790          50.000
R21  22982134.760   122982049.626 6      6753.520          40.500    22982136.180   122982049.662 6      6753.520          39.187    22982149.160    95652760.378 7      5252.738          42.875    22982149.540    95652766.374 7      5252.738          43.187
G20  24612545.600   129339795.391 6      4740.480          37.875    24612543.080   129339795.404 3      4740.480          21.437    24612553.360   100784270.733 3      3693.880          21.375
G11  23911299.800   125654731.413 6      5724.194          40.625    23911298.560   125654731.412 5      5724.194          30.625    23911306.320    97912800.817 5      4460.411          30.312    23911307.500    97912802.815 7      4460.411          47.562
G06  20907417.200   109869219.665 8      4283.374          48.687    20907416.800   109869219.664 8      4283.374          48.312    20907423.700    85612400.453 8      3337.694          48.187    20907424.380    85612408.447 8      3337.694          50.937
R04  22979800.300   123055777.980 5      -803.680          34.437    22979799.580   123055778.046 5      -803.680          35.125    22979815.400    95710116.569 6      -625.085          41.875    22979813.640    95710111.559 7      -625.085          42.562
G17  21805608.160   114589230.469 7       195.207          47.125    21805607.440   114589230.476 7       195.207          46.375    21805617.540    89290342.192 7       152.109          46.125    21805617.640    89290350.200 7       152.109          47.812
R05  19963474.240   106716208.919 8       909.399          49.000    19963474.060   106716208.928 8       909.399          48.750    19963483.860    83001534.315 8       707.310          50.250    19963483.840    83001534.311 8       707.310          50.875
G07  23036520.980   121057736.953 7      4794.672          45.187    23036520.360   121057736.953 6      4794.672          41.062    23036535.460    94330768.930 6      3736.108          40.875    23036535.540    94330769.946 7      3736.108          45.000
G19  20867667.140   109660325.447 7      1138.485          47.187    20867665.900   109660325.451 6      1138.485          37.625    20867671.160    85449619.411 6       887.132          37.125
G04  22377234.520   117593139.761 7      -173.986          43.250    22377232.620   117593139.771 5      -173.986          33.062    22377241.260    91631031.672 5      -135.574          33.062    22377241.680    91631057.662 7      -135.574          47.437
> 2024 07 31 13 48 18.0000000  0 11
G09  20334872.160   106860472.088 8      1654.654          49.125    20334871.340   106860472.092 8      1654.654          50.750    20334877.760    83267923.744 8      1289.341          51.125    20334877.980    83267925.747 8      1289.341          50.187
R21  22980873.360   122975296.190 6      6753.568          40.500    22980874.800   122975296.218 6      6753.568          39.187    22980886.960    95647507.701 7      5252.775          42.812    22980887.720    95647513.689 7      5252.775          43.687
G20  24611643.800   129335054.987 6      4740.505          38.375    24611641.000   129335054.999 3      4740.505          21.437    24611651.260   100780576.913 3      3693.900          21.375
G11  23910210.740   125649007.431 6      5724.154          40.375    23910209.300   125649007.436 5      5724.154          30.625    23910217.060    97908340.576 5      4460.380          30.000    23910218.240    97908342.576 7      4460.380          47.437
G06  20906602.180   109864936.569 8      4283.040          49.125    20906601.880   109864936.569 8      4283.040          49.687    20906608.660    85609062.974 8      3337.434          49.750    20906609.540    85609070.970 8      3337.434          51.000
R04  22979950.800   123056581.820 5      -803.620          34.437    22979949.340   123056581.889 5      -803.620          35.125    22979965.120    95710741.776 7      -625.038          42.437    22979963.680    95710736.766 7      -625.038          42.562
G17  21805571.080   114589035.654 7       194.719          47.062    21805570.360   114589035.656 7       194.719          46.562    21805580.500    89290190.376 7       151.729          46.312    21805580.720    89290198.380 7       151.729          47.875
R05  19963303.940   106715299.826 7       908.989          47.937    19963303.920   106715299.830 8       908.989          48.375    19963313.800    83000827.239 8       706.991          50.687    19963313.840    83000827.235 8       706.991          51.062
G07  23035608.680   121052942.585 7      4794.332          44.875    23035607.640   121052942.595 6      4794.332          41.000    23035622.940    94327033.067 6      3735.843          41.312    23035623.180    94327034.077 7      3735.843          44.625
G19  20867450.860   109659187.469 7      1137.764          46.687    20867449.320   109659187.479 6      1137.764          38.250    20867454.660    85448732.671 6       886.569          38.000
G04  22377267.280   117593314.105 7      -174.392          43.187    22377265.780   117593314.115 5      -174.392          32.812    22377274.600    91631167.520 5      -135.890          32.562    22377274.780    91631193.515 7      -135.890          47.375
> 2024 07 31 13 48 19.0000000  0 11
G09  20334557.400   106858817.516 8      1654.392          49.125    20334556.440   106858817.526 8      1654.392          50.562    20334562.840    83266634.470 8      1289.137          50.812    20334563.160    83266636.474 8      1289.137          49.562
R21  22979610.900   122968542.628 6      6753.511          40.500    22979613.520   122968542.653 6      6753.511          39.750    22979625.160    95642254.937 7      5252.730          43.187    22979625.520    95642260.922 7      5252.730          44.062
G20  24610741.860   129330314.283 6      4740.872          37.750    24610739.100   129330314.293 3      4740.872          21.437    24610749.100   100776882.860 3      3694.186          21.375
G11  23909121.400   125643283.213 6      5724.167          40.375    23909120.000   125643283.220 5      5724.167          30.250    23909127.780    97903880.148 5      4460.390          30.000    23909128.920    97903882.150 7      4460.390          47.562
G06  20905787.320   109860653.531 8      4282.918          48.125    20905786.840   109860653.531 8      4282.918          49.687    20905793.520    85605725.544 8      3337.339          49.875    20905794.560    85605733.542 8      3337.339          50.812
R04  22980101.540   123057385.307 5      -803.344          34.437    22980100.080   123057385.365 5      -803.344          35.125    22980115.420    95711366.696 7      -624.823          42.062    22980113.840    95711361.685 7      -624.823          42.187
G17  21805534.020   114588840.892 7       194.647          47.375    21805533.360   114588840.899 7       194.647          46.437    21805543.560    89290038.607 7       151.673          45.937    21805543.920    89290046.611 8       151.673          48.062
R05  19963134.080   106714390.809 8       908.887          49.000    19963133.800   106714390.810 8       908.887          48.375    19963143.720    83000120.221 8       706.912          50.687    19963143.700    83000120.218 8       706.912          51.000
G07  23034696.200   121048148.135 7      4794.418          44.375    23034695.000   121048148.140 6      4794.418          41.625    23034710.380    94323297.138 6      3735.910          41.312    23034710.900    94323298.148 7      3735.910          44.375
G19  20867234.380   109658049.819 7      1137.404          47.062    20867232.700   109658049.827 6      1137.404          37.625    20867238.060    85447846.183 6       886.289          37.625
G04  22377300.480   117593488.412 7      -174.314          43.687    22377298.940   117593488.419 5      -174.314          32.812    22377307.780    91631303.338 5      -135.829          32.562    22377308.020    91631329.338 7      -135.829          47.562
> 2024 07 31 13 48 20.0000000  0 11
G09  20334242.620   106857163.436 8      1653.913          49.562    20334241.640   106857163.443 8      1653.913          50.687    20334248.120    83265345.574 8      1288.764          51.125    20334248.480    83265347.579 8      1288.764          50.562
R21  22978349.140   122961789.170 6      6753.437          40.500    22978351.820   122961789.195 6      6753.437          39.750    22978362.840    95637002.246 7      5252.673          43.187    22978363.600    95637008.239 7      5252.673          43.750
G20  24609839.360   129325573.542 6      4740.872          37.750    24609836.980   129325573.549 3      4740.872          21.437    24609847.160   100773188.778 3      3694.186          21.250
G11  23908032.260   125637558.918 6      5724.417          40.312    23908030.860   125637558.926 5      5724.417          30.250    23908038.540    97899419.667 5      4460.585          30.000    23908039.420    97899421.663 7      4460.585          47.937
G06  20904972.260   109856370.782 8      4282.712          48.750    20904971.920   109856370.779 8      4282.712          49.375    20904978.600    85602388.335 8      3337.178          49.562    20904979.600    85602396.329 8      3337.178          50.500
R04  22980250.700   123058188.666 5      -803.506          34.437    22980248.780   123058188.745 5      -803.506          35.125    22980265.040    95711991.544 7      -624.949          42.062    22980263.920    95711986.540 7      -624.949          43.000
G17  21805496.960   114588646.463 7       194.340          47.562    21805496.500   114588646.466 7       194.340          46.812    21805506.620    89289887.092 7       151.434          47.250    21805506.920    89289895.092 8       151.434          48.250
R05  19962963.940   106713482.136 8       908.512          48.750    19962963.700   106713482.143 7       908.512          47.937    19962973.760    82999413.478 8       706.620          51.062    19962973.840    82999413.472 8       706.620          51.125
G07  23033783.800   121043353.845 7      4794.236          44.875    23033782.640   121043353.855 6      4794.236          40.312    23033798.120    94319561.336 6      3735.768          40.500    23033798.320    94319562.352 7      3735.768          44.437
G19  20867018.120   109656912.753 7      1136.832          47.187    20867016.240   109656912.761 6      1136.832          37.812    20867021.780    85446960.153 6       885.843          37.687
G04  22377333.780   117593662.955 7      -174.551          43.625    22377332.240   117593662.968 5      -174.551          32.875    22377340.980    91631439.342 5      -136.014          32.562    22377341.320    91631465.344 7      -136.014          47.125
> 2024 07 31 13 48 21.0000000  0 11
G09  20333927.940   106855509.947 8      1653.129          49.562    20333926.920   106855509.954 8      1653.129          50.562    20333933.420    83264057.141 8      1288.152          50.812    20333933.660    83264059.142 8      1288.152          50.062
R21  22977086.940   122955035.899 6      6753.039          41.500    22977090.240   122955035.920 6      6753.039          39.750    22977100.700    95631749.698 7      5252.364          43.187    22977101.480    95631755.689 7      5252.364          43.625
G20  24608937.640   129320832.853 6      4740.645          37.750    24608934.840   129320832.861 3      4740.645          21.437    24608945.180   100769494.739 3      3694.009          21.250
G11  23906943.100   125631834.755 6      5724.020          40.437    23906941.600   125631834.763 5      5724.020          30.250    23906949.240    97894959.284 5      4460.275          30.000    23906950.200    97894961.277 7      4460.275          47.937
G06  20904157.160   109852088.438 8      4282.036          49.312    20904157.000   109852088.441 8      4282.036          49.937    20904163.700    85599051.448 8      3336.652          49.875    20904164.580    85599059.443 8      3336.652          50.812
R04  22980401.000   123058992.032 5      -803.406          34.437    22980400.520   123058992.071 5      -803.406          35.437    22980415.240    95712616.343 6      -624.871          41.875    22980414.060    95712611.333 7      -624.871          42.437
G17  21805460.220   114588452.455 7       193.714          47.437    21805459.540   114588452.458 7       193.714          46.687    21805469.680    89289735.907 7       150.946          46.000    21805469.980    89289743.905 7       150.946          47.875
R05  19962794.100   106712573.918 8       907.842          48.812    19962793.820   106712573.928 8       907.842          48.812    19962803.840    82998707.088 8       706.099          50.625    19962803.880    82998707.084 8       706.099          51.125
G07  23032871.600   121038559.836 7      4793.811          45.625    23032870.420   121038559.847 6      4793.811          40.875    23032885.980    94315825.753 6      3735.437          41.125    23032886.080    94315826.750 7      3735.437          44.437
G19  20866801.780   109655776.386 7      1135.921          47.062    20866800.040   109655776.393 6      1135.921          37.875    20866805.640    85446074.666 6       885.133          37.812
G04  22377367.220   117593837.871 7      -175.290          43.750    22377365.700   117593837.879 5      -175.290          32.875    22377374.240    91631575.630 5      -136.589          32.875    22377374.320    91631601.622 7      -136.589          47.812
> 2024 07 31 13 48 22.0000000  0 11
G09  20333613.480   106853857.057 8      1652.767          49.312    20333612.360   106853857.062 8      1652.767          50.937    20333618.940    83262769.173 8      1287.871          51.187    20333619.500    83262771.173 8      1287.871          50.312
R21  22975825.440   122948282.840 6      6753.118          41.500    22975828.320   122948282.853 6      6753.118          40.250    22975838.820    95626497.325 7      5252.425          42.562    22975839.460    95626503.316 7      5252.425          43.750
G20  24608034.980   129316092.223 6      4740.785          38.687    24608032.780   129316092.236 3      4740.785          21.437    24608042.960   100765800.746 3      3694.118          21.250
G11  23905853.500   125626110.661 6      5724.291          40.187    23905852.380   125626110.668 5      5724.291          30.250    23905860.100    97890498.947 4      4460.486          29.937    23905861.020    97890500.939 7      4460.486          47.375
G06  20903342.480   109847806.499 8      4281.941          49.125    20903342.120   109847806.501 8      4281.941          49.625    20903348.920    85595714.869 8      3336.578          49.875    20903349.760    85595722.869 8      3336.578          50.875
R04  22980550.620   123059795.417 5      -803.222          34.437    22980549.820   123059795.451 5      -803.222          35.437    22980565.100    95713241.190 7      -624.729          42.250    22980563.980    95713236.175 7      -624.729          42.375
G17  21805423.360   114588258.881 7       193.549          47.125    21805422.860   114588258.883 7       193.549          46.562    21805432.960    89289585.058 7       150.817          46.187    21805433.060    89289593.057 8       150.817          48.375
R05  19962624.180   106711666.178 8       907.715          49.125    19962624.280   106711666.182 8       907.715          48.312    19962634.200    82998001.064 8       706.001          50.562    19962634.200    82998001.060 8       706.001          51.187
G07  23031959.160   121033766.114 7      4793.834          44.812    23031958.040   121033766.116 6      4793.834          40.875    23031973.960    94312090.387 6      3735.455          40.250    23031973.720    94312091.374 7      3735.455          44.187
G19  20866585.620   109654640.710 7      1135.522          45.875    20866583.860   109654640.717 6      1135.522          38.000    20866589.360    85445189.717 6       884.822          37.562
G04  22377400.380   117594013.061 7      -175.158          44.125    22377399.020   117594013.071 5      -175.158          32.750    22377407.560    91631712.139 5      -136.487          32.875    22377407.940    91631738.138 7      -136.487          47.437
> 2024 07 31 13 48 23.0000000  0 11
G09  20333298.960   106852204.726 8      1652.112          50.000    20333297.920   106852204.731 8      1652.112          51.437    20333304.500    83261481.641 8      1287.360          51.375    20333305.040    83261483.643 8      1287.360          50.312
R21  22974563.700   122941529.961 6      6752.822          41.625    22974566.060   122941529.989 6      6752.822          40.250    22974576.700    95621245.089 7      5252.195          42.625    22974577.560    95621251.083 7      5252.195          43.437
G20  24607132.520   129311351.582 6      4740.781          38.375    24607130.760   129311351.594 3      4740.781          21.437    24607140.880   100762106.744 3      3694.115          21.250
G11  23904764.560   125620386.613 6      5724.071          41.937    23904763.220   125620386.621 5      5724.071          30.062    23904770.740    97886038.654 4      4460.315          29.937    23904771.640    97886040.661 7      4460.315          47.187
G06  20902527.560   109843524.935 8      4281.426          49.062    20902527.380   109843524.932 8      4281.426          50.187    20902534.160    85592378.582 8      3336.176          50.062    20902534.980    85592386.579 8      3336.176          50.812
R04  22980700.720   123060598.757 5      -803.327          34.437    22980699.060   123060598.804 5      -803.327          35.437    22980715.600    95713866.016 7      -624.810          42.250    22980713.800    95713861.008 7      -624.810          42.375
G17  21805386.760   114588065.690 7       193.062          47.375    21805386.080   114588065.692 7       193.062          46.500    21805396.200    89289434.509 7       150.438          46.125    21805396.300    89289442.508 7       150.438          47.750
R05  19962454.320   106710758.877 8       907.149          49.000    19962454.520   106710758.886 8       907.149          48.187    19962464.240    82997295.387 8       705.560          50.687    19962464.480    82997295.386 8       705.560          50.875
G07  23031047.000   121028972.639 7      4793.388          44.875    23031046.020   121028972.644 6      4793.388          40.750    23031061.740    94308355.218 6      3735.108          41.062    23031061.820    94308356.213 7      3735.108          44.812
G19  20866369.640   109653505.690 7      1134.783          46.937    20866367.940   109653505.698 6      1134.783          38.375    20866373.440    85444305.285 6       884.247          38.500
G04  22377434.060   117594188.595 7      -175.675          43.625    22377432.360   117594188.608 5      -175.675          32.750    22377441.040    91631848.917 5      -136.890          32.625    22377441.400    91631874.913 7      -136.890          47.687
> 2024 07 31 13 48 24.0000000  0 11
G09  20332984.620   106850552.845 8      1651.663          49.312    20332983.520   106850552.850 8      1651.663          50.750    20332990.140    83260194.459 8      1287.010          50.875    20332990.620    83260196.463 8      1287.010          49.875
R21  22973301.980   122934777.166 6      6752.508          41.625    22973304.380   122934777.203 6      6752.508          40.250    22973314.960    95615992.930 7      5251.951          42.625    22973315.540    95615998.920 7      5251.951          43.812
G20  24606230.440   129306610.888 6      4740.688          38.375    24606228.740   129306610.903 3      4740.688          21.437    24606238.780   100758412.705 3      3694.042          21.250
G11  23903675.160   125614662.537 6      5724.056          40.375    23903673.900   125614662.545 5      5724.056          30.062    23903681.400    97881578.339 4      4460.303          29.937    23903682.180    97881580.335 7      4460.303          46.937
G06  20901712.940   109839243.618 8      4281.205          48.500    20901712.760   109839243.618 8      4281.205          49.750    20901719.340    85589042.493 8      3336.004          50.062    20901720.260    85589050.488 8      3336.004          51.062
R04  22980850.580   123061401.976 5      -803.572          34.437    22980849.540   123061402.036 5      -803.572          35.437    22980865.820    95714490.750 6      -625.000          41.625    22980863.920    95714485.742 7      -625.000          42.875
G17  21805350.160   114587872.812 7       192.667          47.437    21805349.460   114587872.809 7       192.667          46.625    21805359.480    89289284.198 7       150.130          46.375    21805359.620    89289292.201 7       150.130          47.375
R05  19962284.640   106709851.880 8       906.877          49.562    19962284.760   106709851.895 8       906.877          48.312    19962294.780    82996589.945 8       705.349          51.125    19962294.820    82996589.946 8       705.349          50.812
G07  23030134.880   121024179.306 7      4793.200          45.437    23030134.020   121024179.308 6      4793.200          41.250    23030149.780    94304620.161 6      3734.961          41.250    23030149.960    94304621.167 7      3734.961          44.812
G19  20866153.600   109652371.238 7      1134.163          46.437    20866152.100   109652371.246 6      1134.163          37.625    20866157.580    85443421.290 6       883.764          37.875
G04  22377467.240   117594364.308 7      -175.819          43.312    22377465.920   117594364.318 5      -175.819          32.875    22377474.580    91631985.828 5      -137.002          32.625    22377474.960    91632011.826 7      -137.002          47.187
> 2024 07 31 13 48 25.0000000  0 11
G09  20332670.560   106848901.522 8      1650.834          49.625    20332669.260   106848901.526 8      1650.834          51.062    20332675.860    83258907.715 8      1286.364          51.562    20332676.300    83258909.713 8      1286.364          50.375
R21  22972039.820   122928024.495 6      6752.366          41.625    22972042.400   122928024.524 6      6752.366          40.875    22972053.100    95610740.851 7      5251.840          42.812    22972053.760    95610746.834 7      5251.840          43.250
G20  24605328.620   129301870.171 6      4740.719          38.875    24605326.480   129301870.184 3      4740.719          21.437    24605336.600   100754718.640 3      3694.066          21.250
G11  23902585.860   125608938.495 6      5723.739          41.187    23902584.740   125608938.502 5      5723.739          30.062    23902592.040    97877118.048 5      4460.056          30.312    23902592.920    97877120.045 7      4460.056          47.250
G06  20900898.480   109834962.690 8      4280.464          48.187    20900898.040   109834962.692 8      4280.464          49.937    20900904.800    85585706.707 8      3335.427          50.000    20900905.500    85585714.706 8      3335.427          51.125
R04  22981000.200   123062205.147 5      -803.742          34.437    22981000.180   123062205.183 5      -803.742          35.437    22981015.240    95715115.410 6      -625.132          41.562    22981013.920    95715110.399 7      -625.132          42.750
G17  21805313.420   114587680.286 8       192.151          48.187    21805312.740   114587680.283 7       192.151          46.812    21805322.960    89289134.169 7       149.728          46.500    21805322.880    89289142.175 8       149.728          48.187
R05  19962114.960   106708945.287 8       906.212          48.375    19962115.380   106708945.299 7       906.212          47.812    19962125.240    82995884.815 8       704.832          50.562    19962125.060    82995884.816 8       704.832          50.562
G07  23029222.860   121019386.193 7      4792.875          45.312    23029222.000   121019386.190 6      4792.875          40.812    23029237.720    94300885.270 6      3734.708          40.625    23029237.820    94300886.278 7      3734.708          45.125
G19  20865937.780   109651237.433 7      1133.290          46.437    20865936.220   109651237.440 6      1133.290          37.937    20865941.880    85442537.797 6       883.083          38.125
G04  22377500.660   117594540.312 7      -176.283          43.937    22377499.540   117594540.322 5      -176.283          32.875    22377507.920    91632122.972 5      -137.364          32.625    22377508.500    91632148.964 7      -137.364          47.625
> 2024 07 31 13 48 26.0000000  0 11
G09  20332356.300   106847250.797 8      1650.530          49.875    20332355.120   106847250.802 8      1650.530          50.687    20332361.760    83257621.431 8      1286.128          50.937    20332362.100    83257623.432 8      1286.128          50.187
R21  22970777.760   122921272.044 6      6752.377          40.937    22970780.500   122921272.075 6      6752.377          40.875    22970791.420    95605488.952 7      5251.849          43.062    22970791.920    95605494.936 7      5251.849          43.625
G20  24604426.920   129297129.561 6      4740.622          38.437    24604424.340   129297129.574 3      4740.622          21.125    24604434.460   100751024.660 3      3693.991          21.250
G11  23901496.540   125603214.547 6      5723.980          40.437    23901495.580   125603214.550 5      5723.980          30.500    23901502.880    97872657.830 5      4460.244          30.312    23901503.760    97872659.814 7      4460.244          47.000
G06  20900083.760   109830682.154 8      4280.377          49.375    20900083.500   109830682.156 8      4280.377          49.625    20900090.240    85582371.222 8      3335.359          49.875    20900091.040    85582379.226 8      3335.359          50.937
R04  22981151.000   123063008.205 5      -803.073          34.437    22981149.600   123063008.244 5      -803.073          35.437    22981165.400    95715740.013 6      -624.612          41.562    22981163.720    95715735.004 7      -624.612          42.750
G17  21805276.740   114587488.193 8       192.019          48.375    21805276.220   114587488.195 7       192.019          46.875    21805286.540    89288984.479 7       149.625          46.562    21805286.520    89288992.482 8       149.625          48.125
R05  19961945.420   106708039.138 8       906.038          49.062    19961945.700   106708039.150 8       906.038          48.125    19961955.640    82995180.028 8       704.696          50.875    19961955.620    82995180.029 8       704.696          51.125
G07  23028310.880   121014593.372 7      4792.769          45.875    23028310.060   121014593.369 6      4792.769          41.062    23028325.620    94297150.609 6      3734.625          41.062    23028325.620    94297151.620 7      3734.625          45.375
G19  20865722.160   109650104.319 7      1132.871          46.875    20865720.620   109650104.323 6      1132.871          37.875    20865726.240    85441654.843 6       882.757          38.000
G04  22377534.580   117594716.676 7      -176.437          43.562    22377533.080   117594716.686 5      -176.437          32.875    22377541.460    91632260.396 5      -137.483          32.625    22377542.140    91632286.389 7      -137.483          47.687
> 2024 07 31 13 48 27.0000000  0 11
G09  20332042.040   106845600.511 8      1650.044          49.812    20332041.060   106845600.518 8      1650.044          50.875    20332047.760    83256335.496 8      1285.749          50.375    20332048.260    83256337.497 8      1285.749          50.437
R21  22969516.340   122914519.670 6      6752.255          40.937    22969518.440   122914519.709 6      6752.255          40.500    22969529.760    95600237.112 7      5251.754          43.062    22969530.060    95600243.097 7      5251.754          43.625
G20  24603524.480   129292388.828 6      4740.740          38.312    24603522.340   129292388.841 3      4740.740          21.125    24603532.320   100747330.587 3      3694.083          21.250
G11  23900407.500   125597490.526 6      5724.015          41.187    23900406.300   125597490.526 5      5724.015          30.500    23900413.520    97868197.551 5      4460.272          30.312    23900414.300    97868199.540 7      4460.272          46.875
G06  20899269.340   109826401.878 8      4280.110          48.687    20899268.960   109826401.880 8      4280.110          49.187    20899275.640    85579035.940 8      3335.150          49.250    20899276.540    85579043.939 8      3335.150          51.062
R04  22981300.360   123063811.148 5      -802.843          34.437    22981300.860   123063811.188 5      -802.843          35.437    22981315.320    95716364.514 6      -624.433          41.812    22981313.920    95716359.507 7      -624.433          42.437
G17  21805240.140   114587296.395 8       191.698          48.937    21805239.660   114587296.394 7       191.698          46.312    21805250.000    89288835.011 7       149.375          46.687    21805249.920    89288843.013 8       149.375          48.187
R05  19961775.780   106707133.296 8       905.629          48.562    19961776.320   106707133.305 8       905.629          48.500    19961786.100    82994475.484 8       704.378          50.937    19961786.280    82994475.483 8       704.378          50.375
G07  23027398.620   121009800.680 7      4792.620          45.937    23027398.080   121009800.677 6      4792.620          40.937    23027413.540    94293416.052 6      3734.509          40.562    23027413.560    94293417.065 7      3734.509          45.125
G19  20865506.500   109648971.748 7      1132.298          47.562    20865505.140   109648971.753 6      1132.298          37.875    20865510.660    85440772.314 6       882.310          37.687
G04  22377568.300   117594893.209 7      -176.594          43.375    22377566.560   117594893.219 5      -176.594          32.687    22377575.000    91632397.952 5      -137.606          32.562    22377575.740    91632423.942 7      -137.606          47.562
> 2024 07 31 13 48 28.0000000  0 11
G09  20331728.160   106843950.708 8      1649.518          48.687    20331727.040   106843950.713 8      1649.518          50.687    20331733.780    83255049.934 8      1285.339          51.000    20331734.240    83255051.938 8      1285.339          49.875
R21  22968254.440   122907767.402 6      6752.201          40.937    22968255.920   122907767.428 6      6752.201          40.500    22968267.700    95594985.349 7      5251.712          42.750    22968268.240    95594991.330 7      5251.712          43.312
G20  24602622.360   129287648.006 6      4740.989          38.437    24602620.180   129287648.019 3      4740.989          21.125    24602630.080   100743636.443 3      3694.277          21.250
G11  23899317.920   125591766.500 6      5723.897          41.187    23899317.160   125591766.502 5      5723.897          30.500    23899324.120    97863737.277 5      4460.179          30.000    23899324.960    97863739.259 7      4460.179          46.937
G06  20898454.860   109822121.880 8      4279.843          48.562    20898454.620   109822121.882 8      4279.843          49.187    20898461.260    85575700.879 8      3334.942          49.500    20898462.160    85575708.878 8      3334.942          50.687
R04  22981450.500   123064613.947 5      -802.604          35.125    22981450.000   123064613.992 5      -802.604          35.437    22981465.060    95716988.919 6      -624.247          41.812    22981463.760    95716983.915 7      -624.247          42.437
G17  21805203.980   114587104.904 7       191.305          47.250    21805203.220   114587104.909 7       191.305          46.375    21805213.580    89288685.791 7       149.069          46.312    21805213.800    89288693.795 7       149.069          47.937
R05  19961606.320   106706227.763 8       905.401          48.625    19961606.960   106706227.770 8       905.401          48.812    19961616.680    82993771.179 8       704.201          50.312    19961616.880    82993771.178 8       704.201          50.875
G07  23026486.460   121005008.148 7      4792.422          46.125    23026485.880   121005008.145 6      4792.422          41.250    23026501.340    94289681.613 6      3734.355          41.062    23026501.860    94289682.633 7      3734.355          44.187
G19  20865291.080   109647839.758 7      1131.614          46.437    20865289.540   109647839.760 6      1131.614          37.812    20865295.380    85439890.240 6       881.777          37.687
G04  22377601.880   117595069.964 7      -176.825          43.625    22377600.320   117595069.977 5      -176.825          32.687    22377608.760    91632535.680 5      -137.786          32.562    22377609.620    91632561.670 7      -137.786          46.937
> 2024 07 31 13 48 29.0000000  0 11
G09  20331414.380   106842301.347 8      1649.106          48.375    20331413.200   106842301.354 8      1649.106          48.812    20331419.960    83253764.719 8      1285.017          48.500    20331420.340    83253766.726 8      1285.017          50.000
R21  22966992.340   122901015.181 6      6752.215          40.187    22966994.000   122901015.220 6      6752.215          40.500    22967005.720    95589733.627 7      5251.722          42.250    22967006.260    95589739.617 7      5251.722          42.812
G20  24601720.400   129282907.157 6      4740.868          38.437    24601717.980   129282907.167 3      4740.868          21.125    24601728.120   100739942.278 3      3694.183          21.187
G11  23898229.000   125586042.368 6      5724.232          41.437    23898227.840   125586042.368 5      5724.232          30.500    23898234.800    97859276.913 5      4460.441          30.000    23898235.740    97859278.899 7      4460.441          46.375
G06  20897640.580   109817842.155 8      4279.536          48.125    20897640.180   109817842.157 8      4279.536          48.312    20897646.800    85572366.028 8      3334.703          48.250    20897647.980    85572374.028 8      3334.703          50.750
R04  22981599.320   123065416.615 5      -802.534          35.125    22981599.440   123065416.694 5      -802.534          35.437    22981614.940    95717613.241 6      -624.193          41.812    22981613.660    95717608.235 7      -624.193          42.687
G17  21805167.380   114586913.689 7       191.096          47.750    21805166.820   114586913.689 7       191.096          46.062    21805177.140    89288536.778 7       148.906          46.125    21805177.340    89288544.776 8       148.906          48.312
R05  19961437.260   106705322.574 8       905.020          49.062    19961437.700   106705322.583 8       905.020          48.250    19961447.580    82993067.141 8       703.904          50.062    19961447.540    82993067.141 8       703.904          50.437
G07  23025574.600   121000215.737 7      4792.293          45.375    23025574.120   121000215.737 6      4792.293          40.687    23025589.020    94285947.277 6      3734.254          41.000    23025589.560    94285948.297 7      3734.254          44.187
G19  20865075.940   109646708.278 7      1131.239          46.687    20865074.200   109646708.283 6      1131.239          37.875    20865080.120    85439008.559 6       881.485          37.687
G04  22377635.440   117595246.909 7      -176.998          43.812    22377633.940   117595246.922 5      -176.998          32.375    22377642.300    91632673.557 5      -137.920          32.562    22377643.240    91632699.543 7      -137.920          47.500
> 2024 07 31 13 48 30.0000000  0 11
G09  20331100.560   106840652.427 8      1648.712          48.937    20331099.460   106840652.434 8      1648.712          50.625    20331106.120    83252479.845 8      1284.710          51.062    20331106.360    83252481.849 8      1284.710          50.687
R21  22965729.880   122894262.997 6      6752.283          40.187    22965731.880   122894263.038 6      6752.283          40.250    22965743.640    95584481.941 7      5251.776          42.687    22965744.120    95584487.930 7      5251.776          42.625
G20  24600818.580   129278166.180 6      4740.952          38.250    24600815.980   129278166.185 3      4740.952          21.125    24600826.080   100736248.010 3      3694.248          21.187
G11  23897139.400   125580318.182 6      5724.330          41.187    23897138.580   125580318.181 4      5724.330          29.937    23897145.540    97854816.514 5      4460.517          30.000    23897146.560    97854818.502 7      4460.517          46.687
G06  20896826.040   109813562.678 8      4279.300          48.625    20896825.900   109813562.677 8      4279.300          49.562    20896832.340    85569031.366 8      3334.520          49.812    20896833.420    85569039.368 8      3334.520          50.625
R04  22981750.380   123066219.138 5      -802.168          35.125    22981750.720   123066219.190 5      -802.168          35.312    22981765.120    95718237.398 6      -623.909          41.437    22981763.680    95718232.392 7      -623.909          42.687
G17  21805130.880   114586722.758 7       190.744          47.250    21805130.320   114586722.755 7       190.744          46.625    21805140.760    89288387.988 7       148.631          46.062    21805141.180    89288395.990 8       148.631          48.562
R05  19961267.680   106704417.672 8       904.867          48.937    19961268.320   106704417.679 8       904.867          48.812    19961278.220    82992363.322 8       703.785          51.062    19961278.340    82992363.319 8       703.785          50.875
G07  23024662.880   120995423.468 7      4792.208          45.687    23024662.200   120995423.462 6      4792.208          41.062    23024676.940    94282213.041 6      3734.188          40.687    23024677.340    94282214.049 7      3734.188          44.187
G19  20864860.820   109645577.366 7      1130.673          46.812    20864859.020   109645577.373 6      1130.673          38.312    20864864.840    85438127.324 6       881.044          38.250
G04  22377669.060   117595424.054 7      -177.238          44.250    22377667.680   117595424.064 5      -177.238          32.375    22377676.100    91632811.586 5      -138.107          32.062    22377676.880    91632837.574 7      -138.107          47.500
> 2024 07 31 13 48 31.0000000  0 11
G09  20330786.940   106839004.112 8      1648.231          48.687    20330785.740   106839004.116 8      1648.231          50.812    20330792.460    83251195.441 8      1284.336          51.000    20330792.700    83251197.446 8      1284.336          50.500
R21  22964468.480   122887511.032 6      6752.097          40.187    22964470.440   122887511.087 6      6752.097          40.250    22964482.040    95579230.427 7      5251.631          42.875    22964482.620    95579236.410 7      5251.631          42.937
G20  24599916.360   129273425.216 6      4741.270          39.687    24599913.840   129273425.223 3      4741.270          21.125    24599923.820   100732553.754 3      3694.496          21.187
G11  23896050.320   125574594.108 6      5724.345          40.937    23896049.280   125574594.113 4      5724.345          29.937    23896056.280    97850356.201 5      4460.528          30.000    23896057.020    97850358.189 7      4460.528          46.562
G06  20896011.900   109809283.589 8      4279.138          48.625    20896011.520   109809283.589 8      4279.138          49.625    20896018.120    85565697.011 8      3334.393          49.875    20896019.100    85565705.011 8      3334.393          50.812
R04  22981900.740   123067021.695 5      -802.217          35.125    22981900.480   123067021.745 5      -802.217          35.312    22981914.800    95718861.595 7      -623.947          42.000    22981913.740    95718856.585 7      -623.947          42.937
G17  21805094.780   114586532.239 7       190.566          47.500    21805094.100   114586532.239 7       190.566          46.250    21805104.560    89288239.522 7       148.493          46.312    21805104.720    89288247.526 8       148.493          48.312
R05  19961098.680   106703513.241 8       904.490          49.437    19961099.120   106703513.253 8       904.490          48.437    19961109.000    82991659.878 8       703.492          51.062    19961108.940    82991659.873 8       703.492          51.125
G07  23023751.060   120990631.459 7      4792.150          45.937    23023750.580   120990631.453 6      4792.150          41.062    23023764.800    94278479.013 6      3734.143          41.187    23023765.080    94278480.018 7      3734.143          43.625
G19  20864645.560   109644447.144 7      1130.136          46.875    20864643.860   109644447.149 6      1130.136          37.687    20864649.760    85437246.624 6       880.626          38.437
G04  22377702.860   117595601.524 7      -177.396          43.562    22377701.460   117595601.537 5      -177.396          32.687    22377709.720    91632949.868 5      -138.231          32.062    22377710.500    91632975.854 7      -138.231          47.375
> 2024 07 31 13 48 32.0000000  0 11
G09  20330473.340   106837356.172 8      1647.601          48.562    20330472.100   106837356.169 8      1647.601          51.000    20330478.900    83249911.324 8      1283.845          50.875    20330479.200    83249913.329 8      1283.845          51.062
R21  22963206.620   122880759.065 6      6751.888          39.812    22963208.560   122880759.101 6      6751.888          40.250    22963220.340    95573978.893 7      5251.468          43.000    22963220.560    95573984.878 7      5251.468          42.937
G20  24599013.900   129268684.125 6      4741.042          39.437    24599011.780   129268684.135 3      4741.042          21.125    24599021.720   100728859.400 3      3694.319          21.187
G11  23894961.400   125568869.914 6      5724.060          41.687    23894960.080   125568869.921 4      5724.060          29.937    23894966.740    97845895.792 4      4460.306          29.687    23894967.620    97845897.778 7      4460.306          46.687
G06  20895197.420   109805004.703 8      4278.706          48.250    20895197.300   109805004.705 8      4278.706          49.437    20895203.820    85562362.812 8      3334.057          49.875    20895204.840    85562370.814 8      3334.057          50.875
R04  22982050.740   123067823.996 5      -802.359          35.125    22982049.220   123067824.067 5      -802.359          35.312    22982064.800    95719485.613 6      -624.057          41.937    22982063.540    95719480.603 7      -624.057          42.875
G17  21805058.680   114586341.944 7       190.078          47.062    21805057.820   114586341.941 7       190.078          46.312    21805068.400    89288091.228 7       148.113          46.250    21805068.560    89288099.229 8       148.113          48.187
R05  19960929.720   106702609.048 8       903.958          49.187    19960930.220   106702609.058 8       903.958          48.250    19960939.880    82990956.613 8       703.078          51.375    19960939.960    82990956.611 8       703.078          51.187
G07  23022839.140   120985839.513 7      4791.813          44.875    23022838.820   120985839.510 6      4791.813          41.250    23022852.860    94274745.037 6      3733.880          41.250    23022853.000    94274746.042 7      3733.880          43.687
G19  20864430.560   109643317.390 7      1129.385          46.750    20864428.700   109643317.395 6      1129.385          37.937    20864434.860    85436366.290 6       880.040          38.000
G04  22377736.820   117595779.110 7      -177.744          43.250    22377735.080   117595779.121 5      -177.744          32.687    22377743.580    91633088.241 5      -138.502          32.312    22377744.120    91633114.218 7      -138.502          47.562
> 2024 07 31 13 48 33.0000000  0 11
G09  20330159.720   106835708.808 8      1647.033          49.062    20330158.620   106835708.812 8      1647.033          50.812    20330165.420    83248627.670 8      1283.402          50.937    20330165.800    83248629.676 8      1283.402          51.062
R21  22961945.380   122874007.327 6      6751.578          39.812    22961946.800   122874007.353 6      6751.578          40.437    22961958.340    95568727.537 7      5251.227          43.000    22961958.680    95568733.519 7      5251.227          42.312
G20  24598111.920   129263943.087 6      4740.969          39.687    24598109.720   129263943.098 3      4740.969          21.125    24598119.580   100725165.089 3      3694.261          21.187
G11  23893872.100   125563145.803 6      5723.994          41.375    23893870.720   125563145.811 5      5723.994          30.000    23893877.340    97841435.448 4      4460.255          29.687    23893878.520    97841437.432 7      4460.255          46.562
G06  20894383.320   109800726.231 8      4278.205          48.562    20894383.160   109800726.231 8      4278.205          49.500    20894389.660    85559028.939 8      3333.666          49.625    20894390.480    85559036.936 8      3333.666          50.625
R04  22982201.140   123068626.294 5      -802.026          35.125    22982200.240   123068626.368 5      -802.026          35.312    22982214.560    95720109.619 6      -623.798          41.937    22982213.340    95720104.612 7      -623.798          42.937
G17  21805022.420   114586152.095 7       189.548          47.687    21805021.660   114586152.092 7       189.548          46.250    21805032.260    89287943.283 7       147.700          46.062    21805032.540    89287951.283 8       147.700          48.187
R05  19960760.500   106701705.326 8       903.422          49.000    19960760.940   106701705.335 8       903.422          48.062    19960770.780    82990253.717 8       702.661          51.500    19960770.900    82990253.714 8       702.661          51.187
G07  23021927.380   120981047.887 7      4791.382          45.437    23021927.100   120981047.887 6      4791.382          41.437    23021941.060    94271011.307 6      3733.545          40.812    23021941.120    94271012.306 7      3733.545          43.687
G19  20864215.940   109642188.356 7      1128.561          46.437    20864213.840   109642188.359 6      1128.561          37.812    20864219.940    85435486.518 6       879.398          37.875
G04  22377770.520   117595957.041 7      -178.092          42.937    22377769.060   117595957.051 5      -178.092          32.625    22377777.440    91633226.881 5      -138.773          32.312    22377778.120    91633252.863 7      -138.773          47.687
> 2024 07 31 13 48 34.0000000  0 11
G09  20329846.240   106834061.995 8      1646.544          48.812    20329845.260   106834062.003 8      1646.544          50.812    20329852.020    83247344.439 8      1283.022          51.000    20329852.400    83247346.444 8      1283.022          50.687
R21  22960684.180   122867255.692 6      6751.646          39.812    22960684.940   122867255.728 6      6751.646          40.437    22960696.640    95563476.282 7      5251.280          42.375    22960696.980    95563482.265 7      5251.280          42.312
G20  24597209.640   129259202.055 6      4740.996          39.125    24597207.620   129259202.068 3      4740.996          21.500    24597217.520   100721470.782 3      3694.283          21.187
G11  23892782.360   125557421.687 6      5724.226          40.437    23892781.480   125557421.695 5      5724.226          30.000    23892787.940    97836975.100 4      4460.436          29.687    23892788.960    97836977.086 7      4460.436          45.875
G06  20893569.380   109796448.081 8      4278.072          48.750    20893569.040   109796448.080 8      4278.072          49.312    20893575.580    85555695.313 8      3333.562          49.875    20893576.500    85555703.312 8      3333.562          51.437
R04  22982350.240   123069428.528 5      -802.030          35.125    22982350.740   123069428.621 5      -802.030          35.312    22982364.080    95720733.580 6      -623.801          41.875    22982363.260    95720728.574 7      -623.801          42.937
G17  21804986.420   114585962.580 7       189.359          47.125    21804985.520   114585962.580 7       189.359          46.312    21804996.040    89287795.601 7       147.553          46.500    21804996.380    89287803.601 8       147.553          48.125
R05  19960591.620   106700801.975 8       903.240          48.562    19960592.120   106700801.981 8       903.240          48.250    19960601.760    82989551.105 8       702.520          51.187    19960601.540    82989551.103 8       702.520          51.125
G07  23021015.500   120976256.446 7      4791.400          45.437    23021015.320   120976256.440 6      4791.400          41.125    23021029.420    94267277.710 6      3733.558          41.250    23021029.540    94267278.697 7      3733.558          43.562
G19  20864001.180   109641059.911 7      1128.249          46.625    20863999.060   109641059.913 6      1128.249          37.625    20864005.300    85434607.203 6       879.155          37.625
G04  22377804.240   117596135.228 7      -178.237          44.562    22377803.100   117596135.244 5      -178.237          32.625    22377811.380    91633365.727 5      -138.886          32.625    22377812.180    91633391.713 7      -138.886          47.500
> 2024 07 31 13 48 35.0000000  0 11
G09  20329533.140   106832415.603 8      1646.166          49.062    20329532.040   106832415.605 8      1646.166          50.750    20329538.660    83246061.530 8      1282.726          51.375    20329539.400    83246063.537 8      1282.726          50.312
R21  22959422.300   122860504.160 6      6751.373          40.062    22959423.020   122860504.186 6      6751.373          40.437    22959435.080    95558225.095 7      5251.068          42.562    22959435.040    95558231.078 7      5251.068          42.250
G20  24596307.460   129254460.888 6      4741.045          38.500    24596305.320   129254460.898 3      4741.045          21.500    24596315.420   100717776.368 3      3694.321          21.187
G11  23891693.100   125551697.530 6      5724.213          40.437    23891692.260   125551697.540 5      5724.213          30.000    23891698.680    97832514.719 4      4460.426          29.687    23891699.720    97832516.708 7      4460.426          46.062
G06  20892755.260   109792170.198 8      4277.643          48.625    20892754.940   109792170.203 8      4277.643          49.437    20892761.500    85552361.902 8      3333.228          49.500    20892762.320    85552369.907 8      3333.228          50.562
R04  22982500.000   123070230.580 5      -801.993          35.125    22982500.980   123070230.651 5      -801.993          35.312    22982513.600    95721357.386 6      -623.772          41.937    22982512.840    95721352.378 7      -623.772          42.750
G17  21804950.180   114585773.352 8       189.006          48.187    21804949.440   114585773.351 7       189.006          46.250    21804959.920    89287648.140 7       147.277          45.812    21804960.460    89287656.140 8       147.277          48.500
R05  19960422.860   106699898.926 8       902.867          48.562    19960423.020   106699898.930 7       902.867          47.750    19960432.860    82988848.733 8       702.230          51.437    19960432.860    82988848.730 8       702.230          50.750
G07  23020104.060   120971465.144 7      4791.180          45.437    23020103.600   120971465.143 6      4791.180          41.437    23020117.880    94263544.238 6      3733.387          41.437    23020118.100    94263545.221 7      3733.387          43.750
G19  20863786.760   109639932.039 7      1127.509          46.875    20863784.380   109639932.041 6      1127.509          38.250    20863790.520    85433728.334 6       878.579          37.812
G04  22377838.420   117596313.618 7      -178.559          43.250    22377837.240   117596313.629 5      -178.559          32.750    22377845.280    91633504.730 5      -139.137          32.625    22377845.940    91633530.710 7      -139.137          47.375
> 2024 07 31 13 48 36.0000000  0 11
G09  20329219.860   106830769.749 8      1645.438          49.125    20329218.840   106830769.754 8      1645.438          50.562    20329225.540    83244779.049 8      1282.159          50.875    20329226.000    83244781.058 8      1282.159          50.812
R21  22958160.800   122853752.755 6      6751.161          40.062    22958161.000   122853752.775 6      6751.161          40.437    22958172.860    95552974.002 7      5250.903          42.250    22958173.080    95552979.991 6      5250.903          41.937
G20  24595404.800   129249719.724 6      4740.960          38.875    24595403.020   129249719.737 3      4740.960          21.500    24595413.180   100714081.957 3      3694.254          21.187
G11  23890603.720   125545973.377 6      5724.174          41.125    23890602.940   125545973.382 5      5724.174          30.000    23890609.480    97828054.339 4      4460.395          29.187    23890610.420    97828056.323 7      4460.395          46.125
G06  20891941.280   109787892.639 8      4277.237          49.125    20891940.980   109787892.638 8      4277.237          49.500    20891947.500    85549028.734 8      3332.912          49.937    20891948.380    85549036.738 8      3332.912          50.750
R04  22982649.300   123071032.535 6      -802.182          36.312    22982649.880   123071032.604 5      -802.182          35.312    22982663.540    95721981.129 6      -623.919          41.937    22982662.480    95721976.123 7      -623.919          42.375
G17  21804914.540   114585584.475 7       188.531          47.250    21804913.460   114585584.469 7       188.531          45.625    21804924.000    89287500.949 7       146.907          46.000    21804924.220    89287508.947 7       146.907          47.937
R05  19960254.160   106698996.245 8       902.287          48.562    19960254.420   106698996.257 8       902.287          48.625    19960264.040    82988146.651 8       701.779          51.187    19960264.040    82988146.649 8       701.779          50.750
G07  23019192.220   120966674.057 7      4790.912          44.875    23019191.820   120966674.057 6      4790.912          41.250    23019206.440    94259810.924 6      3733.178          41.187    23019206.980    94259811.917 7      3733.178          44.250
G19  20863572.160   109638804.749 7      1126.848          46.687    20863569.840   109638804.754 6      1126.848          38.250    20863576.020    85432849.922 6       878.063          38.250
G04  22377872.460   117596492.266 7      -179.043          43.625    22377871.140   117596492.276 5      -179.043          32.750    22377879.200    91633643.932 5      -139.514          32.437    22377879.960    91633669.916 7      -139.514          47.750
> 2024 07 31 13 48 37.0000000  0 11
G09  20328906.840   106829124.411 8      1645.566          48.625    20328905.720   106829124.421 8      1645.566          50.437    20328912.380    83243496.971 8      1282.260          51.250    20328913.160    83243498.976 8      1282.260          50.875
R21  22956899.020   122847001.488 6      6751.667          40.062    22956899.900   122847001.525 6      6751.667          40.437    22956911.100    95547723.025 7      5251.297          42.250    22956911.220    95547729.013 6      5251.297          41.812
G20  24594502.720   129244978.526 6      4741.816          39.187    24594500.960   129244978.539 3      4741.816          21.500    24594510.780   100710387.521 3      3694.921          21.625
G11  23889514.540   125540249.288 6      5724.495          41.375    23889513.580   125540249.295 4      5724.495          29.375    23889520.260    97823594.011 4      4460.645          29.187    23889521.260    97823595.992 7      4460.645          46.187
G06  20891127.480   109783615.418 8      4277.585          49.125    20891127.080   109783615.420 8      4277.585          49.625    20891133.460    85545695.835 8      3333.183          49.812    20891134.420    85545703.839 8      3333.183          50.750
R04  22982799.120   123071834.439 6      -801.344          36.312    22982798.840   123071834.500 5      -801.344          35.312    22982813.280    95722604.830 6      -623.267          41.437    22982812.180    95722599.820 7      -623.267          42.937
G17  21804878.560   114585395.951 7       188.893          47.062    21804877.520   114585395.950 7       188.893          46.125    21804887.980    89287354.039 7       147.189          45.937    21804888.360    89287362.039 7       147.189          47.875
R05  19960085.280   106698093.937 8       902.659          48.750    19960085.560   106698093.949 8       902.659          48.250    19960095.260    82987444.855 8       702.068          51.000    19960095.020    82987444.852 8       702.068          50.937
G07  23018280.300   120961883.194 7      4791.348          44.750    23018280.020   120961883.193 6      4791.348          41.000    23018295.060    94256077.789 6      3733.518          41.000    23018295.300    94256078.785 7      3733.518          44.437
G19  20863357.740   109637678.101 7      1126.890          46.375    20863355.680   109637678.109 6      1126.890          37.687    20863361.720    85431972.013 6       878.096          38.375
G04  22377906.880   117596671.155 7      -178.429          43.625    22377905.360   117596671.171 5      -178.429          32.250    22377913.280    91633783.322 5      -139.036          32.437    22377913.840    91633809.302 7      -139.036          47.562
> 2024 07 31 13 48 38.0000000  0 11
G09  20328593.900   106827479.388 8      1644.590          48.875    20328592.700   106827479.393 8      1644.590          50.500    20328599.320    83242215.131 8      1281.498          50.937    20328600.020    83242217.137 8      1281.498          50.437
R21  22955637.400   122840250.155 6      6751.080          39.812    22955638.480   122840250.178 6      6751.080          40.437    22955649.200    95542471.986 7      5250.840          42.250    22955649.660    95542477.974 6      5250.840          41.812
G20  24593600.700   129240237.084 6      4741.528          39.687    24593598.540   129240237.097 3      4741.528          21.500    24593608.500   100706692.894 3      3694.697          21.625
G11  23888425.440   125534524.949 6      5724.095          40.937    23888424.180   125534524.959 4      5724.095          29.375    23888430.980    97819133.490 4      4460.334          29.187    23888432.060    97819135.476 7      4460.334          46.375
G06  20890313.440   109779338.326 8      4276.737          49.812    20890313.140   109779338.326 8      4276.737          50.125    20890319.600    85542363.035 8      3332.522          50.250    20890320.740    85542371.038 8      3332.522          50.437
R04  22982948.060   123072636.087 6      -801.786          36.312    22982950.020   123072636.137 6      -801.786          36.062    22982962.780    95723228.321 6      -623.611          41.500    22982961.620    95723223.317 7      -623.611          42.562
G17  21804842.840   114585207.581 7       187.978          47.000    21804841.640   114585207.578 7       187.978          46.250    21804852.100    89287207.243 7       146.476          46.062    21804852.600    89287215.249 8       146.476          48.062
R05  19959916.620   106697191.799 8       901.760          49.000    19959916.440   106697191.808 8       901.760          48.000    19959926.380    82986743.191 8       701.369          50.937    19959926.500    82986743.189 8       701.369          51.187
G07  23017368.480   120957092.322 7      4790.556          44.000    23017368.140   120957092.322 6      4790.556          41.187    23017383.620    94252344.649 6      3732.901          41.000    23017383.860    94252345.655 7      3732.901          44.875
G19  20863143.440   109636551.850 7      1125.841          45.500    20863141.140   109636551.855 6      1125.841          37.812    20863147.340    85431094.406 6       877.279          37.937
G04  22377940.820   117596850.121 7      -179.190          44.437    22377939.480   117596850.131 5      -179.190          32.250    22377947.240    91633922.768 5      -139.629          32.437    22377947.760    91633948.750 7      -139.629          47.625
> 2024 07 31 13 48 39.0000000  0 11
G09  20328280.920   106825834.898 8      1644.221          49.875    20328279.740   106825834.906 8      1644.221          51.375    20328286.440    83240933.708 8      1281.211          51.312    20328287.040    83240935.715 8      1281.211          50.500
R21  22954375.440   122833498.940 6      6751.286          39.812    22954376.900   122833498.970 6      6751.286          40.750    22954387.820    95537221.043 6      5251.000          41.937    22954387.880    95537227.032 6      5251.000          41.562
G20  24592698.860   129235495.694 6      4741.439          39.187    24592696.360   129235495.704 3      4741.439          21.500    24592706.240   100702998.307 3      3694.628          21.625
G11  23887336.280   125528800.668 6      5724.157          40.625    23887334.700   125528800.678 4      5724.157          29.375    23887341.660    97814673.017 4      4460.382          29.125    23887342.680    97814674.999 7      4460.382          46.187
G06  20889499.580   109775061.568 8      4276.567          49.750    20889499.300   109775061.571 8      4276.567          50.125    20889505.660    85539030.496 8      3332.390          49.250    20889507.000    85539038.499 8      3332.390          50.750
R04  22983098.380   123073437.595 6      -801.401          36.312    22983100.220   123073437.666 6      -801.401          36.062    22983112.320    95723851.727 6      -623.312          41.500    22983111.480    95723846.725 7      -623.312          42.562
G17  21804806.920   114585019.567 7       187.784          47.437    21804805.720   114585019.564 7       187.784          46.000    21804816.400    89287060.726 7       146.326          45.500    21804816.680    89287068.734 7       146.326          47.687
R05  19959747.780   106696290.046 8       901.561          49.875    19959747.580   106696290.061 8       901.561          48.875    19959757.760    82986041.829 8       701.214          50.937    19959757.660    82986041.826 8       701.214          50.937
G07  23016456.960   120952301.658 7      4790.545          43.687    23016456.240   120952301.661 6      4790.545          41.062    23016472.060    94248611.672 6      3732.892          40.937    23016472.080    94248612.676 7      3732.892          44.875
G19  20862928.980   109635426.256 7      1125.216          46.875    20862926.960   109635426.258 6      1125.216          37.812    20862933.300    85430217.313 6       876.792          37.562
G04  22377974.600   117597029.357 7      -179.312          44.000    22377973.680   117597029.370 5      -179.312          32.750    22377981.180    91634062.428 5      -139.724          32.437    22377981.740    91634088.410 7      -139.724          46.875
> 2024 07 31 13 48 40.0000000  0 11
G09  20327968.100   106824191.010 8      1643.742          49.687    20327966.880   106824191.015 8      1643.742          51.812    20327973.580    83239652.756 8      1280.838          51.250    20327974.220    83239654.763 8      1280.838          50.062
R21  22953113.960   122826747.970 6      6751.129          39.812    22953115.660   122826748.001 6      6751.129          40.750    22953125.520    95531970.293 6      5250.878          41.625    22953126.120    95531976.291 6      5250.878          40.625
G20  24591796.840   129230754.312 6      4741.588          39.187    24591794.060   129230754.325 3      4741.588          21.500    24591803.920   100699303.730 3      3694.744          21.625
G11  23886246.860   125523076.457 6      5724.274          41.625    23886245.260   125523076.467 4      5724.274          29.375    23886252.540    97810212.595 4      4460.473          29.125    23886253.420    97810214.582 7      4460.473          45.562
G06  20888685.740   109770785.218 8      4276.343          49.375    20888685.560   109770785.220 8      4276.343          50.187    20888691.900    85535698.274 8      3332.215          50.000    20888693.080    85535706.280 8      3332.215          50.375
R04  22983247.540   123074239.138 6      -801.510          36.312    22983249.860   123074239.244 6      -801.510          36.062    22983262.080    95724475.174 6      -623.397          41.562    22983260.940    95724470.176 7      -623.397          42.437
G17  21804771.360   114584831.980 7       187.522          47.000    21804770.000   114584831.982 7       187.522          45.937    21804780.660    89286914.549 7       146.121          45.812    21804780.920    89286922.559 7       146.121          47.437
R05  19959579.140   106695388.775 8       901.174          49.812    19959579.120   106695388.784 8       901.174          49.312    19959589.080    82985340.834 8       700.913          49.625    19959589.200    82985340.833 8       700.913          50.375
G07  23015545.180   120947511.276 7      4790.410          43.625    23015544.620   120947511.283 6      4790.410          41.000    23015560.300    94244878.917 6      3732.787          41.187    23015560.660    94244879.927 7      3732.787          44.750
G19  20862715.120   109634301.313 7      1124.823          46.812    20862712.900   109634301.318 6      1124.823          37.687    20862719.220    85429340.726 6       876.486          37.500
G04  22378008.960   117597208.942 7      -179.638          44.625    22378007.800   117597208.958 5      -179.638          32.750    22378015.360    91634202.363 5      -139.978          32.437    22378016.080    91634228.353 7      -139.978          46.687
> 2024 07 31 13 48 41.0000000  0 11
G09  20327655.220   106822547.705 8      1643.007          50.000    20327654.120   106822547.710 8      1643.007          50.750    20327660.920    83238372.259 8      1280.265          51.062    20327661.440    83238374.264 8      1280.265          50.375
R21  22951852.460   122819997.212 6      6750.701          41.375    22951853.720   122819997.251 6      6750.701          41.687    22951863.800    95526719.710 6      5250.545          41.187    22951864.840    95526725.703 6      5250.545          40.625
G20  24590894.220   129226013.009 6      4741.373          38.937    24590892.020   129226013.021 3      4741.373          21.500    24590901.700   100695609.210 3      3694.576          21.625
G11  23885157.660   125517352.378 6      5723.793          41.250    23885156.080   125517352.388 4      5723.793          29.500    23885163.260    97805752.278 4      4460.099          29.125    23885164.220    97805754.250 7      4460.099          45.750
G06  20887872.300   109766509.292 8      4275.684          49.062    20887871.780   109766509.292 8      4275.684          49.250    20887878.260    85532366.385 8      3331.702          49.750    20887879.500    85532374.388 8      3331.702          50.625
R04  22983396.160   123075040.686 6      -801.460          36.312    22983400.140   123075040.766 6      -801.460          36.062    22983412.180    95725098.578 6      -623.358          41.437    22983410.520    95725093.565 7      -623.358          42.062
G17  21804735.780   114584644.830 7       186.931          47.875    21804734.480   114584644.830 7       186.931          45.625    21804745.220    89286768.703 7       145.661          45.500    21804745.680    89286776.711 7       145.661          47.937
R05  19959410.680   106694487.955 8       900.552          49.812    19959410.460   106694487.967 8       900.552          49.187    19959420.660    82984640.194 8       700.429          49.312    19959420.240    82984640.195 8       700.429          50.250
G07  23014634.080   120942721.195 7      4789.904          43.750    23014632.940   120942721.198 6      4789.904          40.937    23014648.720    94241146.395 6      3732.392          40.937    23014648.860    94241147.413 7      3732.392          44.437
G19  20862501.460   109633177.079 7      1123.937          46.625    20862499.060   109633177.087 6      1123.937          37.875    20862505.180    85428464.698 6       875.795          37.875
G04  22378043.180   117597388.856 7      -180.123          43.812    22378041.900   117597388.869 5      -180.123          32.500    22378049.380    91634342.549 5      -140.356          32.437    22378050.420    91634368.542 7      -140.356          47.312
> 2024 07 31 13 48 42.0000000  0 11
G09  20327342.680   106820905.005 8      1642.452          49.000    20327341.580   106820905.004 8      1642.452          50.375    20327348.300    83237092.229 8      1279.833          50.812    20327348.740    83237094.231 8      1279.833          50.437
R21  22950590.260   122813246.644 6      6750.489          41.375    22950592.600   122813246.696 6      6750.489          41.687    22950602.200    95521469.280 6      5250.380          41.187    22950603.480    95521475.268 6      5250.380          40.562
G20  24589992.180   129221271.745 6      4741.438          39.375    24589989.700   129221271.758 3      4741.438          21.562    24589999.360   100691914.720 3      3694.627          21.625
G11  23884068.600   125511628.326 6      5724.015          41.437    23884066.900   125511628.336 4      5724.015          29.500    23884073.920    97801291.981 4      4460.271          29.125    23884074.700    97801293.966 7      4460.271          46.312
G06  20887058.520   109762233.748 8      4275.423          49.500    20887058.100   109762233.753 8      4275.423          49.500    20887064.580    85529034.794 8      3331.498          49.375    20887065.900    85529042.799 8      3331.498          50.937
R04  22983545.800   123075842.181 6      -801.267          36.312    22983548.740   123075842.247 6      -801.267          36.062    22983561.560    95725721.956 6      -623.207          41.437    22983560.460    95725716.952 7      -623.207          42.062
G17  21804700.180   114584458.105 7       186.516          47.500    21804698.620   114584458.108 7       186.516          45.437    21804709.440    89286623.193 7       145.337          45.812    21804710.060    89286631.203 7       145.337          47.687
R05  19959241.980   106693587.581 8       900.196          48.125    19959242.120   106693587.593 7       900.196          47.312    19959252.160    82983939.904 8       700.152          50.812    19959252.320    82983939.904 8       700.152          50.625
G07  23013722.460   120937931.370 7      4789.780          44.250    23013721.760   120937931.375 6      4789.780          41.375    23013736.940    94237414.067 6      3732.296          41.062    23013737.060    94237415.083 7      3732.296          44.500
G19  20862287.560   109632053.529 7      1123.321          46.687    20862285.340   109632053.537 6      1123.321          37.750    20862291.340    85427589.198 6       875.315          37.812
G04  22378077.380   117597569.091 7      -180.343          43.375    22378076.160   117597569.104 5      -180.343          32.500    22378083.600    91634482.994 5      -140.527          32.437    22378084.760    91634508.978 7      -140.527          47.250
> 2024 07 31 13 48 43.0000000  0 11
G09  20327030.340   106819262.596 8      1642.240          49.625    20327029.060   106819262.603 8      1642.240          50.875    20327035.720    83235812.432 8      1279.668          50.687    20327036.280    83235814.434 8      1279.668          50.250
R21  22949328.880   122806496.022 6      6750.538          41.375    22949330.900   122806496.061 6      6750.538          41.687    22949340.560    95516218.791 6      5250.419          41.687    22949341.500    95516224.780 6      5250.419          40.875
G20  24589089.460   129216530.287 6      4741.588          39.250    24589087.260   129216530.299 3      4741.588          21.562    24589097.040   100688220.084 3      3694.744          21.625
G11  23882979.000   125505904.102 6      5724.343          40.750    23882977.660   125505904.110 4      5724.343          29.500    23882984.660    97796831.546 4      4460.527          29.187    23882985.180    97796833.532 7      4460.527          46.062
G06  20886244.840   109757958.333 8      4275.403          49.062    20886244.520   109757958.332 8      4275.403          49.875    20886250.980    85525703.295 8      3331.483          50.125    20886252.220    85525711.303 8      3331.483          50.937
R04  22983695.340   123076643.400 6      -801.131          36.312    22983697.320   123076643.471 6      -801.131          36.062    22983710.820    95726345.133 6      -623.102          41.437    22983709.780    95726340.123 7      -623.102          42.062
G17  21804664.560   114584271.507 7       186.541          47.500    21804663.100   114584271.507 7       186.541          45.687    21804673.940    89286477.778 7       145.357          45.812    21804674.660    89286485.783 8       145.357          48.187
R05  19959073.780   106692687.384 8       900.098          48.875    19959073.480   106692687.388 7       900.098          47.750    19959083.780    82983239.742 8       700.076          50.875    19959083.720    82983239.743 8       700.076          51.125
G07  23012810.940   120933141.526 7      4790.009          44.437    23012810.300   120933141.531 6      4790.009          41.000    23012825.380    94233681.728 6      3732.475          41.062    23012825.220    94233682.737 7      3732.475          43.875
G19  20862073.940   109630930.394 7      1122.916          46.312    20862071.540   109630930.396 6      1122.916          37.750    20862077.760    85426714.018 6       875.000          37.562
G04  22378111.800   117597749.378 7      -180.267          43.562    22378110.600   117597749.391 5      -180.267          32.500    22378118.240    91634623.473 5      -140.468          32.437    22378118.920    91634649.457 7      -140.468          46.687
> 2024 07 31 13 48 44.0000000  0 11
G09  20326717.840   106817620.742 8      1641.613          49.062    20326716.620   106817620.744 8      1641.613          50.625    20326723.280    83234533.063 8      1279.179          50.750    20326723.840    83234535.063 8      1279.179          50.375
R21  22948067.200   122799745.569 6      6750.363          39.875    22948069.620   122799745.587 6      6750.363          40.437    22948078.880    95510968.426 6      5250.282          41.687    22948079.880    95510974.421 6      5250.282          40.875
G20  24588187.080   129211788.797 6      4741.439          38.875    24588185.040   129211788.810 3      4741.439          21.562    24588194.660   100684525.423 3      3694.628          21.625
G11  23881889.720   125500179.918 6      5724.217          40.750    23881888.400   125500179.928 4      5724.217          29.187    23881895.400    97792371.147 4      4460.429          29.187    23881896.120    97792373.131 7      4460.429          46.000
G06  20885431.460   109753683.272 8      4274.984          49.625    20885430.940   109753683.274 8      4274.984          49.375    20885437.480    85522372.083 8      3331.156          49.375    20885438.400    85522380.089 8      3331.156          50.625
R04  22983845.300   123077444.598 6      -801.302          36.937    22983848.780   123077444.642 6      -801.302          36.062    22983860.520    95726968.253 6      -623.235          41.437    22983859.260    95726963.239 7      -623.235          42.375
G17  21804629.380   114584085.295 7       185.994          47.250    21804627.740   114584085.297 7       185.994          45.812    21804638.500    89286332.673 7       144.931          45.187    21804639.440    89286340.675 8       144.931          48.375
R05  19958905.380   106691787.577 8       899.671          48.500    19958905.200   106691787.578 7       899.671          47.937    19958915.340    82982539.888 8       699.744          50.937    19958915.420    82982539.886 8       699.744          51.187
G07  23011899.640   120928351.953 7      4789.548          43.937    23011898.920   120928351.950 6      4789.548          41.187    23011913.860    94229949.591 6      3732.115          41.125    23011914.280    94229950.598 7      3732.115          44.000
G19  20861860.020   109629807.882 7      1122.210          46.812    20861858.020   109629807.889 6      1122.210          38.187    20861864.240    85425839.331 6       874.449          37.625
G04  22378145.920   117597929.965 7      -180.745          44.437    22378145.080   117597929.978 5      -180.745          32.437    22378152.380    91634764.184 5      -140.840          32.437    22378153.120    91634790.178 7      -140.840          47.125
> 2024 07 31 13 48 45.0000000  0 11
G09  20326405.660   106815979.421 8      1641.013          48.562    20326404.280   106815979.420 8      1641.013          50.812    20326410.960    83233254.109 8      1278.711          50.875    20326411.500    83233256.112 8      1278.711          50.562
R21  22946805.900   122792995.272 6      6750.201          39.875    22946808.180   122792995.297 6      6750.201          40.437    22946817.460    95505718.200 6      5250.157          41.687    22946818.440    95505724.192 6      5250.157          40.687
G20  24587285.080   129207047.312 6      4741.418          38.875    24587282.740   129207047.325 3      4741.418          21.562    24587292.380   100680830.765 3      3694.612          21.625
G11  23880800.820   125494455.768 6      5724.043          40.937    23880799.100   125494455.773 4      5724.043          29.187    23880806.080    97787910.770 4      4460.293          29.187    23880806.720    97787912.771 7      4460.293          46.125
G06  20884617.860   109749408.561 8      4274.575          48.812    20884617.480   109749408.563 8      4274.575          49.062    20884623.960    85519041.141 8      3330.838          49.437    20884624.860    85519049.147 8      3330.838          50.625
R04  22983995.620   123078245.686 6      -801.172          36.937    22983999.300   123078245.717 6      -801.172          37.000    22984009.920    95727591.309 6      -623.134          41.500    22984009.040    95727586.303 6      -623.134          41.875
G17  21804593.920   114583899.437 7       185.677          47.062    21804592.360   114583899.442 7       185.677          45.687    21804603.100    89286187.837 7       144.683          45.500    21804603.860    89286195.840 7       144.683          47.937
R05  19958737.160   106690888.179 8       899.199          48.000    19958737.100   106690888.180 7       899.199          47.875    19958747.020    82981840.356 8       699.377          50.687    19958747.020    82981840.355 8       699.377          50.562
G07  23010988.340   120923562.571 7      4789.305          43.437    23010987.700   120923562.565 6      4789.305          40.937    23011002.340    94226217.607 6      3731.926          41.000    23011002.620    94226218.615 7      3731.926          44.000
G19  20861646.560   109628685.995 7      1121.589          46.562    20861644.440   109628686.005 6      1121.589          38.062    20861650.680    85424965.131 6       873.966          38.562
G04  22378180.300   117598110.812 7      -180.982          43.437    22378179.580   117598110.827 5      -180.982          32.437    22378186.840    91634905.100 5      -141.025          32.437    22378187.620    91634931.092 7      -141.025          47.250
> 2024 07 31 13 48 46.0000000  0 11
G09  20326093.340   106814338.578 8      1640.542          48.812    20326092.040   106814338.580 8      1640.542          50.750    20326098.720    83231975.530 8      1278.344          50.625    20326099.200    83231977.533 8      1278.344          50.312
R21  22945544.780   122786245.035 6      6750.242          39.875    22945546.680   122786245.077 6      6750.242          40.437    22945555.600    95500468.031 6      5250.189          41.375    22945557.000    95500474.031 6      5250.189          40.687
G20  24586382.600   129202305.757 6      4741.586          37.937    24586380.380   129202305.775 3      4741.586          21.562    24586390.120   100677136.051 3      3694.742          21.500
G11  23879711.300   125488731.608 6      5724.081          41.312    23879709.620   125488731.610 4      5724.081          29.187    23879716.780    97783450.387 4      4460.323          29.187    23879717.460    97783452.378 7      4460.323          45.875
G06  20883804.540   109745134.139 8      4274.254          48.625    20883804.020   109745134.141 8      4274.254          49.500    20883810.600    85515710.423 8      3330.588          49.375    20883811.440    85515718.428 8      3330.588          50.500
R04  22984145.020   123079046.626 6      -801.039          36.937    22984147.420   123079046.681 6      -801.039          37.000    22984159.360    95728214.282 6      -623.030          41.500    22984158.480    95728209.271 6      -623.030          41.875
G17  21804558.480   114583713.916 7       185.307          47.375    21804557.060   114583713.916 7       185.307          45.875    21804567.800    89286043.261 7       144.395          45.312    21804568.600    89286051.266 7       144.395          47.562
R05  19958568.780   106689989.110 8       898.839          48.375    19958568.740   106689989.114 8       898.839          48.187    19958578.840    82981141.082 8       699.097          50.937    19958579.160    82981141.083 8       699.097          51.000
G07  23010076.940   120918773.376 7      4788.977          43.750    23010076.420   120918773.381 6      4788.977          41.125    23010091.000    94222485.779 6      3731.671          41.062    23010090.700    94222486.776 7      3731.671          43.625
G19  20861433.260   109627564.709 7      1120.944          46.562    20861431.080   109627564.714 6      1120.944          37.750    20861437.220    85424091.394 6       873.463          38.375
G04  22378214.680   117598291.895 7      -181.227          44.375    22378214.060   117598291.910 5      -181.227          32.437    22378221.340    91635046.201 5      -141.216          32.500    22378221.960    91635072.187 7      -141.216          47.312
> 2024 07 31 13 48 47.0000000  0 11
G09  20325781.260   106812698.121 7      1640.272          47.687    20325779.960   106812698.124 8      1640.272          50.375    20325786.540    83230697.252 8      1278.134          51.250    20325787.140    83230699.255 8      1278.134          50.625
R21  22944283.340   122779494.818 6      6750.280          39.750    22944284.960   122779494.849 6      6750.280          40.312    22944294.660    95495217.868 6      5250.217          41.250    22944295.080    95495223.864 6      5250.217          40.312
G20  24585480.440   129197564.099 6      4741.762          37.875    24585478.000   129197564.114 3      4741.762          21.562    24585487.720   100673441.253 3      3694.880          21.500
G11  23878621.800   125483007.316 6      5724.186          40.687    23878620.420   125483007.324 4      5724.186          29.187    23878627.580    97778989.906 4      4460.405          29.125    23878628.000    97778991.909 7      4460.405          45.625
G06  20882991.200   109740859.932 8      4274.125          49.312    20882990.600   109740859.932 8      4274.125          49.250    20882997.180    85512379.870 8      3330.487          49.250    20882998.180    85512387.874 8      3330.487          50.937
R04  22984293.940   123079847.371 6      -800.694          36.937    22984297.000   123079847.445 6      -800.694          37.000    22984309.020    95728837.090 6      -622.762          41.500    22984307.800    95728832.079 6      -622.762          41.750
G17  21804523.360   114583528.595 7       185.261          47.500    21804521.900   114583528.597 7       185.261          45.437    21804532.600    89285898.844 7       144.359          45.437    21804533.280    89285906.848 7       144.359          47.875
R05  19958400.800   106689090.284 8       898.751          48.250    19958400.800   106689090.288 7       898.751          47.437    19958410.660    82980441.995 8       699.029          50.750    19958410.860    82980441.994 8       699.029          51.125
G07  23009165.660   120913984.236 7      4789.082          45.250    23009165.220   120913984.238 6      4789.082          41.250    23009179.800    94218753.982 6      3731.752          41.375    23009179.960    94218754.973 7      3731.752          44.437
G19  20861220.140   109626443.900 7      1120.544          47.000    20861217.800   109626443.905 6      1120.544          38.312    20861223.880    85423218.028 6       873.151          38.375
G04  22378249.280   117598473.094 7      -181.202          44.250    22378248.580   117598473.107 5      -181.202          32.437    22378255.980    91635187.391 5      -141.196          32.500    22378256.560    91635213.377 7      -141.196          47.562
> 2024 07 31 13 48 48.0000000  0 11
G09  20325469.140   106811058.174 8      1639.631          48.125    20325467.900   106811058.179 8      1639.631          50.375    20325474.500    83229419.376 8      1277.635          50.750    20325474.900    83229421.376 8      1277.635          50.250
R21  22943021.660   122772744.691 6      6750.096          39.750    22943023.740   122772744.722 6      6750.096          40.312    22943033.080    95489967.780 6      5250.075          41.250    22943034.060    95489973.767 6      5250.075          40.312
G20  24584577.900   129192822.365 6      4741.804          37.375    24584575.660   129192822.378 3      4741.804          21.562    24584585.460   100669746.399 3      3694.912          21.500
G11  23877532.400   125477283.009 6      5724.261          41.062    23877531.220   125477283.016 4      5724.261          29.375    23877538.360    97774529.409 4      4460.463          29.125    23877538.980    97774531.408 7      4460.463          45.750
G06  20882177.880   109736586.040 8      4273.692          48.687    20882177.320   109736586.043 8      4273.692          49.062    20882183.940    85509049.565 8      3330.150          49.500    20882185.000    85509057.571 8      3330.150          50.437
R04  22984443.300   123080648.055 6      -800.555          36.937    22984446.720   123080648.115 6      -800.555          37.000    22984458.420    95729459.825 6      -622.654          41.437    22984457.440    95729454.812 6      -622.654          41.625
G17  21804488.120   114583343.620 7       184.780          47.437    21804486.700   114583343.622 7       184.780          45.312    21804497.260    89285754.698 7       143.984          45.687    21804498.040    89285762.703 7       143.984          47.625
R05  19958232.480   106688191.837 8       898.204          48.375    19958232.480   106688191.846 7       898.204          47.375    19958242.660    82979743.201 8       698.603          51.875    19958242.860    82979743.204 8       698.603          51.187
G07  23008254.120   120909195.291 7      4788.773          44.750    23008253.920   120909195.293 6      4788.773          41.312    23008268.780    94215022.344 6      3731.512          41.187    23008269.020    94215023.342 7      3731.512          44.875
G19  20861006.920   109625323.679 7      1119.904          46.437    20861004.840   109625323.686 6      1119.904          37.437    20861010.680    85422345.122 6       872.652          37.875
G04  22378283.840   117598654.537 7      -181.529          43.875    22378283.080   117598654.550 5      -181.529          32.687    22378290.300    91635328.771 5      -141.451          32.437    22378290.940    91635354.764 7      -141.451          47.062
> 2024 07 31 13 48 49.0000000  0 11
G09  20325157.000   106809418.732 8      1639.453          48.625    20325155.960   106809418.737 8      1639.453          50.437    20325162.400    83228141.888 8      1277.496          50.625    20325162.820    83228143.887 8      1277.496          50.375
R21  22941760.460   122765994.749 6      6750.034          39.750    22941762.080   122765994.791 6      6750.034          40.312    22941771.380    95484717.829 6      5250.026          41.375    22941772.580    95484723.821 6      5250.026          40.687
G20  24583675.720   129188080.597 6      4742.222          37.375    24583673.220   129188080.604 3      4742.222          21.562    24583683.100   100666051.515 3      3695.238          21.500
G11  23876442.940   125471558.728 6      5724.528          41.062    23876441.840   125471558.732 4      5724.528          29.375    23876448.840    97770068.930 4      4460.671          29.125    23876449.560    97770070.937 7      4460.671          45.812
G06  20881364.740   109732312.464 8      4273.667          48.625    20881364.120   109732312.467 8      4273.667          49.250    20881370.620    85505719.506 8      3330.130          49.187    20881371.520    85505727.509 8      3330.130          51.000
R04  22984592.480   123081448.637 6      -800.333          36.937    22984595.840   123081448.716 6      -800.333          37.000    22984608.080    95730082.504 6      -622.481          41.187    22984606.900    95730077.498 6      -622.481          41.625
G17  21804452.980   114583158.974 7       184.804          47.375    21804451.580   114583158.976 7       184.804          45.625    21804462.080    89285610.811 7       144.003          45.250    21804463.180    89285618.817 7       144.003          47.875
R05  19958064.360   106687293.741 8       898.237          48.750    19958064.500   106687293.745 7       898.237          47.937    19958074.580    82979044.680 8       698.629          51.000    19958074.940    82979044.683 8       698.629          51.250
G07  23007342.780   120904406.527 7      4788.987          44.500    23007342.540   120904406.529 6      4788.987          41.437    23007357.860    94211290.844 6      3731.678          41.187    23007358.220    94211291.849 7      3731.678          45.125
G19  20860793.880   109624204.064 7      1119.591          46.687    20860791.760   109624204.069 6      1119.591          38.187    20860797.480    85421472.689 6       872.409          38.000
G04  22378318.280   117598836.256 7      -181.563          45.125    22378317.740   117598836.269 5      -181.563          32.687    22378324.840    91635470.369 5      -141.478          32.437    22378325.700    91635496.353 7      -141.478          47.312
> 2024 07 31 13 48 50.0000000  0 11
G09  20324845.240   106807779.813 8      1638.600          49.062    20324843.980   106807779.818 8      1638.600          50.437    20324850.600    83226864.806 8      1276.831          51.187    20324850.920    83226866.807 8      1276.831          50.375
R21  22940499.580   122759244.981 6      6749.609          40.125    22940500.660   122759245.009 6      6749.609          40.562    22940510.000    95479468.006 6      5249.696          41.375    22940511.340    95479473.999 6      5249.696          40.187
G20  24582773.160   129183338.847 6      4741.701          37.812    24582770.820   129183338.852 3      4741.701          21.250    24582780.640   100662356.651 3      3694.832          21.500
G11  23875353.680   125465834.457 6      5724.259          40.437    23875352.520   125465834.464 4      5724.259          29.375    23875359.600    97765608.466 4      4460.462          29.125    23875360.000    97765610.468 7      4460.462          45.500
G06  20880551.600   109728039.230 8      4273.017          48.812    20880550.880   109728039.232 8      4273.017          49.375    20880557.500    85502389.710 8      3329.624          49.937    20880558.460    85502397.716 8      3329.624          51.062
R04  22984742.420   123082249.165 6      -800.710          37.312    22984746.020   123082249.231 6      -800.710          37.000    22984757.180    95730705.126 6      -622.775          41.187    22984756.420    95730700.118 6      -622.775          41.875
G17  21804418.040   114582974.696 7       184.045          46.812    21804416.580   114582974.701 7       184.045          45.437    21804427.060    89285467.204 7       143.412          45.312    21804427.880    89285475.211 7       143.412          47.687
R05  19957896.560   106686396.016 7       897.493          47.250    19957896.280   106686396.023 7       897.493          47.437    19957906.820    82978346.454 8       698.050          51.375    19957906.920    82978346.456 8       698.050          51.125
G07  23006431.760   120899617.978 7      4788.413          45.500    23006431.280   120899617.986 6      4788.413          41.062    23006446.920    94207559.514 6      3731.231          41.000    23006447.160    94207560.521 7      3731.231          45.500
G19  20860580.980   109623085.073 7      1118.641          46.750    20860578.860   109623085.078 6      1118.641          38.375    20860584.640    85420600.740 6       871.668          38.125
G04  22378352.700   117599018.228 7      -182.133          44.562    22378352.520   117599018.235 5      -182.133          32.562    22378359.580    91635612.154 5      -141.921          32.375    22378360.420    91635638.140 7      -141.921          47.125
> 2024 07 31 13 48 51.0000000  0 11
G09  20324533.320   106806141.490 8      1638.151          49.062    20324532.300   106806141.495 8      1638.151          50.437    20324538.840    83225588.187 8      1276.481          50.562    20324539.100    83225590.187 8      1276.481          50.000
R21  22939238.000   122752495.408 6      6749.691          40.125    22939239.960   122752495.418 6      6749.691          40.562    22939248.920    95474218.336 6      5249.759          41.375    22939249.800    95474224.329 6      5249.759          40.187
G20  24581871.040   129178597.105 6      4742.068          38.187    24581868.520   129178597.107 3      4742.068          21.250    24581878.220   100658661.787 3      3695.118          21.500
G11  23874264.320   125460110.281 6      5724.314          41.312    23874263.320   125460110.288 4      5724.314          29.375    23874270.100    97761148.071 4      4460.505          29.187    23874270.600    97761150.071 7      4460.505          45.562
G06  20879738.500   109723766.389 8      4272.809          48.562    20879737.780   109723766.392 8      4272.809          49.500    20879744.380    85499060.224 8      3329.462          49.687    20879745.320    85499068.226 8      3329.462          50.562
R04  22984891.340   123083049.629 6      -800.428          37.312    22984895.620   123083049.684 6      -800.428          36.937    22984906.560    95731327.697 6      -622.555          41.187    22984906.020    95731322.687 6      -622.555          41.625
G17  21804383.180   114582790.838 7       183.772          46.500    21804381.800   114582790.840 7       183.772          45.750    21804392.200    89285323.925 7       143.199          45.500    21804392.940    89285331.931 7       143.199          47.937
R05  19957728.840   106685498.727 7       897.242          47.500    19957728.360   106685498.731 7       897.242          46.937    19957738.880    82977648.558 8       697.855          50.562    19957738.900    82977648.558 8       697.855          50.812
G07  23005520.640   120894829.719 7      4788.230          45.062    23005519.940   120894829.724 6      4788.230          41.125    23005535.740    94203828.406 6      3731.089          41.312    23005536.040    94203829.416 7      3731.089          45.625
G19  20860368.100   109621966.765 7      1118.123          46.750    20860366.100   109621966.769 6      1118.123          38.000    20860371.800    85419729.324 6       871.265          37.750
G04  22378387.580   117599200.527 7      -182.364          45.000    22378387.280   117599200.535 5      -182.364          32.562    22378394.260    91635754.200 5      -142.102          32.375    22378395.000    91635780.188 7      -142.102          47.750
> 2024 07 31 13 48 52.0000000  0 11
G09  20324221.820   106804503.508 8      1637.459          48.500    20324220.660   106804503.513 8      1637.459          50.187    20324227.100    83224311.838 8      1275.942          50.562    20324227.820    83224313.836 8      1275.942          50.687
R21  22937976.620   122745745.734 6      6749.457          40.687    22937978.380   122745745.757 6      6749.457          41.062    22937987.420    95468968.599 6      5249.578          41.375    22937988.240    95468974.591 6      5249.578          40.187
G20  24580968.420   129173855.163 6      4741.918          38.187    24580966.040   129173855.168 3      4741.918          21.250    24580976.040   100654966.767 3      3695.001          21.500
G11  23873175.120   125454385.934 6      5724.124          40.812    23873174.280   125454385.941 4      5724.124          28.875    23873180.680    97756687.541 4      4460.356          29.187    23873181.500    97756689.545 7      4460.356          45.375
G06  20878925.340   109719493.709 8      4272.290          49.062    20878924.660   109719493.711 8      4272.290          49.125    20878931.300    85495730.861 8      3329.057          49.437    20878932.360    85495738.867 8      3329.057          50.625
R04  22985040.940   123083849.814 6      -800.216          37.312    22985044.340   123083849.877 6      -800.216          36.937    22985055.580    95731950.068 6      -622.390          41.187    22985055.360    95731945.055 6      -622.390          41.625
G17  21804348.180   114582607.137 7       183.302          47.250    21804346.920   114582607.145 7       183.302          45.500    21804357.020    89285180.774 7       142.832          44.812    21804357.880    89285188.778 7       142.832          47.812
R05  19957561.200   106684601.638 7       896.668          47.750    19957560.420   106684601.637 7       896.668          47.312    19957571.000    82976950.814 8       697.408          50.375    19957571.320    82976950.821 8       697.408          50.562
G07  23004609.600   120890041.459 7      4787.979          44.375    23004608.440   120890041.461 6      4787.979          40.750    23004624.400    94200097.299 6      3730.893          40.750    23004624.740    94200098.321 7      3730.893          46.375
G19  20860155.300   109620848.892 7      1117.332          47.375    20860153.320   109620848.897 6      1117.332          37.937    20860159.120    85418858.251 6       870.648          38.125
G04  22378422.280   117599382.903 7      -182.793          44.125    22378422.040   117599382.913 5      -182.793          32.687    22378429.020    91635896.307 5      -142.436          32.375    22378429.780    91635922.293 7      -142.436          46.750
> 2024 07 31 13 48 53.0000000  0 11
G09  20323910.140   106802865.997 8      1637.324          48.937    20323909.020   106802866.007 8      1637.324          50.187    20323915.500    83223035.855 8      1275.837          50.375    20323916.260    83223037.858 8      1275.837          50.312
R21  22936715.360   122738996.180 6      6749.459          40.687    22936716.960   122738996.203 6      6749.459          41.062    22936726.200    95463718.955 6      5249.579          41.375    22936726.840    95463724.946 6      5249.579          40.187
G20  24580065.860   129169113.206 6      4742.129          37.812    24580063.780   129169113.208 3      4742.129          21.250    24580073.720   100651271.738 3      3695.166          21.500
G11  23872085.520   125448661.579 6      5724.414          41.187    23872085.060   125448661.584 4      5724.414          28.875    23872091.240    97752227.007 4      4460.583          29.187    23872091.960    97752229.009 7      4460.583          44.625
G06  20878112.520   109715221.329 8      4272.256          48.500    20878111.680   109715221.331 8      4272.256          49.375    20878118.260    85492401.731 8      3329.030          49.500    20878119.280    85492409.735 8      3329.030          50.625
R04  22985190.320   123084649.935 6      -799.865          37.312    22985192.860   123084649.993 6      -799.865          36.937    22985205.060    95732572.372 6      -622.117          40.937    22985204.980    95732567.363 6      -622.117          41.125
G17  21804312.980   114582423.760 7       183.290          46.812    21804312.000   114582423.768 7       183.290          44.250    21804322.200    89285037.873 7       142.823          44.500    21804322.560    89285045.878 7       142.823          47.375
R05  19957393.620   106683704.886 7       896.606          46.875    19957392.500   106683704.885 7       896.606          47.937    19957403.240    82976253.340 8       697.360          48.687    19957403.620    82976253.345 8       697.360          48.625
G07  23003698.200   120885253.376 7      4788.121          43.937    23003697.060   120885253.388 6      4788.121          40.500    23003713.340    94196366.341 6      3731.003          40.750    23003713.460    94196367.369 7      3731.003          45.500
G19  20859942.660   109619731.593 7      1117.130          47.125    20859940.720   109619731.598 6      1117.130          38.125    20859946.540    85417987.624 6       870.491          38.437
G04  22378457.320   117599565.484 7      -182.641          45.437    22378456.660   117599565.497 5      -182.641          32.687    22378463.900    91636038.580 5      -142.317          32.875    22378464.460    91636064.576 7      -142.317          46.750
> 2024 07 31 13 48 54.0000000  0 11
G09  20323598.460   106801228.930 8      1636.995          48.437    20323597.520   106801228.938 8      1636.995          50.000    20323603.940    83221760.218 8      1275.581          50.625    20323604.620    83221762.221 8      1275.581          50.000
R21  22935454.300   122732246.642 6      6749.575          41.312    22935455.780   122732246.673 6      6749.575          41.250    22935464.800    95458469.326 6      5249.669          40.937    22935465.420    95458475.320 6      5249.669          40.312
G20  24579164.140   129164371.119 6      4742.209          37.250    24579161.220   129164371.122 3      4742.209          21.250    24579171.180   100647576.612 3      3695.228          21.250
G11  23870996.460   125442937.164 6      5724.501          40.750    23870995.820   125442937.169 4      5724.501          28.875    23871001.840    97747766.427 4      4460.650          29.187    23871002.440    97747768.428 7      4460.650          45.250
G06  20877299.380   109710949.187 8      4272.136          48.625    20877298.640   109710949.187 8      4272.136          49.062    20877305.280    85489072.790 8      3328.937          49.312    20877306.320    85489080.789 8      3328.937          50.875
R04  22985340.400   123085449.880 6      -799.751          37.312    22985342.180   123085449.908 6      -799.751          36.937    22985354.180    95733194.538 6      -622.028          40.812    22985354.100    95733189.526 6      -622.028          41.500
G17  21804278.240   114582240.654 7       183.057          47.250    21804277.300   114582240.661 7       183.057          45.562    21804287.400    89284895.184 7       142.642          45.312    21804287.740    89284903.192 7       142.642          47.312
R05  19957225.780   106682808.452 7       896.434          46.125    19957224.780   106682808.445 7       896.434          47.250    19957235.640    82975556.112 8       697.227          50.625    19957235.760    82975556.119 8       697.227          50.750
G07  23002787.000   120880465.437 7      4788.027          43.375    23002785.640   120880465.449 6      4788.027          41.250    23002801.920    94192635.482 6      3730.930          40.812    23002802.400    94192636.506 7      3730.930          45.437
G19  20859730.260   109618614.838 7      1116.665          47.125    20859728.280   109618614.848 6      1116.665          38.187    20859733.900    85417117.419 6       870.129          38.312
G04  22378492.040   117599748.275 7      -182.792          45.250    22378491.480   117599748.293 5      -182.792          32.937    22378498.540    91636181.013 5      -142.435          32.875    22378499.020    91636207.003 7      -142.435          47.375
> 2024 07 31 13 48 55.0000000  0 11
G09  20323287.060   106799592.407 8      1636.261          48.750    20323286.200   106799592.409 8      1636.261          50.625    20323292.540    83220485.001 8      1275.008          51.000    20323293.260    83220487.002 8      1275.008          51.062
R21  22934193.100   122725497.288 6      6749.345          41.312    22934194.800   122725497.325 6      6749.345          41.250    22934203.200    95453219.829 6      5249.491          41.125    22934204.020    95453225.829 6      5249.491          40.312
G20  24578261.740   129159628.999 6      4742.344          37.250    24578258.620   129159629.004 3      4742.344          21.250    24578268.880   100643881.457 3      3695.333          21.250
G11  23869907.340   125437212.748 6      5724.389          41.125    23869906.300   125437212.748 4      5724.389          28.875    23869912.580    97743305.844 4      4460.563          29.187    23869913.160    97743307.845 7      4460.563          45.375
G06  20876486.600   109706677.379 8      4271.753          48.875    20876485.720   109706677.379 8      4271.753          49.250    20876492.380    85485744.106 8      3328.639          49.562    20876493.420    85485752.110 8      3328.639          50.937
R04  22985490.440   123086249.691 6      -799.766          37.312    22985490.680   123086249.727 6      -799.766          36.937    22985504.000    95733816.605 6      -622.040          40.812    22985503.760    95733811.597 6      -622.040          41.500
G17  21804243.300   114582057.910 7       182.597          47.375    21804242.540   114582057.918 7       182.597          45.625    21804252.620    89284752.772 7       142.283          45.312    21804252.840    89284760.784 7       142.283          47.625
R05  19957058.140   106681912.433 7       895.833          47.500    19957057.100   106681912.428 7       895.833          47.187    19957068.180    82974859.210 8       696.759          50.937    19957068.020    82974859.212 8       696.759          51.062
G07  23001876.040   120875677.710 7      4787.678          43.937    23001874.520   120875677.715 6      4787.678          41.000    23001890.600    94188904.788 6      3730.658          40.375    23001891.160    94188905.810 7      3730.658          44.625
G19  20859518.020   109617498.718 7      1115.801          46.687    20859516.000   109617498.728 6      1115.801          38.250    20859521.440    85416247.711 6       869.455          38.187
G04  22378526.980   117599931.319 7      -183.138          44.687    22378526.420   117599931.332 5      -183.138          32.937    22378533.440    91636323.642 5      -142.705          32.875    22378533.960    91636349.634 7      -142.705          47.687
> 2024 07 31 13 48 56.0000000  0 11
G09  20322975.640   106797956.244 8      1635.908          48.562    20322974.820   106797956.249 8      1635.908          50.812    20322981.240    83219210.067 8      1274.734          51.062    20322981.840    83219212.068 8      1274.734          49.812
R21  22932932.140   122718747.962 6      6749.319          41.250    22932933.100   122718747.998 6      6749.319          41.062    22932941.800    95447970.364 6      5249.470          41.125    22932943.160    95447976.355 6      5249.470          39.687
G20  24577359.320   129154886.753 6      4742.340          38.125    24577356.100   129154886.760 3      4742.340          21.250    24577366.360   100640186.206 3      3695.330          21.250
G11  23868817.980   125431488.220 6      5724.514          40.625    23868816.960   125431488.220 4      5724.514          29.000    23868823.320    97738845.171 4      4460.660          28.687    23868824.100    97738847.173 7      4460.660          44.812
G06  20875673.840   109702405.797 8      4271.452          48.312    20875672.820   109702405.802 8      4271.452          48.812    20875679.540    85482415.607 8      3328.404          49.000    20875680.700    85482423.613 8      3328.404          50.875
R04  22985639.300   123087049.333 6      -799.740          37.875    22985639.900   123087049.374 6      -799.740          36.937    22985653.320    95734438.555 6      -622.020          41.500    22985653.260    95734433.551 6      -622.020          41.625
G17  21804208.540   114581875.387 7       182.372          46.812    21804207.840   114581875.389 7       182.372          45.562    21804217.860    89284610.536 7       142.108          45.562    21804218.200    89284618.546 7       142.108          47.062
R05  19956890.260   106681016.640 7       895.674          46.437    19956889.320   106681016.644 7       895.674          47.062    19956900.520    82974162.486 8       696.635          50.687    19956900.760    82974162.491 8       696.635          51.062
G07  23000965.280   120870890.026 7      4787.641          43.250    23000963.480   120870890.031 6      4787.641          40.750    23000979.440    94185174.143 6      3730.629          40.875    23000979.980    94185175.163 7      3730.629          44.687
G19  20859305.720   109616383.055 7      1115.347          46.000    20859303.800   109616383.066 6      1115.347          38.062    20859309.280    85415378.358 6       869.101          37.937
G04  22378561.400   117600114.494 7      -183.285          45.312    22378561.340   117600114.506 5      -183.285          32.812    22378568.260    91636466.375 5      -142.819          32.875    22378569.000    91636492.368 7      -142.819          47.687
> 2024 07 31 13 48 57.0000000  0 11
G09  20322664.520   106796320.477 8      1635.579          48.625    20322663.520   106796320.480 8      1635.579          50.375    20322669.900    83217935.440 8      1274.477          50.687    20322670.720    83217937.440 8      1274.477          50.437
R21  22931670.500   122711998.622 6      6749.369          41.250    22931672.060   122711998.653 6      6749.369          41.062    22931680.080    95442720.873 6      5249.509          40.562    22931681.420    95442726.873 6      5249.509          39.687
G20  24576457.040   129150144.348 6      4742.549          38.000    24576453.760   129150144.353 3      4742.549          21.250    24576463.880   100636490.828 3      3695.493          21.250
G11  23867728.360   125425763.576 6      5724.818          41.250    23867727.460   125425763.573 4      5724.818          29.000    23867733.920    97734384.411 4      4460.897          28.687    23867734.480    97734386.418 7      4460.897          45.562
G06  20874860.940   109698134.413 8      4271.298          48.437    20874860.080   109698134.415 8      4271.298          49.187    20874866.780    85479087.253 8      3328.284          49.500    20874867.760    85479095.255 8      3328.284          50.875
R04  22985788.180   123087848.779 6      -799.429          37.875    22985789.740   123087848.821 6      -799.429          36.937    22985802.500    95735060.330 6      -621.778          41.500    22985802.400    95735055.328 7      -621.778          42.250
G17  21804174.100   114581693.084 7       182.194          47.562    21804173.200   114581693.087 7       182.194          45.500    21804183.220    89284468.476 7       141.969          45.250    21804183.680    89284476.486 7       141.969          47.437
R05  19956722.940   106680121.104 7       895.448          47.625    19956722.040   106680121.108 7       895.448          46.625    19956733.000    82973465.961 8       696.459          51.437    19956733.060    82973465.965 8       696.459          51.250
G07  23000054.140   120866102.447 7      4787.514          43.562    23000052.380   120866102.460 6      4787.514          40.687    23000068.440    94181443.575 6      3730.530          40.750    23000068.700    94181444.588 7      3730.530          44.625
G19  20859093.520   109615267.892 7      1114.945          47.000    20859091.540   109615267.900 6      1114.945          37.937    20859097.160    85414509.395 6       868.788          37.937
G04  22378596.520   117600297.797 7      -183.265          45.187    22378596.240   117600297.810 5      -183.265          32.812    22378603.100    91636609.203 5      -142.804          32.750    22378603.860    91636635.201 7      -142.804          46.875
> 2024 07 31 13 48 58.0000000  0 11
G09  20322353.220   106794685.116 8      1635.245          49.750    20322352.340   106794685.126 8      1635.245          51.125    20322358.700    83216661.140 8      1274.217          50.875    20322359.560    83216663.141 8      1274.217          50.500
R21  22930409.280   122705249.298 7      6749.358          42.312    22930410.480   122705249.326 6      6749.358          41.062    22930419.320    95437471.409 6      5249.501          40.562    22930420.220    95437477.405 6      5249.501          39.562
G20  24575554.840   129145401.842 6      4742.705          38.625    24575551.260   129145401.844 3      4742.705          20.812    24575561.260   100632795.371 3      3695.614          21.250
G11  23866639.220   125420038.859 6      5724.894          40.312    23866638.220   125420038.859 4      5724.894          29.000    23866644.580    97729923.601 4      4460.957          28.687    23866644.960    97729925.603 7      4460.957          45.187
G06  20874048.060   109693863.275 8      4271.007          48.375    20874047.200   109693863.277 8      4271.007          49.375    20874054.060    85475759.092 8      3328.057          49.312    20874055.280    85475767.096 8      3328.057          50.937
R04  22985937.960   123088648.052 6      -799.375          37.875    22985938.380   123088648.096 6      -799.375          37.000    22985951.420    95735681.995 6      -621.736          41.250    22985952.160    95735676.993 7      -621.736          42.250
G17  21804139.500   114581511.037 7       182.012          46.937    21804138.380   114581511.037 7       182.012          45.312    21804148.600    89284326.606 7       141.827          45.000    21804149.080    89284334.610 7       141.827          47.687
R05  19956555.660   106679225.828 7       895.167          47.187    19956554.560   106679225.834 7       895.167          47.000    19956565.600    82972769.630 8       696.241          50.875    19956565.680    82972769.635 8       696.241          51.250
G07  22999142.760   120861314.992 7      4787.471          44.562    22999141.660   120861314.991 6      4787.471          41.375    22999157.560    94177713.086 6      3730.497          40.812    22999157.600    94177714.085 7      3730.497          44.187
G19  20858881.440   109614153.252 7      1114.441          47.312    20858879.600   109614153.257 6      1114.441          38.187    20858884.820    85413640.836 6       868.396          37.937
G04  22378631.720   117600481.274 7      -183.462          45.437    22378631.080   117600481.287 5      -183.462          33.125    22378637.860    91636752.170 5      -142.958          32.750    22378638.620    91636778.166 7      -142.958          47.437
> 2024 07 31 13 48 59.0000000  0 11
G09  20322041.980   106793050.379 8      1634.533          49.312    20322041.260   106793050.384 8      1634.533          50.562    20322047.720    83215387.317 8      1273.662          51.125    20322048.320    83215389.316 8      1273.662          50.937
R21  22929147.660   122698500.177 7      6749.145          42.312    22929149.300   122698500.208 6      6749.145          41.687    22929157.940    95432222.099 6      5249.335          40.687    22929159.060    95432228.101 6      5249.335          39.562
G20  24574652.420   129140659.393 6      4742.458          38.750    24574648.900   129140659.398 3      4742.458          20.812    24574658.960   100629099.958 3      3695.422          21.250
G11  23865550.000   125414314.234 6      5724.835          41.375    23865549.020   125414314.233 4      5724.835          29.000    23865555.020    97725462.856 4      4460.910          28.687    23865555.580    97725464.860 7      4460.910          45.250
G06  20873235.320   109689592.531 8      4270.606          48.187    20873234.600   109689592.531 8      4270.606          49.625    20873241.300    85472431.240 8      3327.745          49.750    20873242.420    85472439.241 8      3327.745          50.875
R04  22986086.820   123089447.281 6      -799.124          37.875    22986087.940   123089447.326 6      -799.124          37.000    22986101.000    95736303.607 6      -621.541          41.437    22986101.500    95736298.607 6      -621.541          41.875
G17  21804105.020   114581329.418 7       181.543          46.812    21804103.840   114581329.415 7       181.543          45.750    21804113.940    89284185.073 7       141.462          45.750    21804114.560    89284193.076 7       141.462          47.125
R05  19956388.260   106678330.987 7       894.689          47.187    19956386.980   106678330.993 7       894.689          47.187    19956398.260    82972073.645 8       695.869          50.937    19956398.280    82972073.648 8       695.869          51.562
G07  22998231.720   120856527.788 7      4787.236          43.937    22998230.840   120856527.785 6      4787.236          41.250    22998246.600    94173982.802 6      3730.314          40.875    22998246.380    94173983.809 7      3730.314          44.875
G19  20858669.460   109613039.292 7      1113.725          47.562    20858667.680   109613039.297 6      1113.725          38.187    20858672.940    85412772.807 6       867.838          38.375
G04  22378666.340   117600665.079 7      -183.828          45.625    22378666.180   117600665.092 5      -183.828          33.125    22378672.760    91636895.391 5      -143.243          33.062    22378673.600    91636921.385 7      -143.243          47.437
> 2024 07 31 13 49  0.0000000  0 11
G09  20321731.100   106791415.992 8      1634.030          48.937    20321730.280   106791415.994 8      1634.030          50.500    20321736.640    83214113.763 8      1273.270          50.937    20321737.360    83214115.764 8      1273.270          50.187
R21  22927886.760   122691751.073 7      6749.102          42.250    22927888.000   122691751.101 6      6749.102          41.687    22927896.660    95426972.802 6      5249.302          40.687    22927898.060    95426978.800 6      5249.302          39.437
G20  24573749.540   129135916.747 6      4742.537          38.750    24573746.320   129135916.752 3      4742.537          20.812    24573756.340   100625404.394 3      3695.483          21.250
G11  23864460.720   125408589.493 6      5724.663          40.312    23864459.720   125408589.495 4      5724.663          29.000    23864465.600    97721002.021 4      4460.776          28.562    23864466.120    97721004.023 7      4460.776          45.125
G06  20872422.580   109685321.969 8      4270.245          48.437    20872421.900   109685321.968 8      4270.245          49.125    20872428.660    85469103.527 8      3327.464          49.312    20872429.640    85469111.530 8      3327.464          50.687
R04  22986236.500   123090246.318 6      -799.235          37.875    22986237.640   123090246.357 6      -799.235          37.000    22986250.200    95736925.068 6      -621.627          41.437    22986250.760    95736920.062 7      -621.627          42.125
G17  21804070.500   114581147.990 7       181.118          45.937    21804069.240   114581147.992 7       181.118          45.437    21804079.620    89284043.694 7       141.131          45.250    21804080.060    89284051.694 7       141.131          47.062
R05  19956220.700   106677436.394 7       894.291          47.875    19956219.780   106677436.390 7       894.291          47.000    19956231.060    82971377.838 8       695.560          51.125    19956231.260    82971377.841 8       695.560          51.062
G07  22997321.220   120851740.648 7      4787.042          44.312    22997320.140   120851740.648 6      4787.042          41.062    22997335.900    94170252.571 6      3730.162          41.062    22997335.720    94170253.564 7      3730.162          45.125
G19  20858457.300   109611925.797 7      1113.110          47.250    20858455.720   109611925.802 6      1113.110          37.812    20858461.080    85411905.143 6       867.359          38.125
G04  22378701.480   117600849.011 7      -184.242          45.187    22378701.100   117600849.021 5      -184.242          32.875    22378707.680    91637038.708 5      -143.565          33.062    22378708.560    91637064.702 7      -143.565          47.375
