     3.05           OBSERVATION DATA    MIXED               RINEX VERSION / TYPE
TPS2RIN 1.0.29.3920 TPS-USER            20240801 093645 UTC PGM / RUN BY / DATE
Win64 build Feb 23, 2024 (c) Topcon Positioning Systems     COMMENT
SRC: 20240731_CAMI4.tps                                     COMMENT
OPT: -S -v 3.05                                             COMMENT
Observer            Agency                                  OBSERVER / AGENCY
O0M3X53SBGM         TPS HIPER_SR        4.8 HSR Jul,08,2022 REC # / TYPE / VERS
FW: 4.8 HSR Jul,08,2022 p3                                  COMMENT
SN: HiPer SR 1212-12575                                     COMMENT
000                 TPSHIPER_SR     NONE                    ANT # / TYPE
        1.8000        0.0000        0.0000                  ANTENNA: DELTA H/E/N
CAMI4                                                       MARKER NAME
  5388556.0739 -1597240.9464  3009474.1522                  APPROX POSITION XYZ
  2024     7    31    13    20    9.0000000     GPS         TIME OF FIRST OBS
  2024     7    31    13    35   12.0000000     GPS         TIME OF LAST OBS
     1.000                                                  INTERVAL
   904 EPOCHS                                               COMMENT
G   16 C1C L1C D1C S1C C1W L1W D1W S1W C2W L2W D2W S2W C2X  SYS / # / OBS TYPES
       L2X D2X S2X                                          SYS / # / OBS TYPES
R   16 C1C L1C D1C S1C C1P L1P D1P S1P C2P L2P D2P S2P C2C  SYS / # / OBS TYPES
       L2C D2C S2C                                          SYS / # / OBS TYPES
    14                                                      # OF SATELLITES
   G03   904   904   904   904   904   904   904   904   904PRN / # OF OBS
         904   904   904   904   904   904   904            PRN / # OF OBS
   G04   904   904   904   904   904   904   904   904   904PRN / # OF OBS
         904   904   904   904   904   904   904            PRN / # OF OBS
   G06   904   904   904   904   904   904   904   904   904PRN / # OF OBS
         904   904   904   904   904   904   904            PRN / # OF OBS
   G07   904   904   904   904   904   904   904   904   904PRN / # OF OBS
         904   904   904   904   904   904   904            PRN / # OF OBS
   G09   904   904   904   904   904   904   904   904   904PRN / # OF OBS
         904   904   904   904   904   904   904            PRN / # OF OBS
   G11   904   904   904   904   904   904   904   904   904PRN / # OF OBS
         904   904   904   904   904   904   904            PRN / # OF OBS
   G17   904   904   904   904   904   904   904   904   904PRN / # OF OBS
         904   904   904   904   904   904   904            PRN / # OF OBS
   G19   904   904   904   904   904   904   904   904   904PRN / # OF OBS
         904   904   904     0     0     0     0            PRN / # OF OBS
   G20   234   234   234   234   221   221   221   221   220PRN / # OF OBS
         220   220   220     0     0     0     0            PRN / # OF OBS
   G30    13    13    13    13    11    11    11    11    11PRN / # OF OBS
          11    11    11     7     7     7     7            PRN / # OF OBS
   R04    74    74    74    74    69    69    69    69    69PRN / # OF OBS
          69    69    69    68    68    68    68            PRN / # OF OBS
   R05   904   904   904   904   904   904   904   904   904PRN / # OF OBS
         904   904   904   904   904   904   904            PRN / # OF OBS
   R19   220   220   220   220   215   215   215   215   215PRN / # OF OBS
         215   215   215   214   214   214   214            PRN / # OF OBS
   R21   233   233   233   233   229   229   229   229   229PRN / # OF OBS
         229   229   229   228   228   228   228            PRN / # OF OBS
G L1C                                                       SYS / PHASE SHIFT
G L1W -0.25000                                              SYS / PHASE SHIFT
G L2W  0.00000                                              SYS / PHASE SHIFT
G L2X  0.25000                                              SYS / PHASE SHIFT
R L1C                                                       SYS / PHASE SHIFT
R L1P -0.25000                                              SYS / PHASE SHIFT
R L2P -0.25000                                              SYS / PHASE SHIFT
R L2C                                                       SYS / PHASE SHIFT
  4 R04  6 R05  1 R19  3 R21  4                             GLONASS SLOT / FRQ #
                                                            GLONASS COD/PHS/BIS
    18    18  1929     7GPS                                 LEAP SECONDS
                                                            END OF HEADER
> 2024 07 31 13 20  9.0000000  0 10
G03  23380747.260   122866670.540 6       408.260          41.062    23380746.580   122866670.539 6       408.260          36.312    23380759.080    95740284.561 5       318.125          35.812    23380759.500    95740294.555 7       318.125          42.062
R05  19472568.340   104092037.000 8      1780.765          49.562    19472568.240   104092037.001 8      1780.765          49.062    19472577.600    80960508.011 8      1385.040          51.500    19472577.680    80960512.009 8      1385.040          51.500
G11  24846631.000   130569931.483 6      5721.636          38.312    24846631.620   130569931.483 2      5721.636          17.500    24846637.900   101742836.778 2      4458.418          17.875    24846638.520   101742839.808 6      4458.418          37.750
G07  23720032.360   124649614.867 7      5056.890          43.875    23720030.760   124649614.872 7      5056.890          42.375    23720047.260    97129626.893 7      3940.434          42.437    23720047.820    97129634.883 7      3940.434          47.000
G17  21081958.140   110786434.199 7       982.339          44.437    21081956.920   110786434.201 7       982.339          42.437    21081963.440    86327109.974 7       765.459          42.125    21081963.940    86327111.976 7       765.459          47.687
G20  25235214.580   132611950.179 5      4789.431          30.937    25235243.120   132611949.955 1      4789.431           1.000    25235206.160   103333987.763 1      3732.025           1.000
G09  20119625.320   105729345.367 8      2671.886          49.062    20119624.240   105729345.372 8      2671.886          50.187    20119630.820    82386522.684 8      2081.989          50.625    20119631.500    82386526.685 8      2081.989          51.250
G19  20514044.860   107802031.296 7      2328.216          46.937    20514043.040   107802031.301 6      2328.216          39.500    20514047.320    84001588.584 6      1814.194          39.812
G06  21462500.580   112786203.692 7      4782.434          44.562    21462498.600   112786203.705 7      4782.434          45.312    21462505.820    87885379.579 7      3726.572          45.500    21462507.700    87885385.591 8      3726.572          48.375
G04  21509423.420   113032779.686 7       465.687          46.687    21509422.340   113032779.693 5       465.687          34.500    21509427.780    88077512.586 5       362.873          34.812    21509428.080    88077513.583 7       362.873          46.062
> 2024 07 31 13 20 10.0000000  0 10
G03  23380669.760   122866262.507 6       407.945          40.812    23380669.140   122866262.507 5       407.945          35.625    23380681.460    95739966.610 5       317.879          35.812    23380681.860    95739976.611 7       317.879          42.062
R05  19472235.160   104090256.654 8      1779.866          50.062    19472235.080   104090256.658 8      1779.866          49.062    19472244.580    80959123.300 8      1384.340          51.312    19472244.700    80959127.298 8      1384.340          51.687
G11  24845542.540   130564209.953 6      5721.309          37.562    24845542.660   130564209.950 2      5721.309          17.500    24845549.320   101738378.447 2      4458.163          17.875    24845549.900   101738381.502 6      4458.163          37.750
G07  23719070.040   124644558.128 7      5056.577          44.250    23719068.280   124644558.130 7      5056.577          42.625    23719084.860    97125686.577 7      3940.190          42.062    23719085.360    97125694.575 7      3940.190          46.937
G17  21081771.260   110785452.228 7       981.450          43.312    21081770.140   110785452.238 7       981.450          42.875    21081776.640    86326344.805 6       764.766          41.937    21081777.280    86326346.806 7       764.766          47.312
G20  25234302.520   132607160.855 5      4789.166          30.812    25234334.440   132607160.884 1      4789.166           1.000    25234290.600   103330256.342 1      3731.818           1.000
G09  20119116.880   105726673.883 8      2670.984          49.437    20119115.820   105726673.891 8      2670.984          51.000    20119122.500    82384441.010 8      2081.286          51.250    20119123.220    82384445.011 8      2081.286          51.500
G19  20513601.980   107799703.515 7      2327.182          47.375    20513600.200   107799703.518 6      2327.182          39.750    20513604.300    83999774.724 6      1813.388          39.375
G06  21461590.620   112781421.510 7      4781.950          45.250    21461588.600   112781421.517 7      4781.950          45.125    21461595.980    87881653.202 7      3726.195          45.000    21461597.820    87881659.211 8      3726.195          48.312
G04  21509334.900   113032314.365 7       464.884          46.687    21509333.780   113032314.376 5       464.884          34.562    21509339.160    88077149.997 5       362.247          34.687    21509339.640    88077150.988 7       362.247          46.062
> 2024 07 31 13 20 11.0000000  0 10
G03  23380592.240   122865854.543 6       407.782          41.375    23380591.420   122865854.545 6       407.782          36.062    23380603.860    95739648.711 5       317.752          35.875    23380604.480    95739658.721 6       317.752          41.875
R05  19471902.020   104088476.990 8      1779.288          50.375    19471902.080   104088476.994 8      1779.288          49.312    19471911.600    80957739.114 8      1383.891          51.187    19471911.680    80957743.115 8      1383.891          51.687
G11  24844454.080   130558488.397 6      5721.502          37.562    24844453.800   130558488.399 2      5721.502          17.500    24844460.580   101733920.097 2      4458.313          17.875    24844461.080   101733923.173 6      4458.313          37.750
G07  23718107.720   124639501.546 7      5056.518          43.562    23718105.940   124639501.551 7      5056.518          42.750    23718122.840    97121746.382 6      3940.144          41.750    23718123.260    97121754.381 7      3940.144          47.000
G17  21081584.000   110784470.876 7       980.925          44.750    21081583.380   110784470.883 7       980.925          42.062    21081589.840    86325580.105 6       764.357          41.812    21081590.120    86325582.112 7       764.357          47.437
G20  25233392.060   132602371.763 5      4789.042          30.812
G09  20118608.800   105724003.114 8      2670.399          49.812    20118607.540   105724003.114 8      2670.399          51.312    20118614.280    82382359.887 8      2080.830          51.250    20118614.860    82382363.888 8      2080.830          51.250
G19  20513159.180   107797376.541 8      2326.511          48.062    20513157.540   107797376.543 6      2326.511          39.625    20513161.480    83997961.493 6      1812.866          39.500
G06  21460680.860   112776639.624 7      4781.759          45.062    21460678.720   112776639.627 7      4781.759          45.750    21460686.080    87877927.053 7      3726.046          45.687    21460687.700    87877933.061 8      3726.046          48.937
G04  21509246.560   113031849.563 7       464.515          47.375    21509245.380   113031849.568 5       464.515          34.562    21509250.840    88076787.811 5       361.959          35.062    21509251.200    88076788.806 7       361.959          46.187
> 2024 07 31 13 20 12.0000000  0 10
G03  23380514.620   122865446.687 6       407.734          41.250    23380513.960   122865446.686 5       407.734          35.937    23380526.620    95739330.895 5       317.715          35.812    23380527.360    95739340.903 7       317.715          42.312
R05  19471569.220   104086698.058 8      1778.561          49.937    19471569.460   104086698.059 8      1778.561          49.062    19471578.820    80956355.501 8      1383.325          51.437    19471578.940    80956359.499 8      1383.325          51.562
G11  24843365.400   130552766.966 6      5721.404          36.687    24843364.940   130552766.971 2      5721.404          17.500    24843371.980   101729461.846 2      4458.237          17.875    24843372.720   101729464.889 6      4458.237          37.125
G07  23717145.440   124634445.170 7      5056.289          43.750    23717143.740   124634445.164 7      5056.289          42.750    23717160.480    97117806.346 7      3939.965          42.250    23717161.000    97117814.345 7      3939.965          46.687
G17  21081397.760   110783490.181 7       980.249          44.562    21081396.840   110783490.186 7       980.249          42.875    21081403.280    86324815.921 7       763.830          42.375    21081403.800    86324817.924 7       763.830          47.312
G20  25232480.160   132597582.728 5      4788.991          30.812    25232480.780   132597582.759 1      4788.991           7.312    25232484.540   103322798.093 1      3731.681           8.625
G09  20118100.740   105721333.104 8      2669.552          49.437    20118099.520   105721333.111 8      2669.552          50.937    20118106.200    82380279.364 8      2080.170          50.875    20118106.640    82380283.365 8      2080.170          51.250
G19  20512716.460   107795050.431 7      2325.669          47.187    20512714.940   107795050.436 6      2325.669          39.937    20512718.780    83996148.946 6      1812.210          39.562
G06  21459770.980   112771858.086 7      4781.252          45.062    21459768.660   112771858.091 7      4781.252          45.062    21459776.080    87874201.189 7      3725.651          45.187    21459777.820    87874207.197 8      3725.651          48.062
G04  21509158.320   113031385.343 7       463.909          47.062    21509156.880   113031385.348 5       463.909          35.125    21509162.560    88076426.079 5       361.487          35.062    21509162.860    88076427.068 7       361.487          46.250
> 2024 07 31 13 20 13.0000000  0 10
G03  23380436.520   122865038.746 6       408.171          41.687    23380436.380   122865038.743 6       408.171          36.375    23380449.160    95739013.015 6       318.055          36.312    23380449.920    95739023.025 7       318.055          42.312
R05  19471236.560   104084919.613 8      1778.333          49.562    19471236.460   104084919.611 8      1778.333          49.375    19471246.040    80954972.267 8      1383.148          51.187    19471246.100    80954976.263 8      1383.148          51.812
G11  24842276.700   130547045.405 6      5721.783          36.875    24842276.240   130547045.407 2      5721.783          17.500    24842283.420   101725003.488 2      4458.532          17.875    24842284.800   101725006.525 6      4458.532          37.125
G07  23716183.000   124629388.756 7      5056.555          43.562    23716181.680   124629388.761 7      5056.555          42.562    23716198.340    97113866.287 7      3940.172          42.437    23716198.620    97113874.287 7      3940.172          46.812
G17  21081211.320   110782509.912 7       980.125          44.500    21081210.440   110782509.917 7       980.125          42.812    21081216.740    86324052.071 7       763.734          42.312    21081217.280    86324054.074 7       763.734          47.375
G20  25231567.740   132592793.678 5      4789.424          30.812    25231570.000   132592793.693 1      4789.424           5.750    25231573.080   103319066.444 1      3732.019           6.812
G09  20117592.720   105718663.641 8      2669.272          49.937    20117591.580   105718663.648 8      2669.272          50.750    20117598.200    82378199.263 8      2079.952          51.562    20117598.860    82378203.266 8      2079.952          51.375
G19  20512273.800   107792724.991 7      2325.149          46.812    20512272.400   107792724.999 6      2325.149          39.437    20512276.560    83994336.915 6      1811.804          39.312
G06  21458861.020   112767076.679 7      4781.470          45.750    21458858.960   112767076.684 7      4781.470          45.500    21458866.220    87870475.416 7      3725.820          45.125    21458868.000    87870481.421 8      3725.820          48.437
G04  21509069.880   113030921.484 7       463.813          46.750    21509068.640   113030921.494 5       463.813          34.812    21509074.120    88076064.630 5       361.413          35.000    21509074.320    88076065.624 7       361.413          46.437
> 2024 07 31 13 20 14.0000000  0 10
G03  23380358.660   122864630.782 6       407.901          40.750    23380358.540   122864630.784 6       407.901          36.000    23380371.720    95738695.115 6       317.845          36.312    23380372.300    95738705.125 7       317.845          42.562
R05  19470904.120   104083141.691 8      1777.670          50.437    19470903.780   104083141.690 8      1777.670          48.875    19470913.520    80953589.435 8      1382.632          49.562    19470913.620    80953593.434 8      1382.632          49.875
G11  24841187.400   130541323.756 6      5721.526          36.875    24841187.440   130541323.756 2      5721.526          17.500    24841194.680   101720545.061 2      4458.332          17.875    24841195.500   101720548.081 6      4458.332          37.125
G07  23715220.960   124624332.369 7      5056.385          44.375    23715219.400   124624332.374 7      5056.385          42.500    23715236.040    97109926.243 6      3940.040          41.875    23715236.520    97109934.239 7      3940.040          46.625
G17  21081024.900   110781530.142 7       979.481          44.812    21081024.040   110781530.150 7       979.481          42.312    21081030.420    86323288.604 6       763.232          41.875    21081030.880    86323290.613 7       763.232          46.937
G20  25230656.360   132588004.632 5      4788.854          32.062    25230653.140   132588004.753 1      4788.854           4.500    25230666.940   103315334.648 1      3731.575           4.625
G09  20117084.780   105715994.747 8      2668.583          49.312    20117083.640   105715994.755 8      2668.583          49.187    20117090.380    82376119.604 8      2079.415          49.625    20117090.960    82376123.609 8      2079.415          51.437
G19  20511831.600   107790400.219 7      2324.420          46.125    20511829.920   107790400.221 6      2324.420          40.125    20511834.140    83992525.394 6      1811.236          39.812
G06  21457951.080   112762295.459 7      4781.083          46.187    21457949.020   112762295.469 7      4781.083          44.937    21457956.240    87866749.796 7      3725.519          44.687    21457958.240    87866755.803 8      3725.519          48.312
G04  21508981.680   113030458.045 7       463.233          45.875    21508980.500   113030458.055 5       463.233          34.375    21508986.040    88075703.505 5       360.961          34.500    21508986.600    88075704.494 7       360.961          45.937
> 2024 07 31 13 20 15.0000000  0 10
G03  23380281.240   122864223.038 6       407.715          40.312    23380281.060   122864223.043 6       407.715          36.250    23380294.200    95738377.393 5       317.700          35.937    23380294.720    95738387.399 7       317.700          42.875
R05  19470571.800   104081364.644 8      1776.791          50.312    19470571.200   104081364.642 8      1776.791          49.875    19470581.160    80952207.289 8      1381.949          51.187    19470581.100    80952211.287 8      1381.949          51.687
G11  24840098.800   130535602.276 6      5721.223          37.875    24840098.800   130535602.275 2      5721.223          17.500    24840106.000   101716086.769 2      4458.096          17.875    24840107.220   101716089.826 6      4458.096          37.125
G07  23714259.040   124619276.299 7      5056.015          44.000    23714257.320   124619276.304 7      5056.015          42.750    23714273.940    97105986.447 7      3939.752          42.437    23714274.400    97105994.453 7      3939.752          46.812
G17  21080838.920   110780551.155 7       978.708          43.875    21080837.760   110780551.158 7       978.708          43.062    21080843.940    86322525.753 7       762.630          42.312    21080844.440    86322527.758 7       762.630          47.187
G20  25229744.680   132583215.818 5      4789.144          32.062    25229744.480   132583215.957 1      4789.144           5.562    25229759.280   103311603.154 1      3731.800           5.375
G09  20116576.980   105713326.750 8      2667.724          49.687    20116575.960   105713326.755 8      2667.724          51.187    20116582.640    82374040.645 8      2078.746          51.250    20116583.300    82374044.648 8      2078.746          50.937
G19  20511389.320   107788076.434 7      2323.459          46.500    20511387.580   107788076.436 6      2323.459          39.687    20511391.940    83990714.651 6      1810.488          39.125
G06  21457041.120   112757514.716 7      4780.576          45.625    21457039.280   112757514.724 7      4780.576          45.187    21457046.580    87863024.542 7      3725.124          44.875    21457048.420    87863030.547 8      3725.124          48.625
G04  21508893.620   113029995.297 7       462.549          47.000    21508892.640   113029995.307 5       462.549          34.625    21508898.000    88075342.920 5       360.428          34.937    21508898.340    88075343.916 7       360.428          46.562
> 2024 07 31 13 20 16.0000000  0 10
G03  23380203.800   122863815.361 6       407.656          40.937    23380203.520   122863815.360 6       407.656          36.750    23380216.780    95738059.712 6       317.654          36.500    23380217.460    95738069.719 7       317.654          42.875
R05  19470239.640   104079588.240 8      1776.140          49.875    19470238.940   104079588.247 8      1776.140          49.437    19470248.840    80950825.651 8      1381.443          51.000    19470248.840    80950829.647 8      1381.443          51.312
G11  24839010.200   130529880.777 6      5721.425          37.875    24839009.940   130529880.779 2      5721.425          17.500    24839017.240   101711628.464 2      4458.253          17.875    24839019.280   101711631.493 6      4458.253          37.562
G07  23713296.980   124614220.335 7      5055.860          44.500    23713295.240   124614220.345 7      5055.860          42.875    23713311.780    97102046.739 7      3939.631          42.375    23713312.520    97102054.742 7      3939.631          46.812
G17  21080652.300   110779572.726 7       978.137          44.812    21080651.700   110779572.728 7       978.137          42.937    21080657.780    86321763.334 7       762.185          42.750    21080658.100    86321765.345 7       762.185          47.375
G20  25228834.320   132578427.183 5      4788.813          32.062    25228831.880   132578427.227 1      4788.813           5.812    25228842.600   103307871.717 1      3731.543           5.187
G09  20116069.520   105710659.420 8      2667.069          50.125    20116068.340   105710659.428 8      2667.069          50.562    20116075.080    82371962.206 8      2078.235          50.937    20116075.780    82371966.211 8      2078.235          50.937
G19  20510947.120   107785753.414 7      2322.732          46.500    20510945.600   107785753.416 6      2322.732          39.500    20510949.840    83988904.503 6      1809.921          39.625
G06  21456131.420   112752734.205 7      4780.530          45.625    21456129.660   112752734.213 7      4780.530          45.562    21456136.880    87859299.464 7      3725.088          45.375    21456138.720    87859305.465 8      3725.088          48.250
G04  21508805.660   113029533.051 7       462.060          47.250    21508804.740   113029533.059 5       462.060          34.625    21508810.120    88074982.726 5       360.047          34.937    21508810.760    88074983.712 7       360.047          47.000
> 2024 07 31 13 20 17.0000000  0 10
G03  23380126.100   122863407.799 6       407.652          41.250    23380125.860   122863407.798 6       407.652          36.812    23380139.380    95737742.120 6       317.651          36.687    23380139.960    95737752.130 7       317.651          43.437
R05  19469907.360   104077812.628 8      1775.270          50.312    19469906.900   104077812.626 8      1775.270          49.187    19469916.660    80949444.608 8      1380.766          51.562    19469916.660    80949448.604 8      1380.766          51.375
G11  24837921.380   130524159.383 6      5721.351          37.437    24837921.160   130524159.383 2      5721.351          17.500    24837928.620   101707170.235 2      4458.196          17.875    24837929.540   101707173.282 6      4458.196          37.562
G07  23712334.820   124609164.576 7      5055.674          45.062    23712333.240   124609164.583 7      5055.674          42.375    23712349.700    97098107.182 7      3939.486          42.500    23712350.220    97098115.185 7      3939.486          47.000
G17  21080466.220   110778594.969 7       977.455          44.125    21080465.800   110778594.968 7       977.455          42.750    21080471.860    86321001.443 7       761.654          42.187    21080472.380    86321003.450 7       761.654          47.125
G20  25227922.900   132573638.682 5      4788.472          33.437    25227922.520   132573638.763 1      4788.472           5.250    25227933.540   103304140.469 1      3731.277           4.750
G09  20115561.960   105707992.873 8      2666.206          49.500    20115560.900   105707992.876 8      2666.206          51.125    20115567.660    82369884.377 8      2077.563          51.375    20115568.220    82369888.380 8      2077.563          50.750
G19  20510505.340   107783431.293 7      2321.744          46.187    20510503.740   107783431.298 6      2321.744          39.812    20510507.900    83987095.058 6      1809.151          39.375
G06  21455222.140   112747954.115 7      4779.910          46.187    21455220.020   112747954.122 7      4779.910          46.187    21455227.340    87855574.718 7      3724.605          45.687    21455229.060    87855580.726 8      3724.605          48.437
G04  21508717.740   113029071.399 7       461.396          47.625    21508716.880   113029071.406 5       461.396          35.187    21508722.300    88074622.991 5       359.530          35.125    21508722.920    88074623.982 7       359.530          46.687
> 2024 07 31 13 20 18.0000000  0 10
G03  23380048.920   122863000.347 6       407.358          41.062    23380048.240   122863000.349 6       407.358          36.937    23380061.940    95737424.621 6       317.422          36.750    23380062.380    95737434.640 7       317.422          43.437
R05  19469575.180   104076037.668 8      1774.635          49.812    19469574.860   104076037.666 8      1774.635          49.437    19469584.620    80948064.092 8      1380.272          51.000    19469584.440    80948068.088 8      1380.272          51.687
G11  24836832.900   130518438.021 6      5721.414          36.625    24836832.400   130518438.024 2      5721.414          17.500    24836840.020   101702712.035 2      4458.245          17.625    24836840.800   101702715.080 6      4458.245          37.562
G07  23711372.480   124604108.974 7      5055.502          44.937    23711371.180   124604108.982 7      5055.502          42.250    23711387.680    97094167.756 7      3939.352          42.250    23711388.280    97094175.756 7      3939.352          46.812
G17  21080280.500   110777617.829 7       976.774          44.500    21080279.820   110777617.836 7       976.774          43.000    21080285.880    86320240.036 7       761.122          42.687    21080286.360    86320242.040 7       761.122          47.250
G20  25227012.000   132568850.301 5      4788.220          33.437    25227007.040   132568850.301 1      4788.220           5.500    25227021.260   103300409.296 1      3731.080           5.000
G09  20115054.760   105705327.038 8      2665.428          49.875    20115053.540   105705327.046 8      2665.428          50.875    20115060.320    82367807.107 8      2076.957          51.562    20115061.060    82367811.110 8      2076.957          51.312
G19  20510063.880   107781109.994 7      2320.836          46.625    20510061.940   107781109.996 6      2320.836          39.437    20510066.200    83985286.247 6      1808.443          39.187
G06  21454312.360   112743174.316 7      4779.492          45.625    21454310.340   112743174.323 7      4779.492          45.187    21454317.640    87851850.210 7      3724.280          45.312    21454319.600    87851856.219 8      3724.280          48.500
G04  21508629.960   113028610.280 7       460.793          47.562    21508629.180   113028610.290 5       460.793          35.187    21508634.760    88074263.676 5       359.059          35.187    21508635.440    88074264.671 7       359.059          46.687
> 2024 07 31 13 20 19.0000000  0 10
G03  23379971.460   122862593.021 6       407.311          41.125    23379970.600   122862593.023 6       407.311          36.875    23379984.460    95737107.223 6       317.385          36.625    23379984.820    95737117.235 7       317.385          43.312
R05  19469243.400   104074263.483 8      1773.743          49.937    19469242.840   104074263.487 8      1773.743          49.687    19469252.760    80946684.170 8      1379.578          51.625    19469252.660    80946688.167 8      1379.578          51.687
G11  24835743.920   130512716.799 6      5721.132          36.625    24835743.780   130512716.803 3      5721.132          18.062    24835751.280   101698253.944 2      4458.025          17.625    24835752.160   101698256.978 6      4458.025          38.437
G07  23710410.640   124599053.607 7      5055.202          44.937    23710409.220   124599053.611 7      5055.202          42.750    23710425.540    97090228.504 7      3939.118          42.562    23710426.140    97090236.504 7      3939.118          46.625
G17  21080094.600   110776641.383 7       976.088          44.250    21080094.140   110776641.382 7       976.088          43.000    21080100.200    86319479.159 7       760.588          42.500    21080100.500    86319481.165 7       760.588          47.062
G20  25226101.520   132564062.160 5      4787.673          33.437    25226098.340   132564062.323 1      4787.673           4.937    25226110.800   103296678.277 1      3730.654           4.687
G09  20114547.500   105702661.995 8      2664.591          49.875    20114546.480   105702661.999 8      2664.591          51.312    20114553.260    82365730.450 8      2076.305          51.687    20114553.640    82365734.451 8      2076.305          51.375
G19  20509622.080   107778789.578 7      2319.905          45.187    20509620.400   107778789.580 6      2319.905          39.250    20509624.760    83983478.129 6      1807.718          39.312
G06  21453403.000   112738394.874 7      4779.162          45.625    21453400.900   112738394.887 7      4779.162          45.625    21453408.100    87848125.976 7      3724.022          45.437    21453409.780    87848131.983 8      3724.022          48.312
G04  21508542.520   113028149.773 7       460.163          46.500    21508541.480   113028149.781 5       460.163          35.062    21508547.260    88073904.837 5       358.568          35.187    21508547.620    88073905.833 7       358.568          47.062
> 2024 07 31 13 20 20.0000000  0 10
G03  23379894.280   122862185.772 6       407.462          40.750    23379893.280   122862185.769 6       407.462          36.687    23379907.120    95736789.877 6       317.503          36.312    23379907.660    95736799.895 7       317.503          43.562
R05  19468911.760   104072489.920 8      1773.468          49.562    19468911.240   104072489.916 8      1773.468          49.250    19468921.060    80945304.731 8      1379.364          51.625    19468921.020    80945308.727 8      1379.364          51.250
G11  24834655.580   130506995.547 6      5721.623          37.687    24834655.020   130506995.552 3      5721.623          18.062    24834662.760   101693795.834 2      4458.407          17.625    24834663.220   101693798.854 6      4458.407          38.437
G07  23709448.660   124593998.336 7      5055.418          43.625    23709447.140   124593998.344 7      5055.418          42.750    23709463.680    97086289.335 7      3939.287          42.500    23709464.080    97086297.332 7      3939.287          46.625
G17  21079908.900   110775665.502 7       975.825          43.937    21079908.540   110775665.504 7       975.825          42.687    21079914.440    86318718.726 7       760.383          42.375    21079914.800    86318720.732 7       760.383          47.250
G20  25225190.520   132559274.006 5      4788.510          33.375    25225194.260   132559274.171 1      4788.510           4.000    25225217.680   103292947.088 1      3731.306           3.750
G09  20114040.500   105699997.634 8      2664.131          49.187    20114039.440   105699997.644 8      2664.131          50.875    20114046.200    82363654.326 8      2075.947          51.062    20114046.460    82363658.331 8      2075.947          51.312
G19  20509180.820   107776469.945 7      2319.414          45.937    20509179.040   107776469.949 6      2319.414          39.125    20509183.180    83981670.623 6      1807.336          38.937
G06  21452493.600   112733615.729 7      4779.174          45.812    21452491.580   112733615.740 7      4779.174          45.375    21452498.700    87844401.969 7      3724.032          45.125    21452500.340    87844407.972 8      3724.032          48.187
G04  21508454.880   113027689.763 7       459.992          47.562    21508454.020   113027689.774 5       459.992          35.125    21508459.680    88073546.390 5       358.435          34.937    21508460.280    88073547.377 7       358.435          46.562
> 2024 07 31 13 20 21.0000000  0 10
G03  23379816.940   122861778.393 6       407.396          40.750    23379815.760   122861778.396 6       407.396          37.062    23379829.600    95736472.442 6       317.451          36.625    23379830.260    95736482.450 7       317.451          43.437
R05  19468580.020   104070716.877 8      1772.707          49.562    19468579.300   104070716.883 8      1772.707          49.187    19468589.400    80943925.703 8      1378.772          51.375    19468589.420    80943929.699 8      1378.772          51.812
G11  24833567.080   130501274.153 6      5721.501          37.875    24833566.340   130501274.156 3      5721.501          18.062    24833574.040   101689337.607 2      4458.312          17.625    24833575.280   101689340.631 6      4458.312          38.437
G07  23708486.540   124588943.063 7      5055.171          43.812    23708485.120   124588943.068 7      5055.171          42.312    23708501.720    97082350.157 6      3939.094          41.812    23708502.080    97082358.152 7      3939.094          46.562
G17  21079723.500   110774690.073 7       975.128          43.812    21079722.800   110774690.070 7       975.128          43.125    21079728.900    86317958.645 7       759.840          42.750    21079729.300    86317960.645 7       759.840          47.625
G20  25224279.580   132554485.854 5      4788.095          33.375    25224286.560   132554486.042 1      4788.095           3.125    25224300.160   103289215.993 1      3730.983           2.500
G09  20113533.580   105697333.788 8      2663.509          49.687    20113532.560   105697333.793 8      2663.509          50.687    20113539.240    82361578.598 8      2075.461          51.500    20113539.380    82361582.601 8      2075.461          50.812
G19  20508739.660   107774150.950 7      2318.629          47.062    20508737.720   107774150.950 6      2318.629          39.625    20508741.900    83979863.610 6      1806.724          39.000
G06  21451584.320   112728836.706 7      4778.882          45.937    21451582.240   112728836.716 7      4778.882          45.750    21451589.280    87840678.052 7      3723.804          45.687    21451590.900    87840684.055 8      3723.804          48.562
G04  21508367.580   113027230.116 7       459.390          47.687    21508366.600   113027230.126 5       459.390          35.312    21508372.220    88073188.219 5       357.966          35.375    21508372.720    88073189.204 7       357.966          46.687
> 2024 07 31 13 20 22.0000000  0 10
G03  23379739.060   122861371.188 6       407.219          40.687    23379738.320   122861371.196 6       407.219          36.812    23379752.220    95736155.129 6       317.313          36.312    23379752.500    95736165.143 7       317.313          43.750
R05  19468248.480   104068944.597 8      1771.943          50.062    19468247.880   104068944.596 8      1771.943          49.000    19468257.940    80942547.260 8      1378.178          51.687    19468257.780    80942551.256 8      1378.178          51.125
G11  24832478.100   130495552.888 6      5721.135          38.687    24832477.620   130495552.888 3      5721.135          18.062    24832485.460   101684879.485 2      4458.027          17.625    24832486.220   101684882.517 6      4458.027          39.375
G07  23707524.500   124583887.989 7      5054.974          44.062    23707523.160   124583887.994 7      5054.974          42.437    23707539.700    97078411.136 7      3938.941          42.437    23707540.280    97078419.132 7      3938.941          46.937
G17  21079537.980   110773715.290 7       974.492          44.187    21079537.420   110773715.292 7       974.492          42.937    21079543.360    86317199.076 7       759.345          42.250    21079543.820    86317201.074 7       759.345          47.250
G20  25223368.960   132549697.875 5      4788.070          33.375
G09  20113026.900   105694670.725 8      2662.731          49.937    20113025.800   105694670.735 8      2662.731          51.062    20113032.500    82359503.487 8      2074.856          51.312    20113032.740    82359507.494 8      2074.856          50.937
G19  20508298.480   107771832.843 7      2317.678          46.687    20508296.820   107771832.843 6      2317.678          39.812    20508300.900    83978057.289 6      1805.983          39.875
G06  21450674.800   112724058.052 7      4778.465          46.500    21450673.000   112724058.062 7      4778.465          45.750    21450679.980    87836954.428 7      3723.479          45.500    21450681.580    87836960.432 7      3723.479          47.687
G04  21508280.060   113026771.057 7       458.813          47.687    21508279.340   113026771.067 5       458.813          35.312    21508284.880    88072830.509 5       357.517          35.312    21508285.480    88072831.496 7       357.517          46.875
> 2024 07 31 13 20 23.0000000  0 10
G03  23379661.680   122860964.081 6       406.840          41.125    23379661.080   122860964.088 6       406.840          36.687    23379674.720    95735837.898 6       317.018          36.625    23379675.100    95735847.914 7       317.018          43.687
R05  19467917.220   104067173.008 8      1771.180          50.187    19467916.440   104067173.006 8      1771.180          49.062    19467926.480    80941169.357 8      1377.584          51.750    19467926.400    80941173.355 8      1377.584          51.562
G11  24831389.440   130489831.626 6      5721.001          38.687    24831388.880   130489831.628 3      5721.001          18.062    24831396.840   101680421.364 2      4457.923          17.625    24831397.620   101680424.391 6      4457.923          39.375
G07  23706562.760   124578833.074 7      5054.706          44.562    23706561.240   124578833.078 7      5054.706          42.812    23706577.860    97074472.235 7      3938.732          42.625    23706578.540    97074480.234 7      3938.732          47.000
G17  21079352.440   110772741.143 7       973.760          44.437    21079352.100   110772741.148 7       973.760          42.812    21079358.020    86316439.994 7       758.774          42.500    21079358.480    86316441.995 7       758.774          47.562
G20  25222458.180   132544910.028 5      4787.548          33.812    25222458.820   132544910.044 1      4787.548          11.062    25222459.640   103281755.563 1      3730.557          10.687
G09  20112520.140   105692008.390 8      2661.886          49.562    20112519.120   105692008.395 8      2661.886          51.125    20112525.820    82357428.938 8      2074.197          51.625    20112526.200    82357432.943 8      2074.197          50.625
G19  20507857.500   107769515.546 7      2316.780          47.500    20507855.780   107769515.554 6      2316.780          39.125    20507859.800    83976251.601 6      1805.283          38.812
G06  21449765.720   112719279.698 7      4778.118          45.687    21449763.580   112719279.709 7      4778.118          45.687    21449770.640    87833231.042 7      3723.209          45.437    21449772.460    87833237.041 8      3723.209          48.312
G04  21508192.620   113026312.553 7       458.116          47.812    21508192.080   113026312.565 5       458.116          35.500    21508197.580    88072473.231 5       356.974          35.312    21508198.240    88072474.210 7       356.974          46.875
> 2024 07 31 13 20 24.0000000  0 10
G03  23379583.980   122860557.097 6       406.883          40.875    23379583.620   122860557.102 6       406.883          37.187    23379597.400    95735520.764 6       317.052          36.875    23379597.760    95735530.772 7       317.052          43.875
R05  19467585.860   104065402.233 8      1770.371          49.750    19467585.220   104065402.226 8      1770.371          49.500    19467595.440    80939792.087 8      1376.955          51.125    19467595.120    80939796.083 8      1376.955          52.375
G11  24830300.920   130484110.440 6      5721.243          38.437    24830300.080   130484110.442 3      5721.243          18.062    24830308.320   101675963.301 2      4458.111          17.625    24830309.340   101675966.334 6      4458.111          39.375
G07  23705600.740   124573778.399 7      5054.503          43.312    23705599.400   124573778.407 7      5054.503          42.375    23705615.880    97070533.530 6      3938.574          41.625    23705616.480    97070541.527 7      3938.574          47.062
G17  21079167.380   110771767.708 7       972.982          44.625    21079166.840   110771767.710 7       972.982          42.750    21079172.800    86315681.471 7       758.168          42.312    21079173.380    86315683.472 7       758.168          47.250
G20  25221546.340   132540122.391 5      4787.476          33.812    25221544.880   132540122.472 1      4787.476           9.625    25221551.900   103278024.972 1      3730.501           9.312
G09  20112013.580   105689346.857 8      2661.107          49.062    20112012.680   105689346.861 8      2661.107          51.000    20112019.320    82355355.018 8      2073.590          51.250    20112019.900    82355359.025 8      2073.590          50.750
G19  20507416.640   107767199.166 7      2315.919          46.750    20507415.120   107767199.176 6      2315.919          39.125    20507419.080    83974446.631 6      1804.612          39.812
G06  21448856.560   112714501.754 7      4777.746          45.562    21448854.420   112714501.762 7      4777.746          45.812    21448861.600    87829507.977 7      3722.919          45.625    21448863.180    87829513.976 8      3722.919          48.625
G04  21508105.500   113025854.666 7       457.516          46.625    21508104.900   113025854.676 5       457.516          34.875    21508110.460    88072116.429 5       356.506          35.000    21508111.040    88072117.410 7       356.506          47.062
> 2024 07 31 13 20 25.0000000  0 10
G03  23379506.960   122860150.155 6       406.989          40.375    23379506.300   122860150.160 6       406.989          37.437    23379519.940    95735203.660 6       317.134          37.250    23379519.840    95735213.662 7       317.134          43.562
R05  19467254.640   104063632.060 8      1769.867          49.062    19467254.160   104063632.056 8      1769.867          49.812    19467264.240    80938415.286 8      1376.563          51.687    19467264.060    80938419.284 8      1376.563          51.750
G11  24829211.780   130478389.302 6      5721.320          38.125    24829211.440   130478389.306 3      5721.320          18.062    24829219.640   101671505.273 2      4458.172          17.625    24829220.140   101671508.293 6      4458.172          39.375
G07  23704638.860   124568723.786 7      5054.642          44.125    23704637.640   124568723.796 7      5054.642          42.375    23704654.080    97066594.874 7      3938.682          42.312    23704654.720    97066602.867 7      3938.682          46.937
G17  21078982.260   110770794.796 7       972.610          44.562    21078981.760   110770794.795 7       972.610          42.625    21078987.740    86314923.350 7       757.878          42.250    21078987.980    86314925.350 7       757.878          47.375
G20  25220636.020   132535334.794 5      4787.433          33.812    25220635.220   132535334.907 1      4787.433           8.437    25220641.980   103274294.299 1      3730.467           8.437
G09  20111507.400   105686685.972 8      2660.576          49.312    20111506.320   105686685.977 8      2660.576          51.125    20111513.060    82353281.599 8      2073.176          51.250    20111513.740    82353285.608 8      2073.176          51.125
G19  20506976.160   107764883.529 7      2315.326          47.750    20506974.380   107764883.537 6      2315.326          39.500    20506978.480    83972642.235 6      1804.150          38.875
G06  21447947.360   112709724.047 7      4777.537          45.750    21447945.400   112709724.057 7      4777.537          46.000    21447952.340    87825785.090 7      3722.756          45.937    21447953.760    87825791.091 8      3722.756          48.125
G04  21508018.800   113025397.223 7       457.243          47.687    21508017.980   113025397.233 5       457.243          35.250    21508023.540    88071759.976 5       356.293          35.437    21508024.080    88071760.963 7       356.293          46.937
> 2024 07 31 13 20 26.0000000  0 10
G03  23379429.500   122859743.236 6       407.180          41.937    23379428.920   122859743.236 6       407.180          37.312    23379442.620    95734886.568 6       317.283          37.437    23379442.720    95734896.580 7       317.283          43.312
R05  19466923.740   104061862.496 8      1769.513          49.875    19466922.960   104061862.495 8      1769.513          49.062    19466933.120    80937038.965 8      1376.288          49.625    19466933.100    80937042.963 8      1376.288          49.875
G11  24828122.680   130472668.105 6      5721.544          38.125    24828122.720   130472668.112 3      5721.544          18.062    24828131.180   101667047.204 2      4458.346          17.625    24828131.680   101667050.239 6      4458.346          39.375
G07  23703676.620   124563669.298 7      5054.675          43.937    23703675.860   124563669.306 7      5054.675          42.250    23703692.200    97062656.308 6      3938.708          41.875    23703692.760    97062664.305 7      3938.708          46.062
G17  21078797.020   110769822.441 7       972.388          44.750    21078797.000   110769822.443 7       972.388          42.562    21078802.740    86314165.669 7       757.705          42.000    21078803.000    86314167.669 7       757.705          46.875
G20  25219724.300   132530547.291 5      4787.721          34.125    25219731.620   132530547.419 1      4787.721           4.875    25219733.980   103270563.568 1      3730.691           4.812
G09  20111001.260   105684025.752 8      2660.149          49.687    20111000.180   105684025.754 8      2660.149          49.937    20111006.760    82351208.700 8      2072.843          49.937    20111007.540    82351212.705 8      2072.843          50.250
G19  20506535.520   107762568.681 8      2314.688          48.000    20506533.820   107762568.689 6      2314.688          38.750    20506537.820    83970838.457 6      1803.653          38.625
G06  21447038.260   112704946.592 7      4777.535          45.687    21447036.340   112704946.599 7      4777.535          45.062    21447043.300    87822062.398 7      3722.755          44.875    21447045.000    87822068.401 7      3722.755          47.562
G04  21507931.900   113024940.279 7       456.987          47.625    21507931.040   113024940.294 5       456.987          35.312    21507936.460    88071403.922 5       356.094          35.437    21507937.260    88071404.901 7       356.094          46.437
> 2024 07 31 13 20 27.0000000  0 10
G03  23379352.120   122859336.334 6       406.781          41.250    23379351.460   122859336.341 6       406.781          37.375    23379365.080    95734569.505 6       316.972          37.312    23379365.080    95734579.524 7       316.972          43.312
R05  19466592.560   104060093.552 8      1768.550          49.687    19466592.040   104060093.556 8      1768.550          49.937    19466602.320    80935663.122 8      1375.539          52.000    19466602.080    80935667.120 8      1375.539          52.062
G11  24827034.760   130466946.906 6      5721.204          37.875    24827033.920   130466946.911 3      5721.204          18.062    24827042.600   101662589.133 2      4458.081          17.625    24827043.340   101662592.141 6      4458.081          39.937
G07  23702714.880   124558614.892 7      5054.300          43.687    23702714.000   124558614.900 7      5054.300          42.312    23702730.420    97058717.806 6      3938.416          41.875    23702730.760    97058725.803 7      3938.416          46.625
G17  21078612.100   110768850.664 7       971.454          44.562    21078611.860   110768850.669 7       971.454          42.687    21078617.880    86313408.434 7       756.977          42.125    21078618.220    86313410.436 7       756.977          47.250
G20  25218812.720   132525759.820 5      4787.295          34.125    25218826.680   132525759.625 1      4787.295           1.000
G09  20110494.960   105681366.192 8      2659.157          49.500    20110494.060   105681366.197 8      2659.157          51.562    20110500.600    82349136.314 8      2072.070          51.562    20110501.340    82349140.323 8      2072.070          50.750
G19  20506095.160   107760254.574 7      2313.671          46.750    20506093.540   107760254.584 6      2313.671          39.562    20506097.580    83969035.254 6      1802.861          39.062
G06  21446129.140   112700169.389 7      4777.005          45.000    21446127.220   112700169.399 7      4777.005          46.062    21446134.200    87818339.902 7      3722.341          46.062    21446135.960    87818345.903 8      3722.341          48.250
G04  21507845.120   113024483.832 7       456.088          47.062    21507844.000   113024483.842 5       456.088          35.500    21507849.680    88071048.243 5       355.393          35.500    21507850.380    88071049.216 7       355.393          47.250
> 2024 07 31 13 20 28.0000000  0 10
G03  23379274.540   122858929.554 6       406.807          41.000    23379274.300   122858929.557 6       406.807          37.312    23379287.840    95734252.524 6       316.993          37.062    23379287.620    95734262.532 7       316.993          43.437
R05  19466261.800   104058325.296 8      1767.999          50.750    19466261.280   104058325.297 8      1767.999          49.375    19466271.520    80934287.809 8      1375.110          51.875    19466271.260    80934291.807 8      1375.110          51.750
G11  24825945.840   130461225.733 6      5721.376          37.312    24825945.240   130461225.735 3      5721.376          19.625    24825954.060   101658131.078 3      4458.215          19.687    24825954.640   101658134.094 6      4458.215          39.937
G07  23701753.080   124553560.654 7      5054.270          43.250    23701752.360   124553560.656 7      5054.270          42.125    23701768.560    97054779.432 6      3938.392          41.687    23701769.160    97054787.430 7      3938.392          46.562
G17  21078427.020   110767879.502 7       970.994          44.875    21078427.060   110767879.501 7       970.994          42.437    21078433.020    86312651.676 6       756.619          41.812    21078433.420    86312653.676 7       756.619          47.312
G20  25217901.720   132520972.469 5      4787.535          34.125
G09  20109989.180   105678707.338 8      2658.660          49.250    20109988.060   105678707.343 8      2658.660          51.437    20109994.700    82347064.480 8      2071.684          51.687    20109995.440    82347068.487 8      2071.684          50.750
G19  20505654.980   107757941.325 7      2312.908          47.750    20505653.460   107757941.330 6      2312.908          39.312    20505657.380    83967232.719 6      1802.266          39.187
G06  21445220.060   112695392.504 7      4776.865          46.250    21445218.300   112695392.503 7      4776.865          46.062    21445225.120    87814617.648 7      3722.232          46.250    21445226.800    87814623.645 8      3722.232          48.312
G04  21507758.120   113024027.894 7       455.807          47.750    21507757.220   113024027.899 5       455.807          35.062    21507762.860    88070692.961 5       355.174          35.375    21507763.680    88070693.936 7       355.174          47.125
> 2024 07 31 13 20 29.0000000  0 10
G03  23379197.300   122858522.733 6       406.839          41.000    23379196.980   122858522.736 6       406.839          37.687    23379210.360    95733935.513 6       317.017          37.437    23379210.000    95733945.529 7       317.017          43.625
R05  19465930.920   104056557.624 8      1767.320          50.062    19465930.640   104056557.628 8      1767.320          49.437    19465940.940    80932912.958 8      1374.583          51.875    19465940.500    80932916.956 8      1374.583          51.687
G11  24824857.460   130455504.534 6      5721.177          38.562    24824856.600   130455504.539 3      5721.177          19.625    24824865.460   101653673.005 3      4458.060          19.687    24824866.040   101653676.025 6      4458.060          40.312
G07  23700791.580   124548506.479 7      5054.071          43.875    23700790.640   124548506.482 7      5054.071          42.125    23700806.740    97050841.110 6      3938.237          41.500    23700807.380    97050849.109 7      3938.237          46.250
G17  21078242.520   110766908.884 7       970.220          45.812    21078242.420   110766908.886 7       970.220          43.250    21078248.380    86311895.346 7       756.016          42.562    21078248.700    86311897.344 7       756.016          47.125
G20  25216990.800   132516185.200 5      4787.397          34.375    25216990.560   132516185.300 1      4787.397           1.000    25216995.160   103259369.526 1      3730.439           1.000
G09  20109483.160   105676049.123 8      2657.875          49.750    20109482.220   105676049.131 8      2657.875          50.812    20109488.800    82344993.148 8      2071.072          51.062    20109489.220    82344997.155 8      2071.072          51.375
G19  20505214.920   107755628.800 7      2312.066          47.875    20505213.280   107755628.802 6      2312.066          39.312    20505217.280    83965430.743 6      1801.610          39.500
G06  21444311.240   112690615.842 7      4776.487          45.937    21444309.440   112690615.847 7      4776.487          45.750    21444316.180    87810895.580 7      3721.938          45.687    21444317.640    87810901.579 8      3721.938          48.187
G04  21507671.360   113023572.435 8       455.126          48.062    21507670.720   113023572.445 5       455.126          35.062    21507675.980    88070338.060 5       354.643          35.312    21507676.680    88070339.037 7       354.643          46.875
> 2024 07 31 13 20 30.0000000  0 10
G03  23379119.720   122858116.091 6       406.684          41.875    23379119.580   122858116.090 6       406.684          37.812    23379133.040    95733618.640 6       316.897          37.312    23379132.400    95733628.660 7       316.897          43.562
R05  19465600.480   104054790.744 8      1766.618          49.937    19465600.040   104054790.743 8      1766.618          49.375    19465610.420    80931538.715 8      1374.036          51.500    19465610.060    80931542.713 8      1374.036          52.125
G11  24823768.740   130449783.421 6      5721.181          38.562    24823767.900   130449783.429 3      5721.181          19.625    24823776.920   101649215.000 3      4458.063          19.687    24823777.680   101649218.028 6      4458.063          40.312
G07  23699829.580   124543452.515 7      5054.062          43.750    23699828.800   124543452.514 7      5054.062          42.062    23699845.040    97046902.952 6      3938.230          41.562    23699845.500    97046910.953 7      3938.230          46.500
G17  21078058.080   110765938.936 7       969.650          44.625    21078057.920   110765938.933 7       969.650          42.625    21078063.740    86311139.536 7       755.571          42.125    21078064.400    86311141.532 7       755.571          47.625
G20  25216079.400   132511398.176 5      4786.723          34.375    25216076.220   132511398.131 1      4786.723           1.000    25216090.260   103255639.547 1      3729.914           1.000
G09  20108977.460   105673391.702 8      2657.107          49.625    20108976.460   105673391.704 8      2657.107          51.125    20108983.120    82342922.429 8      2070.473          51.625    20108983.620    82342926.436 8      2070.473          50.625
G19  20504774.940   107753317.154 7      2311.304          47.187    20504773.460   107753317.157 6      2311.304          39.125    20504777.360    83963629.457 6      1801.016          39.062
G06  21443402.340   112685839.551 7      4776.254          45.687    21443400.440   112685839.561 7      4776.254          45.687    21443407.320    87807173.800 7      3721.757          45.625    21443408.680    87807179.802 8      3721.757          48.000
G04  21507584.980   113023117.557 7       454.724          47.437    21507584.080   113023117.564 5       454.724          35.250    21507589.560    88069983.607 5       354.331          35.312    21507590.520    88069984.584 7       354.331          47.500
> 2024 07 31 13 20 31.0000000  0 10
G03  23379042.700   122857709.477 6       406.587          41.375    23379042.340   122857709.482 6       406.587          38.000    23379055.600    95733301.798 6       316.821          37.312    23379054.880    95733311.812 7       316.821          43.687
R05  19465270.320   104053024.545 8      1765.774          49.875    19465269.780   104053024.544 8      1765.774          49.187    19465279.940    80930165.003 8      1373.380          51.625    19465279.660    80930169.003 8      1373.380          52.125
G11  24822679.860   130444062.322 6      5720.977          38.375    24822679.240   130444062.332 3      5720.977          19.625    24822688.260   101644757.006 3      4457.904          19.687    24822688.700   101644760.022 6      4457.904          40.875
G07  23698868.000   124538398.689 7      5053.721          45.125    23698867.080   124538398.691 7      5053.721          42.187    23698883.280    97042964.912 6      3937.964          41.687    23698883.660    97042972.905 7      3937.964          46.500
G17  21077873.740   110764969.563 7       968.971          45.000    21077873.400   110764969.568 7       968.971          43.062    21077879.320    86310384.179 7       755.042          42.437    21077879.900    86310386.181 7       755.042          47.312
G20  25215170.060   132506611.117 5      4786.910          34.375    25215166.920   132506611.211 1      4786.910           1.000    25215178.100   103251909.322 1      3730.060           1.000
G09  20108471.980   105670734.958 8      2656.282          49.750    20108470.980   105670734.966 8      2656.282          51.250    20108477.560    82340852.238 8      2069.830          51.750    20108478.140    82340856.245 8      2069.830          51.062
G19  20504335.080   107751006.316 7      2310.312          47.187    20504333.740   107751006.320 6      2310.312          39.250    20504337.640    83961828.801 6      1800.243          38.875
G06  21442493.380   112681063.557 7      4775.807          45.937    21442491.560   112681063.564 7      4775.807          45.562    21442498.520    87803452.240 7      3721.408          45.625    21442499.800    87803458.241 8      3721.408          48.062
G04  21507498.720   113022663.204 7       454.006          47.812    21507497.700   113022663.209 5       454.006          35.125    21507503.080    88069629.562 5       353.771          35.312    21507503.920    88069630.541 7       353.771          46.937
> 2024 07 31 13 20 32.0000000  0 10
G03  23378965.140   122857303.045 6       406.527          40.500    23378965.280   122857303.050 6       406.527          37.562    23378978.340    95732985.092 6       316.774          37.625    23378977.640    95732995.100 7       316.774          43.750
R05  19464940.060   104051259.106 8      1765.131          49.375    19464939.240   104051259.109 8      1765.131          49.250    19464949.720    80928791.890 8      1372.880          51.625    19464949.380    80928795.892 8      1372.880          52.125
G11  24821591.200   130438341.315 6      5721.051          37.875    24821590.540   130438341.322 3      5721.051          19.625    24821599.560   101640299.076 3      4457.962          19.687    24821600.380   101640302.078 6      4457.962          40.875
G07  23697906.280   124533345.098 7      5053.462          44.562    23697905.500   124533345.103 7      5053.462          42.625    23697921.460    97039027.044 6      3937.763          41.937    23697922.040    97039035.042 7      3937.763          46.500
G17  21077689.480   110764000.884 7       968.395          44.625    21077689.120   110764000.886 7       968.395          43.000    21077695.040    86309629.360 7       754.593          42.375    21077695.660    86309631.356 7       754.593          47.312
G20  25214258.620   132501824.292 5      4786.956          33.812    25214251.580   132501824.523 1      4786.956           1.000    25214279.800   103248179.238 1      3730.096           1.000
G09  20107966.680   105668079.003 8      2655.638          49.312    20107965.560   105668079.008 8      2655.638          50.750    20107972.080    82338782.660 8      2069.328          51.187    20107972.460    82338786.665 8      2069.328          51.062
G19  20503895.740   107748696.341 7      2309.621          47.937    20503894.260   107748696.346 6      2309.621          39.375    20503898.100    83960028.821 6      1799.704          39.375
G06  21441584.560   112676287.935 7      4775.536          45.062    21441582.840   112676287.948 7      4775.536          45.500    21441589.540    87799730.983 7      3721.197          45.250    21441591.100    87799736.982 8      3721.197          48.000
G04  21507412.320   113022209.447 7       453.564          47.875    21507411.360   113022209.452 5       453.564          35.187    21507416.780    88069275.981 5       353.426          35.187    21507417.560    88069276.960 7       353.426          47.187
> 2024 07 31 13 20 33.0000000  0 10
G03  23378887.760   122856896.720 6       406.495          40.750    23378888.000   122856896.722 6       406.495          38.312    23378901.120    95732668.465 6       316.750          38.312    23378900.220    95732678.473 7       316.750          43.500
R05  19464610.220   104049494.401 8      1764.393          50.500    19464609.180   104049494.405 8      1764.393          49.625    19464619.580    80927419.348 8      1372.306          51.937    19464619.580    80927423.350 8      1372.306          51.250
G11  24820502.380   130432620.386 6      5721.036          38.625    24820501.760   130432620.399 3      5721.036          19.625    24820510.880   101635841.214 3      4457.951          19.687    24820511.560   101635844.240 6      4457.951          41.125
G07  23696944.920   124528291.664 7      5053.380          43.750    23696943.740   124528291.674 7      5053.380          42.187    23696959.900    97035089.308 6      3937.699          41.812    23696960.460    97035097.303 7      3937.699          46.187
G17  21077505.160   110763032.835 7       967.820          44.000    21077504.880   110763032.837 7       967.820          42.812    21077510.820    86308875.032 7       754.145          42.625    21077511.220    86308877.030 7       754.145          47.625
G20  25213347.640   132497037.675 5      4786.711          33.812    25213328.900   132497037.764 1      4786.711           1.000    25213378.500   103244449.327 1      3729.905           1.000
G09  20107461.380   105665423.796 8      2654.900          49.812    20107460.260   105665423.799 8      2654.900          50.812    20107466.800    82336713.670 8      2068.753          51.375    20107467.140    82336717.671 8      2068.753          50.937
G19  20503456.160   107746387.244 7      2308.719          47.062    20503454.840   107746387.244 6      2308.719          38.875    20503458.540    83958229.519 6      1799.002          38.562
G06  21440675.860   112671512.671 7      4775.082          45.750    21440674.200   112671512.684 7      4775.082          45.562    21440680.880    87796010.000 7      3720.843          45.437    21440682.300    87796015.997 7      3720.843          47.687
G04  21507325.980   113021756.263 7       452.956          47.250    21507325.080   113021756.268 5       452.956          35.375    21507330.580    88068922.851 5       352.952          35.437    21507331.100    88068923.828 7       352.952          47.000
> 2024 07 31 13 20 34.0000000  0 10
G03  23378810.300   122856490.459 6       406.035          41.812    23378810.820   122856490.458 6       406.035          38.187    23378823.880    95732351.889 6       316.391          37.937    23378823.080    95732361.893 7       316.391          43.875
R05  19464279.920   104047730.335 8      1763.589          50.125    19464279.040   104047730.334 8      1763.589          49.375    19464289.680    80926047.290 8      1371.680          51.687    19464289.400    80926051.293 8      1371.680          51.750
G11  24819413.800   130426899.452 6      5720.911          39.000    24819413.120   130426899.463 3      5720.911          19.625    24819422.180   101631383.352 3      4457.853          19.687    24819422.900   101631386.370 6      4457.853          41.125
G07  23695983.200   124523238.361 7      5053.180          43.750    23695982.180   124523238.363 6      5053.180          41.937    23695998.140    97031151.663 6      3937.543          41.937    23695998.540    97031159.661 7      3937.543          46.500
G17  21077321.140   110762065.378 7       967.003          45.125    21077320.880   110762065.383 7       967.003          42.937    21077326.740    86308121.171 7       753.509          42.562    21077327.320    86308123.172 7       753.509          47.375
G20  25212437.600   132492251.055 5      4786.923          33.812    25212428.500   132492250.965 1      4786.923           1.000    25212461.960   103240720.013 1      3730.070           1.000
G09  20106956.500   105662769.270 8      2654.042          49.812    20106955.200   105662769.275 8      2654.042          51.125    20106961.720    82334645.210 8      2068.085          51.500    20106962.060    82334649.211 8      2068.085          51.187
G19  20503017.040   107744078.918 7      2307.823          46.687    20503015.600   107744078.917 6      2307.823          38.937    20503019.300    83956430.820 6      1798.304          38.937
G06  21439767.420   112666737.657 7      4774.721          46.125    21439765.640   112666737.667 7      4774.721          45.250    21439772.340    87792289.212 7      3720.562          45.375    21439773.720    87792295.213 8      3720.562          48.125
G04  21507239.840   113021303.579 7       452.233          46.937    21507239.020   113021303.586 5       452.233          35.500    21507244.260    88068570.112 5       352.390          35.562    21507245.180    88068571.091 7       352.390          46.812
> 2024 07 31 13 20 35.0000000  0 10
G03  23378732.900   122856084.273 7       406.231          42.125    23378733.800   122856084.273 6       406.231          38.000    23378746.560    95732035.377 6       316.544          38.125    23378745.880    95732045.383 7       316.544          43.625
R05  19463950.080   104045966.978 8      1763.077          49.937    19463949.240   104045966.973 8      1763.077          49.125    19463959.680    80924675.790 8      1371.282          51.375    19463959.620    80924679.792 8      1371.282          51.812
G11  24818325.320   130421178.579 6      5720.995          38.625    24818324.540   130421178.587 3      5720.995          19.625    24818333.720   101626925.531 3      4457.919          19.687    24818334.320   101626928.549 6      4457.919          41.125
G07  23695021.800   124518185.266 7      5053.074          43.937    23695020.540   124518185.271 6      5053.074          41.875    23695036.580    97027214.189 6      3937.460          41.500    23695037.520    97027222.186 7      3937.460          46.312
G17  21077137.120   110761098.564 7       966.623          44.000    21077136.860   110761098.564 7       966.623          43.125    21077142.780    86307367.800 7       753.213          42.375    21077143.440    86307369.794 7       753.213          47.250
G20  25211525.200   132487464.734 5      4786.124          33.937    25211519.420   132487464.755 1      4786.124           1.000    25211569.860   103236990.300 1      3729.448           1.000
G09  20106451.460   105660115.491 8      2653.462          49.812    20106450.160   105660115.498 8      2653.462          50.812    20106456.660    82332577.330 8      2067.633          51.000    20106457.300    82332581.335 8      2067.633          50.312
G19  20502577.960   107741771.455 7      2307.074          47.125    20502576.560   107741771.455 6      2307.074          38.875    20502580.060    83954632.802 6      1797.720          39.125
G06  21438858.660   112661962.995 7      4774.555          46.250    21438857.000   112661963.005 7      4774.555          45.625    21438863.740    87788568.698 7      3720.432          45.687    21438865.260    87788574.697 7      3720.432          47.937
G04  21507153.900   113020851.449 7       451.963          46.687    21507152.960   113020851.454 5       451.963          35.312    21507158.100    88068217.799 5       352.179          35.562    21507159.140    88068218.769 7       352.179          46.875
> 2024 07 31 13 20 36.0000000  0 10
G03  23378655.680   122855678.162 6       406.194          41.375    23378656.740   122855678.161 6       406.194          38.437    23378669.320    95731718.920 6       316.515          37.812    23378668.640    95731728.922 7       316.515          43.625
R05  19463620.560   104044204.261 8      1762.461          50.437    19463619.440   104044204.257 8      1762.461          49.687    19463629.880    80923304.786 8      1370.803          51.750    19463629.980    80923308.787 8      1370.803          51.562
G11  24817236.540   130415457.753 6      5720.858          39.312    24817235.920   130415457.758 3      5720.858          19.625    24817245.080   101622467.746 3      4457.811          19.687    24817245.920   101622470.766 6      4457.811          41.125
G07  23694060.340   124513132.271 7      5053.074          44.875    23694058.960   124513132.273 6      5053.074          41.500    23694075.020    97023276.786 6      3937.460          41.437    23694075.920    97023284.783 7      3937.460          46.375
G17  21076953.640   110760132.326 7       966.161          43.500    21076952.920   110760132.326 7       966.161          43.000    21076959.020    86306614.881 7       752.852          42.750    21076959.660    86306616.877 7       752.852          47.312
G20  25210613.840   132482678.416 5      4785.973          33.937    25210628.540   132482678.174 1      4785.973           1.000    25210653.140   103233260.335 1      3729.329           1.000
G09  20105946.460   105657462.402 8      2652.809          49.562    20105945.280   105657462.409 8      2652.809          51.500    20105951.780    82330509.988 8      2067.124          51.562    20105952.320    82330513.989 8      2067.124          50.500
G19  20502138.980   107739464.763 7      2306.459          47.687    20502137.640   107739464.765 6      2306.459          39.375    20502141.140    83952835.375 6      1797.241          38.937
G06  21437950.040   112657188.611 7      4774.331          45.937    21437948.580   112657188.624 7      4774.331          46.250    21437955.320    87784848.397 7      3720.258          45.687    21437956.720    87784854.398 8      3720.258          48.250
G04  21507067.920   113020399.839 8       451.469          48.250    21507066.960   113020399.844 5       451.469          35.375    21507072.160    88067865.893 5       351.794          35.500    21507073.020    88067866.863 7       351.794          46.812
> 2024 07 31 13 20 37.0000000  0 10
G03  23378578.420   122855271.963 6       406.069          41.687    23378579.520   122855271.960 6       406.069          38.125    23378591.880    95731402.398 6       316.417          38.062    23378591.420    95731412.394 7       316.417          43.812
R05  19463290.880   104042442.042 8      1761.779          49.625    19463289.560   104042442.036 8      1761.779          49.000    19463300.360    80921934.172 8      1370.273          51.687    19463300.420    80921938.174 8      1370.273          51.687
G11  24816148.000   130409736.740 6      5720.848          39.312    24816147.200   130409736.743 3      5720.848          19.625    24816156.460   101618009.816 3      4457.804          20.125    24816157.300   101618012.847 6      4457.804          41.125
G07  23693098.760   124508079.260 7      5052.879          44.250    23693097.340   124508079.265 6      5052.879          41.750    23693113.400    97019339.379 6      3937.309          41.375    23693114.320    97019347.378 7      3937.309          46.125
G17  21076769.660   110759166.543 7       965.479          43.562    21076769.040   110759166.542 7       965.479          42.937    21076775.100    86305862.316 7       752.322          42.312    21076775.880    86305864.315 7       752.322          47.500
G20  25209702.640   132477891.970 5      4786.491          33.937                                                                    25209742.080   103229530.960 1      3729.733           1.000
G09  20105441.640   105654809.839 8      2652.143          49.375    20105440.520   105654809.841 8      2652.143          50.812    20105447.060    82328443.053 8      2066.605          51.437    20105447.700    82328447.054 8      2066.605          50.562
G19  20501700.040   107737158.722 7      2305.564          47.500    20501698.740   107737158.729 6      2305.564          39.125    20501702.400    83951038.454 6      1796.544          39.250
G06  21437041.520   112652414.359 7      4774.019          46.687    21437040.140   112652414.372 7      4774.019          46.062    21437046.720    87781128.209 7      3720.015          46.187    21437048.420    87781134.204 8      3720.015          48.187
G04  21506982.040   113019948.592 7       450.867          47.250    21506981.160   113019948.597 5       450.867          35.375    21506986.120    88067514.267 5       351.325          35.187    21506987.300    88067515.240 7       351.325          46.562
> 2024 07 31 13 20 38.0000000  0 10
G03  23378500.820   122854866.041 6       405.791          41.687    23378502.380   122854866.040 6       405.791          37.812    23378514.660    95731086.086 6       316.201          37.250    23378514.100    95731096.080 7       316.201          44.062
R05  19462961.260   104040680.730 8      1760.972          49.437    19462960.060   104040680.720 8      1760.972          48.937    19462970.840    80920564.260 8      1369.645          49.875    19462970.720    80920568.260 8      1369.645          49.812
G11  24815059.220   130404015.959 6      5720.750          38.875    24815058.600   130404015.964 3      5720.750          20.250    24815067.960   101613552.069 3      4457.728          20.125    24815068.400   101613555.095 6      4457.728          41.062
G07  23692137.240   124503026.591 7      5052.628          44.375    23692135.880   124503026.593 6      5052.628          41.500    23692151.820    97015402.228 6      3937.113          41.312    23692152.780    97015410.225 7      3937.113          45.875
G17  21076586.160   110758201.555 7       964.657          43.500    21076585.440   110758201.560 7       964.657          43.062    21076591.460    86305110.374 7       751.681          42.500    21076592.120    86305112.372 7       751.681          46.562
G20  25208792.500   132473105.938 5      4785.974          34.187    25208792.140   132473105.738 1      4785.974           1.000    25208792.220   103225792.357 1      3729.330           4.875
G09  20104937.020   105652158.192 8      2651.240          50.000    20104935.840   105652158.197 8      2651.240          49.875    20104942.380    82326376.840 8      2065.901          49.437    20104942.960    82326380.839 8      2065.901          49.562
G19  20501261.660   107734853.690 7      2304.595          46.187    20501260.160   107734853.697 6      2304.595          39.187    20501263.800    83949242.327 6      1795.788          38.875
G06  21436132.980   112647640.619 7      4773.511          45.500    21436131.760   112647640.627 7      4773.511          45.312    21436138.440    87777408.407 7      3719.619          45.125    21436139.820    87777414.400 8      3719.619          49.000
G04  21506896.320   113019498.041 7       450.286          46.812    21506895.540   113019498.048 5       450.286          35.187    21506900.320    88067163.191 5       350.872          35.187    21506901.520    88067164.170 7       350.872          46.187
> 2024 07 31 13 20 39.0000000  0 10
G03  23378423.660   122854460.234 6       405.707          41.937    23378425.180   122854460.231 6       405.707          38.562    23378437.280    95730769.865 6       316.136          37.875    23378437.080    95730779.861 7       316.136          43.687
R05  19462632.000   104038920.162 8      1760.281          50.625    19462630.780   104038920.158 8      1760.281          50.187    19462641.320    80919194.934 8      1369.107          51.625    19462641.360    80919198.936 8      1369.107          52.375
G11  24813970.580   130398295.243 6      5720.807          38.875    24813970.000   130398295.253 3      5720.807          20.250    24813979.240   101609094.372 3      4457.772          20.125    24813980.480   101609097.403 6      4457.772          41.062
G07  23691175.540   124497974.116 7      5052.430          43.875    23691174.200   124497974.124 6      5052.430          41.937    23691190.320    97011465.242 6      3936.958          41.437    23691190.860    97011473.246 7      3936.958          46.125
G17  21076402.600   110757237.214 7       964.134          44.000    21076401.760   110757237.216 7       964.134          42.687    21076407.940    86304358.935 7       751.274          42.250    21076408.440    86304360.934 7       751.274          47.687
G20  25207882.000   132468320.009 5      4786.050          34.187    25207880.340   132468320.012 1      4786.050           3.500    25207886.740   103222063.134 1      3729.390           6.250
G09  20104432.560   105649507.298 8      2650.525          50.562    20104431.420   105649507.308 8      2650.525          52.062    20104437.900    82324311.212 8      2065.344          51.937    20104438.660    82324315.212 8      2065.344          50.812
G19  20500823.100   107732549.525 7      2303.803          47.000    20500821.860   107732549.527 6      2303.803          39.000    20500825.320    83947446.870 6      1795.171          39.000
G06  21435224.740   112642867.210 7      4773.344          46.000    21435223.460   112642867.215 7      4773.344          46.500    21435230.140    87773688.864 7      3719.489          46.062    21435231.680    87773694.859 8      3719.489          48.437
G04  21506810.620   113019048.091 7       449.739          47.437    21506809.980   113019048.099 5       449.739          35.125    21506814.700    88066812.577 5       350.446          35.187    21506815.800    88066813.552 7       350.446          46.500
> 2024 07 31 13 20 40.0000000  0 10
G03  23378346.640   122854054.647 6       405.379          41.375    23378347.820   122854054.639 6       405.379          38.375    23378360.040    95730453.811 6       315.880          37.937    23378359.680    95730463.801 7       315.880          43.625
R05  19462302.640   104037160.424 8      1759.244          50.375    19462301.600   104037160.422 8      1759.244          50.312    19462312.160    80917826.254 8      1368.301          52.062    19462312.300    80917830.253 8      1368.301          51.812
G11  24812882.160   130392574.754 6      5720.249          39.812    24812881.400   130392574.761 3      5720.249          20.250    24812890.720   101604636.854 3      4457.337          20.125    24812891.780   101604639.878 6      4457.337          41.187
G07  23690214.060   124492921.933 7      5051.983          42.625    23690212.760   124492921.940 6      5051.983          41.750    23690228.940    97007528.472 6      3936.610          41.187    23690229.640    97007536.480 7      3936.610          45.875
G17  21076219.340   110756273.627 7       963.232          44.875    21076218.520   110756273.622 7       963.232          42.875    21076224.600    86303608.084 7       750.571          42.437    21076225.040    86303610.078 7       750.571          47.375
G20  25206971.020   132463534.367 5      4785.688          34.187    25206970.300   132463534.453 1      4785.688           2.812    25206982.880   103218333.963 1      3729.107           4.437
G09  20103928.380   105646857.249 8      2649.569          49.937    20103927.160   105646857.259 8      2649.569          52.125    20103933.660    82322246.236 8      2064.599          51.687    20103934.280    82322250.239 8      2064.599          50.937
G19  20500384.940   107730246.308 7      2302.688          47.250    20500383.520   107730246.311 6      2302.688          39.250    20500387.020    83945652.152 6      1794.302          39.250
G06  21434316.460   112638094.251 7      4772.750          47.437    21434315.200   112638094.258 7      4772.750          46.187    21434321.960    87769969.679 7      3719.026          46.062    21434323.440    87769975.672 8      3719.026          48.562
G04  21506725.020   113018598.796 8       448.947          48.500    21506724.500   113018598.804 5       448.947          34.937    21506729.360    88066462.477 5       349.829          35.250    21506730.260    88066463.452 7       349.829          46.500
> 2024 07 31 13 20 41.0000000  0 10
G03  23378269.520   122853649.224 7       405.198          42.250    23378270.740   122853649.221 6       405.198          37.687    23378282.780    95730137.897 6       315.739          37.500    23378282.200    95730147.893 7       315.739          43.687
R05  19461973.540   104035401.468 8      1758.601          49.937    19461972.460   104035401.464 8      1758.601          49.875    19461983.120    80916458.172 8      1367.801          51.937    19461983.240    80916462.172 8      1367.801          51.500
G11  24811793.080   130386854.343 6      5720.351          39.687    24811792.840   130386854.348 3      5720.351          20.250    24811802.100   101600179.397 3      4457.416          20.125    24811803.340   101600182.417 6      4457.416          41.187
G07  23689252.620   124487870.015 7      5051.748          43.937    23689251.340   124487870.025 6      5051.748          41.437    23689267.540    97003591.911 6      3936.427          41.562    23689267.900    97003599.919 7      3936.427          45.562
G17  21076035.900   110755310.773 7       962.459          44.937    21076035.180   110755310.770 7       962.459          43.250    21076041.400    86302857.800 7       749.968          42.937    21076041.700    86302859.801 7       749.968          47.125
G20  25206060.580   132458748.974 5      4785.151          34.437    25206063.780   132458748.795 1      4785.151           1.000    25206100.020   103214604.568 1      3728.689           1.312
G09  20103424.240   105644208.028 8      2648.785          49.750    20103423.040   105644208.038 8      2648.785          51.750    20103429.460    82320181.908 8      2063.988          51.625    20103430.180    82320185.907 8      2063.988          50.500
G19  20499946.620   107727944.020 7      2301.805          46.937    20499945.480   107727944.024 6      2301.805          39.000    20499948.920    83943858.160 6      1793.614          39.125
G06  21433408.380   112633321.720 7      4772.312          47.062    21433406.960   112633321.730 7      4772.312          46.312    21433413.880    87766250.829 7      3718.685          46.437    21433415.480    87766256.822 8      3718.685          48.750
G04  21506639.620   113018150.158 8       448.289          48.437    21506639.060   113018150.166 5       448.289          35.375    21506643.800    88066112.887 5       349.316          35.375    21506644.840    88066113.859 7       349.316          46.437
> 2024 07 31 13 20 42.0000000  0 10
G03  23378192.780   122853243.832 6       405.499          40.812    23378193.520   122853243.829 6       405.499          38.125    23378205.700    95729822.005 6       315.973          37.562    23378205.160    95729831.991 7       315.973          43.812
R05  19461644.500   104033643.141 8      1758.124          49.437    19461643.500   104033643.131 8      1758.124          48.812    19461654.260    80915090.584 8      1367.430          52.062    19461654.180    80915094.582 8      1367.430          51.875
G11  24810704.000   130381133.940 6      5720.575          40.125    24810704.320   130381133.945 3      5720.575          20.250    24810713.460   101595721.940 3      4457.591          20.125    24810714.080   101595724.954 6      4457.591          40.812
G07  23688291.460   124482818.173 7      5051.914          43.750    23688289.920   124482818.183 6      5051.914          41.125    23688306.040    96999655.411 6      3936.557          40.875    23688306.760    96999663.423 7      3936.557          45.437
G17  21075852.680   110754348.453 7       962.135          43.687    21075852.000   110754348.450 7       962.135          43.000    21075858.220    86302107.932 7       749.716          42.437    21075858.600    86302109.934 7       749.716          47.062
G20  25205150.760   132453963.647 5      4784.966          34.437    25205169.340   132453963.764 1      4784.966           1.000
G09  20102920.140   105641559.451 8      2648.337          49.375    20102919.020   105641559.458 8      2648.337          51.187    20102925.460    82318118.082 8      2063.639          51.125    20102925.920    82318122.083 8      2063.639          50.750
G19  20499508.700   107725642.490 7      2301.237          46.250    20499507.460   107725642.498 6      2301.237          39.375    20499510.720    83942064.761 6      1793.172          39.062
G06  21432500.140   112628549.427 7      4772.247          47.437    21432498.900   112628549.438 7      4772.247          46.125    21432505.820    87762532.160 7      3718.634          46.062    21432507.220    87762538.151 8      3718.634          49.062
G04  21506554.380   113017701.985 7       447.967          47.375    21506553.820   113017701.993 5       447.967          35.312    21506558.440    88065763.661 5       349.065          35.312    21506559.420    88065764.636 7       349.065          47.000
> 2024 07 31 13 20 43.0000000  0 10
G03  23378115.140   122852838.351 6       405.470          40.375    23378116.240   122852838.348 6       405.470          37.562    23378128.680    95729506.038 6       315.950          37.500    23378128.540    95729516.027 7       315.950          43.562
R05  19461315.740   104031885.311 8      1757.489          49.625    19461314.740   104031885.301 8      1757.489          49.500    19461325.340    80913723.382 8      1366.936          52.250    19461325.400    80913727.381 8      1366.936          51.937
G11  24809615.460   130375413.376 6      5720.576          39.812    24809615.680   130375413.381 3      5720.576          20.250    24809624.900   101591264.362 3      4457.591          20.125    24809625.500   101591267.385 6      4457.591          40.812
G07  23687330.000   124477766.316 7      5051.811          43.750    23687328.500   124477766.326 6      5051.811          41.375    23687344.720    96995718.899 6      3936.476          40.562    23687345.420    96995726.910 7      3936.476          45.750
G17  21075669.420   110753386.553 7       961.661          44.437    21075668.900   110753386.550 7       961.661          42.812    21075675.180    86301358.397 7       749.346          42.562    21075675.400    86301360.396 7       749.346          47.250
G20  25204239.780   132449178.225 5      4785.115          34.437
G09  20102416.360   105638911.417 8      2647.622          49.000    20102415.160   105638911.425 8      2647.622          51.062    20102421.540    82316054.679 8      2063.082          51.687    20102422.160    82316058.682 8      2063.082          50.750
G19  20499070.680   107723341.596 7      2300.492          46.625    20499069.640   107723341.601 6      2300.492          39.125    20499072.920    83940271.850 6      1792.591          39.187
G06  21431591.920   112623777.254 7      4772.068          47.062    21431590.920   112623777.264 7      4772.068          45.875    21431597.900    87758813.585 7      3718.495          46.187    21431598.840    87758819.574 8      3718.495          49.187
G04  21506469.080   113017254.156 7       447.557          47.812    21506468.560   113017254.164 5       447.557          35.250    21506473.180    88065414.701 5       348.746          35.312    21506474.140    88065415.678 7       348.746          46.500
> 2024 07 31 13 20 44.0000000  0 10
G03  23378038.180   122852432.843 6       405.496          40.750    23378038.920   122852432.840 6       405.496          37.937    23378051.280    95729190.050 6       315.971          36.937    23378051.360    95729200.037 7       315.971          43.812
R05  19460986.880   104030128.047 8      1757.042          49.687    19460986.020   104030128.038 8      1757.042          49.000    19460996.600    80912356.622 8      1366.588          52.250    19460996.680    80912360.620 8      1366.588          52.062
G11  24808527.320   130369692.705 6      5720.900          40.187    24808526.980   130369692.710 3      5720.900          20.250    24808536.520   101586806.701 3      4457.844          20.125    24808536.320   101586809.719 6      4457.844          40.750
G07  23686368.740   124472714.469 7      5051.917          42.312    23686367.140   124472714.474 6      5051.917          40.750    23686383.360    96991782.392 6      3936.559          40.375    23686384.080    96991790.400 7      3936.559          45.625
G17  21075486.560   110752425.136 7       961.322          43.687    21075485.940   110752425.136 7       961.322          42.875    21075492.220    86300609.237 7       749.082          42.312    21075492.700    86300611.240 7       749.082          47.125
G20  25203328.880   132444392.742 5      4785.729          34.562    25203324.740   132444392.947 1      4785.729           1.000    25203328.240   103203417.050 1      3729.140           1.000
G09  20101912.580   105636263.954 8      2647.244          49.312    20101911.340   105636263.959 8      2647.244          51.062    20101917.720    82313991.719 8      2062.787          51.062    20101918.400    82313995.722 8      2062.787          50.687
G19  20498633.180   107721041.404 7      2299.885          46.562    20498631.860   107721041.409 6      2299.885          39.437    20498635.180    83938479.487 6      1792.118          39.125
G06  21430683.920   112619005.274 7      4771.997          45.937    21430682.820   112619005.282 7      4771.997          46.625    21430689.740    87755095.160 7      3718.440          46.250    21430690.820    87755101.150 8      3718.440          49.250
G04  21506383.920   113016806.727 7       447.304          47.000    21506383.420   113016806.737 5       447.304          35.062    21506388.240    88065066.055 5       348.548          35.312    21506389.060    88065067.036 7       348.548          46.500
> 2024 07 31 13 20 45.0000000  0 10
G03  23377960.880   122852027.420 6       405.578          40.875    23377961.440   122852027.407 6       405.578          37.437    23377974.140    95728874.121 6       316.034          36.875    23377974.320    95728884.109 7       316.034          43.812
R05  19460658.100   104028371.516 8      1756.265          50.000    19460657.400   104028371.512 8      1756.265          48.875    19460668.060    80910990.435 8      1365.984          51.750    19460667.880    80910994.435 8      1365.984          51.687
G11  24807438.800   130363972.111 6      5720.874          40.000    24807438.400   130363972.121 3      5720.874          20.250    24807447.920   101582349.098 3      4457.824          20.125    24807447.820   101582352.133 6      4457.824          40.750
G07  23685407.500   124467662.838 7      5051.650          43.500    23685405.760   124467662.845 6      5051.650          41.000    23685422.140    96987846.056 6      3936.350          40.625    23685422.940    96987854.064 7      3936.350          45.500
G17  21075304.120   110751464.408 7       960.445          44.875    21075303.060   110751464.413 7       960.445          42.875    21075309.400    86299860.616 7       748.399          42.437    21075309.760    86299862.614 7       748.399          46.937
G20  25202418.520   132439607.515 5      4785.095          34.562    25202411.180   132439607.488 1      4785.095           2.687    25202425.200   103199687.810 1      3728.645           1.812
G09  20101408.900   105633617.269 8      2646.404          49.187    20101407.680   105633617.271 8      2646.404          50.437    20101414.120    82311929.367 8      2062.133          51.437    20101414.760    82311933.367 8      2062.133          50.687
G19  20498195.620   107718742.074 7      2298.949          47.062    20498194.200   107718742.082 6      2298.949          39.125    20498197.560    83936687.805 6      1791.389          39.062
G06  21429776.020   112614233.655 7      4771.427          47.312    21429774.800   112614233.665 7      4771.427          46.187    21429781.840    87751377.021 7      3717.995          46.125    21429782.780    87751383.010 8      3717.995          49.312
G04  21506299.220   113016359.894 7       446.610          47.125    21506298.320   113016359.904 5       446.610          35.375    21506303.160    88064717.875 5       348.008          35.562    21506304.120    88064718.848 7       348.008          46.937
> 2024 07 31 13 20 46.0000000  0 10
G03  23377883.760   122851622.055 6       405.203          41.250    23377884.220   122851622.052 6       405.203          37.625    23377897.020    95728558.246 6       315.743          37.187    23377896.980    95728568.233 7       315.743          43.750
R05  19460329.660   104026615.594 8      1755.587          49.312    19460329.080   104026615.595 8      1755.587          49.000    19460339.420    80909624.720 8      1365.456          52.062    19460339.460    80909628.722 8      1365.456          51.500
G11  24806350.500   130358251.537 6      5720.615          40.437    24806349.800   130358251.544 3      5720.615          20.750    24806359.400   101577891.508 3      4457.622          20.500    24806358.920   101577894.537 6      4457.622          40.812
G07  23684446.560   124462611.269 7      5051.599          42.812    23684444.440   124462611.274 6      5051.599          40.625    23684460.720    96983909.765 6      3936.311          40.687    23684461.420    96983917.777 7      3936.311          45.312
G17  21075121.620   110750504.184 7       959.981          44.312    21075120.280   110750504.187 7       959.981          42.812    21075126.740    86299112.379 7       748.038          42.625    21075127.180    86299114.384 7       748.038          47.000
G20  25201507.720   132434822.309 5      4785.179          34.562    25201482.240   132434822.153 1      4785.179           1.000    25201520.780   103195959.404 1      3728.711           1.000
G09  20100905.380   105630971.200 8      2645.751          49.062    20100904.140   105630971.205 8      2645.751          50.625    20100910.580    82309867.495 8      2061.624          50.875    20100911.060    82309871.498 8      2061.624          50.375
G19  20497758.280   107716443.477 7      2298.215          46.812    20497756.780   107716443.484 6      2298.215          39.375    20497760.220    83934896.686 6      1790.817          39.062
G06  21428868.120   112609462.256 7      4771.302          46.312    21428866.800   112609462.261 7      4771.302          46.187    21428873.940    87747659.041 7      3717.897          45.875    21428875.020    87747665.030 8      3717.897          49.437
G04  21506214.460   113015913.510 7       446.171          47.937    21506213.540   113015913.520 5       446.171          35.375    21506218.220    88064370.038 5       347.666          35.437    21506219.180    88064371.012 7       347.666          46.500
> 2024 07 31 13 20 47.0000000  0 10
G03  23377806.620   122851216.763 6       405.070          40.750    23377806.840   122851216.757 6       405.070          37.437    23377819.820    95728242.423 6       315.639          36.937    23377819.580    95728252.415 7       315.639          43.687
R05  19460001.440   104024860.375 8      1754.810          50.437    19460000.900   104024860.374 8      1754.810          49.125    19460011.120    80908259.548 8      1364.852          51.812    19460011.100    80908263.550 8      1364.852          51.625
G11  24805261.660   130352530.979 6      5720.442          40.625    24805261.160   130352530.991 3      5720.442          20.750    24805270.760   101573433.937 3      4457.487          20.500    24805270.780   101573436.959 6      4457.487          40.812
G07  23683485.620   124457559.911 7      5051.172          42.937    23683483.120   124457559.916 6      5051.172          40.125    23683499.540    96979973.640 6      3935.978          40.187    23683500.340    96979981.643 7      3935.978          45.562
G17  21074938.620   110749544.610 7       959.207          44.750    21074937.660   110749544.612 7       959.207          42.937    21074944.140    86298364.655 7       747.434          42.375    21074944.540    86298366.661 7       747.434          46.875
G20  25200597.060   132430037.268 5      4784.819          34.375
G09  20100402.080   105628325.884 8      2644.933          49.562    20100400.700   105628325.891 8      2644.933          50.812    20100407.140    82307806.212 8      2060.987          51.000    20100407.780    82307810.215 8      2060.987          50.750
G19  20497321.000   107714145.739 7      2297.247          47.062    20497319.560   107714145.746 6      2297.247          38.687    20497322.900    83933106.237 6      1790.063          39.125
G06  21427960.200   112604691.196 7      4770.825          46.625    21427958.960   112604691.203 7      4770.825          46.250    21427965.960    87743941.337 7      3717.526          46.250    21427967.520    87743947.325 8      3717.526          49.312
G04  21506129.340   113015467.689 7       445.440          47.750    21506128.700   113015467.701 5       445.440          35.062    21506133.400    88064022.642 5       347.096          35.437    21506134.380    88064023.625 7       347.096          46.687
> 2024 07 31 13 20 48.0000000  0 10
G03  23377729.520   122850811.570 6       405.238          40.437    23377729.560   122850811.573 6       405.238          37.250    23377742.660    95727926.685 6       315.770          37.125    23377742.340    95727936.683 7       315.770          44.062
R05  19459673.480   104023105.878 8      1754.200          49.687    19459672.640   104023105.868 8      1754.200          49.625    19459682.840    80906894.937 8      1364.378          52.062    19459682.900    80906898.937 8      1364.378          51.625
G11  24804172.700   130346810.492 6      5720.568          40.812    24804172.640   130346810.502 3      5720.568          20.750    24804182.140   101568976.417 3      4457.585          20.500    24804181.840   101568979.439 6      4457.585          40.812
G07  23682524.300   124452508.708 7      5051.187          42.687    23682521.920   124452508.713 6      5051.187          40.562    23682538.360    96976037.639 6      3935.990          40.312    23682539.400    96976045.645 7      3935.990          45.500
G17  21074756.080   110748585.671 7       958.761          44.500    21074755.200   110748585.668 7       958.761          42.625    21074761.700    86297617.421 6       747.086          41.875    21074762.040    86297619.426 7       747.086          47.250
G20  25199686.940   132425252.327 5      4785.100          34.375    25199687.120   132425252.292 1      4785.100           6.062    25199686.220   103188502.287 1      3728.650           7.937
G09  20099898.840   105625681.322 8      2644.279          48.937    20099897.500   105625681.329 8      2644.279          50.562    20099903.920    82305745.516 8      2060.477          51.187    20099904.500    82305749.519 8      2060.477          50.437
G19  20496883.960   107711848.847 7      2296.540          47.312    20496882.540   107711848.849 6      2296.540          38.812    20496885.980    83931316.445 6      1789.511          38.875
G06  21427052.280   112599920.465 7      4770.717          47.062    21427050.980   112599920.475 7      4770.717          46.250    21427058.220    87740223.888 7      3717.442          46.375    21427059.540    87740229.879 8      3717.442          49.000
G04  21506044.380   113015022.430 7       445.037          47.250    21506044.000   113015022.437 5       445.037          35.375    21506048.620    88063675.683 5       346.782          35.250    21506049.520    88063676.668 7       346.782          46.625
> 2024 07 31 13 20 49.0000000  0 10
G03  23377652.740   122850406.321 6       405.337          41.000    23377652.440   122850406.323 6       405.337          37.000    23377665.620    95727610.896 6       315.847          36.750    23377665.600    95727620.877 7       315.847          43.937
R05  19459345.280   104021351.891 8      1753.662          50.250    19459344.460   104021351.887 8      1753.662          49.000    19459354.700    80905530.727 8      1363.959          51.812    19459354.720    80905534.729 8      1363.959          51.750
G11  24803084.440   130341089.889 6      5720.674          41.250    24803083.980   130341089.896 3      5720.674          20.750    24803093.600   101564518.808 3      4457.668          20.500    24803092.960   101564521.828 6      4457.668          40.812
G07  23681562.880   124447457.518 7      5051.203          42.812    23681560.640   124447457.518 6      5051.203          40.500    23681577.260    96972101.645 6      3936.002          40.000    23681578.060    96972109.643 7      3936.002          45.625
G17  21074573.780   110747627.210 7       958.032          45.000    21074572.840   110747627.210 7       958.032          43.062    21074579.320    86296870.565 7       746.518          42.500    21074579.760    86296872.565 7       746.518          47.250
G20  25198776.560   132420467.341 5      4785.271          34.375    25198780.080   132420467.351 1      4785.271           2.187    25198768.580   103184773.803 1      3728.783           1.000
G09  20099395.540   105623037.311 8      2643.696          49.000    20099394.340   105623037.316 8      2643.696          51.187    20099400.820    82303685.246 8      2060.023          51.437    20099401.200    82303689.249 8      2060.023          50.500
G19  20496447.060   107709552.612 7      2295.847          47.375    20496445.680   107709552.617 6      2295.847          38.750    20496448.900    83929527.171 6      1788.972          38.750
G06  21426144.400   112595149.928 7      4770.359          46.375    21426143.420   112595149.932 7      4770.359          46.875    21426150.480    87736506.584 7      3717.163          46.750    21426151.920    87736512.569 8      3717.163          49.625
G04  21505959.820   113014577.543 7       444.651          47.500    21505959.320   113014577.551 5       444.651          35.750    21505963.960    88063329.017 5       346.482          35.750    21505965.020    88063330.002 7       346.482          46.312
> 2024 07 31 13 20 50.0000000  0 10
G03  23377575.380   122850001.428 6       404.837          40.062    23377575.220   122850001.425 6       404.837          37.187    23377588.500    95727295.385 6       315.458          36.937    23377588.120    95727305.379 7       315.458          44.000
R05  19459017.540   104019598.864 8      1752.639          49.437    19459016.720   104019598.860 8      1752.639          49.375    19459026.820    80904167.259 8      1363.164          50.187    19459026.800    80904171.261 8      1363.164          50.312
G11  24801996.120   130335369.583 6      5720.292          40.562    24801995.560   130335369.591 3      5720.292          20.750    24802005.060   101560061.427 3      4457.370          20.500    24802005.000   101560064.455 6      4457.370          40.625
G07  23680601.880   124442406.730 7      5050.662          42.437    23680599.480   124442406.737 6      5050.662          40.187    23680615.920    96968165.970 6      3935.581          39.937    23680616.640    96968173.972 7      3935.581          44.937
G17  21074391.320   110746669.580 7       957.262          44.812    21074390.520   110746669.582 7       957.262          42.562    21074397.060    86296124.355 7       745.919          42.187    21074397.580    86296126.360 7       745.919          46.687
G20  25197866.480   132415682.876 5      4784.350          34.125    25197872.480   132415682.712 1      4784.350           1.125    25197823.200   103181045.832 1      3728.065           1.312
G09  20098892.560   105620394.272 8      2642.701          48.750    20098891.380   105620394.277 8      2642.701          49.562    20098897.800    82301625.737 8      2059.248          49.875    20098898.200    82301629.742 8      2059.248          49.937
G19  20496010.380   107707257.457 7      2294.721          47.562    20496008.840   107707257.462 6      2294.721          38.375    20496012.100    83927738.738 6      1788.094          38.250
G06  21425236.640   112590379.932 7      4769.793          46.312    21425235.580   112590379.939 7      4769.793          46.187    21425242.960    87732789.708 7      3716.722          46.562    21425244.520    87732795.695 8      3716.722          49.187
G04  21505875.420   113014133.448 7       443.842          47.062    21505874.780   113014133.461 5       443.842          34.812    21505879.320    88062982.970 5       345.851          35.250    21505880.280    88062983.959 7       345.851          46.187
> 2024 07 31 13 20 51.0000000  0 10
G03  23377498.240   122849596.564 6       404.755          40.500    23377498.080   122849596.572 6       404.755          37.500    23377511.580    95726979.898 6       315.394          37.250    23377511.140    95726989.890 7       315.394          44.062
R05  19458689.700   104017846.483 8      1752.010          50.062    19458688.720   104017846.474 8      1752.010          49.375    19458698.960    80902804.294 8      1362.674          52.125    19458698.880    80902808.295 8      1362.674          51.437
G11  24800907.180   130329649.262 6      5720.367          40.812    24800907.140   130329649.269 3      5720.367          20.750    24800916.500   101555604.038 3      4457.429          20.500    24800916.200   101555607.066 6      4457.429          40.625
G07  23679640.500   124437356.076 7      5050.510          42.500    23679638.300   124437356.078 6      5050.510          40.562    23679655.040    96964230.390 6      3935.462          40.250    23679655.820    96964238.391 7      3935.462          44.750
G17  21074209.400   110745712.530 7       956.702          45.000    21074208.540   110745712.532 7       956.702          42.375    21074214.980    86295378.598 7       745.482          42.187    21074215.700    86295380.607 7       745.482          47.062
G20  25196955.580   132410898.379 5      4784.279          34.125    25196979.960   132410898.341 1      4784.279           1.000    25196905.660   103177317.638 1      3728.009           1.000
G09  20098389.640   105617751.912 8      2641.914          48.437    20098388.580   105617751.922 8      2641.914          50.875    20098395.000    82299566.757 8      2058.634          51.375    20098395.420    82299570.762 8      2058.634          50.562
G19  20495573.680   107704963.087 7      2293.872          46.500    20495572.260   107704963.095 6      2293.872          39.375    20495575.520    83925950.914 6      1787.433          38.625
G06  21424329.120   112585610.199 7      4769.557          46.750    21424327.920   112585610.204 7      4769.557          46.375    21424335.240    87729073.033 7      3716.538          46.562    21424336.900    87729079.018 8      3716.538          49.437
G04  21505790.940   113013689.855 7       443.298          47.000    21505790.300   113013689.862 5       443.298          35.062    21505795.020    88062637.313 5       345.427          35.250    21505795.580    88062638.298 7       345.427          46.375
> 2024 07 31 13 20 52.0000000  0 10
G03  23377421.420   122849191.661 6       404.833          40.375    23377421.100   122849191.661 6       404.833          37.562    23377434.600    95726664.379 6       315.454          37.187    23377434.420    95726674.371 7       315.454          44.062
R05  19458362.140   104016094.678 8      1751.442          48.750    19458361.140   104016094.665 8      1751.442          49.062    19458371.120    80901441.777 8      1362.233          51.750    19458371.360    80901445.777 8      1362.233          51.812
G11  24799819.160   130323928.880 6      5720.281          40.687    24799818.620   130323928.887 3      5720.281          20.750    24799827.880   101551146.599 3      4457.362          20.500    24799827.580   101551149.619 6      4457.362          40.750
G07  23678679.420   124432305.430 7      5050.563          42.250    23678677.300   124432305.429 6      5050.563          40.250    23678693.860    96960294.819 6      3935.504          39.750    23678694.740    96960302.823 7      3935.504          45.125
G17  21074027.460   110744755.977 7       956.228          45.250    21074026.420   110744755.974 7       956.228          43.125    21074032.960    86294633.226 7       745.113          42.687    21074033.660    86294635.231 7       745.113          47.250
G20  25196044.700   132406113.884 5      4784.356          34.125    25196085.860   132406113.718 1      4784.356           1.000    25196020.260   103173589.711 1      3728.070           1.000
G09  20097887.060   105615110.129 8      2641.406          49.437    20097885.860   105615110.139 8      2641.406          50.875    20097892.200    82297508.229 8      2058.238          51.562    20097892.900    82297512.234 8      2058.238          50.625
G19  20495137.060   107702669.406 7      2293.212          46.937    20495135.760   107702669.411 6      2293.212          39.437    20495138.980    83924163.630 6      1786.918          38.812
G06  21423421.480   112580840.663 7      4769.334          46.687    21423420.340   112580840.668 7      4769.334          46.750    21423427.760    87725356.516 7      3716.364          46.875    21423429.340    87725362.503 8      3716.364          49.750
G04  21505706.440   113013246.648 7       442.999          47.250    21505705.920   113013246.655 5       442.999          35.625    21505710.660    88062291.955 5       345.194          35.375    21505711.420    88062292.946 7       345.194          46.625
> 2024 07 31 13 20 53.0000000  0 10
G03  23377344.000   122848786.611 6       404.848          40.000    23377344.060   122848786.608 6       404.848          37.625    23377357.600    95726348.743 6       315.466          37.250    23377357.520    95726358.733 7       315.466          44.187
R05  19458034.680   104014343.323 8      1750.901          50.250    19458033.580   104014343.317 8      1750.901          49.625    19458043.600    80900079.617 8      1361.812          52.062    19458043.720    80900083.617 8      1361.812          51.875
G11  24798730.540   130318208.248 6      5720.656          40.750    24798730.120   130318208.258 3      5720.656          20.750    24798739.260   101546688.970 3      4457.654          20.500    24798739.260   101546691.988 6      4457.654          40.750
G07  23677718.280   124427254.731 7      5050.488          42.375    23677716.360   124427254.725 6      5050.488          40.187    23677732.900    96956359.204 6      3935.445          39.687    23677733.720    96956367.205 7      3935.445          45.437
G17  21073845.460   110743799.810 7       955.734          44.437    21073844.560   110743799.804 7       955.734          43.125    21073850.980    86293888.155 7       744.728          42.875    21073851.480    86293890.155 7       744.728          47.312
G20  25195135.000   132401329.293 5      4784.419          33.562    25195157.840   132401329.150 1      4784.419           1.000
G09  20097384.420   105612468.849 8      2640.771          49.187    20097383.240   105612468.859 8      2640.771          50.812    20097389.740    82295450.087 8      2057.744          51.562    20097390.400    82295454.091 8      2057.744          50.437
G19  20494700.580   107700376.311 7      2292.627          47.062    20494699.420   107700376.311 6      2292.627          39.000    20494702.720    83922376.796 6      1786.463          38.875
G06  21422513.820   112576071.198 7      4769.259          46.750    21422512.640   112576071.200 7      4769.259          46.812    21422520.180    87721640.048 7      3716.305          46.750    21422521.720    87721646.033 8      3716.305          49.500
G04  21505622.220   113012803.772 8       442.512          48.250    21505621.740   113012803.779 5       442.512          35.437    21505626.420    88061946.855 5       344.814          35.812    21505626.780    88061947.848 7       344.814          46.687
> 2024 07 31 13 20 54.0000000  0 10
G03  23377267.200   122848381.511 6       404.970          40.312    23377267.080   122848381.508 6       404.970          38.250    23377280.480    95726033.075 6       315.561          37.500    23377280.300    95726043.064 7       315.561          44.312
R05  19457707.020   104012592.536 8      1750.340          50.062    19457705.920   104012592.527 8      1750.340          49.000    19457716.020    80898717.891 8      1361.376          51.750    19457716.020    80898721.891 8      1361.376          52.000
G11  24797642.180   130312487.587 6      5720.576          40.687    24797641.640   130312487.598 3      5720.576          22.062    24797650.580   101542231.317 3      4457.591          20.500    24797650.260   101542234.329 6      4457.591          40.812
G07  23676756.980   124422204.040 7      5050.534          43.187    23676755.220   124422204.043 6      5050.534          40.312    23676771.600    96952423.607 6      3935.481          40.000    23676772.740    96952431.612 7      3935.481          45.375
G17  21073663.840   110742844.111 7       955.368          44.062    21073662.660   110742844.113 7       955.368          43.187    21073669.160    86293143.456 7       744.443          42.375    21073669.620    86293145.457 7       744.443          47.375
G20  25194224.220   132396544.699 5      4784.479          33.562
G09  20096881.920   105609828.143 8      2640.307          49.562    20096880.800   105609828.151 8      2640.307          50.625    20096887.200    82293392.394 8      2057.382          50.937    20096887.920    82293396.397 8      2057.382          51.062
G19  20494264.300   107698083.933 7      2291.870          47.375    20494263.200   107698083.938 6      2291.870          39.125    20494266.380    83920590.528 6      1785.873          38.375
G06  21421606.280   112571301.933 7      4769.070          46.687    21421605.140   112571301.935 7      4769.070          46.500    21421612.680    87717923.741 7      3716.158          46.687    21421614.060    87717929.726 8      3716.158          49.500
G04  21505538.060   113012361.293 7       442.161          47.312    21505537.540   113012361.300 5       442.161          35.562    21505542.240    88061602.070 5       344.541          35.625    21505542.840    88061603.063 7       344.541          46.187
> 2024 07 31 13 20 55.0000000  0 10
G03  23377190.240   122847976.429 6       405.001          39.687    23377190.020   122847976.434 6       405.001          38.125    23377203.240    95725717.427 6       315.585          37.625    23377203.240    95725727.410 7       315.585          44.062
R05  19457379.700   104010842.377 8      1749.688          50.562    19457378.480   104010842.365 8      1749.688          49.625    19457388.660    80897356.650 8      1360.869          51.375    19457388.760    80897360.650 8      1360.869          51.500
G11  24796553.240   130306766.890 6      5720.527          41.625    24796553.060   130306766.898 3      5720.527          22.062    24796562.020   101537773.635 3      4457.553          22.187    24796561.980   101537776.647 6      4457.553          40.812
G07  23675795.920   124417153.460 7      5050.509          42.625    23675794.140   124417153.460 6      5050.509          40.437    23675810.580    96948488.083 6      3935.461          40.125    23675811.760    96948496.091 7      3935.461          45.437
G17  21073481.880   110741889.013 7       954.634          44.562    21073480.960   110741889.016 7       954.634          42.687    21073487.440    86292399.214 7       743.871          42.562    21073487.820    86292401.219 7       743.871          47.250
G20  25193312.600   132391760.228 5      4784.142          33.562    25193315.360   132391760.125 1      4784.142           5.187    25193314.440   103162409.932 1      3727.903           7.062
G09  20096379.560   105607188.113 8      2639.596          49.562    20096378.380   105607188.116 8      2639.596          51.375    20096384.740    82291335.224 8      2056.828          51.687    20096385.580    82291339.229 8      2056.828          50.437
G19  20493828.360   107695792.302 8      2291.134          48.375    20493827.120   107695792.306 6      2291.134          38.875    20493830.300    83918804.839 6      1785.299          38.812
G06  21420698.860   112566532.930 7      4768.694          47.312    21420697.640   112566532.938 7      4768.694          46.687    21420705.280    87714207.642 7      3715.866          46.750    21420706.440    87714213.622 8      3715.866          49.500
G04  21505453.900   113011919.297 7       441.642          47.687    21505453.380   113011919.307 5       441.642          35.437    21505458.080    88061257.656 5       344.136          35.562    21505458.740    88061258.645 7       344.136          46.687
> 2024 07 31 13 20 56.0000000  0 10
G03  23377113.300   122847571.521 6       404.870          40.937    23377113.040   122847571.528 6       404.870          38.125    23377126.160    95725401.908 6       315.483          37.937    23377126.380    95725411.893 7       315.483          44.312
R05  19457052.160   104009092.947 8      1749.128          50.375    19457051.220   104009092.938 8      1749.128          49.812    19457061.260    80895995.988 8      1360.433          51.750    19457061.400    80895999.987 8      1360.433          51.500
G11  24795464.480   130301046.274 6      5720.654          41.062    24795464.580   130301046.282 3      5720.654          22.062    24795473.440   101533316.016 3      4457.653          22.187    24795473.400   101533319.030 6      4457.653          40.937
G07  23674835.080   124412103.108 7      5050.289          43.000    23674832.980   124412103.110 6      5050.289          40.375    23674849.560    96944552.746 6      3935.290          40.125    23674850.360    96944560.750 7      3935.290          45.562
G17  21073300.680   110740934.555 7       954.176          44.625    21073299.400   110740934.554 7       954.176          43.187    21073305.860    86291655.476 7       743.514          42.750    21073306.640    86291657.480 7       743.514          47.562
G20  25192402.560   132386975.847 5      4784.488          33.562    25192408.280   132386975.801 1      4784.488           1.000    25192406.940   103158681.763 1      3728.173           1.000
G09  20095877.400   105604548.856 8      2638.919          49.750    20095876.220   105604548.861 8      2638.919          51.250    20095882.480    82289278.664 8      2056.300          51.125    20095883.100    82289282.667 8      2056.300          50.812
G19  20493392.620   107693501.569 8      2290.316          48.000    20493391.280   107693501.573 6      2290.316          38.937    20493394.460    83917019.848 6      1784.662          39.250
G06  21419791.400   112561764.298 7      4768.394          46.375    21419790.260   112561764.306 7      4768.394          46.812    21419797.700    87710491.826 7      3715.632          46.500    21419799.060    87710497.809 8      3715.632          49.500
G04  21505369.980   113011477.887 7       441.269          47.000    21505369.420   113011477.892 5       441.269          35.437    21505374.080    88060913.700 5       343.846          35.562    21505374.940    88060914.691 7       343.846          46.750
> 2024 07 31 13 20 57.0000000  0 10
G03  23377036.320   122847166.675 6       404.797          40.875    23377036.120   122847166.677 6       404.797          37.937    23377049.120    95725086.431 6       315.426          37.875    23377048.980    95725096.419 7       315.426          44.187
R05  19456725.260   104007344.169 8      1748.555          49.812    19456724.160   104007344.168 8      1748.555          49.437    19456734.060    80894635.828 8      1359.987          51.562    19456734.340    80894639.826 8      1359.987          51.750
G11  24794376.060   130295325.700 6      5720.657          41.125    24794376.120   130295325.705 3      5720.657          22.062    24794384.800   101528858.428 3      4457.655          22.187    24794384.920   101528861.438 6      4457.655          40.937
G07  23673874.040   124407052.885 7      5050.271          42.687    23673872.040   124407052.885 6      5050.271          40.187    23673888.660    96940617.501 6      3935.276          39.937    23673889.480    96940625.503 7      3935.276          45.062
G17  21073119.160   110739980.684 7       953.739          44.562    21073118.000   110739980.694 7       953.739          43.250    21073124.400    86290912.200 7       743.173          42.937    21073125.140    86290914.203 7       743.173          47.125
G20  25191492.500   132382191.660 5      4783.862          33.000    25191529.080   132382191.746 1      4783.862           1.000    25191501.740   103154953.868 1      3727.685           1.000
G09  20095375.320   105601910.300 8      2638.215          49.750    20095374.100   105601910.307 8      2638.215          50.937    20095380.360    82287222.648 8      2055.752          51.250    20095381.260    82287226.649 8      2055.752          50.687
G19  20492956.800   107691211.629 8      2289.626          48.062    20492955.380   107691211.629 6      2289.626          39.375    20492958.600    83915235.473 6      1784.124          38.937
G06  21418884.140   112556995.929 7      4768.378          46.687    21418882.840   112556995.937 7      4768.378          46.875    21418890.380    87706776.214 7      3715.619          46.937    21418891.480    87706782.199 8      3715.619          49.812
G04  21505286.000   113011037.008 8       440.738          48.062    21505285.500   113011037.015 5       440.738          35.625    21505290.360    88060570.154 5       343.432          35.625    21505291.080    88060571.141 7       343.432          46.500
> 2024 07 31 13 20 58.0000000  0 10
G03  23376959.200   122846761.914 6       404.574          41.187    23376959.180   122846761.908 6       404.574          38.250    23376971.880    95724771.019 6       315.252          38.000    23376972.040    95724781.002 7       315.252          44.187
R05  19456398.000   104005596.108 8      1747.518          49.875    19456397.100   104005596.109 8      1747.518          48.812    19456407.060    80893276.229 8      1359.181          51.625    19456407.260    80893280.229 8      1359.181          51.312
G11  24793287.600   130289605.169 6      5720.292          41.812    24793287.540   130289605.179 3      5720.292          22.062    24793296.180   101524400.873 3      4457.370          22.187    24793296.100   101524403.887 6      4457.370          40.812
G07  23672912.980   124402002.854 7      5049.746          43.312    23672911.140   124402002.853 6      5049.746          40.937    23672927.800    96936682.410 6      3934.867          40.625    23672928.240    96936690.414 7      3934.867          45.375
G17  21072937.540   110739027.492 7       952.717          45.250    21072936.680   110739027.491 7       952.717          43.312    21072943.020    86290169.440 7       742.377          43.250    21072943.780    86290171.443 7       742.377          47.875
G20  25190582.080   132377407.525 5      4783.881          33.000                                                                    25190611.960   103151226.373 1      3727.700           1.000
G09  20094873.340   105599272.469 8      2637.299          48.750    20094872.160   105599272.479 8      2637.299          50.937    20094878.440    82285167.196 8      2055.038          51.312    20094879.040    82285171.198 8      2055.038          50.812
G19  20492521.120   107688922.541 8      2288.427          48.187    20492519.820   107688922.540 6      2288.427          38.812    20492522.920    83913451.766 6      1783.190          39.125
G06  21417977.040   112552227.936 7      4767.652          47.250    21417975.560   112552227.943 7      4767.652          46.562    21417983.160    87703060.896 7      3715.054          46.437    21417984.120    87703066.879 8      3715.054          49.562
G04  21505202.340   113010596.681 7       439.874          47.062    21505201.680   113010596.686 5       439.874          35.125    21505206.540    88060227.037 5       342.759          35.437    21505207.380    88060228.035 7       342.759          46.687
> 2024 07 31 13 20 59.0000000  0 10
G03  23376882.160   122846357.339 6       404.552          40.875    23376882.300   122846357.334 6       404.552          38.500    23376895.020    95724455.758 6       315.235          38.000    23376894.860    95724465.747 7       315.235          44.000
R05  19456070.920   104003848.828 8      1747.079          49.812    19456070.280   104003848.823 8      1747.079          49.125    19456080.140    80891917.229 8      1358.840          51.375    19456080.100    80891921.227 8      1358.840          51.437
G11  24792199.380   130283884.771 6      5720.466          40.812    24792199.000   130283884.778 3      5720.466          22.062    24792207.520   101519943.424 3      4457.506          22.187    24792208.260   101519946.432 6      4457.506          40.812
G07  23671952.000   124396953.054 7      5049.797          42.937    23671950.240   124396953.053 6      5049.797          41.062    23671966.920    96932747.501 6      3934.907          40.687    23671967.220    96932755.506 7      3934.907          45.312
G17  21072756.320   110738074.972 7       952.274          44.125    21072755.340   110738074.977 7       952.274          43.187    21072761.740    86289427.217 7       742.031          42.812    21072762.660    86289429.224 7       742.031          47.187
G20  25189671.980   132372623.659 5      4783.974          33.000
G09  20094371.480   105596635.461 8      2636.674          49.500    20094370.380   105596635.466 8      2636.674          51.312    20094376.640    82283112.382 8      2054.551          51.500    20094377.060    82283116.385 8      2054.551          50.437
G19  20492085.640   107686634.346 7      2287.861          47.500    20492084.400   107686634.348 6      2287.861          38.562    20492087.540    83911668.755 6      1782.749          39.000
G06  21417069.740   112547460.313 7      4767.620          47.250    21417068.320   112547460.320 7      4767.620          46.750    21417075.960    87699345.870 7      3715.029          46.625    21417077.040    87699351.852 8      3715.029          49.625
G04  21505118.820   113010156.973 7       439.495          46.500    21505117.980   113010156.984 5       439.495          35.625    21505122.860    88059884.408 5       342.463          35.625    21505123.280    88059885.406 7       342.463          46.625
> 2024 07 31 13 21  0.0000000  0 10
G03  23376805.400   122845952.712 6       404.551          41.500    23376805.380   122845952.706 6       404.551          38.500    23376817.960    95724140.455 6       315.234          38.062    23376818.140    95724150.449 7       315.234          43.625
R05  19455743.940   104002102.087 8      1746.526          49.875    19455743.480   104002102.088 8      1746.526          49.437    19455753.320    80890558.655 8      1358.409          51.625    19455753.360    80890562.653 8      1358.409          51.250
G11  24791110.900   130278164.276 6      5720.540          41.000    24791110.500   130278164.281 3      5720.540          22.062    24791119.020   101515485.902 3      4457.564          22.187    24791119.140   101515488.904 6      4457.564          41.000
G07  23670991.440   124391903.269 7      5049.828          43.125    23670989.280   124391903.272 6      5049.828          40.375    23671006.120    96928812.602 6      3934.931          40.312    23671006.160    96928820.605 7      3934.931          45.437
G17  21072575.180   110737122.928 7       951.886          44.875    21072574.240   110737122.927 7       951.886          43.125    21072580.620    86288685.354 7       741.729          42.562    21072581.400    86288687.357 7       741.729          47.437
G20  25188761.040   132367839.750 5      4783.776          33.312    25188762.900   132367839.740 1      4783.776           5.500    25188760.980   103143764.578 1      3727.617           4.000
G09  20093869.820   105593999.012 8      2636.176          49.812    20093868.680   105593999.017 8      2636.176          51.187    20093875.000    82281058.006 8      2054.163          51.000    20093875.360    82281062.009 8      2054.163          50.500
G19  20491650.480   107684346.840 7      2287.200          47.250    20491649.060   107684346.842 6      2287.200          38.875    20491652.360    83909886.281 6      1782.234          38.875
G06  21416162.360   112542692.897 7      4767.393          47.562    21416161.140   112542692.899 7      4767.393          47.187    21416168.740    87695630.998 7      3714.852          47.000    21416169.800    87695636.981 8      3714.852          49.500
G04  21505035.000   113009717.652 7       439.158          47.375    21505034.320   113009717.663 5       439.158          35.812    21505039.600    88059542.076 6       342.201          36.250    21505039.640    88059543.076 7       342.201          46.687
> 2024 07 31 13 21  1.0000000  0 10
G03  23376728.540   122845548.232 7       404.443          42.062    23376728.420   122845548.232 6       404.443          38.187    23376741.060    95723825.274 6       315.151          37.937    23376741.260    95723835.272 7       315.151          43.625
R05  19455417.440   104000356.116 8      1745.729          49.937    19455416.800   104000356.119 8      1745.729          49.500    19455426.700    80889200.675 8      1357.789          51.687    19455426.880    80889204.675 8      1357.789          51.312
G11  24790022.440   130272443.918 6      5720.280          41.312    24790021.760   130272443.925 3      5720.280          22.062    24790030.260   101511028.482 3      4457.361          22.187    24790030.240   101511031.484 6      4457.361          41.000
G07  23670030.820   124386853.753 7      5049.488          44.125    23670028.380   124386853.750 6      5049.488          40.562    23670045.280    96924877.908 6      3934.666          40.062    23670045.520    96924885.909 7      3934.666          45.500
G17  21072394.060   110736171.603 7       951.080          45.125    21072393.360   110736171.605 7       951.080          43.312    21072399.620    86287944.061 7       741.101          42.937    21072400.060    86287946.063 7       741.101          47.437
G20  25187851.500   132363056.055 5      4783.591          33.312    25187851.040   132363056.149 1      4783.591           3.375    25187851.260   103140037.056 1      3727.473           3.375
G09  20093368.340   105591363.375 8      2635.360          49.375    20093367.220   105591363.378 8      2635.360          51.062    20093373.440    82279004.263 8      2053.527          51.187    20093373.880    82279008.266 8      2053.527          50.687
G19  20491215.540   107682060.237 7      2286.322          47.625    20491213.760   107682060.239 6      2286.322          38.937    20491217.160    83908104.508 6      1781.550          39.312
G06  21415255.140   112537925.868 7      4766.866          46.812    21415253.920   112537925.878 7      4766.866          47.250    21415261.580    87691916.436 7      3714.441          47.125    21415262.620    87691922.423 8      3714.441          49.437
G04  21504951.800   113009278.952 7       438.625          47.437    21504950.820   113009278.962 5       438.625          35.625    21504956.140    88059200.231 5       341.786          35.875    21504956.460    88059201.233 7       341.786          47.000
> 2024 07 31 13 21  2.0000000  0 10
G03  23376651.240   122845143.946 7       404.290          42.250    23376651.560   122845143.957 6       404.290          38.187    23376663.980    95723510.246 6       315.032          37.500    23376664.020    95723520.240 7       315.032          44.062
R05  19455091.040   103998610.952 8      1744.838          50.000    19455090.440   103998610.950 8      1744.838          49.812    19455100.220    80887843.321 8      1357.096          49.875    19455100.300    80887847.321 8      1357.096          49.562
G11  24788933.800   130266723.654 6      5720.408          41.375    24788933.400   130266723.661 3      5720.408          22.500    24788941.760   101506571.138 3      4457.461          22.187    24788942.200   101506574.135 6      4457.461          40.812
G07  23669069.800   124381804.473 7      5049.135          44.500    23669067.700   124381804.478 6      5049.135          40.312    23669084.400    96920943.404 6      3934.391          39.937    23669084.700    96920951.412 7      3934.391          44.812
G17  21072213.320   110735220.978 7       950.352          44.875    21072212.560   110735220.980 7       950.352          42.562    21072218.620    86287203.307 7       740.534          42.250    21072219.300    86287205.312 7       740.534          46.875
G20  25186941.560   132358272.538 5      4783.827          33.312    25186948.760   132358272.651 1      4783.827           1.000    25186941.200   103136309.491 1      3727.657           1.000
G09  20092866.760   105588728.551 8      2634.482          48.812    20092865.780   105588728.555 8      2634.482          49.875    20092872.080    82276951.155 8      2052.843          49.500    20092872.460    82276955.156 8      2052.843          49.625
G19  20490780.540   107679774.549 8      2285.390          48.250    20490778.920   107679774.548 6      2285.390          38.500    20490782.160    83906323.448 6      1780.823          38.500
G06  21414347.960   112533159.248 7      4766.476          47.562    21414346.960   112533159.253 7      4766.476          46.750    21414354.580    87688202.185 7      3714.137          46.312    21414355.560    87688208.172 8      3714.137          48.875
G04  21504868.540   113008840.905 7       437.857          46.562    21504867.540   113008840.918 5       437.857          35.625    21504872.820    88058858.898 5       341.187          35.875    21504873.320    88058859.896 7       341.187          46.500
> 2024 07 31 13 21  3.0000000  0 10
G03  23376574.580   122844739.766 6       404.183          41.875    23376574.620   122844739.776 6       404.183          37.625    23376587.000    95723195.292 6       314.948          37.437    23376586.660    95723205.292 7       314.948          43.937
R05  19454764.440   103996866.480 8      1744.107          50.312    19454764.220   103996866.473 8      1744.107          49.437    19454773.880    80886486.508 8      1356.528          51.187    19454773.820    80886490.508 8      1356.528          51.375
G11  24787845.600   130261003.472 6      5720.138          40.875    24787844.920   130261003.476 3      5720.138          22.500    24787853.020   101502113.857 3      4457.250          22.625    24787853.840   101502116.861 6      4457.250          40.812
G07  23668108.840   124376755.362 7      5048.984          44.187    23668107.080   124376755.369 6      5048.984          40.875    23668123.760    96917009.033 6      3934.273          40.562    23668123.760    96917017.043 7      3934.273          45.375
G17  21072032.340   110734270.970 7       949.777          44.937    21072031.940   110734270.967 7       949.777          42.750    21072038.000    86286463.031 7       740.086          43.000    21072038.380    86286465.038 7       740.086          47.375
G20  25186031.180   132353489.276 5      4783.331          33.687    25186031.340   132353489.294 1      4783.331           1.000    25186038.400   103132582.353 1      3727.271           1.000
G09  20092365.580   105586094.454 8      2633.701          49.437    20092364.520   105586094.458 8      2633.701          50.812    20092370.740    82274898.612 8      2052.235          51.000    20092371.240    82274902.613 8      2052.235          50.500
G19  20490345.680   107677489.709 7      2284.421          47.187    20490344.180   107677489.712 6      2284.421          39.000    20490347.360    83904543.050 6      1780.069          38.750
G06  21413441.020   112528392.955 7      4766.057          47.312    21413439.880   112528392.957 7      4766.057          46.750    21413447.600    87684488.192 7      3713.811          46.750    21413448.540    87684494.181 8      3713.811          49.937
G04  21504785.260   113008403.402 7       437.179          46.687    21504784.120   113008403.415 5       437.179          35.437    21504789.500    88058517.987 5       340.659          35.312    21504790.080    88058518.980 7       340.659          46.625
> 2024 07 31 13 21  4.0000000  0 10
G03  23376497.560   122844335.704 6       404.166          41.875    23376497.740   122844335.706 6       404.166          38.062    23376510.160    95722880.426 6       314.935          37.625    23376509.900    95722890.422 7       314.935          43.750
R05  19454438.540   103995122.722 8      1743.604          49.875    19454437.800   103995122.718 8      1743.604          48.875    19454447.540    80885130.254 8      1356.137          51.500    19454447.700    80885134.254 8      1356.137          51.000
G11  24786756.880   130255283.344 6      5720.176          41.625    24786756.400   130255283.352 3      5720.176          22.500    24786764.480   101497656.619 3      4457.280          22.625    24786764.640   101497659.623 6      4457.280          40.937
G07  23667147.720   124371706.431 7      5049.059          44.625    23667146.360   124371706.436 6      5049.059          40.812    23667163.180    96913074.800 6      3934.332          40.500    23667163.300    96913082.805 7      3934.332          45.437
G17  21071851.840   110733321.598 7       949.262          44.562    21071851.200   110733321.603 7       949.262          43.125    21071857.260    86285723.265 7       739.685          42.812    21071858.000    86285725.269 7       739.685          47.437
G20  25185120.980   132348706.077 5      4783.223          33.687    25185117.660   132348706.108 1      4783.223           2.625    25185132.680   103128855.271 1      3727.186           1.000
G09  20091864.580   105583461.090 8      2633.151          49.875    20091863.500   105583461.092 8      2633.151          50.750    20091869.640    82272846.640 8      2051.806          50.875    20091870.240    82272850.639 8      2051.806          50.812
G19  20489911.000   107675205.687 7      2283.708          47.125    20489909.520   107675205.692 6      2283.708          38.375    20489912.600    83902763.296 6      1779.513          38.437
G06  21412534.120   112523626.985 7      4765.973          47.500    21412533.000   112523626.984 7      4765.973          47.125    21412540.600    87680774.451 7      3713.746          47.125    21412541.600    87680780.438 8      3713.746          49.812
G04  21504702.000   113007966.428 7       436.899          47.062    21504700.900   113007966.438 5       436.899          35.500    21504706.440    88058177.479 5       340.440          35.937    21504706.960    88058178.481 7       340.440          46.875
> 2024 07 31 13 21  5.0000000  0 10
G03  23376420.720   122843931.646 7       403.911          42.187    23376420.660   122843931.643 6       403.911          37.500    23376433.340    95722565.566 6       314.736          37.687    23376433.240    95722575.566 7       314.736          44.062
R05  19454112.400   103993379.619 8      1742.696          50.312    19454111.800   103993379.617 8      1742.696          49.625    19454121.360    80883774.505 8      1355.430          51.687    19454121.500    80883778.507 8      1355.430          51.000
G11  24785668.320   130249563.191 6      5720.098          40.875    24785668.020   130249563.196 3      5720.098          22.500    24785676.000   101493199.361 3      4457.219          22.625    24785676.400   101493202.360 6      4457.219          40.937
G07  23666186.640   124366657.630 7      5048.655          43.562    23666185.620   124366657.627 6      5048.655          41.062    23666202.540    96909140.661 6      3934.017          40.437    23666202.580    96909148.666 7      3934.017          45.687
G17  21071671.080   110732372.804 7       948.429          44.375    21071670.700   110732372.806 7       948.429          42.937    21071676.780    86284983.937 7       739.036          42.562    21071677.360    86284985.939 7       739.036          47.187
G20  25184210.440   132343922.999 5      4782.757          33.687    25184210.860   132343923.017 1      4782.757           4.312    25184223.900   103125128.240 1      3726.824           1.625
G09  20091363.320   105580828.398 8      2632.262          49.500    20091362.520   105580828.403 8      2632.262          50.500    20091368.700    82270795.194 8      2051.113          50.875    20091369.300    82270799.193 8      2051.113          50.437
G19  20489476.460   107672922.445 7      2282.744          47.437    20489474.980   107672922.450 6      2282.744          38.812    20489478.160    83900984.141 6      1778.762          38.437
G06  21411627.400   112518861.282 7      4765.479          47.187    21411626.140   112518861.282 7      4765.479          47.000    21411633.660    87677060.917 7      3713.361          46.750    21411634.540    87677066.908 8      3713.361          49.812
G04  21504618.960   113007529.952 7       436.174          46.937    21504617.860   113007529.965 5       436.174          35.250    21504623.320    88057837.369 5       339.876          35.875    21504623.620    88057838.366 7       339.876          47.062
> 2024 07 31 13 21  6.0000000  0 10
G03  23376343.840   122843527.847 6       403.515          41.250    23376343.960   122843527.852 6       403.515          38.187    23376356.360    95722250.919 6       314.428          37.437    23376356.940    95722260.917 7       314.428          44.250
R05  19453786.360   103991637.333 8      1741.899          49.625    19453786.000   103991637.332 8      1741.899          48.562    19453795.440    80882419.398 8      1354.810          51.750    19453795.580    80882423.396 8      1354.810          51.437
G11  24784579.800   130243843.250 6      5719.780          41.625    24784579.520   130243843.253 3      5719.780          22.500    24784587.400   101488742.266 3      4456.971          22.625    24784587.680   101488745.268 6      4456.971          40.562
G07  23665226.340   124361609.125 7      5048.254          44.187    23665225.100   124361609.122 6      5048.254          40.750    23665242.060    96905206.761 6      3933.705          40.625    23665242.060    96905214.762 7      3933.705          45.625
G17  21071490.700   110731424.772 7       947.603          44.812    21071490.420   110731424.774 7       947.603          43.312    21071496.320    86284245.204 7       738.392          43.062    21071496.760    86284247.215 7       738.392          47.375
G20  25183300.820   132339140.110 5      4782.902          34.125    25183296.940   132339140.178 1      4782.902           3.937    25183322.700   103121401.269 1      3726.937           1.750
G09  20090862.500   105578196.571 8      2631.348          49.812    20090861.720   105578196.576 8      2631.348          50.875    20090867.840    82268744.422 8      2050.401          51.187    20090868.400    82268748.423 8      2050.401          50.312
G19  20489042.260   107670640.183 7      2281.737          46.937    20489040.760   107670640.188 6      2281.737          38.562    20489043.860    83899205.753 6      1777.977          38.750
G06  21410720.460   112514096.048 7      4764.945          47.500    21410719.460   112514096.047 7      4764.945          47.437    21410726.940    87673347.749 7      3712.944          47.250    21410727.700    87673353.742 8      3712.944          49.375
G04  21504535.980   113007094.155 7       435.475          47.062    21504534.900   113007094.165 5       435.475          35.812    21504540.640    88057497.784 5       339.331          35.937    21504540.860    88057498.784 7       339.331          47.250
> 2024 07 31 13 21  7.0000000  0 10
G03  23376266.960   122843124.066 6       403.741          40.375    23376266.920   122843124.065 6       403.741          37.687    23376279.540    95721936.272 6       314.603          37.250    23376279.860    95721946.256 7       314.603          44.125
R05  19453460.840   103989895.666 8      1741.473          48.875    19453459.980   103989895.667 8      1741.473          49.062    19453469.660    80881064.767 8      1354.479          51.562    19453470.020    80881068.768 8      1354.479          51.750
G11  24783491.280   130238123.249 6      5720.116          40.875    24783491.000   130238123.252 3      5720.116          22.500    24783498.820   101484285.122 3      4457.233          22.625    24783498.560   101484288.136 6      4457.233          40.562
G07  23664265.840   124356560.702 7      5048.486          43.562    23664264.460   124356560.704 6      5048.486          40.500    23664281.380    96901272.922 6      3933.885          40.375    23664281.540    96901280.930 7      3933.885          45.750
G17  21071310.460   110730477.291 7       947.300          44.625    21071310.100   110730477.288 7       947.300          43.125    21071315.960    86283506.902 7       738.155          42.812    21071316.600    86283508.904 7       738.155          47.125
G20  25182390.020   132334357.371 5      4782.572          34.125    25182384.880   132334357.462 1      4782.572           4.125    25182409.860   103117674.451 1      3726.680           2.625
G09  20090361.760   105575565.396 8      2630.890          49.375    20090361.080   105575565.406 8      2630.890          50.750    20090367.240    82266694.158 8      2050.045          51.187    20090367.800    82266698.157 8      2050.045          50.125
G19  20488608.240   107668358.670 7      2281.210          47.625    20488606.500   107668358.675 6      2281.210          38.625    20488609.780    83897427.948 6      1777.566          38.625
G06  21409813.680   112509331.060 7      4764.944          47.187    21409812.700   112509331.060 7      4764.944          47.000    21409820.220    87669634.776 7      3712.943          46.937    21409821.100    87669640.767 8      3712.943          49.062
G04  21504452.860   113006658.854 7       435.096          47.312    21504451.940   113006658.864 6       435.096          36.375    21504457.760    88057158.589 6       339.036          36.000    21504457.640    88057159.584 7       339.036          46.625
> 2024 07 31 13 21  8.0000000  0 10
G03  23376190.020   122842720.429 6       403.387          40.312    23376190.100   122842720.429 6       403.387          37.250    23376202.700    95721621.742 6       314.328          37.687    23376203.280    95721631.738 7       314.328          43.875
R05  19453135.040   103988154.735 8      1740.440          50.062    19453134.440   103988154.739 8      1740.440          49.250    19453143.840    80879710.713 8      1353.676          51.062    19453144.300    80879714.713 8      1353.676          50.750
G11  24782402.520   130232403.432 6      5719.569          40.812    24782402.740   130232403.435 3      5719.569          22.500    24782410.420   101479828.124 3      4456.807          22.625    24782410.020   101479831.118 6      4456.807          40.062
G07  23663304.760   124351512.528 7      5047.862          43.812    23663303.940   124351512.536 6      5047.862          41.000    23663320.840    96897339.283 6      3933.399          40.562    23663320.840    96897347.288 7      3933.399          45.375
G17  21071130.260   110729530.505 7       946.227          44.937    21071129.860   110729530.504 7       946.227          43.437    21071135.800    86282769.140 7       737.320          42.812    21071136.760    86282771.147 7       737.320          47.375
G20  25181480.020   132329574.816 5      4782.115          34.125    25181464.320   132329574.789 1      4782.115           4.312    25181501.080   103113947.844 1      3726.323           3.250
G09  20089861.260   105572935.028 8      2629.781          49.625    20089860.500   105572935.032 8      2629.781          50.937    20089866.660    82264644.520 8      2049.180          51.812    20089867.160    82264648.519 8      2049.180          50.125
G19  20488174.220   107666078.064 7      2280.053          47.312    20488172.520   107666078.068 6      2280.053          38.437    20488175.820    83895650.852 6      1776.665          38.687
G06  21408907.140   112504566.474 7      4764.251          47.312    21408906.100   112504566.479 7      4764.251          47.562    21408913.600    87665922.116 7      3712.404          47.125    21408914.640    87665928.109 8      3712.404          49.812
G04  21504370.240   113006224.139 7       434.277          47.062    21504369.360   113006224.149 5       434.277          35.875    21504375.020    88056819.850 6       338.397          36.000    21504375.160    88056820.845 7       338.397          47.625
> 2024 07 31 13 21  9.0000000  0 10
G03  23376113.360   122842316.879 6       403.482          40.875    23376113.340   122842316.881 6       403.482          37.250    23376125.900    95721307.282 6       314.402          36.625    23376126.300    95721317.273 7       314.402          44.062
R05  19452809.520   103986414.479 8      1739.997          50.062    19452808.980   103986414.477 8      1739.997          49.750    19452818.260    80878357.171 8      1353.331          51.562    19452818.820    80878361.174 8      1353.331          51.437
G11  24781314.320   130226683.555 6      5720.008          40.312    24781314.140   130226683.557 3      5720.008          22.500    24781322.120   101475371.085 3      4457.149          22.625    24781321.940   101475374.083 6      4457.149          40.062
G07  23662344.180   124346464.496 7      5048.032          43.437    23662343.360   124346464.504 6      5048.032          40.562    23662360.200    96893405.747 6      3933.531          40.625    23662360.140    96893413.749 7      3933.531          45.625
G17  21070950.260   110728584.286 7       945.994          45.250    21070949.880   110728584.288 7       945.994          43.500    21070955.860    86282031.824 7       737.138          43.125    21070956.740    86282033.833 7       737.138          46.937
G20  25180569.360   132324792.329 5      4782.382          34.500    25180566.680   132324792.360 1      4782.382           3.625    25180586.480   103110221.210 1      3726.531           2.625
G09  20089360.820   105570305.342 8      2629.416          49.750    20089360.160   105570305.347 8      2629.416          51.125    20089366.220    82262595.412 8      2048.896          51.062    20089366.540    82262599.409 8      2048.896          49.937
G19  20487740.440   107663798.277 7      2279.432          46.062    20487738.780   107663798.276 6      2279.432          39.125    20487741.940    83893874.389 6      1776.181          38.937
G06  21408000.420   112499802.180 7      4764.189          47.875    21407999.480   112499802.180 7      4764.189          47.000    21408006.920    87662209.677 7      3712.355          47.000    21408007.800    87662215.666 8      3712.355          49.562
G04  21504287.600   113005789.952 7       434.004          47.812    21504286.740   113005789.962 6       434.004          36.125    21504292.500    88056481.516 6       338.185          36.062    21504292.740    88056482.514 7       338.185          47.125
> 2024 07 31 13 21 10.0000000  0 10
G03  23376036.800   122841913.193 6       404.042          40.312    23376036.340   122841913.195 6       404.042          36.875    23376049.020    95720992.716 6       314.838          36.937    23376049.420    95721002.706 7       314.838          44.375
R05  19452483.820   103984674.722 8      1739.777          49.062    19452483.680   103984674.723 8      1739.777          49.187    19452492.900    80877004.031 8      1353.160          51.187    19452493.200    80877008.032 8      1353.160          51.750
G11  24780225.880   130220963.596 6      5720.259          41.125    24780225.820   130220963.601 3      5720.259          23.437    24780233.560   101470913.978 3      4457.344          22.625    24780233.740   101470916.976 6      4457.344          40.062
G07  23661383.160   124341416.454 7      5048.224          43.875    23661382.720   124341416.456 6      5048.224          40.562    23661399.560    96889472.202 6      3933.681          40.312    23661399.680    96889480.207 7      3933.681          45.812
G17  21070770.080   110727638.529 7       945.843          45.500    21070769.820   110727638.524 7       945.843          43.000    21070775.920    86281294.861 7       737.020          42.625    21070776.540    86281296.867 7       737.020          46.937
G20  25179659.160   132320009.768 5      4782.974          34.500    25179657.940   132320009.860 1      4782.974           4.000    25179673.900   103106494.480 1      3726.993           3.125
G09  20088860.540   105567676.193 8      2629.188          49.625    20088859.860   105567676.198 8      2629.188          50.812    20088865.960    82260546.726 8      2048.718          51.687    20088866.320    82260550.725 8      2048.718          50.437
G19  20487306.420   107661519.102 7      2279.122          47.187    20487304.940   107661519.110 6      2279.122          38.750    20487308.220    83892098.409 6      1775.939          38.812
G06  21407093.900   112495038.010 8      4764.419          48.062    21407092.920   112495038.007 7      4764.419          47.062    21407100.320    87658497.336 7      3712.534          47.125    21407101.280    87658503.327 8      3712.534          49.312
G04  21504205.080   113005356.110 7       433.933          46.812    21504204.220   113005356.120 5       433.933          35.937    21504209.920    88056143.453 6       338.130          36.062    21504209.980    88056144.446 7       338.130          47.312
> 2024 07 31 13 21 11.0000000  0 10
G03  23375960.320   122841509.666 6       403.404          40.375    23375959.460   122841509.674 6       403.404          37.062    23375972.280    95720678.276 6       314.341          36.250    23375972.760    95720688.264 7       314.341          44.125
R05  19452158.660   103982935.745 8      1738.402          50.062    19452158.380   103982935.747 8      1738.402          49.375    19452167.580    80875651.494 8      1352.090          51.312    19452167.820    80875655.492 8      1352.090          51.375
G11  24779136.920   130215243.700 6      5719.778          40.250    24779137.380   130215243.705 3      5719.778          23.437    24779144.880   101466456.921 3      4456.970          23.312    24779144.800   101466459.908 6      4456.970          40.312
G07  23660422.980   124336368.606 7      5047.580          43.812    23660422.220   124336368.609 6      5047.580          40.937    23660438.960    96885538.812 6      3933.179          40.500    23660439.140    96885546.813 7      3933.179          45.750
G17  21070590.160   110726693.411 7       944.792          44.812    21070589.980   110726693.411 7       944.792          43.437    21070596.040    86280558.403 7       736.201          42.937    21070596.560    86280560.408 7       736.201          47.062
G20  25178749.620   132315227.468 5      4781.997          35.250    25178749.480   132315227.507 1      4781.997           4.000    25178762.940   103102768.035 1      3726.231           2.750
G09  20088360.340   105565047.816 8      2627.908          49.750    20088359.720   105565047.815 8      2627.908          50.812    20088365.760    82258498.636 8      2047.720          51.125    20088366.020    82258502.635 8      2047.720          50.312
G19  20486873.060   107659240.829 7      2277.699          47.375    20486871.500   107659240.834 6      2277.699          38.562    20486874.720    83890323.127 6      1774.830          38.375
G06  21406187.520   112490274.215 7      4763.460          47.437    21406186.440   112490274.215 7      4763.460          47.187    21406193.820    87654785.295 7      3711.787          47.312    21406194.780    87654791.288 8      3711.787          49.937
G04  21504122.820   113004922.856 7       432.778          47.062    21504121.780   113004922.868 6       432.778          36.187    21504127.560    88055805.852 6       337.230          36.062    21504127.880    88055806.852 7       337.230          47.375
> 2024 07 31 13 21 12.0000000  0 10
G03  23375883.400   122841106.303 6       403.552          40.000    23375882.680   122841106.303 6       403.552          37.125    23375895.240    95720363.953 6       314.456          36.750    23375896.160    95720373.930 7       314.456          44.000
R05  19451833.600   103981197.475 8      1738.192          49.562    19451833.160   103981197.479 8      1738.192          48.687    19451842.320    80874299.508 8      1351.927          51.500    19451842.920    80874303.506 8      1351.927          51.625
G11  24778049.000   130209523.872 6      5720.001          40.250    24778049.140   130209523.880 3      5720.001          23.437    24778056.480   101461999.916 3      4457.144          23.312    24778056.500   101462002.924 6      4457.144          40.312
G07  23659462.400   124331320.948 7      5047.851          44.375    23659461.640   124331320.947 6      5047.851          40.687    23659478.500    96881605.567 6      3933.390          40.500    23659478.720    96881613.569 7      3933.390          45.250
G17  21070410.580   110725748.976 7       944.483          44.812    21070410.280   110725748.970 7       944.483          43.000    21070416.180    86279822.474 7       735.961          42.562    21070417.020    86279824.476 7       735.961          47.250
G20  25177839.300   132310445.252 5      4782.399          35.250    25177839.080   132310445.254 1      4782.399           4.000    25177849.440   103099041.608 1      3726.545           2.750
G09  20087860.600   105562420.177 8      2627.562          49.187    20087859.700   105562420.182 8      2627.562          50.937    20087865.800    82256451.130 8      2047.451          51.125    20087866.060    82256455.133 8      2047.451          50.562
G19  20486439.760   107656963.399 7      2277.224          46.625    20486438.200   107656963.404 6      2277.224          38.687    20486441.280    83888548.504 6      1774.460          38.375
G06  21405281.180   112485510.759 7      4763.559          47.875    21405279.940   112485510.762 7      4763.559          47.375    21405287.320    87651073.511 7      3711.864          47.250    21405288.100    87651079.506 8      3711.864          49.562
G04  21504040.260   113004490.169 7       432.607          47.187    21504039.380   113004490.182 6       432.607          36.187    21504045.320    88055468.692 6       337.097          36.187    21504045.640    88055469.691 7       337.097          47.562
> 2024 07 31 13 21 13.0000000  0 10
G03  23375806.340   122840702.913 6       403.138          40.062    23375805.620   122840702.913 6       403.138          36.937    23375818.300    95720049.619 6       314.133          36.500    23375819.080    95720059.598 7       314.133          44.062
R05  19451508.760   103979459.848 8      1737.221          49.937    19451508.140   103979459.852 8      1737.221          49.375    19451517.360    80872948.018 8      1351.172          50.937    19451517.820    80872952.017 8      1351.172          51.562
G11  24776960.500   130203804.024 6      5719.816          40.000    24776960.480   130203804.031 3      5719.816          23.437    24776967.800   101457542.893 3      4456.999          23.312    24776967.800   101457545.897 6      4456.999          39.812
G07  23658502.020   124326273.384 7      5047.392          44.500    23658501.080   124326273.386 6      5047.392          40.625    23658517.900    96877672.405 6      3933.033          40.312    23658518.260    96877680.412 7      3933.033          45.062
G17  21070231.020   110724805.067 7       943.559          44.500    21070230.620   110724805.064 7       943.559          43.000    21070236.640    86279086.958 7       735.240          42.812    21070237.220    86279088.958 7       735.240          46.562
G20  25176929.900   132305663.067 5      4782.278          35.250    25176928.700   132305663.064 1      4782.278           4.000    25176936.600   103095315.214 1      3726.451           2.750
G09  20087360.660   105559793.203 8      2626.602          49.312    20087359.820   105559793.206 8      2626.602          50.687    20087365.940    82254404.137 8      2046.703          50.625    20087366.300    82254408.136 8      2046.703          50.437
G19  20486006.580   107654686.723 7      2276.217          47.187    20486005.060   107654686.723 6      2276.217          39.062    20486008.080    83886774.467 6      1773.675          39.000
G06  21404374.580   112480747.556 7      4763.024          47.812    21404373.580   112480747.555 7      4763.024          47.000    21404380.760    87647361.926 7      3711.447          46.875    21404381.940    87647367.921 8      3711.447          49.375
G04  21503957.960   113004057.943 7       431.886          46.937    21503957.020   113004057.953 5       431.886          35.812    21503963.140    88055131.890 5       336.534          35.812    21503963.300    88055132.891 7       336.534          47.562
> 2024 07 31 13 21 14.0000000  0 10
G03  23375729.740   122840299.642 6       403.113          40.750    23375729.100   122840299.649 6       403.113          36.812    23375741.380    95719735.376 6       314.114          36.625    23375742.160    95719745.361 7       314.114          43.437
R05  19451183.680   103977722.938 8      1736.451          49.750    19451183.320   103977722.947 8      1736.451          49.500    19451192.300    80871597.092 8      1350.573          49.562    19451192.740    80871601.090 8      1350.573          49.562
G11  24775871.920   130198084.254 6      5719.722          40.000    24775872.000   130198084.267 3      5719.722          23.437    24775879.300   101453085.934 3      4456.926          23.312    24775878.600   101453088.932 6      4456.926          39.812
G07  23657541.660   124321226.019 7      5047.156          44.062    23657540.520   124321226.027 6      5047.156          40.687    23657557.460    96873739.395 6      3932.849          40.437    23657557.580    96873747.403 7      3932.849          45.125
G17  21070051.740   110723861.822 7       942.830          45.000    21070051.100   110723861.819 7       942.830          42.250    21070057.180    86278351.954 7       734.673          42.187    21070057.640    86278353.956 7       734.673          46.687
G20  25176020.320   132300881.124 6      4781.806          36.000    25176017.420   132300881.150 1      4781.806           4.000    25176029.280   103091589.045 1      3726.082           2.750
G09  20086860.920   105557166.989 8      2625.776          49.250    20086860.140   105557166.991 8      2625.776          49.500    20086866.220    82252357.739 8      2046.059          50.000    20086866.620    82252361.737 8      2046.059          50.937
G19  20485573.480   107652410.920 7      2275.300          47.250    20485571.840   107652410.922 6      2275.300          38.750    20485575.040    83885001.111 6      1772.961          39.000
G06  21403468.160   112475984.717 7      4762.630          47.562    21403467.260   112475984.714 7      4762.630          46.250    21403474.500    87643650.623 7      3711.140          46.562    21403475.760    87643656.616 8      3711.140          48.500
G04  21503875.900   113003626.302 7       431.271          46.812    21503875.000   113003626.315 5       431.271          35.875    21503881.000    88054795.549 6       336.055          36.125    21503881.120    88054796.544 7       336.055          47.437
> 2024 07 31 13 21 15.0000000  0 10
G03  23375653.140   122839896.633 6       403.072          39.937    23375652.580   122839896.638 6       403.072          36.937    23375664.560    95719421.337 6       314.082          36.437    23375664.920    95719431.322 7       314.082          43.187
R05  19450858.800   103975986.864 8      1735.722          49.875    19450858.440   103975986.873 8      1735.722          49.312    19450867.540    80870246.811 8      1350.006          51.375    19450868.060    80870250.809 8      1350.006          51.375
G11  24774783.960   130192364.713 6      5719.452          40.500    24774783.700   130192364.728 3      5719.452          23.437    24774790.800   101448629.151 3      4456.716          23.312    24774790.120   101448632.165 6      4456.716          39.937
G07  23656581.260   124316178.986 7      5046.857          43.312    23656580.160   124316178.996 6      5046.857          40.812    23656596.820    96869806.642 6      3932.616          40.437    23656597.000    96869814.646 7      3932.616          44.750
G17  21069871.980   110722919.350 7       942.134          44.250    21069871.820   110722919.347 7       942.134          43.250    21069877.940    86277617.558 7       734.130          42.812    21069878.160    86277619.558 7       734.130          46.875
G20  25175109.780   132296099.407 6      4781.662          36.000    25175108.300   132296099.438 1      4781.662           4.000    25175118.500   103087863.028 1      3725.970           2.750
G09  20086361.220   105554541.655 8      2624.994          48.250    20086360.560   105554541.657 8      2624.994          51.562    20086366.580    82250312.021 8      2045.450          51.562    20086366.980    82250316.022 8      2045.450          50.625
G19  20485140.480   107650136.104 7      2274.373          46.875    20485138.980   107650136.106 6      2274.373          38.812    20485142.240    83883228.526 6      1772.239          39.000
G06  21402562.120   112471222.368 7      4762.163          47.000    21402560.960   112471222.365 7      4762.163          47.375    21402568.240    87639939.703 7      3710.777          47.625    21402569.280    87639945.703 8      3710.777          49.437
G04  21503793.880   113003195.365 7       430.622          46.812    21503793.040   113003195.373 5       430.622          35.875    21503799.060    88054459.750 5       335.549          35.812    21503799.420    88054460.749 7       335.549          47.625
> 2024 07 31 13 21 16.0000000  0 10
G03  23375576.240   122839493.759 6       402.670          40.687    23375575.960   122839493.769 6       402.670          36.437    23375587.600    95719107.410 6       313.769          36.187    23375587.780    95719117.392 7       313.769          43.187
R05  19450534.080   103974251.501 8      1734.857          50.125    19450533.960   103974251.513 8      1734.857          49.312    19450542.920    80868897.088 8      1349.333          51.687    19450543.360    80868901.086 8      1349.333          51.062
G11  24773695.280   130186645.237 6      5719.251          40.000    24773695.340   130186645.253 3      5719.251          23.437    24773702.360   101444172.421 3      4456.559          23.312    24773701.960   101444175.435 6      4456.559          39.937
G07  23655620.700   124311132.152 7      5046.569          44.125    23655619.520   124311132.163 6      5046.569          40.562    23655636.520    96865874.045 6      3932.392          40.187    23655636.600    96865882.046 7      3932.392          45.000
G17  21069692.800   110721977.550 7       941.212          45.312    21069692.500   110721977.552 7       941.212          43.187    21069698.640    86276883.684 7       733.412          42.750    21069698.840    86276885.684 7       733.412          46.812
G20  25174200.160   132291317.931 6      4781.170          36.375    25174195.700   132291317.931 1      4781.170           4.000    25174209.240   103084137.207 1      3725.587           2.750
G09  20085861.640   105551917.088 8      2623.976          49.187    20085861.180   105551917.090 8      2623.976          50.875    20085867.200    82248266.906 8      2044.656          51.375    20085867.500    82248270.903 8      2044.656          50.625
G19  20484708.080   107647862.158 7      2273.273          46.500    20484706.120   107647862.161 6      2273.273          39.125    20484709.640    83881456.618 6      1771.382          38.500
G06  21401655.900   112466460.376 8      4761.575          48.000    21401654.800   112466460.373 7      4761.575          47.437    21401662.040    87636229.064 7      3710.318          47.000    21401663.020    87636235.059 8      3710.318          49.750
G04  21503711.840   113002764.999 7       429.910          47.250    21503711.040   113002765.009 6       429.910          36.062    21503717.280    88054124.399 6       334.995          36.125    21503717.540    88054125.393 7       334.995          47.937
> 2024 07 31 13 21 17.0000000  0 10
G03  23375499.520   122839091.165 6       402.718          41.250    23375499.320   122839091.175 6       402.718          36.375    23375510.740    95718793.693 6       313.806          36.000    23375510.680    95718803.668 7       313.806          42.875
R05  19450209.680   103972517.034 8      1734.327          50.125    19450209.440   103972517.038 8      1734.327          49.437    19450218.540    80867548.050 8      1348.921          51.187    19450218.780    80867552.048 8      1348.921          51.062
G11  24772606.740   130180925.996 6      5719.334          40.125    24772606.920   130180926.008 3      5719.334          23.125    24772613.920   101439715.871 3      4456.624          23.312    24772614.360   101439718.883 6      4456.624          39.937
G07  23654660.380   124306085.679 7      5046.515          43.937    23654659.200   124306085.686 6      5046.515          40.625    23654676.080    96861941.725 6      3932.349          40.187    23654676.380    96861949.727 7      3932.349          45.187
G17  21069513.840   110721036.518 7       940.991          43.937    21069513.360   110721036.512 7       940.991          43.562    21069519.540    86276150.401 7       733.240          43.250    21069519.700    86276152.402 7       733.240          46.812
G20  25173290.480   132286536.732 6      4781.158          36.375    25173286.960   132286536.721 1      4781.158           4.000    25173299.140   103080411.599 1      3725.578           2.750
G09  20085362.500   105549293.406 8      2623.458          49.437    20085361.960   105549293.408 8      2623.458          51.500    20085367.880    82246222.479 8      2044.253          51.125    20085368.420    82246226.478 8      2044.253          50.437
G19  20484275.300   107645589.200 7      2272.650          46.437    20484273.700   107645589.208 6      2272.650          39.062    20484276.940    83879685.482 6      1770.896          38.937
G06  21400749.800   112461698.854 7      4761.559          47.562    21400748.640   112461698.851 7      4761.559          47.312    21400755.980    87632518.787 7      3710.306          47.562    21400757.020    87632524.784 8      3710.306          49.250
G04  21503630.120   113002335.360 8       429.516          48.125    21503629.260   113002335.368 6       429.516          36.000    21503635.480    88053789.610 5       334.688          35.937    21503635.720    88053790.601 8       334.688          48.250
> 2024 07 31 13 21 18.0000000  0 10
G03  23375423.100   122838688.524 6       402.559          41.375    23375422.780   122838688.529 6       402.559          36.750    23375433.980    95718479.935 6       313.682          36.625    23375434.160    95718489.914 7       313.682          42.062
R05  19449885.440   103970783.114 8      1733.557          49.937    19449885.100   103970783.118 8      1733.557          49.000    19449894.100    80866199.448 8      1348.322          51.437    19449894.600    80866203.446 8      1348.322          51.125
G11  24771518.100   130175206.636 6      5719.405          39.937    24771518.780   130175206.648 3      5719.405          23.125    24771525.540   101435259.233 3      4456.679          23.312    24771525.560   101435262.234 6      4456.679          39.812
G07  23653700.340   124301039.210 7      5046.386          43.187    23653698.760   124301039.221 6      5046.386          40.125    23653715.580    96858009.412 6      3932.249          40.187    23653716.040    96858017.414 7      3932.249          44.875
G17  21069334.560   110720096.006 7       940.205          43.062    21069334.300   110720095.997 7       940.205          43.500    21069340.700    86275417.525 7       732.627          42.937    21069340.700    86275419.525 7       732.627          46.437
G20  25172380.900   132281755.467 5      4781.265          35.812    25172376.720   132281755.453 1      4781.265           4.000    25172390.380   103076685.926 1      3725.661           2.750
G09  20084863.280   105546670.310 8      2622.752          48.875    20084862.760   105546670.315 8      2622.752          51.062    20084868.780    82244178.511 8      2043.703          51.312    20084869.200    82244182.511 8      2043.703          50.875
G19  20483843.140   107643316.928 7      2271.818          46.937    20483841.160   107643316.936 6      2271.818          38.812    20483844.460    83877914.878 6      1770.248          38.687
G06  21399843.760   112456937.542 8      4761.192          48.250    21399842.540   112456937.536 7      4761.192          47.312    21399849.800    87628808.674 7      3710.020          47.437    21399850.780    87628814.673 8      3710.020          49.250
G04  21503548.600   113001906.103 8       428.942          48.062    21503547.580   113001906.113 6       428.942          36.500    21503553.920    88053455.126 5       334.241          35.937    21503554.340    88053456.117 8       334.241          48.375
> 2024 07 31 13 21 19.0000000  0 10
G03  23375346.680   122838285.970 6       402.391          41.437    23375346.240   122838285.980 6       402.391          36.375    23375357.060    95718166.256 6       313.552          36.625    23375357.060    95718176.242 7       313.552          42.062
R05  19449560.900   103969049.916 8      1732.668          50.000    19449560.760   103969049.926 8      1732.668          49.500    19449569.800    80864851.405 8      1347.631          51.250    19449570.220    80864855.403 8      1347.631          51.125
G11  24770429.900   130169487.381 6      5719.088          40.000    24770430.460   130169487.394 3      5719.088          23.125    24770437.200   101430802.677 3      4456.432          23.375    24770437.060   101430805.674 6      4456.432          39.812
G07  23652739.980   124295992.968 7      5045.978          43.125    23652738.540   124295992.975 6      5045.978          40.187    23652755.200    96854077.273 6      3931.931          39.875    23652755.780    96854085.273 7      3931.931          45.000
G17  21069155.900   110719156.127 7       939.396          44.625    21069155.480   110719156.121 7       939.396          43.062    21069161.760    86274685.152 7       731.997          42.687    21069161.820    86274687.150 7       731.997          46.375
G20  25171471.360   132276974.415 5      4780.824          35.812    25171468.020   132276974.438 1      4780.824           4.000    25171479.800   103072960.437 1      3725.317           2.750
G09  20084364.240   105544047.979 8      2621.877          49.625    20084363.720   105544047.982 8      2621.877          50.812    20084369.780    82242135.138 8      2043.021          51.250    20084370.300    82242139.135 8      2043.021          50.812
G19  20483410.840   107641045.521 7      2270.819          47.125    20483409.160   107641045.534 6      2270.819          38.937    20483412.400    83876144.950 6      1769.470          39.062
G06  21398937.820   112452176.582 7      4760.648          47.250    21398936.560   112452176.582 7      4760.648          47.625    21398943.680    87625098.840 7      3709.596          47.437    21398944.740    87625104.841 8      3709.596          49.500
G04  21503467.100   113001477.431 7       428.228          47.375    21503465.920   113001477.444 6       428.228          36.187    21503472.260    88053121.094 6       333.684          36.375    21503472.860    88053122.093 7       333.684          47.875
> 2024 07 31 13 21 20.0000000  0 10
G03  23375270.200   122837883.605 6       402.522          41.062    23375269.680   122837883.613 6       402.522          36.187    23375280.420    95717852.715 6       313.653          36.062    23375280.740    95717862.698 6       313.653          41.437
R05  19449236.820   103967317.472 8      1732.288          49.687    19449236.600   103967317.484 8      1732.288          49.250    19449246.000    80863503.953 8      1347.335          51.437    19449246.200    80863507.953 8      1347.335          51.625
G11  24769341.760   130163768.218 6      5719.301          39.750    24769342.180   130163768.231 3      5719.301          23.125    24769348.840   101426346.192 3      4456.598          23.375    24769348.760   101426349.196 6      4456.598          39.750
G07  23651779.920   124290946.910 7      5046.184          43.250    23651778.260   124290946.917 6      5046.184          40.312    23651794.900    96850145.278 6      3932.091          39.750    23651795.180    96850153.279 7      3932.091          44.875
G17  21068977.340   110718216.913 7       939.084          44.250    21068976.800   110718216.910 7       939.084          43.187    21068982.900    86273953.288 7       731.754          42.625    21068982.960    86273955.291 7       731.754          46.250
G20  25170561.440   132272193.546 5      4780.998          35.625    25170558.940   132272193.556 1      4780.998          11.375    25170570.460   103069235.099 1      3725.453           2.750
G09  20083865.240   105541426.423 8      2621.390          50.312    20083864.880   105541426.431 8      2621.390          50.875    20083870.880    82240092.369 8      2042.642          51.437    20083871.320    82240096.368 8      2042.642          51.125
G19  20482978.660   107638774.996 7      2270.343          47.187    20482977.020   107638775.003 6      2270.343          39.000    20482980.300    83874375.704 6      1769.098          39.250
G06  21398031.620   112447415.988 7      4760.617          47.000    21398030.580   112447415.987 7      4760.617          47.437    21398037.740    87621389.288 7      3709.572          47.312    21398039.040    87621395.289 8      3709.572          49.500
G04  21503385.460   113001049.348 7       427.974          47.375    21503384.360   113001049.358 6       427.974          36.062    21503390.860    88052787.520 6       333.487          36.000    21503391.180    88052788.514 8       333.487          48.062
> 2024 07 31 13 21 21.0000000  0 10
G03  23375193.340   122837481.282 6       402.107          40.562    23375192.940   122837481.287 6       402.107          36.187    23375203.840    95717539.208 5       313.330          35.875    23375204.160    95717549.198 6       313.330          41.437
R05  19448913.060   103965585.696 8      1731.332          50.187    19448912.740   103965585.695 8      1731.332          49.125    19448922.000    80862157.005 8      1346.592          51.437    19448922.360    80862161.006 8      1346.592          51.187
G11  24768253.480   130158049.058 6      5719.046          39.687    24768253.880   130158049.071 3      5719.046          23.125    24768260.160   101421889.708 3      4456.399          23.375    24768260.540   101421892.706 6      4456.399          39.750
G07  23650819.740   124285901.030 7      5045.606          42.750    23650818.140   124285901.027 6      5045.606          39.750    23650834.880    96846213.417 6      3931.641          39.437    23650835.160    96846221.413 7      3931.641          44.750
G17  21068798.660   110717278.285 7       938.221          44.312    21068798.120   110717278.279 7       938.221          42.875    21068804.340    86273221.884 7       731.081          42.750    21068804.260    86273223.882 7       731.081          46.562
G20  25169651.760   132267412.817 5      4780.317          35.625    25169649.140   132267412.822 1      4780.317          11.375    25169660.540   103065509.841 1      3724.923          11.437
G09  20083366.680   105538805.561 8      2620.388          49.375    20083366.220   105538805.563 8      2620.388          50.937    20083372.200    82238050.137 8      2041.861          51.000    20083372.660    82238054.136 8      2041.861          50.875
G19  20482546.500   107636505.273 7      2269.186          47.625    20482545.180   107636505.280 6      2269.186          38.562    20482548.320    83872607.086 6      1768.197          38.937
G06  21397126.080   112442655.688 7      4759.955          47.875    21397124.760   112442655.687 7      4759.955          47.625    21397131.780    87617679.965 7      3709.056          47.562    21397133.040    87617685.966 8      3709.056          49.562
G04  21503304.160   113000621.772 7       427.139          47.187    21503303.040   113000621.782 5       427.139          35.750    21503309.520    88052454.338 5       332.836          35.812    21503309.740    88052455.336 8       332.836          48.000
> 2024 07 31 13 21 22.0000000  0 10
G03  23375117.020   122837079.125 6       401.934          40.062    23375116.440   122837079.127 6       401.934          36.312    23375127.040    95717225.829 6       313.195          36.062    23375127.100    95717235.820 6       313.195          41.250
R05  19448589.140   103963854.696 8      1730.431          49.625    19448588.780   103963854.697 8      1730.431          49.562    19448598.220    80860810.673 8      1345.890          51.125    19448598.400    80860814.674 8      1345.890          51.250
G11  24767165.220   130152330.045 6      5718.702          40.750    24767165.580   130152330.060 3      5718.702          23.125    24767171.900   101417433.340 3      4456.131          23.375    24767172.440   101417436.332 6      4456.131          39.750
G07  23649859.620   124280855.363 7      5045.310          42.750    23649857.980   124280855.368 6      5045.310          39.937    23649874.540    96842281.731 6      3931.411          39.625    23649874.900    96842289.732 7      3931.411          44.750
G17  21068620.060   110716340.368 7       937.430          44.500    21068619.640   110716340.365 7       937.430          43.062    21068625.920    86272491.036 7       730.465          42.812    21068625.980    86272493.034 7       730.465          46.500
G20  25168741.360   132262632.193 6      4780.399          36.250    25168739.560   132262632.169 1      4780.399          11.375    25168750.980   103061784.702 1      3724.986          11.437
G09  20082868.060   105536185.495 8      2619.542          50.250    20082867.580   105536185.497 8      2619.542          51.062    20082873.600    82236008.529 8      2041.201          51.062    20082874.120    82236012.526 8      2041.201          50.625
G19  20482114.680   107634236.445 8      2268.289          48.125    20482113.440   107634236.453 6      2268.289          39.312    20482116.660    83870839.169 6      1767.498          38.875
G06  21396220.400   112437895.784 7      4759.563          47.062    21396218.960   112437895.784 7      4759.563          47.437    21396226.000    87613970.951 7      3708.751          47.500    21396227.260    87613976.955 8      3708.751          49.812
G04  21503222.980   113000194.808 7       426.509          47.500    21503221.720   113000194.824 5       426.509          35.875    21503228.220    88052121.643 6       332.344          36.000    21503228.500    88052122.630 8       332.344          48.437
> 2024 07 31 13 21 23.0000000  0 10
G03  23375040.300   122836677.141 6       401.656          40.625    23375039.860   122836677.146 6       401.656          36.187    23375050.380    95716912.594 6       312.979          36.000    23375050.600    95716922.596 6       312.979          41.250
R05  19448265.400   103962124.467 8      1729.626          50.250    19448265.020   103962124.468 8      1729.626          49.000    19448274.540    80859464.940 8      1345.264          51.187    19448274.700    80859468.940 8      1345.264          51.437
G11  24766076.720   130146611.132 6      5718.807          40.875    24766077.280   130146611.150 3      5718.807          23.125    24766083.380   101412977.048 3      4456.214          23.375    24766083.800   101412980.044 6      4456.214          39.812
G07  23648899.400   124275809.959 7      5045.056          42.125    23648897.900   124275809.963 6      5045.056          39.312    23648914.320    96838350.249 6      3931.212          39.312    23648914.800    96838358.251 7      3931.212          44.312
G17  21068441.820   110715403.156 7       936.657          44.125    21068441.240   110715403.153 7       936.657          43.000    21068447.600    86271760.737 7       729.863          42.687    21068447.820    86271762.739 7       729.863          46.437
G20  25167832.100   132257851.858 6      4779.982          36.250    25167829.340   132257851.855 1      4779.982          11.375    25167840.940   103058059.772 1      3724.661          11.437
G09  20082369.700   105533566.238 8      2618.697          50.062    20082369.160   105533566.241 8      2618.697          50.812    20082375.120    82233967.547 8      2040.543          51.312    20082375.700    82233971.546 8      2040.543          50.562
G19  20481683.320   107631968.551 8      2267.335          48.062    20481681.880   107631968.558 6      2267.335          38.812    20481685.100    83869071.974 6      1766.755          38.875
G06  21395314.400   112433136.296 7      4759.111          47.562    21395313.160   112433136.301 7      4759.111          47.312    21395320.360    87610262.263 7      3708.398          46.937    21395321.680    87610268.271 8      3708.398          49.812
G04  21503141.800   112999768.486 7       425.797          46.750    21503140.620   112999768.498 5       425.797          35.875    21503147.200    88051789.438 6       331.790          36.000    21503147.420    88051790.431 8       331.790          48.062
> 2024 07 31 13 21 24.0000000  0 10
G03  23374963.940   122836275.415 6       401.640          40.750    23374963.320   122836275.425 6       401.640          36.312    23374973.840    95716599.559 6       312.966          36.000    23374973.580    95716609.558 6       312.966          40.937
R05  19447941.820   103960395.073 8      1729.094          49.625    19447941.500   103960395.079 8      1729.094          49.062    19447951.160    80858119.864 8      1344.851          51.625    19447951.220    80858123.864 8      1344.851          51.312
G11  24764989.200   130140892.442 6      5718.781          39.812    24764989.100   130140892.457 3      5718.781          23.500    24764995.020   101408520.933 3      4456.193          23.375    24764995.560   101408523.918 6      4456.193          39.812
G07  23647939.500   124270764.867 7      5045.054          42.625    23647937.860   124270764.872 6      5045.054          39.562    23647954.260    96834419.005 6      3931.211          39.437    23647954.460    96834427.008 7      3931.211          44.000
G17  21068263.720   110714466.699 7       936.221          44.000    21068263.020   110714466.696 7       936.221          43.000    21068269.480    86271031.023 7       729.523          42.625    21068269.620    86271033.026 7       729.523          46.562
G20  25166922.780   132253071.778 6      4780.075          36.250    25166920.040   132253071.767 1      4780.075          11.375    25166931.880   103054335.038 1      3724.734          11.437
G09  20081871.460   105530947.843 8      2618.115          49.937    20081870.900   105530947.848 8      2618.115          51.062    20081876.860    82231927.244 8      2040.089          51.062    20081877.500    82231931.240 8      2040.089          51.125
G19  20481252.040   107629701.639 7      2266.513          47.812    20481250.620   107629701.643 6      2266.513          38.937    20481253.760    83867305.549 6      1766.114          38.625
G06  21394408.760   112428377.275 7      4758.917          46.687    21394407.600   112428377.278 7      4758.917          47.437    21394414.580    87606553.936 7      3708.247          47.500    21394415.880    87606559.945 8      3708.247          49.125
G04  21503060.760   112999342.841 7       425.397          46.937    21503059.760   112999342.851 6       425.397          36.437    21503066.200    88051457.764 6       331.478          36.500    21503066.540    88051458.756 8       331.478          48.312
> 2024 07 31 13 21 25.0000000  0 10
G03  23374887.580   122835873.583 6       401.565          39.875    23374886.880   122835873.598 6       401.565          36.312    23374897.400    95716286.443 5       312.908          35.625    23374897.340    95716296.451 6       312.908          41.250
R05  19447618.560   103958666.199 8      1728.476          49.937    19447617.980   103958666.203 8      1728.476          49.625    19447627.680    80856775.181 8      1344.371          51.250    19447627.920    80856779.181 8      1344.371          51.625
G11  24763900.600   130135173.626 6      5718.733          41.062    24763900.800   130135173.641 3      5718.733          23.500    24763906.720   101404064.714 3      4456.155          23.375    24763907.380   101404067.700 6      4456.155          40.000
G07  23646979.320   124265719.765 7      5044.978          43.125    23646977.720   124265719.772 6      5044.978          39.312    23646994.100    96830487.761 6      3931.152          39.125    23646994.340    96830495.766 7      3931.152          44.187
G17  21068085.520   110713530.693 7       935.671          44.562    21068084.900   110713530.692 7       935.671          42.500    21068091.480    86270301.664 7       729.094          42.000    21068091.380    86270303.666 7       729.094          46.375
G20  25166013.340   132248291.672 6      4779.824          36.250    25166010.860   132248291.666 1      4779.824          11.375    25166021.400   103050610.280 1      3724.538          11.437
G09  20081373.300   105528330.019 8      2617.343          49.812    20081372.780   105528330.023 8      2617.343          51.000    20081378.660    82229887.382 8      2039.488          51.437    20081379.440    82229891.379 8      2039.488          51.000
G19  20480820.840   107627435.357 8      2265.868          48.000    20480819.220   107627435.359 6      2265.868          38.937    20480822.540    83865539.607 6      1765.611          39.187
G06  21393503.120   112423618.410 7      4758.628          47.625    21393501.960   112423618.412 7      4758.628          47.500    21393509.020    87602845.729 7      3708.022          47.250    21393510.140    87602851.736 8      3708.022          49.375
G04  21502979.720   112998917.559 7       424.954          47.187    21502978.860   112998917.569 6       424.954          36.250    21502985.380    88051126.372 6       331.133          36.500    21502985.560    88051127.367 8       331.133          48.062
> 2024 07 31 13 21 26.0000000  0 10
G03  23374811.240   122835471.888 6       401.691          39.937    23374810.400   122835471.901 6       401.691          36.125    23374820.960    95715973.428 5       313.006          35.687    23374820.960    95715983.426 6       313.006          41.250
R05  19447295.200   103956938.061 8      1727.727          49.375    19447294.760   103956938.065 8      1727.727          49.062    19447304.400    80855431.073 8      1343.788          49.062    19447304.740    80855435.073 8      1343.788          49.312
G11  24762812.500   130129454.894 6      5718.648          40.250    24762812.440   130129454.904 3      5718.648          23.500    24762818.560   101399608.560 3      4456.089          23.375    24762818.920   101399611.549 6      4456.089          40.000
G07  23646019.160   124260674.889 7      5044.765          43.750    23646017.820   124260674.888 6      5044.765          38.875    23646034.220    96826556.682 6      3930.986          39.062    23646034.280    96826564.684 7      3930.986          43.937
G17  21067907.320   110712595.360 7       934.938          45.000    21067906.860   110712595.362 7       934.938          42.562    21067913.440    86269572.831 7       728.523          42.375    21067913.620    86269574.829 7       728.523          46.000
G20  25165103.380   132243511.699 6      4780.021          36.250    25165101.200   132243511.699 1      4780.021          11.375    25165112.200   103046885.632 1      3724.692          11.437
G09  20080875.360   105525712.940 8      2616.714          49.625    20080874.700   105525712.942 8      2616.714          49.437    20080880.680    82227848.096 8      2038.998          49.062    20080881.440    82227852.093 8      2038.998          50.750
G19  20480389.940   107625169.961 7      2264.965          47.687    20480388.180   107625169.966 6      2264.965          38.937    20480391.480    83863774.366 6      1764.908          38.687
G06  21392597.740   112418859.910 7      4758.274          46.625    21392596.420   112418859.907 7      4758.274          46.500    21392603.460    87599137.804 7      3707.746          46.375    21392604.540    87599143.814 8      3707.746          48.500
G04  21502898.980   112998492.865 7       424.419          46.812    21502897.980   112998492.873 5       424.419          35.812    21502904.480    88050795.440 6       330.716          36.250    21502905.040    88050796.427 7       330.716          47.812
> 2024 07 31 13 21 27.0000000  0 10
G03  23374734.840   122835070.185 6       401.666          39.875    23374734.040   122835070.193 5       401.666          35.812    23374744.580    95715660.405 5       312.986          35.875    23374744.800    95715670.409 6       312.986          41.250
R05  19446972.000   103955210.468 8      1727.322          50.125    19446971.500   103955210.472 8      1727.322          49.250    19446981.360    80854087.385 8      1343.473          51.500    19446981.380    80854091.386 8      1343.473          51.062
G11  24761723.960   130123736.078 6      5718.749          41.312    24761724.140   130123736.091 3      5718.749          23.500    24761730.340   101395152.343 3      4456.168          23.250    24761730.680   101395155.347 6      4456.168          40.000
G07  23645059.160   124255630.023 7      5044.966          43.375    23645057.760   124255630.025 6      5044.966          39.750    23645074.080    96822625.622 6      3931.142          39.625    23645074.440    96822633.622 7      3931.142          44.125
G17  21067729.460   110711660.520 7       934.516          45.125    21067729.120   110711660.515 7       934.516          43.250    21067735.520    86268844.370 7       728.194          42.562    21067735.760    86268846.373 7       728.194          46.687
G20  25164193.220   132238731.777 6      4780.085          36.250    25164191.860   132238731.776 1      4780.085          11.375    25164203.000   103043161.021 1      3724.742          11.437
G09  20080377.320   105523096.471 8      2616.154          49.625    20080376.840   105523096.473 8      2616.154          50.875    20080382.800    82225809.291 8      2038.562          51.312    20080383.480    82225813.286 8      2038.562          50.625
G19  20479958.860   107622905.264 8      2264.313          48.187    20479957.240   107622905.272 6      2264.313          38.937    20479960.540    83862009.665 6      1764.399          38.750
G06  21391692.420   112414101.601 7      4758.153          46.812    21391691.060   112414101.601 7      4758.153          47.062    21391698.000    87595430.036 7      3707.651          47.000    21391699.140    87595436.045 8      3707.651          49.125
G04  21502818.340   112998068.579 7       424.108          47.187    21502817.120   112998068.586 6       424.108          36.187    21502823.720    88050464.825 6       330.474          36.312    21502824.240    88050465.814 7       330.474          47.937
> 2024 07 31 13 21 28.0000000  0 10
G03  23374658.080   122834668.477 6       401.673          40.250    23374657.500   122834668.493 6       401.673          36.125    23374667.960    95715347.385 5       312.992          35.875    23374668.240    95715357.389 6       312.992          41.250
R05  19446648.900   103953483.557 8      1726.478          50.062    19446648.600   103953483.555 8      1726.478          49.500    19446658.460    80852744.228 8      1342.816          51.750    19446658.440    80852748.228 8      1342.816          51.375
G11  24760636.120   130118017.267 6      5718.728          40.500    24760636.020   130118017.277 3      5718.728          23.500    24760642.060   101390696.129 3      4456.152          23.250    24760642.080   101390699.113 6      4456.152          39.625
G07  23644099.240   124250585.315 7      5044.629          42.500    23644097.840   124250585.323 6      5044.629          39.562    23644114.020    96818694.679 6      3930.880          39.187    23644114.780    96818702.676 7      3930.880          44.437
G17  21067551.920   110710726.233 7       933.890          44.562    21067551.320   110710726.230 7       933.890          43.250    21067557.680    86268116.350 7       727.706          42.687    21067557.740    86268118.352 7       727.706          46.500
G20  25163284.200   132233951.912 6      4779.922          36.250    25163282.160   132233951.906 1      4779.922          11.375    25163293.040   103039436.454 1      3724.614          11.437
G09  20079879.420   105520480.667 8      2615.441          49.875    20079879.040   105520480.671 8      2615.441          51.000    20079885.020    82223771.002 8      2038.006          51.062    20079885.740    82223774.999 8      2038.006          51.125
G19  20479527.960   107620641.350 7      2263.403          47.187    20479526.460   107620641.358 6      2263.403          38.625    20479529.860    83860245.574 6      1763.691          38.687
G06  21390786.920   112409343.574 7      4757.776          46.125    21390785.480   112409343.576 7      4757.776          46.875    21390792.440    87591722.484 7      3707.358          47.062    21390793.760    87591728.489 8      3707.358          49.562
G04  21502737.620   112997644.802 7       423.413          46.750    21502736.480   112997644.818 5       423.413          35.875    21502743.120    88050134.607 5       329.932          35.875    21502743.680    88050135.598 7       329.932          47.812
> 2024 07 31 13 21 29.0000000  0 10
G03  23374581.780   122834266.793 6       401.620          40.250    23374581.060   122834266.806 6       401.620          36.250    23374591.500    95715034.378 6       312.951          36.062    23374592.840    95715044.374 6       312.951          41.437
R05  19446326.060   103951757.196 8      1725.985          49.500    19446325.560   103951757.197 8      1725.985          48.750    19446335.560    80851401.503 8      1342.433          51.500    19446335.340    80851405.503 8      1342.433          51.375
G11  24759547.760   130112298.359 6      5718.840          40.875    24759547.740   130112298.372 3      5718.840          23.500    24759553.660   101386239.841 3      4456.239          23.250    24759554.060   101386242.839 6      4456.239          39.625
G07  23643139.160   124245540.657 7      5044.518          43.625    23643137.860   124245540.662 6      5044.518          39.812    23643153.980    96814763.781 6      3930.794          39.437    23643154.440    96814771.778 7      3930.794          44.125
G17  21067374.080   110709792.460 7       933.380          45.312    21067373.540   110709792.457 7       933.380          43.000    21067380.000    86267388.729 7       727.309          42.625    21067380.140    86267390.731 7       727.309          46.437
G20  25162374.160   132229172.103 5      4779.665          35.937    25162372.480   132229172.097 1      4779.665          11.375    25162383.800   103035711.923 1      3724.414          11.437
G09  20079381.800   105517865.469 8      2614.821          49.937    20079381.460   105517865.477 8      2614.821          50.562    20079387.380    82221733.188 8      2037.523          50.875    20079388.060    82221737.183 8      2037.523          51.062
G19  20479097.240   107618378.146 7      2262.717          47.687    20479095.760   107618378.153 6      2262.717          39.062    20479099.220    83858482.036 6      1763.156          38.812
G06  21389881.480   112404585.743 7      4757.560          46.625    21389880.080   112404585.743 7      4757.560          47.687    21389887.040    87588015.082 7      3707.190          47.437    21389888.280    87588021.089 8      3707.190          49.375
G04  21502657.080   112997221.420 7       423.119          46.562    21502655.960   112997221.433 5       423.119          35.812    21502662.660    88049804.695 6       329.703          36.250    21502663.060    88049805.688 8       329.703          48.000
> 2024 07 31 13 21 30.0000000  0 10
G03  23374505.280   122833865.337 6       401.508          39.687    23374504.720   122833865.350 5       401.508          35.875    23374515.060    95714721.548 5       312.863          35.687    23374516.460    95714731.556 6       312.863          41.437
R05  19446003.080   103950031.701 8      1725.201          49.812    19446002.600   103950031.702 8      1725.201          48.812    19446012.660    80850059.458 8      1341.823          51.812    19446012.520    80850063.456 8      1341.823          51.687
G11  24758459.260   130106579.701 6      5718.696          40.687    24758459.700   130106579.711 3      5718.696          23.500    24758465.220   101381783.748 3      4456.127          23.250    24758466.020   101381786.736 6      4456.127          40.187
G07  23642179.200   124240496.322 7      5044.335          43.687    23642178.040   124240496.327 6      5044.335          39.625    23642194.080    96810833.128 6      3930.651          39.062    23642194.440    96810841.125 7      3930.651          44.062
G17  21067196.740   110708859.471 7       932.719          44.375    21067196.120   110708859.468 7       932.719          42.812    21067202.520    86266661.718 7       726.794          42.562    21067202.700    86266663.720 7       726.794          46.687
G20  25161464.420   132224392.538 6      4779.752          37.062    25161463.460   132224392.535 2      4779.752          14.812    25161474.040   103031987.588 1      3724.482          11.437
G09  20078884.420   105515251.181 8      2613.901          49.500    20078883.920   105515251.186 8      2613.901          50.562    20078889.840    82219696.080 8      2036.806          51.062    20078890.540    82219700.077 8      2036.806          50.625
G19  20478666.860   107616115.943 7      2261.836          47.875    20478665.360   107616115.945 6      2261.836          39.000    20478668.680    83856719.278 6      1762.470          38.750
G06  21388976.160   112399828.394 7      4757.238          46.125    21388974.840   112399828.391 7      4757.238          46.687    21388981.720    87584308.054 7      3706.938          47.125    21388983.200    87584314.059 8      3706.938          49.187
G04  21502576.620   112996798.760 7       422.465          47.000    21502575.460   112996798.770 6       422.465          36.062    21502582.280    88049475.349 5       329.194          35.875    21502582.540    88049476.339 8       329.194          48.500
> 2024 07 31 13 21 31.0000000  0 10
G03  23374428.580   122833464.047 6       401.450          40.312    23374428.440   122833464.062 5       401.450          35.937    23374438.660    95714408.854 5       312.819          35.875    23374440.020    95714418.862 6       312.819          41.875
R05  19445680.520   103948307.021 8      1724.384          50.125    19445680.080   103948307.020 8      1724.384          49.125    19445690.380    80848718.034 8      1341.187          51.312    19445690.060    80848722.034 8      1341.187          51.375
G11  24757370.860   130100861.150 6      5718.645          40.562    24757371.500   130100861.160 3      5718.645          23.500    24757376.960   101377327.737 3      4456.087          23.250    24757377.640   101377330.728 6      4456.087          40.187
G07  23641219.660   124235452.264 7      5044.004          43.937    23641218.100   124235452.271 6      5044.004          39.187    23641234.060    96806902.692 6      3930.393          39.312    23641234.640    96806910.694 7      3930.393          43.937
G17  21067019.180   110707927.185 7       932.075          44.812    21067018.760   110707927.188 7       932.075          43.000    21067025.120    86265935.257 7       726.292          42.625    21067025.320    86265937.262 7       726.292          46.750
G20  25160554.880   132219613.259 6      4779.236          37.062    25160554.000   132219613.264 2      4779.236          14.812    25160564.800   103028263.459 1      3724.080          11.437
G09  20078387.000   105512637.676 8      2613.186          49.812    20078386.560   105512637.683 8      2613.186          50.937    20078392.520    82217659.585 8      2036.249          51.125    20078393.180    82217663.582 8      2036.249          50.812
G19  20478236.600   107613854.643 7      2261.008          47.562    20478235.020   107613854.650 6      2261.008          39.000    20478238.440    83854957.220 6      1761.825          39.375
G06  21388071.140   112395071.462 7      4756.888          46.125    21388069.600   112395071.459 7      4756.888          47.750    21388076.560    87580601.358 7      3706.666          47.312    21388077.700    87580607.361 8      3706.666          48.812
G04  21502496.300   112996376.733 7       421.816          47.000    21502495.080   112996376.746 5       421.816          35.812    21502501.840    88049146.495 5       328.688          35.750    21502502.300    88049147.482 8       328.688          48.062
> 2024 07 31 13 21 32.0000000  0 10
G03  23374352.320   122833062.898 6       401.232          39.125    23374352.040   122833062.903 6       401.232          36.187    23374362.540    95714096.262 6       312.648          36.062    23374362.960    95714106.250 7       312.648          42.000
R05  19445358.160   103946583.026 8      1723.642          49.750    19445357.540   103946583.024 8      1723.642          48.937    19445367.820    80847377.148 8      1340.611          51.687    19445367.580    80847381.149 8      1340.611          51.187
G11  24756282.920   130095142.657 6      5718.589          40.875    24756283.280   130095142.665 3      5718.589          23.437    24756288.860   101372871.770 3      4456.043          23.250    24756289.740   101372874.762 6      4456.043          40.062
G07  23640259.680   124230408.357 7      5043.787          42.187    23640258.460   124230408.357 6      5043.787          39.187    23640274.340    96802972.370 6      3930.224          39.187    23640274.300    96802980.373 7      3930.224          43.437
G17  21066842.080   110706995.528 7       931.381          44.625    21066841.540   110706995.528 7       931.381          42.812    21066847.760    86265209.283 7       725.751          42.500    21066848.060    86265211.283 7       725.751          46.875
G20  25159645.340   132214834.062 6      4779.101          37.562    25159644.660   132214834.066 2      4779.101          14.812    25159655.580   103024539.438 2      3723.975          15.062
G09  20077889.940   105510024.904 8      2612.464          49.687    20077889.400   105510024.906 8      2612.464          50.937    20077895.340    82215623.657 8      2035.686          51.437    20077895.940    82215627.653 8      2035.686          50.562
G19  20477806.540   107611594.182 7      2260.090          47.812    20477804.920   107611594.189 6      2260.090          38.937    20477808.340    83853195.824 6      1761.109          38.687
G06  21387166.040   112390314.854 7      4756.514          47.000    21387164.400   112390314.851 7      4756.514          47.500    21387171.340    87576894.912 7      3706.375          47.500    21387172.340    87576900.915 8      3706.375          49.000
G04  21502416.300   112995955.232 7       421.241          46.187    21502414.820   112995955.240 5       421.241          35.937    21502421.720    88048818.049 5       328.240          35.750    21502422.380    88048819.038 7       328.240          47.937
> 2024 07 31 13 21 33.0000000  0 10
G03  23374276.200   122832661.695 6       401.465          40.937    23374275.860   122832661.694 6       401.465          36.625    23374286.260    95713783.624 6       312.830          36.125    23374287.100    95713793.624 7       312.830          42.000
R05  19445035.780   103944859.576 8      1723.487          49.750    19445035.080   103944859.577 8      1723.487          48.687    19445045.360    80846036.691 8      1340.490          51.312    19445045.440    80846040.687 8      1340.490          51.687
G11  24755195.000   130089424.104 6      5718.848          41.062    24755195.000   130089424.117 3      5718.848          23.437    24755200.620   101368415.757 3      4456.245          23.250    24755200.740   101368418.748 6      4456.245          40.062
G07  23639299.900   124225364.466 7      5044.230          43.312    23639298.700   124225364.466 6      5044.230          39.000    23639314.360    96799042.067 6      3930.569          38.875    23639315.240    96799050.071 7      3930.569          43.625
G17  21066664.680   110706064.359 7       931.222          44.437    21066664.360   110706064.356 7       931.222          42.687    21066670.600    86264483.692 7       725.628          42.312    21066670.980    86264485.695 7       725.628          46.750
G20  25158735.860   132210054.867 6      4779.425          37.562    25158734.760   132210054.872 2      4779.425          14.812    25158745.860   103020815.388 2      3724.227          15.062
G09  20077392.880   105507412.736 8      2612.083          49.875    20077392.300   105507412.741 8      2612.083          50.250    20077398.120    82213588.205 8      2035.389          50.562    20077398.680    82213592.204 8      2035.389          51.187
G19  20477376.380   107609334.414 7      2259.679          47.875    20477375.020   107609334.421 6      2259.679          39.312    20477378.340    83851434.964 6      1760.789          39.437
G06  21386260.740   112385558.440 7      4756.606          47.312    21386259.360   112385558.437 7      4756.606          47.125    21386266.240    87573188.617 7      3706.446          47.125    21386267.340    87573194.616 8      3706.446          49.437
G04  21502335.920   112995534.133 7       421.197          46.812    21502334.740   112995534.143 6       421.197          36.000    21502341.640    88048489.918 5       328.205          35.937    21502342.140    88048490.909 8       328.205          48.312
> 2024 07 31 13 21 34.0000000  0 10
G03  23374199.640   122832260.468 6       401.212          40.375    23374199.620   122832260.472 6       401.212          36.812    23374210.020    95713470.977 6       312.633          36.437    23374210.480    95713480.975 7       312.633          42.062
R05  19444713.460   103943136.716 8      1722.628          49.500    19444713.120   103943136.717 8      1722.628          48.937    19444723.240    80844696.685 8      1339.822          51.312    19444723.020    80844700.683 8      1339.822          51.750
G11  24754106.820   130083705.459 6      5718.776          41.625    24754106.820   130083705.472 3      5718.776          23.437    24754112.240   101363959.674 3      4456.189          23.250    24754112.400   101363962.671 6      4456.189          40.062
G07  23638340.140   124220320.688 7      5043.786          43.375    23638338.940   124220320.691 6      5043.786          39.125    23638354.420    96795111.853 6      3930.223          39.000    23638355.220    96795119.852 7      3930.223          43.625
G17  21066487.700   110705133.716 7       930.425          44.625    21066487.340   110705133.716 7       930.425          43.250    21066493.520    86263758.510 7       725.007          43.000    21066493.640    86263760.508 7       725.007          46.625
G20  25157826.600   132205275.706 6      4779.097          37.500    25157825.240   132205275.709 2      4779.097          14.812    25157836.520   103017091.364 2      3723.971          15.062
G09  20076895.760   105504801.170 8      2611.345          49.562    20076895.380   105504801.177 8      2611.345          50.562    20076901.220    82211553.217 8      2034.814          50.750    20076901.480    82211557.213 8      2034.814          50.312
G19  20476946.320   107607075.371 7      2258.777          47.375    20476945.060   107607075.376 6      2258.777          39.500    20476948.520    83849674.669 6      1760.086          39.125
G06  21385355.640   112380802.254 7      4756.170          46.375    21385354.120   112380802.251 7      4756.170          47.437    21385361.100    87569482.495 7      3706.107          47.375    21385362.140    87569488.496 8      3706.107          48.937
G04  21502255.940   112995113.481 7       420.577          46.187    21502254.700   112995113.493 6       420.577          36.125    21502261.460    88048162.137 6       327.722          36.062    21502262.100    88048163.126 8       327.722          48.312
> 2024 07 31 13 21 35.0000000  0 10
G03  23374123.660   122831859.401 6       400.903          39.562    23374123.360   122831859.406 6       400.903          36.687    23374133.780    95713158.454 6       312.392          36.625    23374134.620    95713168.464 7       312.392          42.375
R05  19444391.400   103941414.586 8      1721.713          49.062    19444390.660   103941414.588 8      1721.713          48.937    19444401.080    80843357.251 8      1339.110          51.375    19444400.880    80843361.249 8      1339.110          51.562
G11  24753018.100   130077986.945 6      5718.545          40.750    24753018.660   130077986.955 3      5718.545          23.437    24753024.140   101359503.689 3      4456.009          23.687    24753024.480   101359506.680 6      4456.009          40.250
G07  23637380.300   124215277.110 7      5043.484          42.812    23637379.140   124215277.113 6      5043.484          39.187    23637394.700    96791181.786 6      3929.988          39.125    23637395.280    96791189.795 7      3929.988          43.375
G17  21066311.000   110704203.748 7       929.555          45.062    21066310.340   110704203.748 7       929.555          43.000    21066316.480    86263033.855 7       724.329          42.812    21066316.600    86263035.854 7       724.329          46.562
G20  25156917.480   132200496.735 6      4778.820          38.062    25156915.660   132200496.740 2      4778.820          14.812    25156926.880   103013367.497 2      3723.756          15.062
G09  20076399.000   105502190.405 8      2610.315          49.562    20076398.520   105502190.413 8      2610.315          50.937    20076404.400    82209518.859 8      2034.012          51.312    20076404.760    82209522.857 8      2034.012          50.500
G19  20476516.700   107604817.227 7      2257.672          47.062    20476515.380   107604817.235 6      2257.672          39.312    20476518.820    83847915.070 6      1759.225          39.000
G06  21384450.400   112376046.445 7      4755.617          46.062    21384449.220   112376046.447 7      4755.617          47.000    21384456.020    87565776.677 7      3705.675          47.312    21384457.240    87565782.674 8      3705.675          49.062
G04  21502175.980   112994693.464 7       419.611          46.562    21502174.720   112994693.472 5       419.611          35.437    21502181.460    88047834.845 5       326.970          35.562    21502182.040    88047835.832 8       326.970          48.500
> 2024 07 31 13 21 36.0000000  0 10
G03  23374047.440   122831458.368 6       400.851          39.875    23374046.980   122831458.367 6       400.851          36.875    23374057.480    95712845.954 6       312.352          36.687    23374058.940    95712855.956 7       312.352          42.375
R05  19444069.320   103939693.069 8      1721.105          50.000    19444068.580   103939693.073 8      1721.105          49.000    19444079.000    80842018.297 8      1338.637          51.625    19444078.940    80842022.297 8      1338.637          51.812
G11  24751929.680   130072268.415 6      5718.474          41.625    24751930.320   130072268.423 3      5718.474          23.437    24751935.820   101355047.698 3      4455.954          23.687    24751936.820   101355050.692 6      4455.954          40.250
G07  23636420.540   124210233.658 7      5043.292          43.250    23636419.560   124210233.663 6      5043.292          38.812    23636434.940    96787251.829 6      3929.838          38.687    23636435.120    96787259.829 7      3929.838          43.125
G17  21066134.080   110703274.306 7       929.171          44.500    21066133.300   110703274.308 7       929.171          42.875    21066139.720    86262309.611 7       724.029          42.562    21066139.660    86262311.611 7       724.029          46.812
G20  25156008.100   132195717.816 6      4778.881          38.062    25156006.360   132195717.816 2      4778.881          14.812    25156017.720   103009643.662 2      3723.804          15.062
G09  20075902.400   105499580.287 8      2609.724          49.937    20075901.800   105499580.292 8      2609.724          50.562    20075907.640    82207484.998 8      2033.552          50.687    20075908.160    82207488.997 8      2033.552          50.687
G19  20476087.240   107602559.840 7      2256.922          47.125    20476085.860   107602559.845 6      2256.922          39.187    20476089.340    83846156.067 6      1758.640          39.000
G06  21383545.540   112371290.898 7      4755.364          47.187    21383544.280   112371290.897 7      4755.364          47.812    21383551.080    87562071.054 7      3705.479          47.437    21383552.200    87562077.051 8      3705.479          49.000
G04  21502096.240   112994273.860 7       419.294          46.750    21502094.700   112994273.867 5       419.294          35.812    21502101.660    88047507.878 5       326.722          35.875    21502102.260    88047508.868 8       326.722          48.562
> 2024 07 31 13 21 37.0000000  0 10
G03  23373971.360   122831057.393 6       400.979          40.500    23373970.660   122831057.393 6       400.979          37.187    23373981.300    95712533.498 6       312.451          36.750    23373982.640    95712543.512 7       312.451          42.500
R05  19443747.400   103937972.272 8      1720.367          49.437    19443746.840   103937972.279 8      1720.367          49.250    19443757.140    80840679.904 8      1338.063          51.250    19443757.040    80840683.902 8      1338.063          51.500
G11  24750841.240   130066549.938 6      5718.419          41.937    24750842.120   130066549.943 3      5718.419          23.437    24750847.500   101350591.742 3      4455.911          23.687    24750848.520   101350594.731 6      4455.911          40.437
G07  23635460.880   124205190.375 7      5043.193          42.687    23635459.780   124205190.379 6      5043.193          38.812    23635475.100    96783321.992 6      3929.761          38.687    23635475.580    96783329.997 7      3929.761          43.125
G17  21065957.060   110702345.528 7       928.486          45.562    21065956.700   110702345.525 7       928.486          42.875    21065963.020    86261585.876 7       723.496          42.375    21065963.440    86261587.880 7       723.496          46.875
G20  25155098.040   132190939.053 6      4778.736          38.000    25155097.020   132190939.055 2      4778.736          14.812    25155108.020   103005919.958 2      3723.690          15.062
G09  20075405.780   105496970.915 8      2608.882          49.062    20075405.280   105496970.917 8      2608.882          50.687    20075411.120    82205451.723 8      2032.895          51.375    20075411.620    82205455.720 8      2032.895          49.937
G19  20475657.620   107600303.281 7      2256.137          46.562    20475656.420   107600303.291 6      2256.137          39.687    20475659.980    83844397.709 6      1758.029          39.187
G06  21382640.820   112366535.687 7      4755.041          46.625    21382639.340   112366535.684 7      4755.041          47.437    21382646.200    87558365.695 7      3705.227          47.250    21382647.240    87558371.694 8      3705.227          48.875
G04  21502016.340   112993854.831 7       418.691          46.500    21502015.020   112993854.841 5       418.691          35.875    21502021.860    88047181.359 6       326.253          36.062    21502022.180    88047182.352 7       326.253          47.937
> 2024 07 31 13 21 38.0000000  0 10
G03  23373895.260   122830656.668 6       400.741          40.125    23373894.500   122830656.670 6       400.741          36.250    23373905.180    95712221.243 6       312.265          36.187    23373906.580    95712231.255 7       312.265          42.625
R05  19443425.420   103936252.305 8      1719.682          49.750    19443425.300   103936252.309 8      1719.682          48.875    19443435.540    80839342.145 8      1337.531          49.437    19443435.260    80839346.143 8      1337.531          49.375
G11  24749753.280   130060831.632 6      5718.169          41.250    24749754.000   130060831.634 3      5718.169          23.437    24749759.520   101346135.925 3      4455.716          23.687    24749760.880   101346138.916 6      4455.716          40.437
G07  23634501.240   124200147.380 7      5042.936          43.625    23634500.120   124200147.382 6      5042.936          38.687    23634515.500    96779392.387 6      3929.561          38.437    23634516.160    96779400.383 7      3929.561          43.125
G17  21065780.500   110701417.463 7       927.879          45.187    21065780.180   110701417.460 7       927.879          42.375    21065786.460    86260862.703 7       723.023          42.000    21065786.760    86260864.706 7       723.023          46.187
G20  25154188.820   132186160.560 6      4778.553          38.000    25154187.520   132186160.562 2      4778.553          14.812    25154198.680   103002196.463 2      3723.547          15.062
G09  20074909.340   105494362.357 8      2608.277          49.062    20074908.840   105494362.362 8      2608.277          48.750    20074914.600    82203419.081 8      2032.424          49.562    20074915.140    82203423.078 8      2032.424          49.750
G19  20475228.380   107598047.680 7      2255.218          47.562    20475227.100   107598047.688 6      2255.218          39.312    20475230.760    83842640.096 6      1757.313          38.812
G06  21381736.020   112361780.912 7      4754.691          47.312    21381734.580   112361780.909 7      4754.691          46.437    21381741.400    87554660.676 7      3704.954          46.125    21381742.400    87554666.673 8      3704.954          49.000
G04  21501936.760   112993436.446 7       418.203          46.625    21501935.440   112993436.459 5       418.203          35.875    21501942.380    88046855.344 6       325.873          36.062    21501942.640    88046856.338 7       325.873          47.375
> 2024 07 31 13 21 39.0000000  0 10
G03  23373819.340   122830256.050 6       400.579          41.062    23373818.240   122830256.050 6       400.579          36.750    23373828.980    95711909.067 6       312.140          36.625    23373830.460    95711919.083 7       312.140          42.625
R05  19443103.900   103934533.080 8      1718.832          50.625    19443103.420   103934533.082 8      1718.832          49.937    19443114.020    80838004.971 8      1336.869          51.187    19443113.740    80838008.969 8      1336.869          52.062
G11  24748665.220   130055113.371 6      5718.290          41.000    24748665.880   130055113.370 3      5718.290          23.562    24748671.220   101341680.139 3      4455.810          23.687    24748672.940   101341683.124 6      4455.810          40.687
G07  23633541.560   124195104.590 7      5042.654          42.687    23633540.400   124195104.595 6      5042.654          39.187    23633555.860    96775462.939 6      3929.341          38.812    23633556.860    96775470.940 7      3929.341          43.062
G17  21065604.100   110700490.070 7       926.958          45.687    21065603.780   110700490.075 7       926.958          43.000    21065609.900    86260140.062 7       722.305          42.562    21065610.440    86260142.062 7       722.305          47.125
G20  25153279.800   132181382.203 6      4778.294          37.625    25153278.380   132181382.205 2      4778.294          15.937    25153289.280   102998473.069 2      3723.346          15.062
G09  20074413.140   105491754.578 8      2607.338          49.687    20074412.580   105491754.582 8      2607.338          51.250    20074418.400    82201387.045 8      2031.692          50.875    20074418.780    82201391.044 8      2031.692          50.125
G19  20474799.480   107595792.944 7      2254.300          47.687    20474798.180   107595792.949 6      2254.300          39.500    20474801.860    83840883.155 6      1756.598          39.062
G06  21380831.280   112357026.503 7      4754.180          47.250    21380829.800   112357026.500 8      4754.180          48.125    21380836.660    87550955.944 7      3704.555          47.750    21380837.760    87550961.941 8      3704.555          48.937
G04  21501857.380   112993018.647 7       417.498          46.500    21501855.900   112993018.655 5       417.498          35.812    21501863.080    88046529.789 5       325.323          35.812    21501863.460    88046530.780 8       325.323          48.500
> 2024 07 31 13 21 40.0000000  0 10
G03  23373743.000   122829855.361 6       400.847          40.625    23373742.140   122829855.364 6       400.847          36.687    23373752.920    95711596.838 6       312.348          36.562    23373753.900    95711606.854 7       312.348          43.000
R05  19442782.380   103932814.361 8      1718.479          50.625    19442781.800   103932814.362 8      1718.479          50.500    19442792.300    80836668.189 8      1336.595          51.875    19442792.060    80836672.185 8      1336.595          52.000
G11  24747577.320   130049395.012 6      5718.669          41.062    24747577.680   130049395.014 3      5718.669          23.562    24747583.060   101337224.277 3      4456.106          23.687    24747584.280   101337227.272 6      4456.106          40.687
G07  23632581.960   124190061.816 7      5042.764          44.250    23632580.900   124190061.815 6      5042.764          38.687    23632596.160    96771533.500 6      3929.426          38.500    23632597.120    96771541.494 7      3929.426          43.000
G17  21065427.500   110699563.124 7       926.748          45.687    21065427.340   110699563.123 7       926.748          43.187    21065433.580    86259417.756 7       722.141          42.437    21065433.980    86259419.754 7       722.141          46.687
G20  25152370.200   132176603.841 6      4778.280          37.062    25152368.860   132176603.846 2      4778.280          15.937    25152379.880   102994749.674 2      3723.335          15.062
G09  20073917.000   105489147.347 8      2606.959          49.687    20073916.420   105489147.352 8      2606.959          51.187    20073922.300    82199355.436 8      2031.397          51.062    20073922.560    82199359.435 8      2031.397          50.250
G19  20474370.740   107593538.868 7      2253.808          47.562    20474369.160   107593538.870 6      2253.808          39.500    20474372.880    83839126.726 6      1756.214          39.375
G06  21379926.340   112352272.257 7      4754.172          47.437    21379925.080   112352272.254 7      4754.172          47.687    21379932.040    87547251.334 7      3704.549          47.125    21379933.160    87547257.329 8      3704.549          49.062
G04  21501777.660   112992601.222 7       417.326          47.062    21501776.380   112992601.232 6       417.326          36.062    21501783.520    88046204.518 6       325.189          36.125    21501783.800    88046205.507 8       325.189          48.437
> 2024 07 31 13 21 41.0000000  0 10
G03  23373666.400   122829454.725 6       400.542          41.125    23373665.760   122829454.733 6       400.542          37.437    23373676.680    95711284.650 6       312.110          36.937    23373677.220    95711294.666 7       312.110          43.062
R05  19442461.080   103931096.267 8      1717.765          50.437    19442460.480   103931096.271 8      1717.765          49.500    19442471.020    80835331.896 8      1336.040          51.687    19442470.760    80835335.894 8      1336.040          51.750
G11  24746489.060   130043676.671 6      5718.348          41.625    24746489.340   130043676.679 3      5718.348          23.562    24746494.980   101332768.433 3      4455.856          23.687    24746496.180   101332771.427 6      4455.856          41.187
G07  23631622.460   124185019.129 7      5042.627          44.187    23631621.340   124185019.133 6      5042.627          39.125    23631636.520    96767604.135 6      3929.320          39.062    23631637.640    96767612.135 7      3929.320          42.812
G17  21065251.280   110698636.753 7       926.082          45.250    21065251.040   110698636.755 7       926.082          43.062    21065257.280    86258695.898 7       721.623          42.375    21065257.680    86258697.899 7       721.623          46.875
G20  25151460.820   132171825.495 6      4778.439          37.062    25151459.600   132171825.498 2      4778.439          15.937    25151470.700   102991026.292 2      3723.459          15.062
G09  20073420.940   105486540.799 8      2606.162          49.625    20073420.420   105486540.807 8      2606.162          51.312    20073426.280    82197324.360 8      2030.776          50.562    20073426.420    82197328.361 8      2030.776          49.937
G19  20473941.840   107591285.579 7      2252.869          47.875    20473940.220   107591285.584 6      2252.869          39.500    20473944.280    83837370.915 6      1755.482          39.625
G06  21379021.620   112347518.263 7      4753.851          46.250    21379020.420   112347518.257 7      4753.851          47.437    21379027.340    87543546.921 7      3704.299          47.312    21379028.360    87543552.918 8      3704.299          48.937
G04  21501698.460   112992184.290 7       416.613          46.375    21501697.000   112992184.302 6       416.613          36.062    21501704.280    88045879.632 5       324.634          35.875    21501704.880    88045880.627 8       324.634          48.562
> 2024 07 31 13 21 42.0000000  0 10
G03  23373590.160   122829054.042 6       400.739          40.625    23373589.480   122829054.044 6       400.739          36.937    23373600.700    95710972.421 6       312.264          37.062    23373601.220    95710982.423 7       312.264          43.500
R05  19442139.740   103929378.726 8      1717.293          49.437    19442139.040   103929378.730 8      1717.293          48.812    19442149.820    80833996.029 8      1335.672          51.625    19442149.440    80834000.027 8      1335.672          51.875
G11  24745400.840   130037958.223 6      5718.522          40.812    24745401.220   130037958.231 3      5718.522          23.562    24745406.780   101328312.508 3      4455.991          23.687    24745408.760   101328315.506 6      4455.991          41.187
G07  23630662.560   124179976.517 7      5042.525          43.625    23630661.660   124179976.522 6      5042.525          38.875    23630676.900    96763674.826 6      3929.240          38.875    23630677.460    96763682.825 7      3929.240          42.812
G17  21065074.960   110697710.868 7       925.681          45.937    21065074.820   110697710.865 7       925.681          43.000    21065081.080    86257974.423 7       721.310          42.500    21065081.400    86257976.426 7       721.310          46.937
G20  25150551.540   132167047.210 6      4778.397          37.187    25150550.260   132167047.207 2      4778.397          15.937    25150561.360   102987302.965 2      3723.426          16.312
G09  20072924.900   105483934.843 8      2605.546          48.375    20072924.460   105483934.851 8      2605.546          50.687    20072930.380    82195293.747 8      2030.296          50.875    20072930.580    82195297.744 8      2030.296          50.625
G19  20473513.180   107589032.974 7      2252.250          46.750    20473511.600   107589032.974 6      2252.250          39.500    20473515.660    83835615.634 6      1755.000          39.500
G06  21378117.080   112342764.484 7      4753.612          47.062    21378115.860   112342764.478 7      4753.612          47.562    21378122.720    87539842.680 7      3704.113          47.875    21378123.680    87539848.673 8      3704.113          49.000
G04  21501619.400   112991767.749 7       416.294          46.125    21501617.760   112991767.759 6       416.294          36.125    21501625.160    88045555.053 6       324.385          36.062    21501625.480    88045556.046 8       324.385          48.500
> 2024 07 31 13 21 43.0000000  0 10
G03  23373513.640   122828653.637 6       400.360          40.500    23373513.280   122828653.637 6       400.360          37.000    23373524.460    95710660.401 6       311.969          36.812    23373525.440    95710670.409 7       311.969          43.250
R05  19441818.440   103927662.046 8      1716.330          48.687    19441818.080   103927662.048 8      1716.330          48.500    19441828.620    80832660.833 8      1334.924          52.062    19441828.120    80832664.833 8      1334.924          52.062
G11  24744312.680   130032240.017 6      5718.187          40.875    24744313.180   130032240.027 3      5718.187          23.562    24744318.580   101323856.771 3      4455.730          23.312    24744320.020   101323859.756 6      4455.730          40.937
G07  23629703.120   124174934.229 7      5042.156          43.187    23629702.000   124174934.226 6      5042.156          38.562    23629717.500    96759745.766 6      3928.953          38.625    23629718.160    96759753.768 7      3928.953          42.875
G17  21064898.920   110696785.764 7       924.784          45.562    21064898.760   110696785.769 7       924.784          42.875    21064905.220    86257253.565 7       720.611          42.437    21064905.580    86257255.570 7       720.611          46.937
G20  25149641.740   132162269.187 6      4777.991          36.812    25149641.020   132162269.182 2      4777.991          15.937    25149652.240   102983579.822 2      3723.110          16.312
G09  20072429.080   105481329.775 8      2604.564          48.312    20072428.780   105481329.785 8      2604.564          50.687    20072434.560    82193263.826 8      2029.530          50.937    20072434.700    82193267.827 8      2029.530          50.312
G19  20473084.840   107586781.370 7      2251.110          46.312    20473083.000   107586781.372 6      2251.110          39.500    20473087.060    83833861.137 6      1754.112          39.375
G06  21377212.600   112338011.173 7      4753.081          46.625    21377211.280   112338011.175 7      4753.081          47.250    21377218.260    87536138.809 7      3703.699          47.312    21377219.020    87536144.809 8      3703.699          49.250
G04  21501540.160   112991351.929 7       415.504          45.625    21501538.700   112991351.936 6       415.504          36.312    21501545.940    88045231.035 6       323.769          36.125    21501546.140    88045232.028 8       323.769          48.500
> 2024 07 31 13 21 44.0000000  0 10
G03  23373437.280   122828253.219 6       400.405          40.250    23373437.000   122828253.219 6       400.405          37.000    23373448.220    95710348.381 6       312.004          36.687    23373449.380    95710358.387 7       312.004          43.250
R05  19441497.700   103925945.944 8      1715.862          48.937    19441497.000   103925945.953 8      1715.862          48.062    19441507.740    80831326.089 8      1334.560          51.625    19441507.460    80831330.089 8      1334.560          51.875
G11  24743224.360   130026521.742 6      5718.430          40.562    24743224.940   130026521.747 3      5718.430          23.562    24743230.380   101319400.970 3      4455.919          23.312    24743232.200   101319403.960 6      4455.919          40.937
G07  23628743.620   124169892.010 7      5042.156          42.750    23628742.480   124169892.015 6      5042.156          38.750    23628758.000    96755816.766 6      3928.953          38.562    23628758.980    96755824.761 7      3928.953          43.125
G17  21064722.960   110695861.201 7       924.342          45.375    21064722.960   110695861.201 7       924.342          42.937    21064729.100    86256533.114 7       720.266          42.687    21064729.440    86256535.112 7       720.266          46.500
G20  25148733.260   132157491.238 6      4777.998          36.812    25148731.900   132157491.235 2      4777.998          15.937    25148742.920   102979856.744 2      3723.115          16.312
G09  20071933.560   105478725.324 8      2604.133          49.500    20071933.080   105478725.332 8      2604.133          50.375    20071938.920    82191234.382 8      2029.194          50.750    20071939.000    82191238.381 8      2029.194          49.875
G19  20472656.440   107584530.497 7      2250.542          47.562    20472654.700   107584530.499 6      2250.542          39.562    20472658.780    83832107.208 6      1753.669          39.312
G06  21376308.180   112333258.117 7      4752.910          47.437    21376306.880   112333258.119 8      4752.910          48.125    21376313.740    87532435.127 7      3703.566          47.750    21376314.800    87532441.124 8      3703.566          49.437
G04  21501461.320   112990936.539 7       415.208          47.250    21501459.640   112990936.549 5       415.208          35.812    21501466.860    88044907.355 6       323.538          36.125    21501467.240    88044908.352 8       323.538          48.562
> 2024 07 31 13 21 45.0000000  0 10
G03  23373361.480   122827852.843 6       400.144          41.000    23373360.700   122827852.848 6       400.144          36.750    23373372.020    95710036.393 6       311.800          36.625    23373373.420    95710046.401 7       311.800          43.312
R05  19441176.520   103924230.509 8      1714.916          49.125    19441176.080   103924230.524 8      1714.916          49.000    19441186.920    80829991.866 8      1333.823          51.437    19441186.340    80829995.866 8      1333.823          51.750
G11  24742136.360   130020803.478 6      5718.218          40.562    24742136.820   130020803.485 3      5718.218          23.562    24742142.260   101314945.184 3      4455.754          23.312    24742143.740   101314948.182 6      4455.754          41.500
G07  23627784.400   124164849.906 7      5041.938          42.812    23627783.140   124164849.913 6      5041.938          38.375    23627798.420    96751887.852 6      3928.783          38.312    23627800.140    96751895.857 7      3928.783          43.125
G17  21064547.200   110694937.195 7       923.629          45.812    21064546.960   110694937.189 7       923.629          43.375    21064553.240    86255813.103 7       719.711          43.125    21064553.340    86255815.104 7       719.711          46.500
G20  25147823.940   132152713.370 6      4777.454          36.500    25147822.520   132152713.370 2      4777.454          15.937    25147834.060   102976133.737 2      3722.692          16.312
G09  20071438.200   105476121.546 8      2603.367          48.437    20071437.540   105476121.553 8      2603.367          49.562    20071443.360    82189205.466 8      2028.598          50.375    20071443.540    82189209.467 8      2028.598          49.875
G19  20472228.160   107582280.409 7      2249.572          46.937    20472226.460   107582280.414 6      2249.572          39.000    20472230.640    83830353.888 6      1752.913          39.312
G06  21375403.840   112328505.324 7      4752.589          46.937    21375402.420   112328505.323 7      4752.589          47.250    21375409.380    87528731.648 7      3703.316          47.812    21375410.200    87528737.649 8      3703.316          49.062
G04  21501382.240   112990521.644 7       414.552          46.687    21501380.740   112990521.654 5       414.552          35.875    21501387.800    88044584.059 5       323.028          35.812    21501388.160    88044585.053 8       323.028          48.500
> 2024 07 31 13 21 46.0000000  0 10
G03  23373284.860   122827452.583 6       400.146          39.812    23373284.460   122827452.588 6       400.146          36.187    23373295.920    95709724.496 6       311.802          36.062    23373297.220    95709734.492 7       311.802          43.312
R05  19440855.780   103922515.786 8      1714.371          49.312    19440855.060   103922515.792 8      1714.371          48.625    19440866.120    80828658.184 8      1333.400          51.500    19440865.740    80828662.186 8      1333.400          51.687
G11  24741047.960   130015085.285 6      5718.245          41.125    24741048.680   130015085.289 3      5718.245          23.562    24741054.180   101310489.451 3      4455.775          23.312    24741055.660   101310492.447 6      4455.775          41.375
G07  23626825.160   124159808.009 7      5041.850          42.937    23626823.780   124159808.014 6      5041.850          38.875    23626839.000    96747959.101 6      3928.715          38.750    23626840.000    96747967.099 7      3928.715          43.062
G17  21064371.740   110694013.825 7       923.122          44.437    21064371.400   110694013.819 7       923.122          43.187    21064377.740    86255093.588 7       719.316          42.625    21064377.400    86255095.588 7       719.316          46.312
G20  25146914.780   132147935.589 6      4777.802          36.500    25146913.220   132147935.586 2      4777.802          15.937    25146924.980   102972410.788 2      3722.962          16.312
G09  20070942.860   105473518.530 8      2602.601          48.375    20070942.260   105473518.540 8      2602.601          49.875    20070948.080    82187177.144 8      2028.001          50.375    20070948.600    82187181.144 8      2028.001          49.750
G19  20471800.080   107580031.172 7      2248.802          47.562    20471798.400   107580031.172 6      2248.802          39.500    20471802.660    83828601.232 6      1752.313          39.312
G06  21374499.520   112323752.893 7      4752.244          46.687    21374498.080   112323752.890 7      4752.244          47.062    21374505.000    87525028.459 7      3703.048          47.125    21374506.040    87525034.460 8      3703.048          49.437
G04  21501303.400   112990107.316 7       414.021          46.187    21501301.980   112990107.329 5       414.021          35.750    21501309.020    88044261.204 6       322.614          36.062    21501309.040    88044262.197 8       322.614          48.250
> 2024 07 31 13 21 47.0000000  0 10
G03  23373208.560   122827052.299 6       400.333          40.500    23373208.340   122827052.299 6       400.333          36.687    23373219.800    95709412.572 6       311.948          36.562    23373220.820    95709422.560 7       311.948          43.250
R05  19440535.080   103920801.669 8      1713.821          49.000    19440534.500   103920801.681 8      1713.821          48.250    19440545.480    80827324.986 8      1332.972          51.562    19440544.980    80827328.986 8      1332.972          51.937
G11  24739959.840   130009367.039 6      5718.280          40.812    24739960.480   130009367.046 3      5718.280          23.187    24739966.060   101306033.683 3      4455.802          23.312    24739967.280   101306036.677 6      4455.802          41.375
G07  23625865.500   124154766.176 7      5041.806          42.625    23625864.460   124154766.175 6      5041.806          38.500    23625879.740    96744030.394 6      3928.680          38.500    23625880.440    96744038.397 7      3928.680          43.062
G17  21064196.040   110693090.988 7       922.562          45.750    21064195.660   110693090.980 7       922.562          42.937    21064202.020    86254374.484 7       718.879          42.562    21064201.980    86254376.488 7       718.879          46.812
G20  25146005.620   132143157.890 6      4777.687          36.500    25146003.780   132143157.889 2      4777.687          15.937    25146015.700   102968687.916 2      3722.873          16.312
G09  20070447.380   105470916.115 8      2602.212          48.625    20070447.020   105470916.123 8      2602.212          50.187    20070452.760    82185149.288 8      2027.698          50.812    20070453.520    82185153.281 8      2027.698          50.437
G19  20471372.020   107577782.645 7      2248.209          47.312    20471370.480   107577782.647 6      2248.209          39.687    20471374.860    83826849.131 6      1751.851          39.687
G06  21373595.240   112319000.654 7      4752.231          46.812    21373593.680   112319000.656 7      4752.231          47.812    21373600.680    87521325.420 7      3703.037          47.687    21373601.800    87521331.419 8      3703.037          49.437
G04  21501224.780   112989693.411 7       413.724          46.937    21501223.160   112989693.421 6       413.724          36.062    21501230.220    88043938.679 5       322.382          35.750    21501230.220    88043939.672 7       322.382          47.625
> 2024 07 31 13 21 48.0000000  0 10
G03  23373132.600   122826652.262 6       399.913          40.375    23373132.060   122826652.264 6       399.913          36.062    23373143.480    95709100.851 6       311.620          36.125    23373144.700    95709110.853 7       311.620          43.000
R05  19440214.540   103919088.394 8      1712.948          49.000    19440214.040   103919088.401 8      1712.948          48.687    19440224.880    80825992.437 8      1332.293          51.500    19440224.440    80825996.439 8      1332.293          51.625
G11  24738871.620   130003648.977 6      5718.095          41.125    24738872.420   130003648.984 3      5718.095          23.187    24738877.980   101301578.053 3      4455.658          23.312    24738879.820   101301581.042 6      4455.658          41.687
G07  23624906.280   124149724.639 7      5041.429          43.062    23624905.040   124149724.647 6      5041.429          38.375    23624920.260    96740101.930 6      3928.386          38.437    23624921.080    96740109.935 7      3928.386          43.125
G17  21064020.760   110692168.884 7       921.761          45.500    21064020.420   110692168.884 7       921.761          43.125    21064026.540    86253655.961 7       718.255          42.562    21064026.600    86253657.966 7       718.255          46.625
G20  25145096.500   132138380.424 6      4777.524          36.437    25145094.660   132138380.426 2      4777.524          15.937    25145106.500   102964965.215 2      3722.746          16.312
G09  20069952.580   105468314.576 8      2601.277          48.875    20069951.940   105468314.581 8      2601.277          50.062    20069957.720    82183122.110 8      2026.969          50.562    20069958.420    82183126.111 8      2026.969          49.937
G19  20470944.360   107575535.106 7      2247.145          47.062    20470942.700   107575535.105 6      2247.145          39.125    20470947.120    83825097.800 6      1751.022          38.750
G06  21372691.000   112314248.906 7      4751.645          46.500    21372689.480   112314248.906 7      4751.645          47.687    21372696.580    87517622.757 7      3702.581          47.875    21372697.500    87517628.757 8      3702.581          49.500
G04  21501145.980   112989280.186 7       412.957          46.500    21501144.640   112989280.202 5       412.957          35.875    21501151.760    88043616.684 5       321.785          35.937    21501151.440    88043617.675 8       321.785          48.312
> 2024 07 31 13 21 49.0000000  0 10
G03  23373056.520   122826252.328 6       399.745          40.875    23373055.880   122826252.327 6       399.745          36.062    23373067.180    95708789.206 5       311.490          35.687    23373068.680    95708799.195 7       311.490          43.000
R05  19439894.160   103917375.803 8      1712.179          48.250    19439893.680   103917375.807 8      1712.179          48.875    19439904.560    80824660.420 8      1331.695          51.437    19439904.000    80824664.420 8      1331.695          51.625
G11  24737783.460   129997930.960 6      5717.968          40.812    24737784.300   129997930.965 3      5717.968          23.187    24737789.880   101297122.455 3      4455.560          23.312    24737791.280   101297125.448 6      4455.560          41.687
G07  23623946.920   124144683.302 7      5041.206          42.312    23623945.820   124144683.305 6      5041.206          38.625    23623960.860    96736173.607 6      3928.213          38.687    23623961.660    96736181.609 7      3928.213          42.625
G17  21063845.480   110691247.419 7       921.093          45.500    21063844.940   110691247.413 7       921.093          43.062    21063851.260    86252937.926 7       717.735          42.437    21063851.200    86252939.931 7       717.735          46.937
G20  25144187.480   132133603.145 6      4777.143          36.437    25144185.620   132133603.147 2      4777.143          16.937    25144197.520   102961242.664 2      3722.449          16.312
G09  20069457.780   105465713.775 8      2600.398          49.625    20069456.960   105465713.788 8      2600.398          50.375    20069462.800    82181095.522 8      2026.284          50.375    20069463.300    82181099.523 8      2026.284          50.562
G19  20470516.940   107573288.386 7      2246.236          47.500    20470515.100   107573288.386 6      2246.236          39.062    20470519.640    83823347.109 6      1750.314          39.562
G06  21371786.760   112309497.485 7      4751.232          46.187    21371785.360   112309497.487 7      4751.232          47.562    21371792.300    87513920.355 7      3702.259          47.375    21371793.280    87513926.356 8      3702.259          49.312
G04  21501067.600   112988867.514 7       412.319          46.812    21501066.060   112988867.526 5       412.319          35.875    21501073.180    88043295.114 5       321.287          35.812    21501073.360    88043296.110 8       321.287          48.375
> 2024 07 31 13 21 50.0000000  0 10
G03  23372980.540   122825852.617 6       399.533          40.562    23372979.640   122825852.624 5       399.533          35.625    23372990.800    95708477.740 5       311.324          35.437    23372992.200    95708487.734 7       311.324          42.687
R05  19439574.140   103915664.028 8      1711.475          48.375    19439573.460   103915664.035 8      1711.475          48.625    19439584.240    80823329.041 8      1331.147          50.437    19439583.820    80823333.041 8      1331.147          50.875
G11  24736695.580   129992213.150 6      5717.860          40.437    24736696.260   129992213.155 3      5717.860          23.187    24736701.840   101292667.025 3      4455.475          23.312    24736703.040   101292670.021 6      4455.475          41.312
G07  23622987.900   124139642.257 7      5040.973          42.812    23622986.440   124139642.262 6      5040.973          38.375    23623001.420    96732245.520 6      3928.031          38.812    23623002.560    96732253.513 7      3928.031          42.625
G17  21063670.080   110690326.697 7       920.460          44.125    21063669.900   110690326.697 7       920.460          42.812    21063676.160    86252220.477 7       717.242          42.125    21063676.120    86252222.488 7       717.242          46.312
G20  25143278.540   132128826.115 5      4776.959          35.875    25143276.540   132128826.117 2      4776.959          16.937    25143288.520   102957520.308 2      3722.306          16.312
G09  20068963.060   105463113.838 8      2599.639          49.000    20068962.220   105463113.846 8      2599.639          49.062    20068968.040    82179069.594 8      2025.693          48.500    20068968.620    82179073.590 8      2025.693          49.375
G19  20470089.400   107571042.647 7      2245.367          47.000    20470087.700   107571042.649 6      2245.367          39.500    20470092.260    83821597.176 6      1749.637          39.250
G06  21370882.700   112304746.528 7      4750.875          47.000    21370881.300   112304746.530 7      4750.875          46.625    21370888.340    87510218.313 7      3701.980          46.687    21370889.360    87510224.314 8      3701.980          48.875
G04  21500989.020   112988455.511 7       411.804          46.812    21500987.680   112988455.526 5       411.804          35.812    21500994.860    88042974.075 5       320.886          35.812    21500995.140    88042975.067 7       320.886          47.125
> 2024 07 31 13 21 51.0000000  0 10
G03  23372904.200   122825452.792 6       399.450          40.187    23372903.500   122825452.800 5       399.450          35.625    23372914.580    95708166.185 5       311.260          35.562    23372915.580    95708176.168 6       311.260          41.937
R05  19439254.000   103913952.752 8      1710.594          48.937    19439253.120   103913952.759 8      1710.594          48.625    19439264.200    80821998.047 8      1330.462          51.187    19439263.640    80822002.047 8      1330.462          51.375
G11  24735607.540   129986495.183 6      5717.783          40.750    24735608.140   129986495.185 3      5717.783          23.187    24735613.680   101288211.472 3      4455.415          23.500    24735614.960   101288214.466 6      4455.415          41.312
G07  23622028.680   124134601.209 7      5040.660          42.625    23622027.220   124134601.212 6      5040.660          38.375    23622042.000    96728317.429 6      3927.787          38.187    23622043.380    96728325.434 7      3927.787          42.562
G17  21063495.040   110689406.422 7       919.760          45.750    21063494.740   110689406.422 7       919.760          43.750    21063501.120    86251503.375 7       716.696          42.937    21063501.060    86251505.382 7       716.696          46.500
G20  25142370.100   132124049.023 5      4776.691          35.875    25142367.520   132124049.030 2      4776.691          16.937    25142379.500   102953797.900 2      3722.097          16.312
G09  20068468.320   105460514.422 8      2598.786          48.437    20068467.520   105460514.432 8      2598.786          50.312    20068473.380    82177044.078 8      2025.028          50.437    20068473.960    82177048.079 8      2025.028          50.062
G19  20469662.220   107568797.541 7      2244.472          46.875    20469660.380   107568797.540 6      2244.472          39.250    20469665.080    83819847.741 6      1748.939          39.375
G06  21369978.620   112299995.726 7      4750.374          46.750    21369977.280   112299995.723 7      4750.374          47.187    21369984.260    87506516.385 7      3701.590          47.125    21369985.600    87506522.384 8      3701.590          49.437
G04  21500910.700   112988043.874 7       411.096          47.187    21500909.380   112988043.889 5       411.096          35.625    21500916.560    88042653.321 5       320.335          35.500    21500916.640    88042654.308 8       320.335          48.125
> 2024 07 31 13 21 52.0000000  0 10
G03  23372828.260   122825053.504 6       399.191          40.250    23372827.440   122825053.512 5       399.191          35.687    23372838.280    95707855.041 5       311.058          35.562    23372839.760    95707865.029 6       311.058          41.937
R05  19438933.940   103912242.562 8      1709.709          49.375    19438933.220   103912242.566 8      1709.709          48.937    19438944.160    80820667.894 8      1329.774          51.500    19438943.620    80820671.897 8      1329.774          51.125
G11  24734519.720   129980777.699 6      5717.460          40.937    24734520.220   129980777.704 3      5717.460          23.187    24734525.620   101283756.292 3      4455.164          23.500    24734527.400   101283759.285 6      4455.164          41.437
G07  23621069.540   124129560.727 7      5040.383          43.187    23621067.900   124129560.729 6      5040.383          38.375    23621082.740    96724389.780 6      3927.571          38.250    23621084.060    96724397.783 7      3927.571          42.687
G17  21063320.460   110688487.180 7       918.879          45.312    21063319.840   110688487.182 7       918.879          42.812    21063326.060    86250787.079 7       716.010          42.312    21063326.480    86250789.083 7       716.010          46.875
G20  25141461.600   132119272.466 5      4776.490          35.875    25141458.560   132119272.473 2      4776.490          16.937    25141470.240   102950075.910 2      3721.940          16.187
G09  20067973.780   105457916.153 8      2597.828          48.562    20067973.080   105457916.164 8      2597.828          50.500    20067978.920    82175019.454 8      2024.282          50.562    20067979.200    82175023.451 8      2024.282          50.312
G19  20469235.080   107566553.685 7      2243.396          47.000    20469233.320   107566553.685 6      2243.396          39.437    20469238.120    83818099.280 6      1748.101          39.187
G06  21369074.640   112295245.642 7      4749.864          47.062    21369073.320   112295245.639 7      4749.864          47.812    21369080.340    87502815.021 7      3701.193          47.812    21369081.700    87502821.024 8      3701.193          49.562
G04  21500832.420   112987633.177 7       410.401          46.625    21500831.260   112987633.190 5       410.401          35.687    21500838.240    88042333.289 6       319.793          36.000    21500838.280    88042334.281 8       319.793          48.187
> 2024 07 31 13 21 53.0000000  0 10
G03  23372752.420   122824654.130 6       399.409          40.437    23372751.520   122824654.132 5       399.409          35.875    23372762.160    95707543.830 5       311.228          35.750    23372763.240    95707553.809 6       311.228          41.687
R05  19438614.220   103910532.868 8      1709.395          48.562    19438613.500   103910532.870 8      1709.395          48.125    19438624.300    80819338.131 8      1329.530          51.312    19438623.880    80819342.131 8      1329.530          52.187
G11  24733431.660   129975060.073 6      5717.751          40.625    24733432.120   129975060.081 3      5717.751          23.187    24733437.620   101279301.005 3      4455.390          23.500    24733439.800   101279304.001 6      4455.390          41.812
G07  23620110.460   124124520.270 7      5040.497          43.312    23620108.780   124124520.267 6      5040.497          38.437    23620123.380    96720462.143 6      3927.660          37.812    23620124.140    96720470.145 7      3927.660          42.687
G17  21063145.440   110687568.390 7       918.489          44.562    21063145.020   110687568.392 7       918.489          43.125    21063151.260    86250071.134 7       715.706          42.750    21063151.840    86250073.143 7       715.706          46.562
G20  25140552.360   132114495.857 5      4776.918          35.375    25140549.280   132114495.862 2      4776.918          16.937    25140561.020   102946353.881 2      3722.274          16.187
G09  20067479.740   105455318.434 8      2597.394          49.500    20067478.640   105455318.439 8      2597.394          49.875    20067484.560    82172995.255 8      2023.943          50.187    20067485.020    82172999.256 8      2023.943          50.000
G19  20468808.600   107564310.489 7      2242.847          46.625    20468806.360   107564310.489 6      2242.847          39.500    20468811.380    83816351.333 6      1747.673          39.062
G06  21368170.820   112290495.715 7      4749.839          46.687    21368169.540   112290495.712 7      4749.839          47.625    21368176.520    87499113.781 7      3701.173          47.875    21368177.620    87499119.785 8      3701.173          49.875
G04  21500754.600   112987222.853 7       410.118          46.875    21500753.320   112987222.861 6       410.118          36.062    21500760.180    88042013.551 6       319.572          36.000    21500760.400    88042014.542 7       319.572          47.875
> 2024 07 31 13 21 54.0000000  0 10
G03  23372676.720   122824254.768 6       399.263          40.250    23372675.500   122824254.767 5       399.263          35.937    23372686.080    95707232.631 5       311.114          35.562    23372687.200    95707242.614 6       311.114          41.687
R05  19438294.420   103908823.798 8      1708.662          49.062    19438293.680   103908823.802 8      1708.662          48.750    19438304.560    80818008.854 8      1328.959          51.625    19438304.320    80818012.854 8      1328.959          51.437
G11  24732343.580   129969342.411 6      5717.699          39.875    24732343.940   129969342.415 3      5717.699          23.562    24732349.620   101274845.686 3      4455.350          23.500    24732350.800   101274848.690 6      4455.350          41.812
G07  23619150.900   124119479.892 7      5040.254          43.437    23619149.520   124119479.892 6      5040.254          37.937    23619164.140    96716534.576 6      3927.470          38.187    23619165.040    96716542.580 7      3927.470          42.187
G17  21062970.680   110686650.130 7       917.845          44.437    21062970.200   110686650.124 7       917.845          43.062    21062976.640    86249355.593 7       715.204          42.750    21062976.980    86249357.599 7       715.204          46.875
G20  25139643.040   132109719.379 5      4776.260          35.375    25139640.360   132109719.387 2      4776.260          16.937    25139651.660   102942631.954 2      3721.761          16.187
G09  20066985.580   105452721.349 8      2596.618          48.875    20066984.500   105452721.353 8      2596.618          50.437    20066990.340    82170971.552 8      2023.339          50.437    20066990.620    82170975.553 8      2023.339          50.187
G19  20468381.760   107562068.031 7      2241.989          46.437    20468379.620   107562068.034 6      2241.989          39.687    20468384.640    83814603.961 6      1747.005          39.500
G06  21367266.900   112285746.036 7      4749.465          46.750    21367265.640   112285746.035 8      4749.465          48.250    21367272.680    87495412.734 8      3700.882          48.062    21367273.940    87495418.737 8      3700.882          49.437
G04  21500676.640   112986812.987 7       409.488          46.687    21500675.380   112986812.997 6       409.488          36.000    21500682.220    88041694.178 5       319.082          35.875    21500682.500    88041695.165 8       319.082          48.500
> 2024 07 31 13 21 55.0000000  0 10
G03  23372600.340   122823855.209 6       399.402          41.187    23372599.600   122823855.209 6       399.402          36.062    23372609.700    95706921.286 5       311.223          35.562    23372611.560    95706931.280 6       311.223          41.250
R05  19437975.040   103907115.147 8      1708.338          49.500    19437974.020   103907115.151 8      1708.338          48.750    19437984.800    80816679.905 8      1328.707          51.687    19437984.680    80816683.901 8      1328.707          51.562
G11  24731255.780   129963624.554 6      5717.788          40.062    24731255.860   129963624.561 3      5717.788          23.562    24731261.420   101270390.223 3      4455.419          23.500    24731262.700   101270393.223 6      4455.419          41.562
G07  23618192.100   124114439.422 7      5040.313          43.312    23618190.460   124114439.430 6      5040.313          38.187    23618204.840    96712606.941 6      3927.517          37.875    23618206.060    96712614.945 6      3927.517          41.812
G17  21062795.980   110685732.194 7       917.625          45.625    21062795.540   110685732.193 7       917.625          42.937    21062802.020    86248640.319 7       715.032          42.625    21062802.260    86248642.324 7       715.032          47.125
G20  25138734.380   132104942.660 5      4776.728          35.375    25138731.420   132104942.667 2      4776.728          16.937    25138742.500   102938909.837 2      3722.126          16.187
G09  20066491.360   105450124.723 8      2596.148          48.812    20066490.340   105450124.733 8      2596.148          50.375    20066496.240    82168948.213 8      2022.973          50.437    20066496.420    82168952.212 8      2022.973          50.125
G19  20467955.420   107559826.128 7      2241.410          46.000    20467952.960   107559826.136 6      2241.410          39.812    20467958.040    83812857.024 6      1746.553          39.500
G06  21366363.040   112280996.416 7      4749.374          47.125    21366361.880   112280996.413 7      4749.374          47.687    21366368.920    87491711.730 8      3700.811          48.062    21366370.300    87491717.733 8      3700.811          49.687
G04  21500598.760   112986403.370 7       409.294          47.250    21500597.560   112986403.382 5       409.294          35.812    21500604.260    88041374.992 5       318.931          35.875    21500604.240    88041375.985 8       318.931          48.187
> 2024 07 31 13 21 56.0000000  0 10
G03  23372524.660   122823455.884 6       399.298          40.687    23372523.740   122823455.889 5       399.298          35.562    23372533.640    95706610.122 5       311.141          35.187    23372535.620    95706620.111 6       311.141          41.250
R05  19437655.400   103905407.351 8      1707.459          49.250    19437654.500   103905407.363 8      1707.459          48.687    19437665.400    80815351.624 8      1328.023          51.250    19437664.940    80815355.622 8      1328.023          51.437
G11  24730167.660   129957906.839 6      5717.842          40.312    24730167.900   129957906.849 3      5717.842          23.562    24730173.440   101265934.863 3      4455.461          23.500    24730174.780   101265937.875 6      4455.461          41.562
G07  23617232.800   124109399.236 7      5040.118          43.187    23617231.360   124109399.239 6      5040.118          37.812    23617245.680    96708679.518 6      3927.364          38.312    23617246.840    96708687.519 6      3927.364          41.812
G17  21062621.340   110684815.022 7       916.869          45.125    21062621.180   110684815.027 7       916.869          42.937    21062627.520    86247925.634 7       714.443          42.562    21062627.440    86247927.643 7       714.443          47.125
G20  25137824.540   132100166.247 5      4776.416          35.187    25137822.480   132100166.252 2      4776.416          16.937    25137833.600   102935187.964 2      3721.882          16.187
G09  20065997.400   105447528.929 8      2595.454          48.437    20065996.340   105447528.940 8      2595.454          50.000    20066002.240    82166925.517 8      2022.432          50.375    20066002.340    82166929.516 8      2022.432          50.062
G19  20467528.820   107557585.181 7      2240.520          46.000    20467526.500   107557585.186 6      2240.520          39.250    20467531.680    83811110.829 6      1745.860          39.125
G06  21365459.160   112276247.246 7      4748.931          47.437    21365458.160   112276247.243 7      4748.931          47.625    21365465.120    87488011.080 7      3700.466          47.562    21365466.480    87488017.081 8      3700.466          49.812
G04  21500520.660   112985994.431 7       408.690          47.312    21500519.820   112985994.443 6       408.690          36.125    21500526.360    88041056.338 6       318.460          36.375    21500526.120    88041057.323 8       318.460          48.062
> 2024 07 31 13 21 57.0000000  0 10
G03  23372448.560   122823056.643 6       399.335          40.750    23372447.940   122823056.651 5       399.335          35.562    23372457.840    95706299.023 5       311.170          35.437    23372459.860    95706309.009 6       311.170          41.187
R05  19437336.000   103903700.253 8      1706.905          49.187    19437335.320   103903700.260 8      1706.905          48.562    19437346.040    80814023.881 8      1327.593          51.375    19437345.520    80814027.879 8      1327.593          51.312
G11  24729079.760   129952189.213 6      5717.730          39.812    24729079.800   129952189.223 3      5717.730          23.562    24729085.380   101261479.576 3      4455.374          23.500    24729087.000   101261482.588 6      4455.374          41.500
G07  23616273.720   124104359.261 7      5039.972          43.375    23616272.240   124104359.260 6      5039.972          38.125    23616286.540    96704752.258 6      3927.251          38.250    23616287.140    96704760.265 6      3927.251          41.312
G17  21062446.780   110683898.488 7       916.345          45.500    21062446.600   110683898.488 7       916.345          43.125    21062453.080    86247211.444 7       714.035          42.687    21062453.060    86247213.453 7       714.035          46.687
G20  25136916.140   132095389.948 5      4776.361          35.187    25136913.340   132095389.956 2      4776.361          16.937    25136924.560   102931466.176 2      3721.840          16.187
G09  20065503.640   105444933.890 7      2594.706          47.937    20065502.420   105444933.893 8      2594.706          50.250    20065508.320    82164903.405 8      2021.849          50.125    20065508.840    82164907.402 8      2021.849          49.937
G19  20467102.580   107555345.078 7      2239.785          46.625    20467100.020   107555345.080 6      2239.785          39.187    20467105.300    83809365.288 6      1745.287          38.750
G06  21364555.640   112271498.407 7      4748.719          46.937    21364554.580   112271498.404 8      4748.719          48.000    21364561.460    87484310.688 8      3700.300          48.125    21364562.840    87484316.690 8      3700.300          49.875
G04  21500442.660   112985586.036 7       408.201          46.812    21500442.060   112985586.051 6       408.201          36.062    21500448.660    88040738.110 6       318.079          36.125    21500448.300    88040739.097 8       318.079          48.250
> 2024 07 31 13 21 58.0000000  0 10
G03  23372372.560   122822657.610 6       398.863          40.875    23372372.120   122822657.615 5       398.863          35.750    23372381.840    95705988.084 5       310.802          35.437    23372383.300    95705998.065 6       310.802          41.375
R05  19437016.980   103901993.933 8      1705.943          48.125    19437015.900   103901993.942 8      1705.943          48.062    19437026.900    80812696.739 8      1326.845          50.875    19437026.380    80812700.737 8      1326.845          51.375
G11  24727991.580   129946471.729 6      5717.374          40.750    24727991.720   129946471.736 3      5717.374          23.562    24727997.360   101257024.394 3      4455.097          23.500    24727998.400   101257027.390 6      4455.097          41.500
G07  23615314.620   124099319.508 7      5039.623          43.125    23615313.220   124099319.508 6      5039.623          37.937    23615327.360    96700825.182 6      3926.979          38.250    23615328.060    96700833.185 6      3926.979          41.312
G17  21062272.560   110682982.638 7       915.454          45.375    21062272.280   110682982.643 7       915.454          43.187    21062278.880    86246497.790 7       713.341          42.562    21062278.980    86246499.799 7       713.341          47.187
G20  25136006.460   132090613.930 5      4775.903          35.000    25136004.480   132090613.938 2      4775.903          15.000    25136015.740   102927744.614 2      3721.483          16.187
G09  20065009.880   105442339.645 8      2593.760          48.125    20065008.780   105442339.652 8      2593.760          50.500    20065014.640    82162881.917 8      2021.112          50.250    20065015.300    82162885.920 8      2021.112          50.437
G19  20466676.340   107553105.889 7      2238.676          46.625    20466673.760   107553105.889 6      2238.676          39.000    20466679.240    83807620.461 6      1744.423          38.937
G06  21363652.140   112266749.970 7      4748.152          47.250    21363651.020   112266749.975 7      4748.152          47.937    21363658.020    87480610.612 7      3699.859          47.750    21363659.260    87480616.611 8      3699.859          49.937
G04  21500365.380   112985178.261 7       407.390          46.937    21500364.500   112985178.271 6       407.390          36.000    21500371.060    88040420.358 6       317.447          36.312    21500371.100    88040421.349 7       317.447          47.937
> 2024 07 31 13 21 59.0000000  0 10
G03  23372297.100   122822258.735 6       398.846          41.812    23372296.260   122822258.729 6       398.846          36.000    23372306.060    95705677.258 5       310.789          35.875    23372307.360    95705687.251 6       310.789          41.375
R05  19436697.880   103900288.377 8      1705.196          48.437    19436697.100   103900288.384 8      1705.196          48.562    19436707.600    80811370.197 8      1326.263          51.812    19436707.260    80811374.193 8      1326.263          51.187
G11  24726903.300   129940754.358 6      5717.364          39.812    24726903.760   129940754.358 3      5717.364          23.562    24726909.400   101252569.302 3      4455.089          23.500    24726910.000   101252572.302 6      4455.089          41.125
G07  23614355.500   124094280.032 7      5039.346          43.625    23614354.300   124094280.034 6      5039.346          37.875    23614368.320    96696898.317 6      3926.763          38.250    23614369.060    96696906.331 6      3926.763          41.187
G17  21062098.440   110682067.518 7       914.678          45.625    21062098.180   110682067.518 7       914.678          43.125    21062104.700    86245784.702 7       712.736          42.750    21062104.900    86245786.708 7       712.736          46.875
G20  25135097.380   132085838.046 5      4776.054          35.000    25135095.740   132085838.054 2      4776.054          15.000    25135106.680   102924023.150 2      3721.601          16.187
G09  20064516.380   105439746.219 8      2592.963          49.187    20064515.180   105439746.227 8      2592.963          50.500    20064521.240    82160861.068 8      2020.491          50.312    20064521.920    82160865.069 8      2020.491          50.125
G19  20466250.400   107550867.596 7      2237.890          46.187    20466247.860   107550867.596 6      2237.890          39.562    20466253.220    83805876.333 6      1743.810          39.125
G06  21362748.480   112262001.962 7      4747.725          47.187    21362747.500   112262001.964 7      4747.725          47.500    21362754.480    87476910.865 7      3699.526          47.562    21362755.540    87476916.870 8      3699.526          49.562
G04  21500287.960   112984771.108 7       406.805          47.750    21500287.140   112984771.121 6       406.805          36.250    21500293.600    88040103.096 6       316.991          36.250    21500293.520    88040104.093 8       316.991          48.000
> 2024 07 31 13 22  0.0000000  0 10
G03  23372221.240   122821859.983 6       398.596          40.250    23372220.420   122821859.980 5       398.596          35.875    23372230.040    95705366.542 5       310.595          35.875    23372231.560    95705376.537 6       310.595          41.312
R05  19436379.180   103898583.500 8      1704.585          48.375    19436378.040   103898583.507 8      1704.585          48.562    19436388.740    80810044.180 8      1325.789          51.687    19436388.500    80810048.178 8      1325.789          51.187
G11  24725815.400   129935037.058 6      5717.141          39.750    24725815.940   129935037.060 3      5717.141          23.562    24725821.460   101248114.265 3      4454.915          23.500    24725821.900   101248117.285 6      4454.915          41.125
G07  23613396.780   124089240.750 7      5039.199          42.875    23613395.460   124089240.749 6      5039.199          37.687    23613409.360    96692971.604 6      3926.649          37.687    23613410.160    96692979.613 6      3926.649          41.187
G17  21061924.540   110681153.016 7       914.170          45.062    21061923.940   110681153.011 7       914.170          43.000    21061930.700    86245072.092 7       712.340          42.375    21061930.700    86245074.101 7       712.340          46.625
G20  25134189.500   132081062.381 5      4775.524          35.000    25134186.820   132081062.391 2      4775.524          15.000    25134197.560   102920301.850 2      3721.188          16.187
G09  20064023.060   105437153.519 8      2592.409          48.625    20064021.820   105437153.526 8      2592.409          50.187    20064027.820    82158840.784 8      2020.059          50.125    20064028.420    82158844.785 8      2020.059          50.250
G19  20465824.760   107548630.162 7      2237.075          45.750    20465822.060   107548630.164 6      2237.075          39.000    20465827.380    83804132.878 6      1743.176          38.875
G06  21361845.280   112257254.289 7      4747.537          45.937    21361843.980   112257254.286 7      4747.537          47.937    21361851.040    87473211.378 7      3699.379          47.687    21361852.100    87473217.379 8      3699.379          49.812
G04  21500210.640   112984364.516 7       406.315          47.687    21500209.960   112984364.529 6       406.315          36.125    21500216.220    88039786.271 6       316.609          36.375    21500216.320    88039787.260 7       316.609          47.562
> 2024 07 31 13 22  1.0000000  0 10
G03  23372145.340   122821461.138 6       399.065          41.500    23372144.480   122821461.135 6       399.065          36.187    23372154.380    95705055.756 6       310.960          36.000    23372155.680    95705065.746 6       310.960          41.312
R05  19436059.920   103896879.160 7      1704.095          47.812    19436059.400   103896879.172 8      1704.095          48.562    19436069.780    80808718.588 8      1325.407          51.187    19436069.480    80808722.586 8      1325.407          51.250
G11  24724726.860   129929319.648 6      5717.499          39.937    24724727.860   129929319.645 3      5717.499          23.750    24724733.500   101243659.144 3      4455.194          23.500    24724733.820   101243662.166 6      4455.194          41.125
G07  23612437.800   124084201.473 7      5039.376          43.000    23612436.560   124084201.480 6      5039.376          37.437    23612450.440    96689044.897 6      3926.786          37.375    23612451.280    96689052.908 6      3926.786          41.062
G17  21061750.520   110680238.974 7       913.850          45.000    21061750.320   110680238.973 7       913.850          43.000    21061756.820    86244359.849 7       712.091          42.812    21061756.940    86244361.858 7       712.091          46.500
G20  25133280.280   132076286.644 5      4776.031          35.375    25133278.100   132076286.651 2      4776.031          15.000    25133288.620   102916580.509 2      3721.583          16.187
G09  20063529.760   105434561.415 8      2591.832          48.562    20063528.520   105434561.425 8      2591.832          49.687    20063534.520    82156820.964 8      2019.609          50.062    20063535.060    82156824.969 8      2019.609          49.750
G19  20465399.100   107546393.409 7      2236.499          45.375    20465396.440   107546393.411 6      2236.499          39.250    20465401.800    83802389.953 6      1742.726          39.187
G06  21360941.700   112252506.796 7      4747.427          47.187    21360940.680   112252506.798 7      4747.427          47.812    21360947.580    87469512.040 7      3699.293          47.375    21360948.740    87469518.044 8      3699.293          49.812
G04  21500133.240   112983958.312 7       405.988          47.062    21500132.700   112983958.325 6       405.988          36.375    21500138.860    88039469.748 6       316.354          36.437    21500139.040    88039470.746 7       316.354          47.812
> 2024 07 31 13 22  2.0000000  0 10
G03  23372069.540   122821062.381 6       398.860          41.187    23372068.800   122821062.378 6       398.860          36.125    23372078.660    95704745.030 6       310.800          36.250    23372079.640    95704755.019 6       310.800          41.375
R05  19435740.900   103895175.459 7      1703.417          47.250    19435740.540   103895175.474 8      1703.417          48.375    19435750.980    80807393.490 8      1324.880          48.375    19435750.780    80807397.490 8      1324.880          49.000
G11  24723639.260   129923602.246 6      5717.488          40.062    24723639.880   129923602.245 3      5717.488          23.750    24723645.420   101239204.030 3      4455.186          23.500    24723645.660   101239207.050 6      4455.186          41.125
G07  23611479.020   124079162.327 7      5039.148          42.875    23611477.680   124079162.335 6      5039.148          37.000    23611491.440    96685118.292 6      3926.609          37.062    23611492.260    96685126.301 6      3926.609          41.062
G17  21061576.760   110679325.501 7       913.312          45.375    21061576.540   110679325.501 7       913.312          42.375    21061582.940    86243648.047 7       711.672          42.000    21061582.940    86243650.053 7       711.672          46.125
G20  25132371.360   132071511.036 5      4775.588          35.375    25132369.400   132071511.041 2      4775.588          15.000    25132379.680   102912859.250 2      3721.238          14.625
G09  20063036.720   105431969.981 7      2591.091          47.937    20063035.260   105431969.991 8      2591.091          48.562    20063041.440    82154801.667 8      2019.032          48.375    20063042.060    82154805.674 8      2019.032          49.000
G19  20464973.560   107544157.433 7      2235.640          45.750    20464970.780   107544157.436 6      2235.640          39.000    20464976.460    83800647.633 6      1742.057          38.812
G06  21360038.360   112247759.568 7      4747.195          46.937    21360037.320   112247759.572 7      4747.195          46.562    21360044.360    87465812.903 7      3699.113          46.437    21360045.480    87465818.907 8      3699.113          49.187
G04  21500056.060   112983552.587 7       405.550          47.312    21500055.480   112983552.602 6       405.550          36.000    21500061.580    88039153.601 6       316.013          36.437    21500061.780    88039154.590 7       316.013          47.625
> 2024 07 31 13 22  3.0000000  0 10
G03  23371993.360   122820663.737 6       398.568          41.187    23371993.060   122820663.736 6       398.568          36.687    23372002.920    95704434.400 6       310.572          36.687    23372003.700    95704444.394 6       310.572          41.375
R05  19435422.480   103893472.501 8      1702.682          48.937    19435422.240   103893472.516 8      1702.682          48.625    19435432.400    80806068.967 8      1324.309          51.000    19435432.260    80806072.965 8      1324.309          51.000
G11  24722551.480   129917884.925 6      5717.337          39.312    24722551.960   129917884.924 3      5717.337          23.750    24722557.540   101234748.978 3      4455.068          23.500    24722558.400   101234752.017 6      4455.068          41.125
G07  23610520.080   124074123.421 7      5038.850          43.125    23610518.740   124074123.426 6      5038.850          37.625    23610532.540    96681191.867 6      3926.377          37.562    23610533.740    96681199.873 6      3926.377          40.625
G17  21061403.120   110678412.704 7       912.519          45.375    21061402.600   110678412.701 7       912.519          42.812    21061409.320    86242936.766 7       711.054          42.125    21061409.020    86242938.775 7       711.054          46.937
G20  25131462.940   132066735.535 5      4775.579          35.375    25131460.660   132066735.545 2      4775.579          15.000    25131470.720   102909138.085 2      3721.231          14.625
G09  20062543.380   105429379.309 8      2590.304          48.562    20062542.280   105429379.314 8      2590.304          49.437    20062548.420    82152782.960 8      2018.418          49.312    20062549.080    82152786.967 8      2018.418          50.000
G19  20464548.300   107541922.328 7      2234.709          47.187    20464545.320   107541922.335 6      2234.709          39.125    20464551.080    83798905.992 6      1741.331          38.812
G06  21359134.920   112243012.739 7      4746.623          47.062    21359134.040   112243012.741 7      4746.623          47.437    21359140.980    87462114.078 7      3698.668          47.625    21359142.320    87462120.079 8      3698.668          49.875
G04  21499979.020   112983147.452 7       404.867          47.187    21499978.520   112983147.465 5       404.867          35.937    21499984.480    88038837.907 5       315.481          35.812    21499984.780    88038838.905 8       315.481          48.000
> 2024 07 31 13 22  4.0000000  0 10
G03  23371917.820   122820265.063 6       398.827          41.125    23371917.340   122820265.068 6       398.827          37.062    23371927.220    95704123.746 6       310.774          36.750    23371928.360    95704133.733 6       310.774          41.875
R05  19435103.920   103891770.142 8      1702.141          48.375    19435103.840   103891770.159 8      1702.141          48.250    19435113.820    80804744.912 8      1323.887          51.437    19435113.820    80804748.910 8      1323.887          51.062
G11  24721463.480   129912167.570 6      5717.375          39.812    24721463.980   129912167.569 3      5717.375          23.750    24721469.640   101230293.903 3      4455.097          23.500    24721470.100   101230296.929 6      4455.097          41.125
G07  23609561.180   124069084.554 7      5038.854          42.875    23609560.000   124069084.556 6      5038.854          37.937    23609573.700    96677265.473 6      3926.380          37.375    23609575.480    96677273.485 6      3926.380          40.625
G17  21061229.600   110677500.396 7       912.112          45.812    21061229.060   110677500.396 7       912.112          43.500    21061235.660    86242225.874 7       710.736          43.000    21061235.580    86242227.879 7       710.736          46.562
G20  25130554.760   132061960.132 5      4775.240          35.375    25130551.960   132061960.148 2      4775.240          15.000    25130561.980   102905417.000 2      3720.966          14.625
G09  20062050.640   105426789.236 8      2589.828          48.562    20062049.420   105426789.243 8      2589.828          49.875    20062055.540    82150764.725 8      2018.048          50.125    20062056.320    82150768.728 8      2018.048          49.750
G19  20464123.140   107539687.939 7      2234.077          47.125    20464120.200   107539687.944 6      2234.077          39.187    20464125.840    83797164.904 6      1740.840          39.062
G06  21358231.640   112238266.102 7      4746.556          46.750    21358230.740   112238266.107 8      4746.556          48.062    21358237.780    87458415.402 7      3698.615          47.812    21358239.020    87458421.401 8      3698.615          49.937
G04  21499902.140   112982742.733 7       404.557          47.937    21499901.380   112982742.748 6       404.557          36.125    21499907.380    88038522.544 6       315.239          36.187    21499907.920    88038523.537 7       315.239          47.500
> 2024 07 31 13 22  5.0000000  0 10
G03  23371842.060   122819866.532 6       398.697          41.062    23371841.580   122819866.537 6       398.697          36.937    23371851.640    95703813.195 6       310.673          36.687    23371852.660    95703823.183 7       310.673          42.187
R05  19434785.540   103890068.520 8      1701.447          48.937    19434785.460   103890068.532 8      1701.447          48.500    19434795.520    80803421.424 8      1323.348          50.687    19434795.340    80803425.422 8      1323.348          51.375
G11  24720375.580   129906450.296 6      5717.276          40.125    24720376.180   129906450.293 3      5717.276          23.750    24720381.620   101225838.886 3      4455.020          23.500    24720382.600   101225841.915 6      4455.020          41.250
G07  23608602.440   124064045.892 7      5038.702          43.250    23608601.140   124064045.897 6      5038.702          37.500    23608615.000    96673339.243 6      3926.261          37.750    23608616.340    96673347.253 6      3926.261          41.562
G17  21061056.120   110676588.750 7       911.439          45.125    21061055.540   110676588.752 7       911.439          43.250    21061062.120    86241515.495 7       710.212          42.937    21061062.520    86241517.497 7       710.212          46.625
G20  25129645.740   132057184.826 5      4775.422          35.375    25129643.380   132057184.842 2      4775.422          15.000    25129653.060   102901695.986 2      3721.108          14.625
G09  20061557.900   105424199.938 8      2588.975          49.000    20061556.640   105424199.945 8      2588.975          50.187    20061562.780    82148747.088 8      2017.383          49.750    20061563.460    82148751.095 8      2017.383          49.937
G19  20463697.800   107537454.420 7      2233.171          46.125    20463695.200   107537454.422 6      2233.171          38.937    20463700.740    83795424.493 6      1740.133          39.125
G06  21357328.460   112233519.825 7      4746.200          46.812    21357327.520   112233519.827 8      4746.200          48.000    21357334.660    87454716.998 8      3698.338          48.062    21357336.000    87454723.001 8      3698.338          50.125
G04  21499825.140   112982338.595 7       403.956          47.250    21499824.460   112982338.605 6       403.956          36.062    21499830.560    88038207.627 6       314.771          36.000    21499830.740    88038208.622 8       314.771          48.187
> 2024 07 31 13 22  6.0000000  0 10
G03  23371766.140   122819468.135 6       398.398          41.312    23371765.820   122819468.134 6       398.398          37.375    23371775.960    95703502.750 6       310.440          37.187    23371776.820    95703512.731 7       310.440          42.187
R05  19434467.460   103888367.634 8      1700.479          49.187    19434467.340   103888367.646 8      1700.479          48.875    19434477.240    80802098.510 8      1322.595          51.062    19434477.180    80802102.506 8      1322.595          51.375
G11  24719287.740   129900733.077 6      5717.103          40.500    24719288.140   129900733.072 3      5717.103          23.750    24719293.760   101221383.919 3      4454.886          23.562    24719294.080   101221386.949 6      4454.886          41.250
G07  23607643.640   124059007.440 7      5038.340          43.312    23607642.340   124059007.448 6      5038.340          37.687    23607656.240    96669413.177 6      3925.979          37.812    23607657.600    96669421.193 6      3925.979          41.562
G17  21060882.540   110675677.755 7       910.633          45.312    21060882.180   110675677.758 7       910.633          43.062    21060888.740    86240805.623 7       709.584          42.812    21060889.160    86240807.629 7       709.584          46.812
G20  25128735.840   132052409.738 5      4775.007          34.937    25128734.560   132052409.743 2      4775.007          15.000    25128744.540   102897975.142 2      3720.785          14.625
G09  20061065.340   105421611.384 8      2588.155          49.000    20061064.120   105421611.394 8      2588.155          50.125    20061070.180    82146730.037 8      2016.744          50.187    20061070.860    82146734.040 8      2016.744          50.062
G19  20463273.060   107535221.755 7      2232.187          46.625    20463270.380   107535221.758 6      2232.187          39.750    20463275.960    83793684.752 6      1739.367          39.562
G06  21356425.560   112228773.918 7      4745.660          47.125    21356424.420   112228773.923 7      4745.660          47.875    21356431.560    87451018.897 7      3697.917          47.875    21356432.800    87451024.900 8      3697.917          50.187
G04  21499748.220   112981935.034 7       403.204          47.937    21499747.760   112981935.047 5       403.204          35.812    21499753.660    88037893.160 6       314.185          36.062    21499753.880    88037894.159 8       314.185          48.062
