     3.05           OBSERVATION DATA    MIXED               RINEX VERSION / TYPE
TPS2RIN 1.0.29.3920 TPS-USER            20240801 093646 UTC PGM / RUN BY / DATE
Win64 build Feb 23, 2024 (c) Topcon Positioning Systems     COMMENT
SRC: 20240731_CAMI.tps                                      COMMENT
OPT: -S -v 3.05                                             COMMENT
Observer            Agency                                  OBSERVER / AGENCY
O0M3X53SBGM         TPS HIPER_SR        4.8 HSR Jul,08,2022 REC # / TYPE / VERS
FW: 4.8 HSR Jul,08,2022 p3                                  COMMENT
SN: HiPer SR 1212-12575                                     COMMENT
000                 TPSHIPER_SR     NONE                    ANT # / TYPE
        1.8000        0.0000        0.0000                  ANTENNA: DELTA H/E/N
CAMI                                                        MARKER NAME
  5387557.9941 -1599142.8680  3009549.1100                  APPROX POSITION XYZ
  2024     7    31    11    55   38.0000000     GPS         TIME OF FIRST OBS
  2024     7    31    12    11   38.0000000     GPS         TIME OF LAST OBS
     1.000                                                  INTERVAL
   961 EPOCHS                                               COMMENT
G   16 C1C L1C D1C S1C C1W L1W D1W S1W C2W L2W D2W S2W C2X  SYS / # / OBS TYPES
       L2X D2X S2X                                          SYS / # / OBS TYPES
R   16 C1C L1C D1C S1C C1P L1P D1P S1P C2P L2P D2P S2P C2C  SYS / # / OBS TYPES
       L2C D2C S2C                                          SYS / # / OBS TYPES
    14                                                      # OF SATELLITES
   G02   926   926   926   926   922   922   922   922   922PRN / # OF OBS
         922   922   922     0     0     0     0            PRN / # OF OBS
   G03   961   961   961   961   961   961   961   961   961PRN / # OF OBS
         961   961   961   961   961   961   961            PRN / # OF OBS
   G04   961   961   961   961   961   961   961   961   961PRN / # OF OBS
         961   961   961   961   961   961   961            PRN / # OF OBS
   G06   388   388   388   388   380   380   380   380   380PRN / # OF OBS
         380   380   380   359   359   359   359            PRN / # OF OBS
   G09   940   940   940   940   940   940   940   940   940PRN / # OF OBS
         940   940   940   935   935   935   935            PRN / # OF OBS
   G14   348   348   348   348   331   331   331   331   330PRN / # OF OBS
         330   330   330   283   283   283   283            PRN / # OF OBS
   G17   746   746   746   746   735   735   735   735   735PRN / # OF OBS
         735   735   735   719   719   719   719            PRN / # OF OBS
   G19   839   839   839   839   829   829   829   829   829PRN / # OF OBS
         829   829   829     0     0     0     0            PRN / # OF OBS
   G21    64    64    64    64    64    64    64    64    64PRN / # OF OBS
          64    64    64     0     0     0     0            PRN / # OF OBS
   G22   757   757   757   757   740   740   740   740   742PRN / # OF OBS
         742   742   742     0     0     0     0            PRN / # OF OBS
   R03    91    91    91    91    85    85    85    85    85PRN / # OF OBS
          85    85    85    84    84    84    84            PRN / # OF OBS
   R04   961   961   961   961   961   961   961   961   961PRN / # OF OBS
         961   961   961   961   961   961   961            PRN / # OF OBS
   R05   906   906   906   906   895   895   895   895   895PRN / # OF OBS
         895   895   895   893   893   893   893            PRN / # OF OBS
   R18   961   961   961   961   961   961   961   961   961PRN / # OF OBS
         961   961   961   961   961   961   961            PRN / # OF OBS
G L1C                                                       SYS / PHASE SHIFT
G L1W -0.25000                                              SYS / PHASE SHIFT
G L2W  0.00000                                              SYS / PHASE SHIFT
G L2X  0.25000                                              SYS / PHASE SHIFT
R L1C                                                       SYS / PHASE SHIFT
R L1P -0.25000                                              SYS / PHASE SHIFT
R L2P -0.25000                                              SYS / PHASE SHIFT
R L2C                                                       SYS / PHASE SHIFT
  4 R03  5 R04  6 R05  1 R18 -3                             GLONASS SLOT / FRQ #
                                                            GLONASS COD/PHS/BIS
    18    18  1929     7GPS                                 LEAP SECONDS
                                                            END OF HEADER
> 2024 07 31 11 55 38.0000000  0  9
G09  21549317.760   113242429.712 7      5644.293          42.375    21549318.420   113242429.706 6      5644.293          36.625    21549324.280    88240893.554 6      4398.150          36.062    21549324.800    88240896.557 7      4398.150          43.312
G22  23714538.740   124620755.453 6      1431.057          41.750    23714539.280   124620755.250 1      1431.057           1.000    23714538.940    97107069.014 1      1115.109           1.000
G17  20833109.920   109478753.251 6      4058.080          41.500    20833109.460   109478753.248 4      4058.080          25.187    20833109.480    85308132.903 4      3162.140          24.875    20833111.460    85308131.922 5      3162.140          33.625
G03  21212629.020   111473147.021 6       804.764          40.625    21212626.580   111473147.021 5       804.764          34.812    21212636.960    86862211.158 5       627.089          34.750    21212637.480    86862213.185 7       627.089          43.312
G21  24024904.640   126251723.813 6      1102.196          38.000    24024902.540   126251723.794 1      1102.196           6.562    24024906.160    98377963.629 1       858.854           6.375
R18  20980212.160   111993804.962 7      1222.111          47.062    20980213.260   111993804.958 7      1222.111          47.062    20980224.720    87106329.394 7       950.530          47.250    20980224.540    87106329.396 8       950.530          48.125
G02  22695093.200   119263507.253 8      1552.710          48.000    22695091.360   119263507.258 6      1552.710          36.125    22695098.060    92932617.110 6      1209.904          36.750
R04  19286906.060   103280505.838 7      1633.570          45.562    19286905.500   103280505.869 7      1633.570          43.312    19286917.560    80329320.615 8      1270.554          49.437    19286916.420    80329320.621 8      1270.554          49.750
G04  20703062.180   108795325.446 6      3579.445          41.312    20703062.820   108795325.467 5      3579.445          30.562    20703066.240    84775594.956 5      2789.178          30.125    20703066.640    84775594.955 8      2789.178          49.500
> 2024 07 31 11 55 39.0000000  0  9
G09  21548243.500   113236785.362 7      5644.235          42.437    21548244.260   113236785.352 6      5644.235          37.187    21548250.120    88236495.355 6      4398.105          36.812    21548250.580    88236498.347 7      4398.105          43.625
G22  23714266.200   124619324.386 6      1431.036          41.875    23714267.680   124619324.309 1      1431.036           8.937    23714270.120    97105954.001 1      1115.093           9.000
G17  20832337.500   109474695.386 6      4057.678          40.562    20832337.100   109474695.383 4      4057.678          25.187    20832337.060    85304970.936 4      3161.827          24.875    20832338.220    85304969.931 5      3161.827          33.625
G03  21212476.320   111472342.344 6       804.564          41.187    21212473.520   111472342.346 5       804.564          34.812    21212484.000    86861584.139 5       626.933          35.062    21212484.060    86861586.166 7       626.933          43.312
G21  24024695.260   126250621.540 6      1102.140          36.875    24024692.460   126250621.514 1      1102.140           6.562    24024697.080    98377104.703 1       858.811           6.375
R18  20979983.340   111992583.001 7      1221.763          46.500    20979984.160   111992582.994 7      1221.763          46.812    20979995.660    87105378.975 7       950.260          47.062    20979995.540    87105378.978 7       950.260          47.562
G02  22694797.720   119261954.529 8      1552.745          48.875    22694795.960   119261954.532 6      1552.745          36.500    22694802.620    92931407.187 6      1209.931          36.750
R04  19286600.900   103278872.560 7      1632.879          45.500    19286600.280   103278872.594 7      1632.879          43.437    19286612.560    80328050.296 8      1270.017          49.687    19286611.380    80328050.303 8      1270.017          50.500
G04  20702380.880   108791746.255 7      3578.973          42.250    20702381.620   108791746.278 5      3578.973          30.375    20702385.260    84772805.980 5      2788.810          30.125    20702385.680    84772805.986 8      2788.810          49.937
> 2024 07 31 11 55 40.0000000  0  9
G09  21547169.740   113231141.449 7      5643.563          42.500    21547170.460   113231141.436 6      5643.563          37.187    21547176.120    88232097.496 6      4397.582          37.000    21547176.740    88232100.498 7      4397.582          43.625
G22  23713993.960   124617893.679 7      1430.487          42.187    23713996.580   124617893.641 1      1430.487          11.312    23714001.000    97104839.114 1      1114.665          11.812
G17  20831565.540   109470638.097 6      4056.881          41.125    20831565.000   109470638.096 4      4056.881          25.187    20831564.840    85301809.418 4      3161.206          24.875    20831567.220    85301808.409 5      3161.206          33.625
G03  21212323.640   111471537.874 6       804.173          41.000    21212320.500   111471537.873 5       804.173          35.437    21212331.320    86860957.275 5       626.628          35.062    21212330.660    86860959.294 7       626.628          43.000
G21  24024484.560   126249519.481 6      1101.839          36.875    24024482.600   126249519.475 1      1101.839           6.562    24024487.880    98376245.934 1       858.576           6.375
R18  20979754.480   111991361.592 7      1220.982          46.312    20979755.460   111991361.585 7      1220.982          47.375    20979766.840    87104428.980 7       949.653          46.937    20979766.880    87104428.981 7       949.653          47.625
G02  22694502.460   119260402.105 8      1552.111          48.250    22694500.640   119260402.110 6      1552.111          36.500    22694507.200    92930197.504 6      1209.437          36.562
R04  19286296.020   103277240.121 7      1631.865          45.500    19286295.900   103277240.152 7      1631.865          43.437    19286307.560    80326780.619 8      1269.228          49.625    19286306.700    80326780.624 8      1269.228          50.062
G04  20701700.020   108788167.752 6      3578.104          41.750    20701700.520   108788167.772 5      3578.104          30.375    20701704.240    84770017.538 5      2788.133          30.312    20701704.780    84770017.545 8      2788.133          49.875
> 2024 07 31 11 55 41.0000000  0  9
G09  21546095.420   113225497.911 6      5643.384          41.000    21546096.280   113225497.898 6      5643.384          37.062    21546102.360    88227699.943 6      4397.442          36.437    21546103.060    88227702.940 7      4397.442          43.312
G22  23713721.940   124616463.224 7      1430.386          42.750    23713729.840   124616463.192 2      1430.386          12.250    23713725.800    97103724.447 2      1114.587          12.375
G17  20830793.480   109466581.314 6      4056.671          41.562    20830793.160   109466581.314 4      4056.671          24.687    20830792.900    85298648.291 4      3161.043          24.875    20830795.460    85298647.257 5      3161.043          33.625
G03  21212169.940   111470733.525 6       804.299          41.625    21212167.400   111470733.527 5       804.299          35.437    21212178.300    86860330.512 5       626.726          35.312    21212177.700    86860332.547 7       626.726          43.500
G21  24024276.080   126248417.513 6      1102.098          36.875    24024273.400   126248417.510 1      1102.098           6.562    24024278.220    98375387.242 1       858.777           6.375
R18  20979525.940   111990140.661 7      1220.791          46.437    20979526.560   111990140.657 7      1220.791          47.187    20979538.340    87103479.357 7       949.504          46.875    20979538.240    87103479.362 7       949.504          47.187
G02  22694207.000   119258849.873 8      1552.262          48.812    22694205.320   119258849.875 6      1552.262          36.062    22694211.840    92928987.968 6      1209.555          36.187
R04  19285991.320   103275608.458 7      1631.441          45.562    19285991.120   103275608.482 7      1631.441          43.687    19286003.220    80325511.538 8      1268.899          49.562    19286001.960    80325511.542 8      1268.899          50.125
G04  20701019.480   108784589.856 6      3577.669          41.562    20701019.760   108784589.879 5      3577.669          30.375    20701023.400    84767229.569 5      2787.794          30.312    20701023.980    84767229.578 8      2787.794          49.375
> 2024 07 31 11 55 42.0000000  0  9
G09  21545021.840   113219854.715 7      5643.154          42.375    21545022.500   113219854.707 6      5643.154          36.437    21545028.520    88223302.655 6      4397.263          36.375    21545029.100    88223305.651 7      4397.263          43.437
G22  23713449.580   124615033.069 7      1430.190          42.937    23713452.040   124615033.073 2      1430.190          13.250    23713454.660    97102610.089 2      1114.434          13.375
G17  20830021.620   109462524.992 6      4056.270          40.875    20830021.180   109462524.986 4      4056.270          24.687    20830020.940    85295487.520 4      3160.730          24.875    20830023.540    85295486.505 5      3160.730          33.625
G03  21212017.020   111469929.352 6       804.190          41.875    21212014.320   111469929.360 5       804.190          35.437    21212025.140    86859703.886 5       626.641          35.000    21212025.160    86859705.909 7       626.641          43.500
G21  24024065.620   126247315.705 6      1101.882          37.125    24024063.220   126247315.694 1      1101.882           6.562    24024069.540    98374528.688 1       858.609           6.375
R18  20979297.540   111988920.214 7      1220.389          46.437    20979298.280   111988920.209 7      1220.389          47.125    20979309.760    87102530.114 7       949.191          47.062    20979309.600    87102530.119 7       949.191          47.437
G02  22693911.540   119257297.824 8      1552.117          49.062    22693910.040   119257297.824 6      1552.117          36.187    22693916.320    92927778.576 6      1209.442          36.187
R04  19285687.340   103273977.521 7      1630.740          45.500    19285686.900   103273977.542 7      1630.740          44.437    19285698.740    80324243.023 8      1268.353          48.812    19285697.480    80324243.027 8      1268.353          49.312
G04  20700338.060   108781012.559 6      3577.108          40.937    20700338.840   108781012.584 5      3577.108          30.375    20700342.660    84764442.063 5      2787.357          30.312    20700343.080    84764442.061 8      2787.357          49.625
> 2024 07 31 11 55 43.0000000  0  9
G09  21543948.120   113214212.024 7      5642.366          42.000    21543948.740   113214212.013 6      5642.366          37.250    21543954.780    88218905.751 6      4396.649          36.750    21543955.320    88218908.742 7      4396.649          43.437
G22  23713177.680   124613603.318 7      1429.507          42.937    23713181.060   124613603.273 2      1429.507          13.875    23713184.000    97101495.961 2      1113.902          14.062
G17  20829250.260   109458469.300 6      4055.462          40.875    20829249.460   109458469.297 4      4055.462          24.687    20829249.240    85292327.243 4      3160.100          24.875    20829252.260    85292326.205 5      3160.100          33.625
G03  21211863.800   111469125.413 6       803.824          41.750    21211861.360   111469125.418 5       803.824          35.187    21211872.360    86859077.440 5       626.356          35.312    21211871.680    86859079.463 7       626.356          43.062
G21  24023856.080   126246214.137 6      1101.200          37.125    24023853.980   126246214.123 1      1101.200           6.562    24023860.100    98373670.307 1       858.078           6.375
R18  20979069.040   111987700.380 7      1219.502          46.000    20979069.360   111987700.378 7      1219.502          47.500    20979081.060    87101581.354 7       948.502          46.437    20979080.940    87101581.355 7       948.502          46.937
G02  22693616.220   119255746.104 8      1551.489          49.375    22693614.860   119255746.104 6      1551.489          36.562    22693621.040    92926569.441 6      1208.953          36.500
R04  19285382.920   103272347.430 7      1629.622          45.500    19285381.920   103272347.459 7      1629.622          44.437    19285394.040    80322975.185 8      1267.484          49.625    19285392.920    80322975.189 8      1267.484          50.187
G04  20699657.740   108777435.950 6      3576.218          40.937    20699658.060   108777435.978 5      3576.218          30.562    20699662.200    84761655.097 5      2786.663          30.312    20699662.640    84761655.101 8      2786.663          49.812
> 2024 07 31 11 55 44.0000000  0  9
G09  21542874.560   113208569.545 7      5642.258          42.312    21542874.900   113208569.540 6      5642.258          37.062    21542880.980    88214509.018 6      4396.565          36.937    21542881.860    88214512.020 7      4396.565          43.562
G22  23712905.340   124612173.680 7      1429.404          42.687    23712909.660   124612173.646 2      1429.404          14.500    23712912.200    97100381.980 2      1113.822          14.812
G17  20828478.300   109454413.966 6      4055.085          40.437    20828477.800   109454413.968 4      4055.085          24.687    20828477.520    85289167.238 4      3159.807          24.875    20828480.180    85289166.212 5      3159.807          32.187
G03  21211711.160   111468321.511 6       803.829          41.937    21211708.600   111468321.519 6       803.829          36.000    21211719.440    86858451.021 5       626.360          35.312    21211718.800    86858453.038 7       626.360          43.312
G21  24023646.080   126245112.516 6      1101.318          36.750    24023644.120   126245112.513 1      1101.318           6.562    24023650.080    98372811.905 1       858.170           6.375
R18  20978840.540   111986480.887 8      1219.246          48.000    20978840.960   111986480.875 7      1219.246          47.250    20978852.320    87100632.839 7       948.302          46.812    20978852.540    87100632.844 7       948.302          46.937
G02  22693321.120   119254194.450 8      1551.458          49.187    22693319.700   119254194.450 5      1551.458          35.875    22693325.900    92925360.354 6      1208.928          36.500
R04  19285078.980   103270717.971 7      1629.121          45.187    19285077.740   103270717.994 7      1629.121          43.750    19285089.900    80321707.824 8      1267.094          49.250    19285088.880    80321707.826 8      1267.094          50.500
G04  20698977.020   108773859.838 6      3575.796          40.750    20698977.420   108773859.861 5      3575.796          30.562    20698981.800    84758868.514 5      2786.334          30.437    20698982.420    84758868.508 8      2786.334          49.562
> 2024 07 31 11 55 45.0000000  0  9
G09  21541800.740   113202927.497 6      5642.015          41.437    21541801.320   113202927.494 6      5642.015          36.500    21541807.360    88210112.628 6      4396.375          36.562    21541807.980    88210115.633 7      4396.375          43.500
G22  23712633.360   124610744.379 7      1429.405          42.187    23712635.280   124610744.323 2      1429.405          14.750    23712641.740    97099268.167 2      1113.822          15.062
G17  20827707.020   109450359.185 6      4054.738          40.000    20827706.180   109450359.190 4      4054.738          24.687    20827705.500    85286007.669 4      3159.536          24.875    20827707.320    85286006.644 5      3159.536          32.187
G03  21211558.480   111467517.793 7       803.979          42.187    21211555.860   111467517.798 6       803.979          36.187    21211566.680    86857824.741 5       626.477          35.937    21211565.880    86857826.747 7       626.477          43.062
G21  24023436.740   126244011.066 6      1101.654          36.750    24023434.100   126244011.055 1      1101.654           6.562    24023439.960    98371953.620 1       858.432           6.375
R18  20978612.160   111985261.916 7      1218.906          47.875    20978612.580   111985261.903 7      1218.906          47.187    20978623.840    87099684.746 7       948.038          46.312    20978624.100    87099684.747 7       948.038          46.500
G02  22693025.860   119252643.027 8      1551.575          49.562    22693024.400   119252643.027 6      1551.575          36.562    22693030.660    92924151.450 6      1209.019          36.187
R04  19284774.580   103269089.307 7      1628.617          45.375    19284773.540   103269089.338 7      1628.617          44.125    19284785.780    80320441.085 8      1266.702          49.875    19284784.600    80320441.089 8      1266.702          50.500
G04  20698296.740   108770284.383 6      3575.180          40.437    20698297.080   108770284.406 5      3575.180          30.562    20698301.260    84756082.445 5      2785.855          30.437    20698301.560    84756082.443 8      2785.855          49.500
> 2024 07 31 11 55 46.0000000  0  9
G09  21540727.200   113197285.925 6      5641.452          41.937    21540727.720   113197285.919 6      5641.452          37.375    21540733.920    88205716.597 6      4395.936          37.000    21540734.860    88205719.583 7      4395.936          43.500
G22  23712361.680   124609315.445 7      1428.711          42.000    23712364.660   124609315.411 2      1428.711          15.062    23712368.740    97098154.713 2      1113.282          15.500
G17  20826935.260   109446305.023 6      4053.894          40.000    20826934.620   109446305.028 4      4053.894          24.687    20826934.180    85282848.581 4      3158.878          24.875    20826934.440    85282847.560 5      3158.878          32.187
G03  21211405.320   111466714.353 7       803.208          42.562    21211403.480   111466714.363 6       803.208          36.187    21211413.800    86857198.680 6       625.876          36.062    21211413.440    86857200.694 7       625.876          43.062
G21  24023227.080   126242909.889 6      1101.159          36.750    24023224.460   126242909.873 1      1101.159           6.562    24023230.640    98371095.552 1       858.046           6.375
R18  20978383.880   111984043.534 7      1218.114          47.687    20978384.200   111984043.524 7      1218.114          47.000    20978395.520    87098737.111 7       947.422          46.500    20978395.580    87098737.112 7       947.422          47.125
G02  22692730.680   119251091.916 8      1551.032          49.562    22692729.420   119251091.916 6      1551.032          36.562    22692735.720    92922942.787 6      1208.596          36.687
R04  19284470.480   103267461.511 7      1627.324          45.437    19284469.640   103267461.542 7      1627.324          44.312    19284481.700    80319175.023 8      1265.696          49.250    19284480.680    80319175.028 8      1265.696          49.875
G04  20697616.960   108766709.603 6      3574.307          41.000    20697616.860   108766709.629 5      3574.307          30.562    20697620.860    84753296.909 5      2785.174          30.437    20697621.440    84753296.909 8      2785.174          49.562
> 2024 07 31 11 55 47.0000000  0  9
G09  21539653.580   113191644.726 6      5641.130          41.562    21539654.060   113191644.718 6      5641.130          37.375    21539660.360    88201320.860 6      4395.686          37.000    21539661.240    88201323.857 7      4395.686          44.062
G22  23712089.780   124607886.785 7      1428.579          42.375    23712090.720   124607886.743 2      1428.579          15.437    23712096.040    97097041.471 2      1113.179          15.812
G17  20826163.900   109442251.323 6      4053.707          39.312    20826163.240   109442251.330 4      4053.707          24.687    20826162.920    85279689.858 4      3158.733          24.312    20826163.080    85279688.826 5      3158.733          32.187
G03  21211252.440   111465910.995 7       803.432          42.375    21211250.720   111465911.002 6       803.432          36.687    21211260.960    86856572.688 6       626.051          36.562    21211261.140    86856574.711 7       626.051          43.437
G21  24023018.200   126241808.812 6      1101.030          36.375    24023015.200   126241808.782 1      1101.030           6.562    24023020.560    98370237.566 1       857.945           6.375
R18  20978155.740   111982825.653 7      1217.642          47.562    20978155.920   111982825.641 7      1217.642          47.250    20978167.220    87097789.856 7       947.055          45.937    20978167.460    87097789.855 7       947.055          46.562
G02  22692435.520   119249541.024 8      1550.861          49.687    22692434.400   119249541.026 6      1550.861          36.187    22692440.600    92921734.293 6      1208.463          36.750
R04  19284166.580   103265834.400 7      1626.895          45.250    19284165.520   103265834.428 7      1626.895          44.312    19284177.980    80317909.490 8      1265.363          49.625    19284176.800    80317909.497 8      1265.363          50.187
G04  20696936.540   108763135.453 6      3573.802          41.000    20696936.620   108763135.474 5      3573.802          30.687    20696940.520    84750511.853 5      2784.781          30.312    20696941.260    84750511.841 8      2784.781          49.687
> 2024 07 31 11 55 48.0000000  0  9
G09  21538580.240   113186003.819 6      5640.754          40.750    21538580.640   113186003.818 6      5640.754          37.187    21538587.060    88196925.356 6      4395.393          37.000    21538588.060    88196928.353 7      4395.393          44.062
G22  23711818.220   124606458.335 6      1428.228          41.812    23711818.480   124606458.330 2      1428.228          15.687    23711824.740    97095928.401 2      1112.905          15.875
G17  20825392.640   109438198.098 6      4053.010          38.437    20825392.000   109438198.113 4      4053.010          24.687    20825391.600    85276531.505 4      3158.190          24.312    20825393.080    85276530.472 5      3158.190          32.187
G03  21211099.660   111465107.773 7       803.135          42.187    21211097.940   111465107.778 6       803.135          36.625    21211108.140    86855946.797 6       625.819          36.812    21211108.100    86855948.812 7       625.819          43.625
G21  24022808.140   126240707.827 6      1100.777          36.375    24022804.860   126240707.797 1      1100.777           4.562    24022810.260    98369379.647 1       857.748           5.062
R18  20977927.580   111981608.147 7      1217.216          47.937    20977927.780   111981608.134 7      1217.216          47.437    20977939.500    87096842.901 7       946.723          46.062    20977939.380    87096842.897 7       946.723          46.125
G02  22692140.360   119247990.263 8      1550.585          49.562    22692139.340   119247990.260 6      1550.585          36.437    22692145.460    92920525.906 6      1208.248          36.750
R04  19283862.700   103264207.974 7      1626.068          44.937    19283862.300   103264208.003 7      1626.068          44.312    19283874.140    80316644.489 8      1264.719          49.500    19283873.200    80316644.491 8      1264.719          50.312
G04  20696256.440   108759561.806 6      3573.250          41.000    20696256.720   108759561.827 5      3573.250          30.687    20696260.520    84747727.189 5      2784.351          30.312    20696261.640    84747727.189 8      2784.351          49.625
> 2024 07 31 11 55 49.0000000  0  9
G09  21537506.580   113180363.284 6      5640.362          40.250    21537507.180   113180363.279 6      5640.362          37.062    21537513.940    88192530.136 6      4395.087          36.625    21537514.820    88192533.138 7      4395.087          44.312
G22  23711546.760   124605030.140 7      1428.076          42.375    23711547.020   124605030.124 2      1428.076          15.875    23711552.340    97094815.514 2      1112.786          16.062
G17  20824620.960   109434145.346 6      4052.545          38.437    20824620.520   109434145.359 4      4052.545          24.000    20824620.240    85273373.519 4      3157.827          24.312    20824621.240    85273372.491 5      3157.827          32.187
G03  21210946.600   111464304.662 7       803.091          42.375    21210945.320   111464304.659 6       803.091          36.750    21210955.320    86855320.984 6       625.785          36.437    21210954.800    86855322.997 7       625.785          43.562
G21  24022599.040   126239606.849 6      1101.040          36.375    24022595.360   126239606.823 1      1101.040           4.562    24022600.520    98368521.736 1       857.953           5.062
R18  20977699.760   111980391.086 7      1216.849          47.000    20977699.620   111980391.076 7      1216.849          46.750    20977711.340    87095896.298 7       946.438          46.875    20977711.180    87095896.293 7       946.438          46.250
G02  22691845.200   119246439.676 8      1550.481          49.875    22691844.300   119246439.673 6      1550.481          36.062    22691850.480    92919317.648 6      1208.167          36.750
R04  19283559.040   103262582.272 7      1625.317          45.687    19283558.980   103262582.300 7      1625.317          44.937    19283570.180    80315380.053 8      1264.135          50.062    19283569.480    80315380.055 8      1264.135          50.250
G04  20695576.760   108755988.763 7      3572.807          42.187    20695576.840   108755988.781 5      3572.807          30.687    20695580.720    84744942.997 5      2784.005          30.312    20695581.500    84744942.987 8      2784.005          49.250
> 2024 07 31 11 55 50.0000000  0  9
G09  21536433.300   113174723.304 6      5639.725          40.312    21536433.800   113174723.301 6      5639.725          37.062    21536440.620    88188135.349 6      4394.591          36.812    21536441.560    88188138.354 7      4394.591          44.625
G22  23711274.500   124603602.449 7      1427.408          42.500    23711276.320   124603602.428 2      1427.408          16.000    23711277.660    97093703.025 2      1112.266          16.187
G17  20823849.680   109430093.304 6      4051.771          38.750    20823849.380   109430093.314 4      4051.771          24.000    20823849.060    85270216.081 4      3157.224          24.312    20823850.740    85270215.064 5      3157.224          32.187
G03  21210794.540   111463501.879 7       802.670          42.187    21210792.840   111463501.881 6       802.670          36.750    21210802.440    86854695.443 6       625.457          36.500    21210801.880    86854697.466 7       625.457          43.562
G21  24022389.100   126238506.266 6      1100.748          36.375    24022385.900   126238506.248 1      1100.748           4.562    24022391.620    98367664.127 1       857.726           5.062
R18  20977472.080   111979174.757 7      1216.049          46.562    20977471.580   111979174.741 7      1216.049          46.812    20977483.580    87094950.251 7       945.816          46.562    20977483.400    87094950.246 7       945.816          46.750
G02  22691550.440   119244889.495 8      1550.032          50.062    22691549.360   119244889.495 6      1550.032          36.125    22691555.340    92918109.711 6      1207.817          36.250
R04  19283255.740   103260957.514 7      1624.452          45.687    19283255.160   103260957.540 7      1624.452          44.125    19283266.880    80314116.349 8      1263.463          49.750    19283266.040    80314116.349 8      1263.463          50.000
G04  20694896.720   108752416.534 6      3571.786          41.937    20694896.800   108752416.547 5      3571.786          30.687    20694900.920    84742159.447 5      2783.210          30.312    20694901.540    84742159.432 8      2783.210          49.562
> 2024 07 31 11 55 51.0000000  0  9
G09  21535359.960   113169083.684 6      5639.429          40.312    21535360.420   113169083.679 6      5639.429          37.062    21535367.420    88183740.840 6      4394.360          36.125    21535368.380    88183743.849 7      4394.360          44.562
G22  23711002.840   124602174.993 7      1427.190          42.687    23711005.380   124602174.979 2      1427.190          16.000    23711006.620    97092590.711 2      1112.096          16.187
G17  20823079.180   109426041.709 6      4051.322          38.750    20823078.500   109426041.716 4      4051.322          24.000    20823077.980    85267058.992 4      3156.874          24.312    20823079.280    85267057.964 5      3156.874          32.187
G03  21210641.860   111462699.230 7       802.583          43.062    21210640.360   111462699.240 6       802.583          37.437    21210649.660    86854070.010 6       625.390          37.125    21210649.260    86854072.031 7       625.390          43.812
G21  24022179.780   126237405.815 5      1100.447          35.187    24022176.660   126237405.801 1      1100.447           4.562    24022182.760    98366806.620 1       857.491           5.062
R18  20977244.100   111977958.867 7      1215.703          46.750    20977243.520   111977958.852 7      1215.703          46.687    20977255.820    87094004.545 7       945.547          46.250    20977255.720    87094004.540 7       945.547          46.562
G02  22691255.520   119243339.499 8      1549.845          49.625    22691254.380   119243339.499 6      1549.845          36.125    22691260.460    92916901.919 5      1207.671          35.937
R04  19282952.400   103259333.530 7      1623.513          45.312    19282952.220   103259333.562 7      1623.513          44.812    19282963.620    80312853.250 8      1262.733          49.937    19282962.640    80312853.253 8      1262.733          50.000
G04  20694216.940   108748844.844 7      3571.388          42.500    20694217.140   108748844.860 5      3571.388          30.625    20694221.320    84739376.314 5      2782.900          30.250    20694221.600    84739376.308 8      2782.900          49.437
> 2024 07 31 11 55 52.0000000  0  9
G09  21534286.780   113163444.456 6      5638.614          40.062    21534287.380   113163444.447 6      5638.614          36.625    21534294.360    88179346.640 6      4393.725          36.812    21534295.520    88179349.652 7      4393.725          44.687
G22  23710731.500   124600747.814 7      1426.825          42.062    23710734.740   124600747.817 2      1426.825          16.000    23710737.040    97091478.624 2      1111.812          16.187
G17  20822308.260   109421990.673 6      4050.367          39.000    20822307.500   109421990.677 4      4050.367          24.000    20822307.140    85263902.341 4      3156.130          24.312    20822308.380    85263901.299 5      3156.130          32.187
G03  21210488.680   111461896.734 7       802.352          42.125    21210487.600   111461896.744 6       802.352          37.187    21210496.980    86853444.688 6       625.209          36.875    21210496.720    86853446.701 7       625.209          43.687
G21  24021970.660   126236305.415 5      1100.203          35.187    24021966.420   126236305.405 1      1100.203           4.562    24021973.600    98365949.156 1       857.301           5.062
R18  20977016.360   111976743.472 7      1214.971          45.562    20977015.880   111976743.460 7      1214.971          46.687    20977028.600    87093059.242 7       944.977          46.625    20977027.760    87093059.235 7       944.977          46.562
G02  22690960.440   119241789.697 8      1549.540          49.687    22690959.480   119241789.697 5      1549.540          35.875    22690965.360    92915694.277 6      1207.433          36.187
R04  19282649.120   103257710.251 7      1622.816          45.375    19282649.360   103257710.285 7      1622.816          44.750    19282660.420    80311590.704 8      1262.190          49.812    19282659.700    80311590.704 8      1262.190          50.062
G04  20693537.520   108745273.777 7      3570.696          42.312    20693537.700   108745273.792 5      3570.696          30.625    20693541.860    84736593.668 5      2782.360          30.250    20693542.000    84736593.660 8      2782.360          49.187
> 2024 07 31 11 55 53.0000000  0  9
G09  21533213.900   113157805.532 6      5638.772          40.750    21533214.300   113157805.524 6      5638.772          37.250    21533221.240    88174952.681 6      4393.848          36.937    21533222.140    88174955.687 7      4393.848          44.625
G22  23710459.880   124599320.891 6      1427.020          41.812    23710462.320   124599320.877 2      1427.020          16.000    23710466.080    97090366.736 2      1111.964          16.187
G17  20821537.620   109417940.049 6      4050.476          39.000    20821536.460   109417940.054 4      4050.476          24.000    20821536.360    85260746.013 4      3156.215          24.312    20821536.680    85260744.991 5      3156.215          32.187
G03  21210336.120   111461094.395 6       802.448          41.750    21210335.000   111461094.402 6       802.448          37.375    21210344.200    86852819.487 6       625.284          37.062    21210344.020    86852821.494 7       625.284          43.687
G21  24021762.280   126235205.156 5      1100.586          35.187    24021756.920   126235205.150 1      1100.586           4.562    24021764.120    98365091.804 1       857.599           5.062
R18  20976788.920   111975528.509 7      1214.878          46.687    20976788.340   111975528.499 7      1214.878          46.750    20976800.980    87092114.265 7       944.905          46.750    20976800.580    87092114.253 7       944.905          46.625
G02  22690665.620   119240240.090 8      1549.752          49.250    22690664.640   119240240.089 5      1549.752          35.937    22690670.300    92914486.785 6      1207.599          36.187
R04  19282346.060   103256087.745 7      1622.271          45.312    19282346.300   103256087.782 7      1622.271          44.875    19282357.220    80310328.755 8      1261.767          49.250    19282356.420    80310328.755 8      1261.767          49.875
G04  20692858.480   108741703.325 6      3570.143          41.937    20692858.180   108741703.345 5      3570.143          30.625    20692862.340    84733811.505 5      2781.930          30.250    20692862.940    84733811.495 8      2781.930          48.812
> 2024 07 31 11 55 54.0000000  0  9
G09  21532140.880   113152167.184 6      5638.061          40.937    21532141.580   113152167.173 6      5638.061          37.250    21532148.420    88170559.157 6      4393.294          36.750    21532149.500    88170562.157 7      4393.294          44.375
G22  23710188.700   124597894.475 7      1426.126          42.312    23710191.020   124597894.464 2      1426.126          16.000    23710195.420    97089255.236 2      1111.267          16.187
G17  20820766.780   109413890.143 6      4049.660          37.937    20820765.520   109413890.151 4      4049.660          24.000    20820765.400    85257590.244 4      3155.580          24.312    20820765.060    85257589.200 5      3155.580          32.187
G03  21210183.780   111460292.366 7       801.796          42.687    21210182.560   111460292.373 6       801.796          37.062    21210191.440    86852194.528 6       624.776          36.875    21210191.400    86852196.538 7       624.776          43.500
G21  24021552.340   126234105.269 5      1099.676          35.187    24021547.080   126234105.266 1      1099.676           4.562    24021555.360    98364234.741 1       856.890           5.062
R18  20976561.680   111974314.272 7      1213.847          46.312    20976560.540   111974314.257 7      1213.847          46.312    20976573.700    87091169.841 7       944.103          45.875    20976573.000    87091169.836 7       944.103          45.812
G02  22690370.980   119238690.884 8      1548.972          49.625    22690370.000   119238690.886 5      1548.972          35.562    22690375.620    92913279.606 5      1206.991          35.937
R04  19282043.320   103254466.187 7      1621.009          45.812    19282043.800   103254466.216 7      1621.009          44.875    19282054.480    80309067.533 8      1260.784          48.562    19282053.720    80309067.531 8      1260.784          49.187
G04  20692179.240   108738133.632 6      3569.401          41.625    20692178.780   108738133.647 5      3569.401          30.500    20692183.160    84731029.920 5      2781.351          30.250    20692183.480    84731029.898 8      2781.351          48.750
> 2024 07 31 11 55 55.0000000  0  9
G09  21531068.400   113146529.448 6      5637.495          41.062    21531068.940   113146529.442 6      5637.495          37.187    21531075.480    88166166.126 6      4392.853          36.750    21531076.920    88166169.136 7      4392.853          44.875
G22  23709917.300   124596468.529 7      1425.756          42.437    23709919.160   124596468.536 2      1425.756          16.000    23709925.000    97088144.126 2      1110.979          16.187
G17  20819996.120   109409840.994 6      4048.997          37.937    20819994.840   109409841.001 4      4048.997          24.000    20819994.820    85254435.065 4      3155.063          24.312    20819995.860    85254434.045 5      3155.063          32.187
G03  21210031.020   111459490.737 7       801.682          43.062    21210030.400   111459490.736 6       801.682          37.500    21210038.820    86851569.871 6       624.687          37.187    21210038.340    86851571.880 7       624.687          43.625
G21  24021343.820   126233005.705 5      1099.597          35.125    24021337.440   126233005.705 1      1099.597           4.562    24021345.500    98363377.926 1       856.828           5.062
R18  20976334.280   111973100.740 7      1213.367          45.187    20976332.760   111973100.727 7      1213.367          46.500    20976346.460    87090225.979 7       943.730          46.625    20976345.740    87090225.978 7       943.730          46.875
G02  22690076.080   119237142.110 8      1548.711          50.000    22690075.340   119237142.114 5      1548.711          35.750    22690080.820    92912072.768 6      1206.788          36.125
R04  19281740.980   103252845.612 7      1620.175          46.187    19281741.480   103252845.651 7      1620.175          44.875    19281751.720    80307807.098 8      1260.136          49.875    19281750.840    80307807.098 8      1260.136          50.000
G04  20691499.960   108734564.793 7      3568.607          42.062    20691499.660   108734564.808 5      3568.607          30.500    20691503.900    84728249.009 5      2780.732          30.312    20691504.220    84728249.005 8      2780.732          48.750
> 2024 07 31 11 55 56.0000000  0  9
G09  21529995.420   113140891.885 6      5637.343          40.562    21529995.980   113140891.877 6      5637.343          37.125    21530002.460    88161773.220 6      4392.735          36.250    21530004.020    88161776.226 7      4392.735          44.187
G22  23709645.860   124595042.648 6      1425.814          41.812    23709647.960   124595042.656 2      1425.814          16.000    23709653.540    97087033.024 2      1111.024          16.187
G17  20819225.500   109405792.118 6      4048.786          38.625    20819224.200   109405792.123 4      4048.786          24.000    20819224.360    85251280.100 3      3154.898          23.375    20819222.740    85251279.062 5      3154.898          31.500
G03  21209878.540   111458689.015 7       801.784          43.250    21209877.980   111458689.020 6       801.784          37.375    21209886.260    86850945.155 6       624.766          37.250    21209885.960    86850947.170 7       624.766          43.875
G21  24021133.160   126231906.039 5      1099.645          35.125    24021128.660   126231906.041 1      1099.645           4.562    24021136.580    98362521.025 1       856.866           5.062
R18  20976106.540   111971887.472 7      1213.137          46.687    20976105.720   111971887.462 7      1213.137          46.125    20976119.300    87089282.318 7       943.551          46.562    20976118.580    87089282.318 7       943.551          46.562
G02  22689781.340   119235593.324 8      1548.785          50.062    22689780.680   119235593.324 5      1548.785          35.750    22689785.980    92910865.915 5      1206.845          35.812
R04  19281438.200   103251225.556 7      1619.774          46.437    19281438.940   103251225.598 7      1619.774          45.000    19281449.140    80306547.054 8      1259.825          50.000    19281448.500    80306547.055 8      1259.825          50.562
G04  20690820.960   108730996.345 6      3568.304          41.750    20690820.640   108730996.360 5      3568.304          30.500    20690824.780    84725468.400 5      2780.496          30.312    20690825.000    84725468.396 8      2780.496          48.125
> 2024 07 31 11 55 57.0000000  0  9
G09  21528922.800   113135254.677 6      5636.545          40.562    21528923.360   113135254.669 6      5636.545          36.687    21528929.740    88157380.593 6      4392.113          36.687    21528931.160    88157383.605 7      4392.113          44.187
G22  23709374.760   124593617.075 7      1425.004          42.562    23709376.940   124593617.070 2      1425.004          16.000    23709381.360    97085922.184 2      1110.392          16.187
G17  20818455.480   109401743.778 6      4047.491          38.750    20818453.600   109401743.785 4      4047.491          24.000    20818453.780    85248125.554 3      3153.889          23.375    20818451.740    85248124.491 5      3153.889          31.500
G03  21209725.880   111457887.478 7       800.981          43.125    21209725.480   111457887.485 6       800.981          37.625    21209733.600    86850320.575 6       624.141          37.625    21209733.600    86850322.577 7       624.141          43.875
G21  24020923.880   126230806.594 5      1098.543          35.125    24020920.020   126230806.598 1      1098.543           4.562    24020927.500    98361664.304 1       856.007           5.062
R18  20975879.540   111970674.700 7      1212.076          46.250    20975879.120   111970674.696 7      1212.076          46.500    20975892.400    87088339.051 7       942.726          46.562    20975891.560    87088339.052 7       942.726          46.750
G02  22689486.780   119234044.750 8      1548.025          49.750    22689485.980   119234044.752 5      1548.025          35.437    22689491.140    92909659.231 5      1206.253          35.812
R04  19281135.880   103249606.272 7      1618.423          46.562    19281136.480   103249606.303 7      1618.423          45.187    19281146.820    80305287.600 8      1258.773          49.687    19281146.320    80305287.603 8      1258.773          50.125
G04  20690142.460   108727428.546 6      3566.954          40.875    20690141.860   108727428.562 5      3566.954          30.500    20690145.740    84722688.299 5      2779.444          30.312    20690146.040    84722688.285 8      2779.444          48.500
> 2024 07 31 11 55 58.0000000  0  9
G09  21527849.920   113129618.005 6      5636.452          40.437    21527850.980   113129617.997 6      5636.452          36.687    21527857.040    88152988.383 6      4392.041          36.750    21527858.120    88152991.397 7      4392.041          44.437
G22  23709103.360   124592191.923 7      1425.028          43.000    23709105.500   124592191.925 2      1425.028          16.000    23709110.280    97084811.665 2      1110.412          16.187
G17  20817685.040   109397696.066 6      4047.368          38.750    20817683.080   109397696.073 4      4047.368          24.000    20817683.620    85244971.496 3      3153.793          23.375    20817682.800    85244970.450 5      3153.793          31.500
G03  21209573.360   111457086.240 7       801.070          43.437    21209572.980   111457086.247 6       801.070          37.687    21209581.060    86849696.225 6       624.210          37.687    21209581.340    86849698.236 7       624.210          43.562
G21  24020715.740   126229707.264 5      1099.287          35.125    24020711.300   126229707.263 1      1099.287           4.562    24020718.720    98360807.679 1       856.587           5.062
R18  20975652.500   111969462.588 7      1211.832          46.500    20975652.160   111969462.581 7      1211.832          47.375    20975665.280    87087396.284 7       942.536          46.812    20975664.380    87087396.289 7       942.536          47.187
G02  22689192.220   119232496.553 8      1547.983          49.562    22689191.320   119232496.553 5      1547.983          34.875    22689196.380    92908452.842 5      1206.221          35.375
R04  19280833.660   103247987.876 7      1617.844          47.000    19280834.640   103247987.902 7      1617.844          45.250    19280844.560    80304028.840 8      1258.323          50.000    19280843.860    80304028.842 8      1258.323          50.500
G04  20689463.600   108723861.433 6      3566.790          41.187    20689463.100   108723861.449 5      3566.790          30.312    20689466.940    84719908.735 5      2779.317          30.312    20689467.080    84719908.727 8      2779.317          48.375
> 2024 07 31 11 55 59.0000000  0  9
G09  21526777.540   113123981.636 6      5636.239          41.125    21526778.400   113123981.633 6      5636.239          36.437    21526784.320    88148596.415 6      4391.874          36.750    21526785.620    88148599.425 7      4391.874          44.625
G22  23708832.500   124590766.962 7      1424.912          42.812    23708833.640   124590766.964 2      1424.912          16.000    23708838.760    97083701.300 2      1110.321          16.187
G17  20816915.020   109393648.769 6      4047.145          38.687    20816912.780   109393648.774 3      4047.145          22.875    20816913.360    85241817.756 3      3153.620          23.375    20816915.320    85241816.723 5      3153.620          31.500
G03  21209420.540   111456285.057 7       801.088          42.937    21209420.600   111456285.065 6       801.088          38.062    21209428.480    86849071.931 6       624.225          37.937    21209429.180    86849073.938 7       624.225          43.437
G21  24020506.480   126228608.097 5      1099.077          34.562    24020501.660   126228608.094 1      1099.077           4.562    24020509.100    98359951.169 1       856.423           5.062
R18  20975425.700   111968250.868 7      1211.500          46.875    20975425.420   111968250.866 7      1211.500          46.875    20975438.800    87086453.833 7       942.278          46.812    20975437.540    87086453.834 7       942.278          47.000
G02  22688897.620   119230948.456 8      1548.057          49.187    22688896.740   119230948.459 5      1548.057          34.875    22688901.560    92907246.531 5      1206.278          35.375
R04  19280531.560   103246370.112 7      1617.393          46.937    19280532.160   103246370.135 7      1617.393          45.687    19280542.520    80302770.581 8      1257.972          50.187    19280541.940    80302770.581 8      1257.972          50.187
G04  20688785.100   108720294.899 6      3566.204          41.750    20688784.600   108720294.914 5      3566.204          30.312    20688788.200    84717129.623 5      2778.860          30.000    20688788.400    84717129.619 8      2778.860          48.312
> 2024 07 31 11 56  0.0000000  0  9
G09  21525704.940   113118345.657 6      5635.689          40.750    21525705.740   113118345.649 6      5635.689          36.687    21525711.720    88144204.741 5      4391.446          35.875    21525713.220    88144207.753 7      4391.446          44.562
G22  23708561.360   124589342.283 7      1424.462          42.750    23708562.600   124589342.290 2      1424.462          16.000    23708567.380    97082591.158 2      1109.970          16.187
G17  20816144.720   109389602.005 6      4046.432          38.687    20816142.700   109389602.007 3      4046.432          22.875    20816143.420    85238664.434 3      3153.064          23.375    20816145.320    85238663.407 5      3153.064          31.500
G03  21209268.080   111455484.045 7       800.837          43.125    21209268.220   111455484.053 6       800.837          37.875    21209275.960    86848447.760 6       624.029          37.875    21209276.840    86848449.758 7       624.029          43.750
G21  24020296.940   126227509.025 5      1098.993          34.562    24020292.500   126227509.024 1      1098.993           4.562    24020300.480    98359094.735 1       856.358           5.062
R18  20975198.760   111967039.615 7      1210.911          46.437    20975198.720   111967039.610 7      1210.911          46.687    20975212.380    87085511.737 7       941.820          46.937    20975210.740    87085511.738 7       941.820          47.437
G02  22688603.040   119229400.580 8      1547.691          50.375    22688602.000   119229400.583 5      1547.691          34.625    22688606.760    92906040.390 5      1205.993          34.812
R04  19280229.480   103244753.116 7      1616.593          47.187    19280230.600   103244753.139 7      1616.593          45.062    19280240.600    80301512.916 8      1257.350          49.812    19280240.060    80301512.916 8      1257.350          50.312
G04  20688105.920   108716728.971 7      3565.480          42.000    20688106.020   108716728.986 5      3565.480          30.312    20688109.480    84714350.980 5      2778.296          30.000    20688109.540    84714350.972 8      2778.296          48.062
> 2024 07 31 11 56  1.0000000  0  9
G09  21524632.640   113112710.141 6      5635.312          40.812    21524633.620   113112710.131 6      5635.312          36.687    21524639.400    88139813.424 6      4391.152          36.687    21524641.040    88139816.430 7      4391.152          44.687
G22  23708290.300   124587917.976 7      1424.416          43.062    23708291.780   124587917.973 3      1424.416          19.125    23708296.600    97081481.294 2      1109.934          16.187
G17  20815374.620   109385555.799 6      4046.229          37.625    20815372.580   109385555.806 3      4046.229          22.875    20815373.320    85235511.546 3      3152.906          23.375    20815373.940    85235510.539 5      3152.906          31.500
G03  21209115.780   111454683.233 7       800.858          43.187    21209115.980   111454683.235 6       800.858          38.062    21209123.140    86847823.746 6       624.045          38.000    21209124.280    86847825.757 7       624.045          43.750
G21  24020087.660   126226410.115 5      1098.989          34.562    24020084.200   126226410.123 1      1098.989           5.062    24020091.240    98358238.442 1       856.355           5.062
R18  20974971.560   111965828.914 7      1210.609          46.812    20974972.060   111965828.912 7      1210.609          46.562    20974985.500    87084570.073 7       941.585          47.437    20974984.100    87084570.076 7       941.585          47.625
G02  22688308.580   119227852.986 8      1547.613          49.875    22688307.380   119227852.991 5      1547.613          35.187    22688312.160    92904834.470 5      1205.933          35.312
R04  19279927.720   103243136.983 7      1615.927          46.812    19279928.420   103243137.017 7      1615.927          45.562    19279938.900    80300255.923 8      1256.832          49.875    19279938.120    80300255.925 8      1256.832          50.000
G04  20687427.360   108713163.718 6      3564.996          41.375    20687427.380   108713163.731 5      3564.996          30.312    20687430.960    84711572.863 5      2777.919          30.000    20687431.340    84711572.862 7      2777.919          47.812
> 2024 07 31 11 56  2.0000000  0  9
G09  21523560.200   113107075.120 6      5634.600          41.125    21523561.460   113107075.104 6      5634.600          37.375    21523567.100    88135422.496 6      4390.598          36.937    21523568.560    88135425.504 7      4390.598          44.687
G22  23708019.220   124586494.085 7      1423.792          42.875    23708020.800   124586494.095 3      1423.792          19.125    23708025.600    97080371.761 3      1109.448          19.125
G17  20814604.460   109381510.283 6      4045.237          37.625    20814602.560   109381510.288 3      4045.237          22.875    20814603.200    85232359.194 3      3152.133          23.375    20814604.880    85232358.183 5      3152.133          31.500
G03  21208963.560   111453882.718 7       800.444          43.875    21208963.560   111453882.736 6       800.444          38.125    21208970.860    86847199.978 6       623.723          38.000    21208972.160    86847201.987 7       623.723          43.562
G21  24019878.480   126225311.576 5      1098.526          34.562    24019875.700   126225311.597 1      1098.526           5.062    24019882.000    98357382.438 1       855.994           4.250
R18  20974744.720   111964618.900 8      1209.716          48.250    20974745.140   111964618.900 7      1209.716          47.250    20974758.760    87083628.950 7       940.890          47.000    20974757.260    87083628.947 7       940.890          47.312
G02  22688014.140   119226305.759 8      1547.079          50.625    22688013.000   119226305.766 5      1547.079          35.187    22688017.780    92903628.832 5      1205.516          35.312
R04  19279626.060   103241521.773 7      1614.800          47.750    19279626.420   103241521.807 7      1614.800          46.125    19279637.360    80298999.647 8      1255.955          49.875    19279636.560    80298999.647 8      1255.955          50.562
G04  20686748.660   108709599.204 6      3564.265          41.312    20686749.260   108709599.222 5      3564.265          30.562    20686752.680    84708795.322 5      2777.349          30.312    20686752.820    84708795.318 8      2777.349          48.062
> 2024 07 31 11 56  3.0000000  0  9
G09  21522487.360   113101440.368 6      5634.711          40.187    21522489.140   113101440.352 6      5634.711          37.500    21522494.620    88131031.781 6      4390.684          36.937    21522495.860    88131034.799 7      4390.684          44.437
G22  23707748.340   124585070.362 7      1423.808          42.562    23707749.080   124585070.377 3      1423.808          19.125    23707754.760    97079262.362 3      1109.461          19.125
G17  20813835.280   109377465.135 6      4045.065          37.750    20813832.560   109377465.140 3      4045.065          22.875    20813833.400    85229207.127 3      3151.998          23.375    20813833.100    85229206.116 5      3151.998          31.500
G03  21208811.040   111453082.308 7       800.471          43.812    21208811.320   111453082.320 6       800.471          38.437    21208818.380    86846576.280 6       623.744          38.375    21208819.920    86846578.280 7       623.744          43.875
G21  24019670.100   126224213.030 5      1098.642          34.437    24019666.520   126224213.053 1      1098.642           5.062    24019672.580    98356526.413 1       856.085           4.250
R18  20974518.060   111963409.280 8      1209.421          48.437    20974518.820   111963409.278 7      1209.421          47.437    20974532.220    87082688.127 7       940.660          47.375    20974531.160    87082688.130 8       940.660          48.000
G02  22687719.700   119224758.632 8      1547.143          50.312    22687718.620   119224758.642 5      1547.143          34.812    22687723.300    92902423.276 5      1205.566          35.187
R04  19279324.700   103239907.196 7      1614.275          47.375    19279325.040   103239907.227 7      1614.275          46.000    19279335.860    80297743.864 8      1255.547          49.875    19279335.000    80297743.862 8      1255.547          50.875
G04  20686070.440   108706035.247 6      3563.729          41.312    20686070.920   108706035.268 5      3563.729          30.562    20686074.380    84706018.214 5      2776.932          30.312    20686074.600    84706018.217 8      2776.932          48.312
> 2024 07 31 11 56  4.0000000  0 10
G09  21521415.380   113095805.954 6      5634.467          39.437    21521416.780   113095805.935 6      5634.467          36.687    21521422.180    88126641.321 6      4390.494          36.250    21521423.860    88126644.329 7      4390.494          43.937
G22  23707477.220   124583646.930 7      1423.299          42.375    23707478.320   124583646.956 3      1423.299          19.125    23707483.900    97078153.192 3      1109.064          19.125
G17  20813065.600   109373420.495 6      4044.164          37.750    20813062.720   109373420.502 3      4044.164          22.875    20813063.600    85226055.461 3      3151.297          23.375    20813064.980    85226054.479 5      3151.297          31.500
G03  21208658.960   111452281.971 7       800.239          43.312    21208659.060   111452281.978 6       800.239          39.187    21208666.160    86845952.637 6       623.563          38.750    21208667.500    86845954.644 7       623.563          43.875
G21  24019461.220   126223114.604 5      1097.991          34.437    24019457.360   126223114.627 1      1097.991           5.062    24019463.200    98355670.493 1       855.577           4.250
R05  20201736.900   107989860.487 6      5512.884          40.312
R18  20974291.900   111962200.056 8      1209.002          48.250    20974292.320   111962200.064 7      1209.002          47.437    20974305.780    87081747.617 7       940.335          47.437    20974304.520    87081747.616 7       940.335          47.875
G02  22687425.340   119223211.678 8      1546.783          49.625    22687424.440   119223211.691 5      1546.783          34.812    22687428.560    92901217.856 5      1205.286          35.187
R04  19279023.460   103238293.298 7      1613.524          47.187    19279023.700   103238293.327 7      1613.524          46.437    19279034.360    80296488.604 8      1254.963          49.687    19279033.580    80296488.602 8      1254.963          50.687
G04  20685392.480   108702471.823 6      3563.174          41.812    20685392.880   108702471.844 5      3563.174          30.562    20685396.260    84703241.521 5      2776.499          30.312    20685396.320    84703241.521 8      2776.499          48.062
> 2024 07 31 11 56  5.0000000  0 11
G09  21520343.460   113090172.093 6      5633.744          39.437    21520344.420   113090172.080 6      5633.744          36.500    21520349.960    88122251.300 6      4389.930          36.312    21520351.260    88122254.314 7      4389.930          43.937
G22  23707206.580   124582223.896 7      1422.783          42.187    23707207.560   124582223.914 3      1422.783          19.125    23707212.880    97077044.326 3      1108.662          19.125
G17  20812296.040   109369376.488 6      4043.539          37.750    20812292.980   109369376.495 3      4043.539          22.875    20812294.120    85222904.287 3      3150.810          23.375    20812296.040    85222903.275 5      3150.810          31.500
G14  23680641.880   124442613.100 6       528.928          37.812
G03  21208507.020   111451481.939 7       799.823          43.062    21208507.060   111451481.944 6       799.823          38.687    21208513.960    86845329.237 6       623.239          38.875    21208515.300    86845331.242 7       623.239          43.437
G21  24019251.880   126222016.364 5      1098.154          34.437    24019248.240   126222016.380 1      1098.154           5.062    24019253.960    98354814.711 1       855.704           4.250
R05  20200705.100   107984348.022 6      5512.025          40.312
R18  20974065.400   111960991.482 7      1208.265          47.625    20974066.000   111960991.483 7      1208.265          46.687    20974079.580    87080807.607 7       939.762          47.312    20974078.120    87080807.604 7       939.762          47.750
G02  22687130.960   119221665.071 8      1546.388          50.062    22687130.080   119221665.076 5      1546.388          34.125    22687134.100    92900012.700 5      1204.977          34.562
R04  19278722.220   103236680.319 7      1612.377          47.125    19278722.260   103236680.353 7      1612.377          45.687    19278733.180    80295234.063 8      1254.071          50.125    19278732.600    80295234.061 8      1254.071          50.562
G04  20684714.960   108698909.161 6      3562.276          41.562    20684714.860   108698909.182 5      3562.276          30.562    20684718.160    84700465.423 5      2775.799          30.312    20684718.260    84700465.421 7      2775.799          47.562
> 2024 07 31 11 56  6.0000000  0 11
G09  21519271.620   113084538.598 6      5633.178          39.437    21519272.140   113084538.582 6      5633.178          36.000    21519277.840    88117861.564 6      4389.489          36.312    21519279.220    88117864.572 7      4389.489          43.875
G22  23706936.260   124580801.092 6      1422.744          41.937    23706936.240   124580801.118 3      1422.744          19.125    23706941.800    97075935.636 3      1108.631          19.125
G17  20811526.660   109365332.922 6      4043.363          36.125    20811523.380   109365332.927 3      4043.363          22.875    20811524.660    85219753.454 3      3150.673          23.375    20811528.480    85219752.416 5      3150.673          31.500
G14  23680541.820   124442084.037 6       529.029          37.937
G03  21208354.740   111450682.012 7       799.774          44.500    21208354.900   111450682.020 6       799.774          38.625    21208361.600    86844705.918 6       623.201          38.250    21208362.840    86844707.929 7       623.201          43.375
G21  24019043.200   126220918.275 5      1098.175          34.625    24019039.220   126220918.295 1      1098.175           5.062    24019045.240    98353959.047 1       855.721           4.250
R05  20199674.020   107978836.204 6      5511.567          40.312
R18  20973839.220   111959783.347 7      1207.946          46.937    20973839.480   111959783.342 7      1207.946          46.437    20973853.480    87079867.934 7       939.513          46.875    20973851.840    87079867.933 7       939.513          47.187
G02  22686836.580   119220118.622 8      1546.374          50.125    22686835.800   119220118.627 5      1546.374          34.437    22686839.600    92898807.668 5      1204.967          34.562
R04  19278421.240   103235068.038 7      1611.847          46.250    19278420.880   103235068.067 7      1611.847          45.250    19278432.220    80293980.069 8      1253.659          48.375    19278431.540    80293980.065 8      1253.659          49.125
G04  20684037.320   108695347.062 6      3561.819          41.375    20684037.060   108695347.083 5      3561.819          30.125    20684040.460    84697689.765 5      2775.444          30.312    20684040.580    84697689.775 7      2775.444          47.062
> 2024 07 31 11 56  7.0000000  0 11
G09  21518199.820   113078905.373 6      5632.987          39.500    21518200.040   113078905.360 6      5632.987          36.000    21518205.740    88113472.038 5      4389.340          35.750    21518206.720    88113475.054 7      4389.340          43.375
G22  23706665.160   124579378.557 7      1422.247          42.187    23706665.660   124579378.583 3      1422.247          19.125    23706671.280    97074827.171 3      1108.244          19.125
G17  20810758.200   109361289.874 6      4042.642          36.125    20810753.900   109361289.876 3      4042.642          22.875    20810755.300    85216603.029 3      3150.111          21.562    20810756.880    85216602.009 5      3150.111          31.500
G14  23680441.980   124441555.546 6       528.731          39.187
G03  21208202.260   111449882.206 7       799.508          43.312    21208202.320   111449882.217 6       799.508          38.187    21208209.300    86844082.690 6       622.993          38.375    21208210.640    86844084.697 7       622.993          43.375
G21  24018833.040   126219820.303 5      1097.748          34.625    24018830.400   126219820.324 1      1097.748           5.062    24018835.980    98353103.468 1       855.388           4.250
R05  20198643.420   107973324.993 6      5510.734          40.312
R18  20973613.080   111958575.697 7      1207.323          46.500    20973612.560   111958575.687 7      1207.323          46.750    20973627.100    87078928.648 7       939.029          47.437    20973625.340    87078928.649 7       939.029          47.937
G02  22686542.540   119218572.378 8      1545.988          49.750    22686541.560   119218572.382 5      1545.988          34.437    22686545.080    92897602.796 5      1204.666          34.562
R04  19278120.240   103233456.508 7      1610.976          46.500    19278119.760   103233456.539 7      1610.976          45.125    19278131.180    80292726.654 8      1252.981          49.937    19278130.380    80292726.650 8      1252.981          50.312
G04  20683359.920   108691785.546 6      3561.117          41.625    20683359.380   108691785.566 5      3561.117          30.125    20683362.660    84694914.561 4      2774.896          29.812    20683362.960    84694914.568 7      2774.896          47.750
> 2024 07 31 11 56  8.0000000  0 11
G09  21517127.700   113073272.611 6      5632.676          39.500    21517128.100   113073272.600 6      5632.676          36.125    21517133.820    88109082.873 5      4389.098          35.625    21517134.460    88109085.881 7      4389.098          43.375
G22  23706394.240   124577956.363 6      1422.152          41.937    23706394.560   124577956.386 3      1422.152          19.125    23706400.520    97073718.957 3      1108.170          19.125
G17  20809988.720   109357247.348 6      4042.347          36.125    20809984.480   109357247.348 3      4042.347          22.875    20809986.060    85213453.011 3      3149.881          21.562    20809988.840    85213451.975 5      3149.881          31.500
G14  23680341.440   124441026.647 6       528.938          39.187    23680341.920   124441026.649 3       528.938          19.937    23680347.160    96967059.321 3       412.159          19.562
G03  21208050.260   111449082.605 7       799.575          43.687    21208050.380   111449082.616 6       799.575          38.750    21208057.360    86843459.619 6       623.046          38.750    21208058.560    86843461.623 7       623.046          43.312
G21  24018624.420   126218722.477 5      1097.622          34.625    24018622.240   126218722.487 1      1097.622           5.062    24018626.500    98352248.015 1       855.290           4.250
R05  20197612.120   107967814.437 6      5510.259          40.000
R18  20973386.940   111957368.600 7      1206.919          46.062    20973386.540   111957368.590 7      1206.919          46.125    20973401.000    87077989.787 7       938.715          47.562    20973399.340    87077989.786 7       938.715          47.437
G02  22686248.460   119217026.370 8      1545.957          50.250    22686247.360   119217026.375 5      1545.957          33.500    22686250.660    92896398.107 5      1204.642          34.562
R04  19277819.180   103231845.777 7      1610.424          46.125    19277818.760   103231845.811 7      1610.424          44.875    19277830.280    80291473.856 8      1252.552          49.687    19277829.620    80291473.854 8      1252.552          51.000
G04  20682682.360   108688224.702 6      3560.545          41.625    20682681.900   108688224.723 5      3560.545          30.125    20682685.220    84692139.878 4      2774.451          29.812    20682685.220    84692139.891 7      2774.451          47.625
> 2024 07 31 11 56  9.0000000  0 11
G09  21516056.280   113067640.135 6      5632.217          38.687    21516056.180   113067640.127 6      5632.217          36.750    21516062.160    88104693.939 6      4388.741          36.500    21516062.960    88104696.951 7      4388.741          43.437
G22  23706124.220   124576534.371 6      1421.623          41.375    23706123.520   124576534.402 3      1421.623          19.125    23706129.960    97072610.904 3      1107.758          19.125
G17  20809219.640   109353205.248 6      4041.799          36.125    20809215.180   109353205.245 3      4041.799          21.187    20809216.860    85210303.321 3      3149.454          21.562    20809219.560    85210302.310 5      3149.454          31.500
G14  23680241.140   124440497.754 6       528.680          39.437    23680242.160   124440497.777 3       528.680          21.937    23680252.840    96966647.207 3       411.958          21.750
G03  21207897.980   111448283.091 7       799.220          43.937    21207898.500   111448283.104 6       799.220          39.250    21207905.040    86842836.625 6       622.769          38.812    21207906.700    86842838.637 7       622.769          43.562
G21  24018415.960   126217624.779 5      1097.220          34.625    24018413.640   126217624.789 1      1097.220           5.062    24018417.820    98351392.651 1       854.977           4.250
R05  20196580.720   107962304.506 6      5509.360          40.000
R18  20973160.800   111956161.927 7      1206.289          46.125    20973160.440   111956161.912 7      1206.289          46.062    20973175.400    87077051.257 7       938.225          47.937    20973173.340    87077051.256 7       938.225          47.750
G02  22685954.160   119215480.514 8      1545.502          49.687    22685953.280   119215480.522 5      1545.502          33.500    22685956.180    92895193.540 5      1204.287          33.875
R04  19277518.920   103230235.743 7      1609.467          46.187    19277518.340   103230235.777 7      1609.467          44.687    19277529.720    80290221.603 8      1251.808          50.250    19277528.840    80290221.603 8      1251.808          50.812
G04  20682004.580   108684664.389 6      3559.760          41.312    20682004.420   108684664.407 5      3559.760          30.125    20682007.620    84689365.608 4      2773.839          29.812    20682007.940    84689365.627 7      2773.839          47.750
> 2024 07 31 11 56 10.0000000  0 11
G09  21514983.900   113062008.272 6      5631.594          38.687    21514984.220   113062008.264 6      5631.594          36.500    21514990.500    88100305.478 6      4388.255          36.062    21514991.220    88100308.480 7      4388.255          43.375
G22  23705853.520   124575112.861 6      1421.184          40.875    23705852.920   124575112.894 3      1421.184          19.125    23705859.420    97071503.229 3      1107.416          19.125
G17  20808450.120   109349163.895 6      4041.232          36.125    20808445.940   109349163.889 3      4041.232          21.187    20808447.840    85207154.219 3      3149.012          21.562    20808451.040    85207153.185 5      3149.012          30.875
G14  23680140.460   124439969.190 6       528.240          39.437    23680141.360   124439969.210 3       528.240          22.062    23680152.520    96966235.320 3       411.616          21.625
G03  21207745.720   111447483.916 7       798.860          44.000    21207746.220   111447483.937 6       798.860          39.062    21207753.040    86842213.899 6       622.488          38.937    21207754.220    86842215.912 7       622.488          43.375
G21  24018206.720   126216527.285 5      1097.441          35.375    24018204.620   126216527.293 1      1097.441           5.062    24018209.220    98350537.444 1       855.149           4.250
R05  20195550.560   107956795.359 6      5508.889          40.250    20195555.640   107956795.403 6      5508.889          37.750    20195561.920    83966439.964 7      4284.691          45.062
R18  20972935.060   111954955.902 7      1205.732          46.562    20972933.660   111954955.890 7      1205.732          45.812    20972949.580    87076113.240 7       937.792          47.687    20972947.720    87076113.237 8       937.792          48.312
G02  22685660.180   119213935.043 8      1545.279          50.000    22685659.160   119213935.047 5      1545.279          33.312    22685662.060    92893989.270 5      1204.113          33.875
R04  19277218.280   103228626.604 7      1608.570          46.125    19277217.980   103228626.640 7      1608.570          44.812    19277229.120    80288970.058 8      1251.110          49.625    19277228.400    80288970.056 8      1251.110          50.562
G04  20681327.520   108681104.875 6      3558.923          41.062    20681326.960   108681104.896 5      3558.923          30.062    20681330.260    84686591.969 4      2773.187          29.812    20681330.840    84686591.988 7      2773.187          47.875
> 2024 07 31 11 56 11.0000000  0 11
G09  21513912.280   113056376.700 6      5631.619          38.750    21513912.320   113056376.692 6      5631.619          36.250    21513919.000    88095917.238 5      4388.275          35.625    21513919.760    88095920.240 7      4388.275          43.875
G22  23705582.960   124573691.536 6      1421.434          41.187    23705581.820   124573691.562 3      1421.434          19.125    23705588.840    97070395.698 3      1107.611          19.125
G17  20807681.580   109345122.957 5      4040.823          32.625    20807676.840   109345122.954 3      4040.823          21.187    20807678.600    85204005.439 3      3148.693          21.562    20807681.660    85204004.410 5      3148.693          30.875
G14  23680039.300   124439440.525 6       528.946          39.625    23680040.760   124439440.551 3       528.946          22.125    23680052.080    96965823.368 3       412.165          21.750
G03  21207593.760   111446684.804 7       799.291          43.375    21207593.980   111446684.824 6       799.291          39.062    21207601.000    86841591.210 6       622.824          39.187    21207602.720    86841593.208 7       622.824          43.375
G21  24017997.940   126215429.921 5      1097.814          35.375    24017995.320   126215429.918 1      1097.814           5.062    24018000.960    98349682.346 1       855.440           4.250
R05  20194519.780   107951286.815 6      5508.532          40.250    20194524.880   107951286.848 6      5508.532          37.750    20194531.500    83962155.554 7      4284.414          45.125    20194531.360    83962156.546 7      4284.414          43.187
R18  20972708.860   111953750.281 7      1205.656          45.812    20972707.720   111953750.269 7      1205.656          45.062    20972723.520    87075175.520 7       937.732          47.562    20972722.120    87075175.519 8       937.732          48.062
G02  22685366.060   119212389.721 8      1545.492          50.312    22685365.240   119212389.725 5      1545.492          33.312    22685367.960    92892785.119 5      1204.280          33.937
R04  19276917.720   103227018.096 7      1608.429          45.687    19276917.300   103227018.138 7      1608.429          45.125    19276928.660    80287718.996 8      1251.001          50.000    19276928.240    80287718.990 8      1251.001          50.437
G04  20680650.440   108677545.897 6      3558.979          40.562    20680649.700   108677545.918 5      3558.979          30.062    20680653.000    84683818.740 5      2773.231          30.000    20680653.520    84683818.746 7      2773.231          47.250
> 2024 07 31 11 56 12.0000000  0 11
G09  21512840.440   113050745.273 6      5631.097          38.187    21512840.380   113050745.267 6      5631.097          36.250    21512847.260    88091529.115 5      4387.867          35.625    21512848.660    88091532.116 7      4387.867          43.875
G22  23705312.020   124572270.283 6      1421.226          40.312    23705311.020   124572270.306 3      1421.226          19.312    23705318.320    97069288.223 3      1107.449          19.125
G17  20806912.760   109341082.331 5      4040.279          32.625    20806907.820   109341082.328 3      4040.279          21.187    20806909.860    85200856.900 3      3148.269          21.562    20806915.840    85200855.815 5      3148.269          30.875
G14  23679939.120   124438911.766 6       528.661          38.562    23679941.740   124438911.779 3       528.661          22.312    23679952.320    96965411.327 3       411.943          21.937    23679951.840    96965443.341 7       411.943          47.437
G03  21207441.920   111445885.647 7       799.044          43.750    21207442.060   111445885.657 6       799.044          39.625    21207448.800    86840968.482 6       622.631          39.250    21207450.280    86840970.491 7       622.631          43.125
G21  24017789.740   126214332.473 5      1097.451          35.375    24017786.420   126214332.475 1      1097.451           5.062    24017792.200    98348827.183 1       855.157           4.250
R05  20193489.060   107945778.721 6      5507.787          41.250    20193494.040   107945778.746 6      5507.787          37.750    20193501.120    83957871.463 7      4283.834          45.375    20193500.960    83957872.456 7      4283.834          44.750
R18  20972483.180   111952544.908 7      1205.090          45.125    20972481.840   111952544.901 7      1205.090          45.562    20972497.480    87074238.002 7       937.292          47.812    20972496.140    87074238.000 7       937.292          47.875
G02  22685072.080   119210844.367 8      1545.281          49.750    22685071.060   119210844.375 5      1545.281          33.562    22685073.760    92891580.937 5      1204.115          33.937
R04  19276617.860   103225410.107 7      1607.672          45.750    19276617.460   103225410.152 7      1607.672          45.437    19276628.200    80286468.334 8      1250.412          50.312    19276627.840    80286468.330 8      1250.412          49.812
G04  20679972.580   108673987.298 6      3558.303          40.937    20679972.400   108673987.318 5      3558.303          30.062    20679975.800    84681045.803 5      2772.704          30.000    20679976.080    84681045.813 7      2772.704          47.437
> 2024 07 31 11 56 13.0000000  0 11
G09  21511769.100   113045114.124 6      5631.050          38.187    21511768.720   113045114.113 5      5631.050          35.937    21511775.620    88087141.209 5      4387.831          35.812    21511776.620    88087144.214 7      4387.831          43.687
G22  23705042.140   124570849.240 6      1420.978          40.312    23705040.520   124570849.263 3      1420.978          19.312    23705047.600    97068180.913 3      1107.256          19.375
G17  20806143.100   109337042.065 5      4039.950          32.625    20806139.200   109337042.062 3      4039.950          21.187    20806140.840    85197708.645 3      3148.013          21.562    20806145.560    85197707.609 5      3148.013          30.875
G14  23679839.200   124438382.997 6       528.869          38.562    23679838.120   124438383.015 3       528.869          22.500    23679850.980    96964999.293 3       412.106          22.125    23679850.980    96965031.290 7       412.106          47.250
G03  21207289.940   111445086.556 7       798.914          44.187    21207290.180   111445086.566 6       798.914          39.250    21207296.760    86840345.814 6       622.530          39.500    21207298.000    86840347.826 7       622.530          43.062
G21  24017580.980   126213235.090 5      1097.282          35.375    24017577.680   126213235.092 1      1097.282           5.062    24017583.280    98347972.068 1       855.025           4.250
R05  20192459.040   107940271.182 6      5507.266          41.250    20192464.000   107940271.218 6      5507.266          38.875    20192470.800    83953587.820 7      4283.429          45.250    20192470.920    83953588.810 7      4283.429          45.187
R18  20972257.380   111951339.991 7      1204.705          45.750    20972256.020   111951339.979 7      1204.705          45.625    20972272.260    87073300.842 7       936.993          47.687    20972270.680    87073300.839 7       936.993          47.625
G02  22684777.980   119209299.163 8      1545.139          50.437    22684777.220   119209299.171 5      1545.139          33.562    22684779.780    92890376.882 5      1204.004          33.875
R04  19276317.640   103223802.845 7      1606.929          45.687    19276317.200   103223802.892 7      1606.929          45.812    19276327.780    80285218.239 8      1249.833          49.375    19276327.640    80285218.237 8      1249.833          50.500
G04  20679295.940   108670429.210 6      3557.913          40.812    20679295.100   108670429.234 5      3557.913          30.062    20679298.640    84678273.269 5      2772.400          30.000    20679298.880    84678273.290 7      2772.400          47.437
> 2024 07 31 11 56 14.0000000  0 11
G09  21510697.780   113039483.348 6      5630.551          39.062    21510697.160   113039483.350 6      5630.551          37.187    21510704.260    88082753.601 6      4387.442          36.750    21510705.240    88082756.611 7      4387.442          43.875
G22  23704771.820   124569428.476 6      1420.522          40.062    23704770.100   124569428.501 3      1420.522          19.312    23704777.080    97067073.822 3      1106.901          19.375
G17  20805375.160   109333002.299 5      4039.573          32.625    20805370.500   109333002.298 3      4039.573          21.187    20805372.160    85194560.781 3      3147.719          21.562    20805376.820    85194559.743 5      3147.719          30.875
G14  23679737.900   124437854.311 6       528.550          38.562    23679738.700   124437854.326 3       528.550          22.500    23679751.820    96964587.303 3       411.857          22.187    23679750.500    96964619.329 7       411.857          47.812
G03  21207138.140   111444287.596 7       798.713          44.062    21207138.060   111444287.609 6       798.713          39.562    21207144.740    86839723.247 6       622.374          39.500    21207146.000    86839725.256 7       622.374          43.062
G21  24017372.520   126212137.778 5      1097.248          35.375    24017368.960   126212137.775 1      1097.248           5.375    24017374.520    98347117.011 1       854.998           4.250
R05  20191428.960   107934764.319 6      5506.440          41.250    20191433.380   107934764.345 6      5506.440          38.875    20191440.620    83949304.703 7      4282.787          45.000    20191440.740    83949305.697 7      4282.787          45.062
R18  20972031.740   111950135.568 7      1204.068          45.500    20972030.260   111950135.559 7      1204.068          45.000    20972047.080    87072364.060 7       936.497          47.875    20972044.940    87072364.059 8       936.497          48.312
G02  22684483.960   119207754.154 8      1544.809          50.062    22684483.060   119207754.159 5      1544.809          33.562    22684486.040    92889172.969 5      1203.747          33.875
R04  19276017.920   103222196.337 7      1606.063          45.500    19276017.320   103222196.376 7      1606.063          45.125    19276027.960    80283968.731 8      1249.160          49.875    19276027.380    80283968.727 8      1249.160          50.062
G04  20678619.040   108666871.790 6      3556.875          41.937    20678618.160   108666871.819 4      3556.875          29.875    20678621.620    84675501.256 5      2771.591          30.000    20678622.000    84675501.268 7      2771.591          47.000
> 2024 07 31 11 56 15.0000000  0 11
G09  21509626.300   113033853.063 6      5630.172          39.062    21509625.440   113033853.071 6      5630.172          36.312    21509632.920    88078366.371 6      4387.147          36.187    21509633.780    88078369.370 7      4387.147          44.125
G22  23704501.460   124568008.055 6      1420.308          40.437    23704499.660   124568008.081 3      1420.308          19.312    23704506.640    97065966.990 3      1106.734          19.375
G17  20804605.940   109328963.208 5      4038.848          32.625    20804601.940   109328963.212 3      4038.848          21.187    20804603.500    85191413.442 3      3147.155          21.562    20804609.440    85191412.371 5      3147.155          30.875
G14  23679637.620   124437325.778 6       528.610          37.625    23679637.380   124437325.793 3       528.610          22.625    23679650.080    96964175.464 3       411.904          22.250    23679649.660    96964207.463 7       411.904          47.625
G03  21206986.020   111443488.859 7       798.737          43.312    21206986.100   111443488.875 6       798.737          39.312    21206992.800    86839100.855 6       622.393          39.312    21206993.700    86839102.870 7       622.393          43.437
G21  24017163.220   126211040.703 5      1097.126          33.312    24017161.400   126211040.694 1      1097.126           5.375    24017165.820    98346262.143 1       854.903           4.687
R05  20190398.540   107929258.160 6      5505.826          40.875    20190402.820   107929258.201 6      5505.826          38.875    20190410.440    83945022.149 7      4282.309          45.187    20190410.340    83945023.143 7      4282.309          45.375
R18  20971806.300   111948931.698 7      1203.667          46.187    20971805.640   111948931.699 7      1203.667          45.250    20971821.080    87071427.715 8       936.186          48.062    20971819.520    87071427.716 8       936.186          48.437
G02  22684189.860   119206209.439 8      1544.630          50.375    22684188.900   119206209.452 5      1544.630          33.562    22684191.800    92887969.295 5      1203.608          33.875
R04  19275718.120   103220590.667 7      1605.394          46.187    19275717.680   103220590.709 7      1605.394          45.375    19275727.880    80282719.879 8      1248.640          49.687    19275727.400    80282719.875 8      1248.640          50.000
G04  20677942.140   108663315.019 6      3556.451          41.875    20677941.380   108663315.048 4      3556.451          29.875    20677944.820    84672729.748 4      2771.261          29.750    20677945.000    84672729.758 7      2771.261          47.125
> 2024 07 31 11 56 16.0000000  0 11
G09  21508555.120   113028223.210 6      5629.664          38.812    21508554.000   113028223.215 6      5629.664          36.812    21508561.620    88073979.472 6      4386.751          36.437    21508562.000    88073982.455 7      4386.751          44.125
G22  23704231.440   124566587.969 6      1419.723          39.875    23704229.540   124566587.994 3      1419.723          19.312    23704236.360    97064860.421 3      1106.278          19.375
G17  20803837.420   109324924.616 5      4038.339          32.750    20803833.340   109324924.618 3      4038.339          21.187    20803835.060    85188266.487 3      3146.757          21.562    20803840.800    85188265.418 5      3146.757          30.875
G14  23679536.320   124436797.400 6       528.021          37.625    23679536.700   124436797.389 3       528.021          22.437    23679548.800    96963763.734 3       411.445          22.125    23679549.240    96963795.738 7       411.445          47.312
G03  21206834.100   111442690.362 7       798.267          43.750    21206834.280   111442690.375 6       798.267          39.875    21206840.940    86838478.646 6       622.026          39.500    21206842.160    86838480.660 7       622.026          43.125
G21  24016955.160   126209943.924 5      1096.422          33.312    24016951.300   126209943.916 1      1096.422           5.375    24016956.840    98345407.502 1       854.354           4.687
R05  20189368.620   107923752.717 6      5505.003          40.875    20189372.920   107923752.748 6      5505.003          38.875    20189380.660    83940740.131 7      4281.669          44.937    20189380.640    83940741.124 7      4281.669          45.250
R18  20971580.840   111947728.369 7      1202.899          45.937    20971580.260   111947728.362 7      1202.899          46.062    20971595.720    87070491.778 7       935.588          47.312    20971594.020    87070491.777 7       935.588          47.875
G02  22683896.080   119204665.005 8      1544.166          50.625    22683895.220   119204665.015 5      1544.166          33.375    22683897.680    92886765.833 5      1203.246          33.875
R04  19275418.060   103218985.808 7      1604.255          46.750    19275418.440   103218985.856 7      1604.255          45.812    19275428.140    80281471.655 8      1247.754          49.687    19275427.660    80281471.653 8      1247.754          50.125
G04  20677265.600   108659758.913 6      3555.638          41.687    20677264.640   108659758.939 4      3555.638          29.875    20677268.120    84669958.754 4      2770.627          29.750    20677268.060    84669958.767 7      2770.627          46.687
> 2024 07 31 11 56 17.0000000  0 11
G09  21507484.240   113022593.735 6      5629.450          39.250    21507482.680   113022593.737 6      5629.450          36.812    21507490.380    88069592.870 6      4386.584          36.250    21507491.220    88069595.868 7      4386.584          43.812
G22  23703961.020   124565168.153 6      1419.993          38.750    23703959.220   124565168.171 3      1419.993          19.312    23703966.140    97063754.065 3      1106.488          19.375
G17  20803069.140   109320886.546 5      4038.053          32.750    20803065.000   109320886.546 3      4038.053          21.187    20803066.780    85185119.946 3      3146.535          21.562    20803072.780    85185118.887 5      3146.535          30.875
G14  23679434.960   124436269.048 6       528.160          37.625    23679435.360   124436269.061 3       528.160          22.375    23679449.240    96963352.046 3       411.554          22.062    23679448.660    96963384.051 7       411.554          47.437
G03  21206682.300   111441891.985 7       798.544          44.625    21206682.640   111441891.998 6       798.544          39.562    21206689.020    86837856.530 6       622.242          40.250    21206690.100    86837858.543 7       622.242          43.125
G21  24016746.260   126208847.112 5      1096.812          33.312    24016742.540   126208847.114 1      1096.812           5.375    24016748.280    98344552.835 1       854.659           4.687
R05  20188339.040   107918247.872 6      5504.691          40.875    20188342.660   107918247.911 6      5504.691          38.625    20188350.820    83936458.609 7      4281.426          45.000    20188351.100    83936459.601 7      4281.426          44.875
R18  20971355.820   111946525.476 7      1202.858          46.562    20971354.680   111946525.471 7      1202.858          46.062    20971370.660    87069556.196 7       935.556          47.812    20971368.880    87069556.199 8       935.556          48.437
G02  22683602.240   119203120.750 8      1544.391          50.562    22683601.280   119203120.755 5      1544.391          33.375    22683603.920    92885562.509 5      1203.422          33.875
R04  19275118.500   103217381.625 7      1603.996          46.562    19275119.100   103217381.675 7      1603.996          45.875    19275128.460    80280223.959 8      1247.553          49.312    19275128.300    80280223.959 8      1247.553          50.125
G04  20676588.820   108656203.411 7      3555.429          42.625    20676587.960   108656203.435 4      3555.429          29.875    20676591.440    84667188.235 4      2770.464          29.750    20676591.600    84667188.248 7      2770.464          46.937
> 2024 07 31 11 56 18.0000000  0 11
G09  21506412.460   113016964.651 6      5628.726          39.250    21506411.560   113016964.653 6      5628.726          36.750    21506419.040    88065206.573 6      4386.020          36.250    21506420.160    88065209.565 7      4386.020          43.687
G22  23703690.420   124563748.615 6      1419.507          38.750    23703688.920   124563748.638 3      1419.507          19.312    23703696.000    97062647.928 3      1106.109          19.375
G17  20802300.660   109316849.008 5      4037.286          32.750    20802296.660   109316849.008 3      4037.286          21.187    20802298.600    85181973.814 3      3145.937          20.375    20802303.600    85181972.753 5      3145.937          34.312
G14  23679335.060   124435740.815 5       528.101          34.937    23679334.700   124435740.806 3       528.101          22.375    23679348.740    96962940.403 3       411.507          22.062    23679348.300    96962972.388 7       411.507          46.937
G03  21206530.640   111441093.767 7       798.144          45.312    21206530.700   111441093.787 6       798.144          40.062    21206537.200    86837234.547 6       621.931          39.937    21206538.800    86837236.560 7       621.931          43.437
G21  24016538.060   126207750.472 5      1096.496          33.312    24016534.460   126207750.477 1      1096.496           5.375    24016540.160    98343698.297 1       854.413           4.687
R05  20187308.620   107912743.707 6      5503.748          39.562    20187312.580   107912743.751 6      5503.748          38.625    20187321.140    83932177.587 7      4280.693          44.875    20187321.180    83932178.577 7      4280.693          44.687
R18  20971130.560   111945323.092 7      1202.135          44.750    20971129.060   111945323.101 7      1202.135          45.625    20971145.420    87068621.013 7       934.994          47.125    20971143.780    87068621.020 7       934.994          47.375
G02  22683308.240   119201576.731 8      1543.881          50.812    22683307.360   119201576.739 5      1543.881          33.125    22683309.800    92884359.370 5      1203.024          33.562
R04  19274818.860   103215778.228 7      1602.964          46.750    19274819.340   103215778.283 7      1602.964          45.687    19274828.860    80278976.879 8      1246.750          48.937    19274828.660    80278976.879 8      1246.750          50.062
G04  20675912.300   108652648.535 7      3554.657          43.062    20675911.520   108652648.558 5      3554.657          30.000    20675914.920    84664418.202 4      2769.862          29.750    20675914.900    84664418.216 7      2769.862          46.562
> 2024 07 31 11 56 19.0000000  0 11
G09  21505340.820   113011335.846 6      5628.731          38.812    21505340.260   113011335.854 6      5628.731          36.937    21505347.880    88060820.493 6      4386.024          36.250    21505349.080    88060823.483 7      4386.024          44.062
G22  23703420.540   124562329.338 6      1419.195          38.375    23703418.760   124562329.356 3      1419.195          19.312    23703425.760    97061541.995 3      1105.866          19.375
G17  20801531.780   109312811.893 5      4037.156          32.750    20801528.680   109312811.890 3      4037.156          21.187    20801530.340    85178828.016 3      3145.836          20.375    20801535.660    85178826.923 5      3145.836          34.312
G14  23679234.620   124435212.555 5       528.161          34.937    23679235.620   124435212.547 3       528.161          22.375    23679247.200    96962528.755 3       411.554          22.062    23679247.660    96962560.765 7       411.554          47.375
G03  21206378.660   111440295.676 7       798.088          44.937    21206378.860   111440295.692 6       798.088          40.437    21206385.500    86836612.659 6       621.887          40.625    21206386.860    86836614.666 7       621.887          43.562
G21  24016330.220   126206653.946 5      1096.515          33.312    24016326.360   126206653.954 1      1096.515           5.375    24016331.640    98342843.853 1       854.427           4.687
R05  20186279.220   107907240.129 6      5503.431          39.562    20186282.860   107907240.173 6      5503.431          38.625    20186291.320    83927897.020 7      4280.446          45.187    20186291.700    83927898.010 7      4280.446          45.125
R18  20970905.560   111944121.191 7      1201.727          45.437    20970904.180   111944121.195 7      1201.727          45.750    20970919.920    87067686.189 7       934.677          47.875    20970918.660    87067686.190 7       934.677          47.875
G02  22683014.520   119200032.852 8      1543.847          50.562    22683013.600   119200032.859 5      1543.847          33.125    22683015.940    92883156.347 5      1202.997          33.562
R04  19274519.660   103214175.536 7      1602.380          47.000    19274520.640   103214175.599 7      1602.380          45.875    19274529.340    80277730.341 8      1246.296          49.437    19274529.200    80277730.343 8      1246.296          49.687
G04  20675235.960   108649094.223 7      3554.070          42.687    20675235.320   108649094.244 5      3554.070          30.000    20675238.560    84661648.610 4      2769.405          29.812    20675238.840    84661648.621 7      2769.405          46.687
> 2024 07 31 11 56 20.0000000  0 11
G09  21504269.980   113005707.380 6      5628.533          38.312    21504268.840   113005707.380 6      5628.533          36.687    21504276.980    88056434.678 6      4385.870          36.875    21504278.140    88056437.661 7      4385.870          44.062
G22  23703150.460   124560910.276 6      1418.891          37.562    23703148.620   124560910.291 3      1418.891          19.312    23703155.800    97060436.225 3      1105.629          19.375
G17  20800763.900   109308775.253 5      4036.553          34.500    20800760.680   109308775.250 3      4036.553          20.375    20800762.220    85175682.584 3      3145.366          20.375    20800767.500    85175681.510 5      3145.366          34.312
G14  23679134.220   124434684.340 5       528.139          34.937    23679135.340   124434684.334 3       528.139          22.375    23679147.220    96962117.153 3       411.537          22.062    23679147.040    96962149.160 7       411.537          47.187
G03  21206226.620   111439497.644 7       798.058          45.562    21206227.000   111439497.654 6       798.058          40.625    21206233.880    86835990.805 6       621.863          40.750    21206235.100    86835992.816 7       621.863          43.562
G21  24016121.980   126205557.493 5      1096.327          32.875    24016118.440   126205557.509 1      1096.327           5.375    24016122.440    98341989.462 1       854.281           4.687
R05  20185249.960   107901737.148 6      5502.713          39.562    20185253.840   107901737.184 6      5502.713          38.687    20185261.940    83923616.917 7      4279.888          45.125    20185262.280    83923617.907 7      4279.888          44.625
R18  20970680.100   111942919.704 7      1201.359          45.437    20970679.160   111942919.713 7      1201.359          45.625    20970694.820    87066751.697 7       934.390          47.500    20970693.780    87066751.700 8       934.390          48.125
G02  22682720.780   119198489.124 8      1543.713          50.625    22682720.020   119198489.135 5      1543.713          33.125    22682721.980    92881953.432 5      1202.893          33.562
R04  19274220.280   103212573.534 7      1601.813          46.687    19274221.620   103212573.592 7      1601.813          46.312    19274230.140    80276484.335 8      1245.854          49.500    19274230.220    80276484.337 8      1245.854          49.562
G04  20674559.660   108645540.416 7      3553.685          43.437    20674559.020   108645540.442 5      3553.685          30.000    20674562.300    84658879.410 4      2769.106          29.812    20674562.380    84658879.433 7      2769.106          47.062
> 2024 07 31 11 56 21.0000000  0 11
G09  21503199.240   113000079.316 6      5627.857          38.312    21503197.400   113000079.313 6      5627.857          36.250    21503205.980    88052049.175 6      4385.343          36.000    21503206.660    88052052.162 7      4385.343          43.687
G22  23702880.240   124559491.464 6      1418.513          37.562    23702878.560   124559491.476 3      1418.513          19.312    23702885.740    97059330.655 3      1105.335          19.375
G17  20799995.020   109304739.184 5      4035.436          34.500    20799992.660   109304739.178 3      4035.436          20.375    20799994.240    85172537.599 3      3144.495          20.375    20799998.800    85172536.518 5      3144.495          34.312
G14  23679034.060   124434156.164 5       527.921          34.937    23679034.900   124434156.185 3       527.921          22.375    23679047.740    96961705.600 3       411.367          22.062    23679046.240    96961737.607 7       411.367          47.187
G03  21206074.820   111438699.775 7       797.554          44.875    21206075.220   111438699.793 6       797.554          40.687    21206081.820    86835369.095 6       621.471          40.062    21206083.060    86835371.114 7       621.471          44.312
G21  24015913.740   126204461.222 5      1095.938          32.875    24015910.100   126204461.238 1      1095.938           5.375    24015913.980    98341135.208 1       853.978           4.687
R05  20184220.660   107896234.842 6      5501.741          39.125    20184223.880   107896234.876 6      5501.741          38.687    20184232.920    83919337.338 7      4279.132          44.812    20184232.780    83919338.328 7      4279.132          44.937
R18  20970455.520   111941718.727 7      1200.530          45.000    20970454.180   111941718.736 7      1200.530          45.687    20970470.020    87065817.614 7       933.746          47.500    20970468.720    87065817.623 8       933.746          48.062
G02  22682427.120   119196945.618 8      1543.260          50.625    22682426.420   119196945.626 5      1543.260          33.000    22682428.160    92880750.692 5      1202.540          33.562
R04  19273921.260   103210972.317 7      1600.656          47.062    19273922.400   103210972.380 7      1600.656          45.937    19273931.040    80275238.948 8      1244.955          49.562    19273931.100    80275238.946 8      1244.955          49.562
G04  20673883.340   108641987.292 7      3552.486          42.500    20673882.780   108641987.321 5      3552.486          30.000    20673886.240    84656110.750 4      2768.171          29.812    20673886.440    84656110.769 7      2768.171          47.625
> 2024 07 31 11 56 22.0000000  0 11
G09  21502127.620   112994451.732 6      5627.253          37.812    21502126.360   112994451.727 6      5627.253          36.250    21502134.960    88047664.035 5      4384.873          35.875    21502135.300    88047667.018 7      4384.873          43.750
G22  23702610.340   124558073.032 6      1418.275          36.125    23702608.780   124558073.048 3      1418.275          19.312    23702615.520    97058225.375 3      1105.149          19.375
G17  20799226.640   109300703.590 5      4035.261          34.500    20799224.720   109300703.584 3      4035.261          20.375    20799226.420    85169392.983 3      3144.359          20.375    20799230.220    85169391.904 5      3144.359          34.312
G14  23678933.320   124433628.151 5       528.104          32.937    23678934.320   124433628.156 3       528.104          22.375    23678946.160    96961294.165 3       411.510          22.062    23678946.460    96961326.144 7       411.510          47.062
G03  21205923.000   111437902.137 7       797.508          45.625    21205923.520   111437902.152 6       797.508          41.000    21205930.020    86834747.557 6       621.435          40.812    21205931.320    86834749.559 7       621.435          43.750
G21  24015704.020   126203365.116 5      1095.814          32.875    24015701.560   126203365.134 1      1095.814           5.375    24015705.720    98340281.087 1       853.881           4.687
R05  20183191.420   107890733.272 6      5501.087          39.125    20183194.300   107890733.303 6      5501.087          38.687    20183203.740    83915058.337 7      4278.624          45.437    20183203.740    83915059.327 7      4278.624          45.062
R18  20970230.440   111940518.281 7      1200.144          45.875    20970229.260   111940518.277 7      1200.144          45.062    20970245.100    87064883.915 7       933.445          47.687    20970244.200    87064883.922 7       933.445          47.937
G02  22682133.360   119195402.390 8      1542.999          50.312    22682132.700   119195402.400 5      1542.999          33.000    22682134.460    92879548.175 5      1202.337          33.562
R04  19273622.580   103209371.925 7      1599.924          46.437    19273623.580   103209371.975 7      1599.924          46.812    19273632.120    80273994.184 8      1244.385          49.187    19273632.280    80273994.184 8      1244.385          49.125
G04  20673207.240   108638434.789 7      3552.306          43.375    20673206.800   108638434.815 5      3552.306          30.000    20673210.300    84653342.565 4      2768.030          29.812    20673210.420    84653342.574 7      2768.030          47.562
> 2024 07 31 11 56 23.0000000  0 11
G09  21501056.920   112988824.315 6      5627.398          37.812    21501055.500   112988824.304 6      5627.398          36.187    21501063.980    88043279.036 5      4384.985          35.437    21501064.220    88043282.019 7      4384.985          43.750
G22  23702341.060   124556654.711 6      1418.558          36.125    23702338.740   124556654.721 3      1418.558          19.312    23702345.600    97057120.188 3      1105.370          19.375
G17  20798459.440   109296668.392 5      4035.280          35.562    20798456.800   109296668.387 3      4035.280          20.375    20798458.740    85166248.675 3      3144.374          20.375    20798461.860    85166247.580 5      3144.374          34.312
G14  23678832.220   124433100.091 5       528.333          32.937    23678833.280   124433100.093 3       528.333          22.375    23678845.120    96960882.667 3       411.688          22.062    23678846.060    96960914.687 7       411.688          46.812
G03  21205771.220   111437104.514 7       797.642          45.375    21205771.520   111437104.527 6       797.642          40.437    21205778.100    86834126.027 6       621.540          40.750    21205779.460    86834128.037 7       621.540          43.750
G21  24015495.700   126202268.940 5      1096.230          32.875    24015492.580   126202268.960 1      1096.230           5.375    24015496.160    98339426.907 1       854.205           4.687
R05  20182163.000   107885232.271 6      5500.680          39.125    20182165.640   107885232.275 6      5500.680          38.687    20182174.720    83910779.758 7      4278.307          45.437    20182174.560    83910780.748 7      4278.307          45.375
R18  20970005.900   111939318.147 7      1200.029          44.250    20970004.280   111939318.153 7      1200.029          45.062    20970019.760    87063950.482 7       933.356          47.562    20970019.160    87063950.489 8       933.356          48.250
G02  22681839.600   119193859.238 8      1543.160          50.687    22681839.100   119193859.254 5      1543.160          32.437    22681840.720    92878345.713 5      1202.462          33.062
R04  19273323.760   103207772.100 7      1599.609          47.250    19273325.040   103207772.152 7      1599.609          45.875    19273333.380    80272749.886 8      1244.141          49.625    19273333.420    80272749.890 8      1244.141          49.000
G04  20672530.760   108634882.800 7      3551.937          43.375    20672530.900   108634882.826 5      3551.937          30.000    20672534.560    84650574.788 5      2767.743          30.000    20672534.460    84650574.794 7      2767.743          47.500
> 2024 07 31 11 56 24.0000000  0 11
G09  21499986.080   112983197.391 6      5626.464          38.062    21499984.880   112983197.377 6      5626.464          36.125    21499993.260    88038894.420 6      4384.258          36.562    21499993.980    88038897.393 7      4384.258          43.500
G22  23702070.380   124555236.785 6      1417.581          36.000    23702068.620   124555236.795 3      1417.581          19.625    23702075.560    97056015.300 3      1104.608          19.375
G17  20797691.800   109292633.792 5      4034.110          35.562    20797688.940   109292633.786 3      4034.110          20.375    20797690.960    85163104.832 3      3143.462          20.375    20797693.280    85163103.735 5      3143.462          34.312
G14  23678732.000   124432572.194 5       527.486          32.937    23678732.160   124432572.222 3       527.486          22.375    23678745.880    96960471.317 3       411.028          22.062    23678745.560    96960503.300 7       411.028          47.062
G03  21205619.360   111436307.076 7       797.074          44.875    21205619.540   111436307.094 6       797.074          40.375    21205626.300    86833504.648 6       621.097          40.750    21205628.000    86833506.669 7       621.097          43.750
G21  24015287.080   126201172.973 5      1095.645          33.937    24015284.600   126201173.007 1      1095.645           5.375    24015287.120    98338572.891 1       853.750           4.687
R05  20181133.760   107879731.957 6      5499.474          39.125    20181136.140   107879731.990 6      5499.474          38.250    20181145.700    83906501.738 7      4277.368          45.375    20181145.760    83906502.724 7      4277.368          45.250
R18  20969781.000   111938118.595 7      1199.205          44.875    20969779.560   111938118.591 7      1199.205          44.875    20969795.300    87063017.484 7       932.715          47.375    20969794.500    87063017.493 8       932.715          48.125
G02  22681545.960   119192316.344 8      1542.551          50.625    22681545.360   119192316.357 5      1542.551          32.437    22681547.060    92877143.451 5      1201.987          33.062
R04  19273025.280   103206173.097 7      1598.353          47.562    19273026.780   103206173.147 7      1598.353          46.062    19273034.500    80271506.215 8      1243.164          49.000    19273034.620    80271506.220 8      1243.164          49.125
G04  20671855.240   108631331.460 7      3550.803          44.125    20671855.160   108631331.483 5      3550.803          30.000    20671858.560    84647807.512 5      2766.859          30.000    20671858.720    84647807.517 7      2766.859          47.687
> 2024 07 31 11 56 25.0000000  0 11
G09  21498915.800   112977570.903 6      5626.315          38.062    21498913.900   112977570.898 6      5626.315          36.812    21498922.780    88034510.148 6      4384.141          36.562    21498923.380    88034513.127 7      4384.141          43.312
G22  23701801.060   124553819.191 6      1417.538          36.000    23701798.620   124553819.202 3      1417.538          19.625    23701805.680    97054910.669 3      1104.575          19.687
G17  20796923.680   109288599.790 6      4033.716          36.562    20796921.220   109288599.787 3      4033.716          20.375    20796923.360    85159961.461 3      3143.156          20.375    20796926.280    85159960.402 5      3143.156          34.312
G14  23678631.560   124432044.378 5       528.058          32.937    23678630.940   124432044.401 3       528.058          22.375    23678644.840    96960060.032 3       411.473          22.062    23678645.020    96960092.021 7       411.473          46.812
G03  21205467.840   111435509.876 7       797.239          45.187    21205468.100   111435509.897 6       797.239          40.687    21205474.760    86832883.458 6       621.225          40.500    21205476.120    86832885.471 7       621.225          43.687
G21  24015078.720   126200077.267 5      1095.862          33.937    24015076.080   126200077.298 1      1095.862           5.375    24015077.440    98337719.085 1       853.919           4.687
R05  20180104.780   107874232.314 6      5499.461          37.937    20180106.880   107874232.358 6      5499.461          38.250    20180117.140    83902224.265 7      4277.358          45.687    20180116.820    83902225.255 7      4277.358          45.562
R18  20969556.760   111936919.660 7      1198.829          45.500    20969554.700   111936919.653 7      1198.829          44.750    20969570.580    87062084.973 7       932.422          47.250    20969569.860    87062084.984 7       932.422          47.437
G02  22681252.440   119190773.739 8      1542.646          51.062    22681251.840   119190773.747 5      1542.646          32.437    22681253.520    92875941.411 5      1202.062          32.812
R04  19272726.640   103204574.919 7      1597.893          47.000    19272727.940   103204574.963 7      1597.893          47.375    19272735.960    80270263.184 8      1242.806          49.125    19272736.080    80270263.188 8      1242.806          49.062
G04  20671179.580   108627780.830 7      3550.411          43.187    20671179.480   108627780.850 5      3550.411          30.000    20671182.860    84645040.785 5      2766.554          30.000    20671183.120    84645040.788 7      2766.554          47.312
> 2024 07 31 11 56 26.0000000  0 11
G09  21497845.180   112971944.752 6      5625.974          37.687    21497843.000   112971944.744 6      5625.974          36.125    21497851.880    88030126.132 6      4383.876          36.250    21497852.760    88030129.115 7      4383.876          43.687
G22  23701531.560   124552401.835 6      1417.387          36.500    23701528.640   124552401.840 3      1417.387          19.625    23701535.640    97053806.230 3      1104.457          19.687
G17  20796156.300   109284566.224 6      4033.381          36.562    20796153.740   109284566.219 3      4033.381          20.375    20796155.780    85156818.427 3      3142.894          20.375    20796158.380    85156817.331 5      3142.894          34.312
G14  23678532.400   124431516.725 5       527.395          32.937    23678529.680   124431516.751 3       527.395          22.375    23678544.340    96959648.859 3       410.957          22.062    23678544.560    96959680.828 7       410.957          47.125
G03  21205316.660   111434712.803 7       796.999          45.687    21205316.420   111434712.826 6       796.999          40.687    21205323.080    86832262.366 6       621.038          40.562    21205324.580    86832264.377 7       621.038          43.750
G21  24014869.920   126198981.673 5      1095.601          33.937    24014867.000   126198981.707 1      1095.601           5.375    24014869.760    98336865.364 1       853.715           4.687
R05  20179076.500   107868733.384 6      5498.601          37.937    20179078.800   107868733.431 6      5498.601          38.250    20179088.560    83897947.313 7      4276.690          45.937    20179088.160    83897948.301 7      4276.690          45.625
R18  20969332.160   111935721.141 7      1198.290          45.375    20969330.600   111935721.128 7      1198.290          45.312    20969345.620    87061152.777 7       932.003          46.875    20969345.160    87061152.788 7       932.003          47.500
G02  22680958.920   119189231.321 8      1542.271          50.437    22680958.500   119189231.333 5      1542.271          32.437    22680959.800    92874739.520 5      1201.769          32.812
R04  19272428.220   103202977.458 7      1597.049          47.687    19272429.540   103202977.500 7      1597.049          46.437    19272437.600    80269020.712 8      1242.149          48.875    19272437.880    80269020.719 8      1242.149          48.937
G04  20670504.000   108624230.756 7      3549.804          43.125    20670503.800   108624230.774 5      3549.804          30.000    20670507.340    84642274.494 5      2766.081          30.000    20670507.860    84642274.497 7      2766.081          47.500
> 2024 07 31 11 56 27.0000000  0 11
G09  21496774.800   112966319.194 6      5625.401          37.687    21496772.700   112966319.191 6      5625.401          36.125    21496781.420    88025742.585 5      4383.429          35.937    21496781.800    88025745.560 7      4383.429          43.687
G22  23701261.380   124550984.967 6      1416.852          36.500    23701258.860   124550984.969 3      1416.852          19.625    23701266.080    97052702.168 3      1104.041          19.687
G17  20795389.000   109280533.405 6      4032.708          36.562    20795386.320   109280533.397 3      4032.708          20.375    20795388.360    85153675.972 3      3142.370          20.375    20795391.080    85153674.895 5      3142.370          34.000
G14  23678432.340   124430989.254 5       527.483          32.937    23678428.700   124430989.274 3       527.483          22.375    23678444.200    96959237.818 3       411.026          22.062    23678444.020    96959269.801 7       411.026          46.500
G03  21205164.840   111433916.079 7       796.729          45.875    21205164.620   111433916.100 6       796.729          40.437    21205171.280    86831641.536 6       620.828          40.875    21205173.180    86831643.549 7       620.828          43.750
G21  24014660.520   126197886.366 5      1095.290          34.562    24014658.700   126197886.405 1      1095.290           5.375    24014661.220    98336011.874 1       853.473           4.687
R05  20178047.600   107863235.278 6      5497.837          37.937    20178050.360   107863235.309 6      5497.837          38.250    20178059.920    83893670.987 7      4276.096          45.687    20178059.340    83893671.982 7      4276.096          45.625
R18  20969107.820   111934523.278 7      1197.715          45.250    20969105.800   111934523.269 7      1197.715          44.812    20969121.200    87060221.100 7       931.556          47.000    20969120.840    87060221.111 7       931.556          47.250
G02  22680665.600   119187689.293 8      1541.972          50.312    22680665.200   119187689.306 5      1541.972          32.437    22680666.180    92873537.930 5      1201.537          32.812
R04  19272130.220   103201380.937 7      1596.239          47.437    19272131.360   103201380.990 7      1596.239          46.125    19272139.640    80267778.984 8      1241.519          49.187    19272139.720    80267778.988 8      1241.519          49.125
G04  20669828.980   108620681.479 7      3549.128          43.687    20669828.400   108620681.500 4      3549.128          29.875    20669831.940    84639508.824 4      2765.554          29.625    20669832.400    84639508.824 7      2765.554          47.687
> 2024 07 31 11 56 28.0000000  0 11
G09  21495703.720   112960693.721 6      5625.351          38.250    21495702.340   112960693.713 6      5625.351          36.750    21495711.040    88021359.103 6      4383.391          36.437    21495711.880    88021362.091 7      4383.391          43.500
G22  23700992.360   124549568.083 6      1416.854          36.437    23700989.280   124549568.088 3      1416.854          19.625    23700996.520    97051598.097 3      1104.042          19.687
G17  20794622.200   109276500.780 6      4032.452          36.625    20794618.960   109276500.767 3      4032.452          20.375    20794621.160    85150533.665 3      3142.171          21.750    20794624.120    85150532.619 5      3142.171          34.000
G14  23678330.780   124430461.580 5       527.666          31.500    23678329.380   124430461.587 3       527.666          20.750    23678344.280    96958826.625 3       411.168          20.562    23678343.800    96958858.600 7       411.168          46.625
G03  21205013.340   111433119.229 7       796.842          46.125    21205013.040   111433119.239 6       796.842          40.562    21205019.920    86831020.610 6       620.915          41.000    21205021.360    86831022.625 7       620.915          43.625
G21  24014452.720   126196790.888 5      1095.740          34.562    24014450.280   126196790.927 1      1095.740           1.000    24014453.380    98335158.240 1       853.823           4.687
R05  20177019.120   107857737.442 6      5497.679          37.937    20177022.180   107857737.494 6      5497.679          38.437    20177031.760    83889394.913 7      4275.972          46.062    20177030.840    83889395.903 7      4275.972          44.875
R18  20968883.240   111933325.629 7      1197.471          45.750    20968881.300   111933325.622 7      1197.471          45.312    20968896.180    87059289.599 7       931.366          46.750    20968896.440    87059289.608 7       931.366          46.625
G02  22680372.280   119186147.198 8      1542.083          50.250    22680371.600   119186147.211 5      1542.083          32.312    22680372.900    92872336.287 5      1201.623          32.437
R04  19271832.120   103199784.899 7      1595.813          47.750    19271833.200   103199784.954 7      1595.813          45.875    19271841.460    80266537.627 8      1241.188          49.125    19271841.780    80266537.635 8      1241.188          49.062
G04  20669153.520   108617132.551 7      3548.732          43.125    20669153.200   108617132.574 4      3548.732          29.875    20669156.720    84636743.428 4      2765.246          29.625    20669157.220    84636743.424 7      2765.246          47.562
> 2024 07 31 11 56 29.0000000  0 11
G09  21494633.860   112955068.628 6      5625.240          38.250    21494631.820   112955068.623 6      5625.240          36.687    21494640.660    88016975.922 6      4383.304          36.062    21494641.240    88016978.900 7      4383.304          43.687
G22  23700722.700   124548151.523 6      1416.530          36.437    23700719.560   124548151.530 3      1416.530          19.625    23700726.840    97050494.278 3      1103.790          19.687
G17  20793854.840   109272468.728 6      4031.770          37.875    20793851.900   109272468.720 3      4031.770          22.437    20793854.120    85147391.806 3      3141.639          21.750    20793856.120    85147390.750 5      3141.639          34.000
G14  23678230.900   124429934.019 5       527.345          31.500    23678229.080   124429934.032 3       527.345          20.750    23678244.280    96958415.533 3       410.918          20.562    23678243.320    96958447.517 7       410.918          46.250
G03  21204861.660   111432322.545 7       796.798          45.937    21204861.540   111432322.558 6       796.798          40.625    21204868.380    86830399.815 6       620.881          40.687    21204870.040    86830401.826 7       620.881          43.562
G21  24014243.620   126195695.647 5      1095.256          34.562    24014242.360   126195695.689 1      1095.256           1.000    24014244.900    98334304.799 1       853.446           2.437
R05  20175991.320   107852240.340 6      5496.979          37.937    20175993.440   107852240.381 6      5496.979          38.437    20176003.540    83885119.379 7      4275.428          46.375    20176002.880    83885120.372 7      4275.428          45.875
R18  20968659.040   111932128.528 7      1196.935          45.312    20968657.200   111932128.518 7      1196.935          44.875    20968671.360    87058358.512 7       930.949          46.000    20968671.860    87058358.525 7       930.949          46.562
G02  22680078.820   119184605.339 8      1541.897          49.562    22680078.400   119184605.347 5      1541.897          32.312    22680079.660    92871134.827 5      1201.478          32.437
R04  19271533.940   103198189.674 7      1594.963          47.562    19271535.400   103198189.721 7      1594.963          46.000    19271543.640    80265296.888 8      1240.527          49.000    19271543.980    80265296.897 8      1240.527          49.000
G04  20668478.300   108613584.254 7      3548.231          42.937    20668477.980   108613584.275 4      3548.231          29.875    20668481.620    84633978.519 4      2764.855          29.625    20668482.100    84633978.521 7      2764.855          47.750
> 2024 07 31 11 56 30.0000000  0 11
G09  21493563.220   112949443.867 6      5624.884          38.562    21493561.480   112949443.864 6      5624.884          36.187    21493570.240    88012592.987 6      4383.027          36.062    21493571.100    88012595.963 7      4383.027          43.687
G22  23700452.780   124546735.141 6      1416.426          36.562    23700450.020   124546735.143 3      1416.426          19.625    23700457.100    97049390.595 3      1103.709          19.687
G17  20793087.200   109268437.020 6      4031.792          37.875    20793084.700   109268437.009 3      4031.792          22.437    20793087.100    85144250.213 3      3141.656          21.750    20793089.400    85144249.163 5      3141.656          34.000
G14  23678130.660   124429406.340 5       528.159          31.500    23678128.520   124429406.342 3       528.159          20.750    23678143.920    96958004.356 3       411.552          20.562    23678142.740    96958036.329 7       411.552          46.500
G03  21204710.140   111431525.913 7       796.766          45.625    21204710.040   111431525.923 6       796.766          40.437    21204716.620    86829779.059 6       620.856          40.500    21204717.720    86829781.065 7       620.856          43.562
G21  24014035.560   126194600.366 5      1095.263          34.562    24014033.820   126194600.408 1      1095.263           1.000    24014036.780    98333451.328 1       853.451           2.437
R05  20174963.460   107846743.731 6      5496.721          36.812    20174965.640   107846743.775 6      5496.721          38.437    20174975.360    83880844.230 7      4275.228          45.875    20174974.800    83880845.218 7      4275.228          45.875
R18  20968434.740   111930931.794 7      1196.802          45.250    20968433.080   111930931.785 7      1196.802          45.187    20968447.020    87057427.702 7       930.846          45.000    20968447.520    87057427.712 7       930.846          45.625
G02  22679785.520   119183063.588 8      1541.873          50.562    22679784.900   119183063.595 5      1541.873          32.312    22679786.320    92869933.454 5      1201.460          32.437
R04  19271236.020   103196595.043 7      1594.549          47.250    19271237.640   103196595.082 7      1594.549          46.250    19271245.760    80264056.609 7      1240.204          47.812    19271245.880    80264056.616 7      1240.204          47.937
G04  20667803.120   108610036.469 7      3547.640          44.250    20667802.620   108610036.490 4      3547.640          29.875    20667806.320    84631214.013 4      2764.395          29.625    20667807.020    84631214.011 7      2764.395          47.062
> 2024 07 31 11 56 31.0000000  0 11
G09  21492492.580   112943819.489 6      5624.175          38.812    21492491.280   112943819.489 6      5624.175          36.375    21492499.980    88008210.359 6      4382.474          36.062    21492500.320    88008213.337 7      4382.474          43.250
G22  23700183.380   124545318.972 6      1416.224          36.562    23700180.540   124545318.971 3      1416.224          19.625    23700187.820    97048287.079 3      1103.551          19.687
G17  20792320.040   109264405.867 6      4030.972          37.875    20792317.760   109264405.856 3      4030.972          22.437    20792320.160    85141109.055 3      3141.017          21.750    20792322.600    85141108.031 5      3141.017          34.000
G14  23678029.860   124428878.950 5       527.401          31.500    23678027.580   124428878.952 3       527.401          20.750    23678043.240    96957593.388 3       410.961          20.562    23678042.260    96957625.351 7       410.961          46.187
G03  21204558.840   111430729.423 7       796.371          45.937    21204558.660   111430729.433 6       796.371          40.562    21204565.120    86829158.415 6       620.549          41.062    21204565.580    86829160.434 7       620.549          42.875
G21  24013826.700   126193505.240 5      1094.900          34.562    24013826.140   126193505.282 1      1094.900           1.000    24013828.280    98332597.962 1       853.169           2.437
R05  20173935.100   107841247.813 6      5495.585          36.812    20173937.860   107841247.884 6      5495.585          38.437    20173947.320    83876569.645 7      4274.344          46.250    20173946.700    83876570.635 7      4274.344          46.062
R18  20968210.780   111929735.549 7      1196.078          44.937    20968209.120   111929735.545 7      1196.078          45.312    20968222.680    87056497.296 7       930.283          46.250    20968223.300    87056497.307 7       930.283          45.937
G02  22679492.020   119181522.052 8      1541.460          50.125    22679491.580   119181522.060 5      1541.460          31.750    22679492.920    92868732.251 5      1201.138          32.375
R04  19270938.560   103195001.154 7      1593.496          46.750    19270939.860   103195001.193 7      1593.496          46.437    19270948.600    80262816.924 8      1239.386          48.937    19270948.340    80262816.931 8      1239.386          48.937
G04  20667127.920   108606489.289 7      3546.828          43.250    20667127.580   108606489.304 4      3546.828          29.625    20667131.460    84628449.976 4      2763.762          29.625    20667132.060    84628449.981 7      2763.762          47.750
> 2024 07 31 11 56 32.0000000  0 10
G09  21491422.440   112938195.487 6      5623.674          39.937    21491421.060   112938195.482 6      5623.674          36.375    21491429.840    88003828.018 5      4382.084          35.937    21491429.860    88003830.991 7      4382.084          43.062
G22  23699914.440   124543903.137 6      1415.825          37.562    23699911.080   124543903.136 3      1415.825          19.625    23699918.420    97047183.824 3      1103.240          19.687
G17  20791552.120   109260375.205 6      4030.406          37.125    20791550.680   109260375.196 3      4030.406          22.437    20791553.340    85137968.285 3      3140.576          21.750    20791555.360    85137967.256 5      3140.576          34.000
G03  21204407.380   111429933.099 7       796.105          45.812    21204406.560   111429933.114 6       796.105          41.000    21204413.680    86828537.900 6       620.341          41.125    21204414.160    86828539.917 7       620.341          42.750
G21  24013617.960   126192410.251 5      1094.667          33.312    24013617.800   126192410.296 1      1094.667           1.000    24013619.260    98331744.714 1       852.988           2.437
R05  20172906.840   107835752.583 6      5494.701          36.812    20172910.380   107835752.648 6      5494.701          38.000    20172919.120    83872295.581 7      4273.656          45.937    20172918.600    83872296.567 7      4273.656          45.812
R18  20967986.480   111928539.811 7      1195.391          45.625    20967984.660   111928539.794 7      1195.391          45.625    20967998.240    87055567.259 7       929.749          45.625    20967999.000    87055567.274 7       929.749          45.500
G02  22679198.820   119179980.732 8      1541.077          50.312    22679198.060   119179980.739 5      1541.077          31.750    22679199.720    92867531.212 5      1200.840          32.375
R04  19270641.080   103193408.029 7      1592.637          47.187    19270642.580   103193408.065 7      1592.637          46.562    19270651.040    80261577.829 8      1238.718          49.437    19270651.060    80261577.835 8      1238.718          48.937
G04  20666453.180   108602942.731 7      3546.109          43.812    20666452.760   108602942.744 4      3546.109          29.625    20666456.700    84625686.423 4      2763.202          29.500    20666457.180    84625686.425 7      2763.202          47.437
> 2024 07 31 11 56 33.0000000  0 11
G09  21490352.640   112932571.803 6      5623.632          39.937    21490350.700   112932571.800 6      5623.632          36.562    21490359.580    87999445.925 6      4382.051          36.375    21490360.340    87999448.898 7      4382.051          43.062
G22  23699645.160   124542487.548 6      1415.573          38.500    23699641.840   124542487.550 3      1415.573          19.625    23699649.020    97046080.762 3      1103.044          19.687
G17  20790786.160   109256345.026 6      4030.088          38.687    20790783.800   109256345.015 3      4030.088          22.437    20790786.540    85134827.888 3      3140.328          21.750    20790788.460    85134826.849 5      3140.328          34.000
G14  23677830.660   124427824.080 5       527.312          31.500    23677825.860   124427824.080 3       527.312          20.750    23677842.020    96956804.367 3       410.893          20.562    23677841.000    96956801.346 7       410.893          46.187
G03  21204256.020   111429136.858 7       796.236          45.937    21204254.960   111429136.876 6       796.236          41.000    21204262.020    86827917.453 6       620.444          41.062    21204262.540    86827919.468 7       620.444          42.750
G21  24013409.860   126191315.296 5      1094.983          33.312    24013409.660   126191315.338 1      1094.983           1.000    24013410.660    98330891.498 1       853.234           2.437
R05  20171878.880   107830257.959 6      5494.236          36.812    20171883.660   107830258.032 6      5494.236          38.000    20171891.180    83868021.980 7      4273.295          45.625    20171891.040    83868022.970 7      4273.295          46.062
R18  20967762.560   111927344.509 7      1195.091          44.312    20967761.100   111927344.493 7      1195.091          44.937    20967774.220    87054637.573 7       929.515          45.625    20967774.940    87054637.580 7       929.515          45.125
G02  22678905.580   119178439.559 8      1541.179          50.375    22678904.740   119178439.569 5      1541.179          32.187    22678906.640    92866330.286 5      1200.918          32.375
R04  19270343.780   103191815.591 7      1592.105          47.250    19270345.100   103191815.627 7      1592.105          47.000    19270353.640    80260339.264 8      1238.304          49.250    19270353.520    80260339.272 8      1238.304          48.812
G04  20665778.060   108599396.715 7      3545.738          44.125    20665778.160   108599396.725 4      3545.738          29.625    20665781.920    84622923.293 4      2762.913          29.500    20665782.280    84622923.293 7      2762.913          47.687
> 2024 07 31 11 56 34.0000000  0 11
G09  21489282.380   112926948.311 6      5623.423          40.000    21489280.740   112926948.305 6      5623.423          36.375    21489289.440    87995063.983 6      4381.888          36.062    21489290.120    87995066.954 7      4381.888          43.812
G22  23699375.360   124541072.015 6      1415.636          38.500    23699372.600   124541072.012 3      1415.636          19.625    23699379.620    97044977.741 3      1103.093          19.687
G17  20790019.220   109252315.134 6      4029.888          38.687    20790017.120   109252315.125 3      4029.888          22.437    20790019.980    85131687.713 3      3140.173          21.750    20790022.100    85131686.708 5      3140.173          35.500
G14  23677729.340   124427295.996 5       528.879          31.500    23677724.980   124427296.001 3       528.879          20.750    23677741.540    96956392.863 3       412.113          20.562    23677740.980    96956389.301 7       412.113          45.750
G03  21204104.200   111428340.592 7       796.313          46.750    21204103.720   111428340.604 6       796.313          41.312    21204110.420    86827296.980 6       620.504          41.500    21204110.840    86827298.999 7       620.504          42.625
G21  24013200.760   126190220.373 5      1094.801          33.312    24013202.300   126190220.407 1      1094.801           1.000    24013202.080    98330038.303 1       853.092           2.437
R05  20170851.140   107824763.779 6      5493.932          36.812    20170856.800   107824763.847 6      5493.932          38.000    20170863.300    83863748.725 7      4273.058          46.187    20170863.340    83863749.713 7      4273.058          46.125
R18  20967538.980   111926149.505 7      1194.887          45.312    20967537.140   111926149.490 7      1194.887          45.437    20967550.180    87053708.119 7       929.357          45.187    20967550.440    87053708.130 7       929.357          45.500
G02  22678612.480   119176898.414 8      1541.130          49.937    22678611.400   119176898.422 5      1541.130          32.187    22678613.340    92865129.390 5      1200.881          32.687
R04  19270046.240   103190223.715 7      1591.618          46.875    19270047.700   103190223.757 7      1591.618          46.000    19270056.520    80259101.145 8      1237.925          48.687    19270056.140    80259101.153 8      1237.925          49.000
G04  20665103.360   108595851.121 7      3545.462          43.375    20665103.280   108595851.131 4      3545.462          29.625    20665107.160    84620160.491 4      2762.697          29.500    20665107.820    84620160.489 7      2762.697          47.750
> 2024 07 31 11 56 35.0000000  0 10
G09  21488212.300   112921325.271 6      5622.774          40.625    21488210.940   112921325.268 6      5622.774          37.000    21488219.280    87990682.397 6      4381.383          36.687    21488219.820    87990685.380 7      4381.383          43.250
G22  23699106.280   124539656.852 6      1415.062          39.187    23699103.360   124539656.849 3      1415.062          19.250    23699110.440    97043875.009 3      1102.646          19.687
G17  20789252.660   109248285.840 6      4028.989          37.875    20789250.500   109248285.832 3      4028.989          22.437    20789253.360    85128548.008 3      3139.472          21.750    20789254.900    85128547.019 5      3139.472          35.500
G03  21203952.680   111427544.548 7       795.902          46.437    21203952.240   111427544.561 6       795.902          40.812    21203958.800    86826676.680 6       620.183          41.312    21203959.080    86826678.699 7       620.183          42.625
G21  24012992.300   126189125.599 5      1094.554          33.312    24012994.580   126189125.636 1      1094.554           1.000    24012994.240    98329185.212 1       852.899           2.437
R05  20169823.360   107819270.329 6      5493.018          36.625    20169828.540   107819270.399 6      5493.018          38.000    20169835.480    83859476.048 7      4272.347          46.125    20169835.460    83859477.038 7      4272.347          46.375
R18  20967315.340   111924955.048 7      1194.333          45.062    20967313.220   111924955.027 7      1194.333          45.625    20967326.160    87052779.085 7       928.926          45.437    20967326.700    87052779.094 7       928.926          44.750
G02  22678319.240   119175357.551 8      1540.775          49.500    22678318.180   119175357.554 5      1540.775          32.187    22678320.200    92863928.709 5      1200.604          32.687
R04  19269749.320   103188632.713 7      1590.603          46.375    19269750.680   103188632.757 7      1590.603          45.687    19269759.540    80257863.701 8      1237.136          48.875    19269759.180    80257863.707 8      1237.136          49.000
G04  20664428.920   108592306.219 7      3544.564          43.500    20664428.560   108592306.231 4      3544.564          29.625    20664432.700    84617398.231 4      2761.998          29.500    20664433.160    84617398.244 7      2761.998          47.812
> 2024 07 31 11 56 36.0000000  0 10
G09  21487142.440   112915702.477 6      5622.518          41.375    21487140.980   112915702.477 6      5622.518          36.812    21487149.360    87986301.008 6      4381.183          36.250    21487150.060    87986303.987 7      4381.183          43.250
G22  23698837.120   124538241.837 6      1414.922          40.312    23698834.160   124538241.831 3      1414.922          19.250    23698841.240    97042772.393 3      1102.537          19.625
G17  20788486.520   109244256.952 6      4028.584          37.875    20788483.900   109244256.946 3      4028.584          22.437    20788486.820    85125408.618 4      3139.157          24.812    20788487.600    85125407.605 5      3139.157          35.500
G03  21203801.380   111426748.502 7       796.130          45.812    21203800.580   111426748.515 6       796.130          40.750    21203807.320    86826056.383 6       620.361          41.062    21203807.260    86826058.404 7       620.361          42.000
G21  24012783.380   126188030.794 5      1094.918          33.812    24012786.380   126188030.825 1      1094.918           1.000    24012784.820    98328332.121 1       853.183           2.437
R05  20168795.920   107813777.397 6      5492.765          36.625    20168802.760   107813777.465 6      5492.765          37.875    20168807.780    83855203.761 7      4272.151          46.125    20168808.060    83855204.753 7      4272.151          45.812
R18  20967091.460   111923760.973 7      1193.891          44.937    20967089.420   111923760.958 7      1193.891          44.750    20967102.040    87051850.349 7       928.582          44.625    20967102.980    87051850.360 7       928.582          44.937
G02  22678026.140   119173816.770 8      1540.823          50.312    22678024.960   119173816.775 5      1540.823          31.937    22678027.000    92862728.090 5      1200.641          32.687
R04  19269452.160   103187042.318 7      1590.147          47.125    19269453.560   103187042.357 7      1590.147          46.375    19269462.620    80256626.723 8      1236.781          49.187    19269462.360    80256626.727 8      1236.781          49.000
G04  20663754.720   108588761.813 7      3544.092          43.375    20663754.120   108588761.828 4      3544.092          29.875    20663758.340    84614636.361 4      2761.630          29.562    20663758.700    84614636.363 7      2761.630          47.625
> 2024 07 31 11 56 37.0000000  0 10
G09  21486072.520   112910080.044 6      5622.019          41.562    21486071.200   112910080.041 6      5622.019          36.750    21486079.340    87981919.882 6      4380.794          36.375    21486080.380    87981922.851 7      4380.794          43.250
G22  23698568.200   124536827.084 6      1414.349          40.937    23698564.920   124536827.079 3      1414.349          19.250    23698572.080    97041669.982 3      1102.090          19.625
G17  20787720.140   109240228.481 6      4028.137          38.375    20787717.480   109240228.483 4      4028.137          25.250    20787720.520    85122269.554 4      3138.808          24.812    20787720.920    85122268.561 5      3138.808          35.500
G03  21203649.840   111425952.612 7       795.611          46.375    21203649.180   111425952.630 6       795.611          40.500    21203655.680    86825436.204 6       619.956          41.187    21203655.780    86825438.219 7       619.956          42.000
G21  24012576.300   126186936.152 5      1094.415          33.812    24012578.320   126186936.180 1      1094.415           1.000    24012576.760    98327479.141 1       852.791           2.437
R05  20167768.500   107808285.085 6      5491.901          36.625    20167775.280   107808285.153 6      5491.901          37.875    20167780.460    83850931.965 7      4271.478          45.687    20167780.300    83850932.966 7      4271.478          46.500
R18  20966868.020   111922567.325 7      1193.138          45.125    20966866.320   111922567.302 7      1193.138          44.625    20966878.320    87050921.948 7       927.996          45.187    20966879.000    87050921.951 7       927.996          44.812
G02  22677732.900   119172276.193 8      1540.251          49.687    22677731.820   119172276.198 5      1540.251          31.937    22677734.080    92861527.632 5      1200.195          32.250
R04  19269155.160   103185452.644 7      1589.062          46.937    19269156.780   103185452.683 7      1589.062          46.125    19269165.900    80255390.307 8      1235.937          49.000    19269165.440    80255390.311 8      1235.937          49.437
G04  20663079.840   108585217.969 7      3543.340          43.312    20663079.920   108585217.977 4      3543.340          29.875    20663083.920    84611874.922 4      2761.044          29.562    20663084.140    84611874.926 7      2761.044          47.812
> 2024 07 31 11 56 38.0000000  0 10
G09  21485002.980   112904458.099 7      5621.675          42.250    21485001.520   112904458.096 6      5621.675          37.000    21485009.600    87977539.146 6      4380.526          36.750    21485009.920    87977542.126 7      4380.526          43.125
G22  23698298.900   124535412.718 7      1414.093          42.250    23698296.040   124535412.712 3      1414.093          19.250    23698302.940    97040567.871 3      1101.890          19.625
G17  20786954.020   109236200.670 6      4027.569          38.375    20786951.160   109236200.677 4      4027.569          25.250    20786954.280    85119131.004 4      3138.365          24.812    20786955.680    85119130.017 5      3138.365          35.500
G03  21203498.320   111425156.981 7       795.442          46.312    21203497.820   111425156.996 6       795.442          40.625    21203504.120    86824816.230 6       619.825          40.625    21203504.360    86824818.253 6       619.825          41.562
G21  24012368.500   126185841.764 5      1094.431          33.812    24012370.480   126185841.790 1      1094.431           1.000    24012369.000    98326626.371 1       852.804           2.437
R05  20166741.700   107802793.575 6      5491.165          36.625    20166748.520   107802793.638 6      5491.165          37.875    20166753.140    83846660.787 7      4270.906          45.812    20166753.140    83846661.785 7      4270.906          45.437
R18  20966644.520   111921374.275 7      1192.619          45.000    20966642.740   111921374.257 7      1192.619          45.187    20966654.960    87049994.028 7       927.592          45.000    20966655.780    87049994.033 7       927.592          44.750
G02  22677439.760   119170735.945 8      1539.924          49.562    22677438.760   119170735.950 5      1539.924          31.687    22677441.080    92860327.433 5      1199.941          32.250
R04  19268858.940   103183863.802 7      1588.366          46.812    19268859.740   103183863.841 7      1588.366          46.562    19268869.240    80254154.541 8      1235.396          48.812    19268868.640    80254154.552 8      1235.396          49.187
G04  20662405.580   108581674.862 7      3542.740          42.937    20662405.680   108581674.874 4      3542.740          29.875    20662409.600    84609114.059 4      2760.577          29.562    20662409.980    84609114.065 7      2760.577          47.750
> 2024 07 31 11 56 39.0000000  0 10
G09  21483933.380   112898836.470 7      5621.536          42.000    21483931.760   112898836.469 6      5621.536          37.312    21483939.720    87973158.666 6      4380.418          36.937    21483940.500    87973161.633 7      4380.418          43.125
G22  23698029.900   124533998.553 6      1414.002          41.500    23698027.020   124533998.545 3      1414.002          19.250    23698033.580    97039465.916 3      1101.820          19.625
G17  20786187.420   109232173.355 6      4026.883          38.125    20786184.960   109232173.365 4      4026.883          25.250    20786188.000    85115992.843 4      3137.831          24.812    20786189.980    85115991.844 6      3137.831          37.125
G03  21203346.780   111424361.424 7       795.521          45.937    21203346.200   111424361.439 6       795.521          39.937    21203352.680    86824196.311 6       619.887          40.812    21203353.180    86824198.332 6       619.887          41.562
G21  24012160.400   126184747.443 5      1094.153          33.812    24012162.040   126184747.479 1      1094.153           1.000    24012159.700    98325773.645 1       852.587           2.437
R05  20165715.240   107797302.629 6      5490.689          39.187    20165721.380   107797302.689 6      5490.689          37.875    20165725.440    83842390.047 7      4270.536          45.875    20165725.860    83842391.045 7      4270.536          45.250
R18  20966421.020   111920181.660 7      1192.391          46.000    20966419.180   111920181.642 7      1192.391          45.250    20966431.480    87049066.430 7       927.415          44.250    20966432.500    87049066.429 7       927.415          44.500
G02  22677146.500   119169195.817 8      1540.033          49.562    22677145.800   119169195.822 5      1540.033          31.687    22677148.120    92859127.323 5      1200.026          32.312
R04  19268562.120   103182275.635 7      1587.799          46.875    19268563.160   103182275.674 7      1587.799          46.062    19268572.940    80252919.304 8      1234.955          49.312    19268572.240    80252919.311 8      1234.955          49.000
G04  20661731.460   108578132.290 7      3542.319          42.875    20661731.540   108578132.302 4      3542.319          29.875    20661735.440    84606353.615 4      2760.248          29.562    20661735.920    84606353.624 7      2760.248          47.750
> 2024 07 31 11 56 40.0000000  0 10
G09  21482863.680   112893215.277 6      5621.163          41.125    21482862.040   112893215.276 6      5621.163          37.375    21482869.860    87968778.514 6      4380.127          37.187    21482870.660    87968781.485 7      4380.127          42.875
G22  23697760.780   124532584.731 7      1413.849          42.125    23697758.040   124532584.725 3      1413.849          19.250    23697764.480    97038364.230 3      1101.700          19.625
G17  20785421.020   109228146.534 6      4026.729          38.125    20785418.760   109228146.539 4      4026.729          25.250    20785422.080    85112855.058 4      3137.711          24.812    20785423.540    85112854.049 6      3137.711          37.125
G03  21203195.440   111423566.074 7       795.360          45.562    21203194.820   111423566.087 6       795.360          40.125    21203201.220    86823576.554 6       619.761          40.437    21203201.240    86823578.581 6       619.761          41.437
G21  24011952.020   126183653.218 5      1094.160          33.812    24011953.280   126183653.257 1      1094.160           1.000    24011952.320    98324920.992 1       852.592           2.437
R05  20164688.120   107791812.365 6      5490.145          39.187    20164695.300   107791812.438 6      5490.145          38.562    20164698.620    83838119.841 7      4270.112          45.250    20164698.760    83838120.837 7      4270.112          46.062
R18  20966197.780   111918989.589 7      1192.042          45.812    20966195.940   111918989.579 7      1192.042          45.500    20966208.020    87048139.256 7       927.144          44.437    20966208.820    87048139.259 7       927.144          45.000
G02  22676853.460   119167655.940 8      1539.913          49.625    22676852.900   119167655.942 5      1539.913          31.687    22676855.120    92857927.412 5      1199.932          32.312
R04  19268265.620   103180688.250 7      1587.168          47.000    19268266.820   103180688.289 7      1587.168          46.125    19268276.440    80251684.667 8      1234.464          49.000    19268275.820    80251684.672 8      1234.464          48.812
G04  20661057.560   108574590.385 7      3541.798          42.562    20661057.540   108574590.398 4      3541.798          29.937    20661061.400    84603593.690 4      2759.842          29.562    20661062.320    84603593.690 7      2759.842          47.562
> 2024 07 31 11 56 41.0000000  0 10
G09  21481793.920   112887594.446 6      5620.504          41.875    21481792.400   112887594.448 6      5620.504          36.937    21481800.200    87964398.644 6      4379.613          36.375    21481800.600    87964401.623 7      4379.613          42.562
G22  23697491.620   124531171.137 7      1413.393          42.125    23697489.060   124531171.131 3      1413.393          19.250    23697495.600    97037262.720 3      1101.345          19.625
G17  20784654.500   109224120.218 6      4025.941          38.000    20784652.600   109224120.223 4      4025.941          25.250    20784656.220    85109717.667 4      3137.097          24.812    20784657.380    85109716.666 6      3137.097          37.125
G03  21203044.380   111422770.806 7       795.198          46.312    21203043.620   111422770.819 6       795.198          39.875    21203049.860    86822956.858 6       619.635          40.312    21203049.600    86822958.887 6       619.635          41.437
G21  24011744.500   126182559.120 5      1094.193          33.812    24011744.980   126182559.164 1      1094.193           1.000    24011743.320    98324068.440 1       852.618           2.437
R05  20163660.620   107786322.699 6      5489.399          39.187    20163668.680   107786322.778 6      5489.399          38.562    20163671.440    83833850.103 7      4269.533          45.937    20163671.560    83833851.099 7      4269.533          45.750
R18  20965974.400   111917797.961 7      1191.412          45.187    20965972.980   111917797.952 7      1191.412          45.437    20965984.680    87047212.428 7       926.654          44.250    20965985.700    87047212.431 7       926.654          44.812
G02  22676560.640   119166116.233 8      1539.579          49.687    22676559.840   119166116.237 5      1539.579          32.000    22676562.200    92856727.634 5      1199.672          32.312
R04  19267969.200   103179101.579 7      1586.279          47.000    19267970.360   103179101.621 7      1586.279          45.812    19267980.200    80250450.592 8      1233.772          48.562    19267979.640    80250450.597 8      1233.772          49.250
G04  20660384.060   108571049.064 7      3540.977          42.812    20660383.700   108571049.072 4      3540.977          29.937    20660387.520    84600834.215 4      2759.203          29.937    20660388.520    84600834.219 7      2759.203          47.812
> 2024 07 31 11 56 42.0000000  0  9
G09  21480724.220   112881974.080 6      5620.172          41.375    21480722.700   112881974.088 6      5620.172          37.375    21480730.740    87960019.152 6      4379.355          36.687    21480731.320    87960022.125 7      4379.355          42.562
G22  23697222.680   124529757.971 7      1413.055          43.187    23697220.140   124529757.965 3      1413.055          19.250    23697226.780    97036161.542 3      1101.082          19.625
G17  20783888.200   109220094.522 6      4025.407          38.500    20783886.620   109220094.530 4      4025.407          25.250    20783890.520    85106580.761 4      3136.681          26.937    20783891.420    85106579.746 6      3136.681          37.125
G03  21202893.100   111421975.861 7       794.831          46.062    21202892.460   111421975.874 6       794.831          39.750    21202898.600    86822337.423 6       619.349          40.375    21202898.600    86822339.442 6       619.349          41.437
R05  20162633.920   107780833.814 6      5488.608          39.125    20162641.220   107780833.898 6      5488.608          38.562    20162644.300    83829580.976 7      4268.918          45.500    20162644.480    83829581.975 7      4268.918          44.562
R18  20965750.920   111916606.974 7      1190.761          45.687    20965750.120   111916606.956 7      1190.761          45.562    20965761.640    87046286.097 7       926.148          43.812    20965762.680    87046286.102 7       926.148          44.562
G02  22676267.800   119164576.885 8      1539.228          49.812    22676266.920   119164576.893 5      1539.228          32.000    22676269.080    92855528.135 5      1199.398          32.375
R04  19267673.120   103177515.822 7      1585.491          46.937    19267674.020   103177515.853 7      1585.491          45.625    19267684.040    80249217.217 7      1233.160          47.875    19267683.480    80249217.217 7      1233.160          47.937
G04  20659710.280   108567508.460 7      3540.439          42.250    20659709.780   108567508.463 4      3540.439          29.937    20659713.800    84598075.299 4      2758.783          29.937    20659714.400    84598075.297 7      2758.783          47.500
> 2024 07 31 11 56 43.0000000  0  9
G09  21479654.960   112876354.025 6      5619.924          40.312    21479653.240   112876354.030 6      5619.924          37.312    21479661.200    87955639.892 6      4379.161          36.875    21479661.460    87955642.861 7      4379.161          42.187
G22  23696953.880   124528344.960 7      1412.953          43.625    23696951.260   124528344.949 3      1412.953          19.250    23696957.860    97035060.484 3      1101.002          19.625
G17  20783122.060   109216069.249 6      4024.921          38.500    20783120.760   109216069.257 4      4024.921          27.625    20783124.820    85103444.185 4      3136.302          26.937    20783125.420    85103443.175 6      3136.302          38.562
G03  21202741.900   111421180.932 7       794.856          46.437    21202741.140   111421180.950 6       794.856          39.625    21202747.280    86821717.997 6       619.368          40.062    21202747.500    86821720.010 6       619.368          41.250
R05  20161607.340   107775345.549 6      5487.721          39.125    20161613.100   107775345.622 6      5487.721          38.562    20161617.720    83825312.322 7      4268.228          45.562    20161617.860    83825313.320 7      4268.228          45.312
R18  20965528.120   111915416.377 7      1190.335          44.625    20965527.060   111915416.359 7      1190.335          45.437    20965538.880    87045360.066 7       925.816          44.250    20965539.700    87045360.078 7       925.816          44.625
G02  22675974.800   119163037.641 8      1539.062          50.250    22675974.040   119163037.648 5      1539.062          32.000    22675976.100    92854328.718 5      1199.269          32.375
R04  19267377.580   103175930.707 7      1584.706          47.187    19267377.720   103175930.738 7      1584.706          46.062    19267387.900    80247984.350 8      1232.549          49.062    19267387.640    80247984.352 8      1232.549          49.062
G04  20659036.540   108563968.416 7      3539.580          43.062    20659036.260   108563968.421 4      3539.580          29.937    20659040.080    84595316.821 4      2758.114          29.937    20659040.600    84595316.823 7      2758.114          47.687
> 2024 07 31 11 56 44.0000000  0  9
G09  21478585.520   112870734.398 6      5619.538          40.312    21478583.940   112870734.403 6      5619.538          36.937    21478591.700    87951260.956 6      4378.861          36.750    21478592.360    87951263.925 7      4378.861          42.187
G22  23696685.620   124526932.273 7      1412.601          43.625    23696682.660   124526932.262 3      1412.601          21.187    23696689.060    97033959.683 3      1100.728          19.625
G17  20782356.720   109212044.496 6      4024.505          38.500    20782355.100   109212044.504 4      4024.505          27.625    20782359.320    85100308.010 4      3135.978          26.937    20782360.320    85100307.015 6      3135.978          38.562
G03  21202590.520   111420386.197 7       794.706          46.500    21202589.720   111420386.215 6       794.706          40.437    21202596.160    86821098.723 6       619.251          40.437    21202595.600    86821100.742 6       619.251          41.250
R05  20160580.640   107769857.880 6      5487.539          39.125    20160587.220   107769857.950 6      5487.539          37.687    20160590.800    83821044.128 7      4268.086          45.375    20160591.240    83821045.127 7      4268.086          44.812
R18  20965305.260   111914226.297 7      1189.871          44.562    20965304.100   111914226.280 7      1189.871          45.187    20965315.940    87044434.441 7       925.455          44.250    20965316.780    87044434.448 7       925.455          44.562
G02  22675681.860   119161498.633 8      1538.976          49.562    22675681.040   119161498.640 5      1538.976          31.937    22675683.360    92853129.482 5      1199.202          32.375
R04  19267081.820   103174346.363 7      1584.003          47.062    19267081.980   103174346.392 7      1584.003          45.625    19267091.860    80246752.079 8      1232.002          48.687    19267091.600    80246752.079 8      1232.002          49.125
G04  20658363.100   108560428.969 7      3539.176          43.250    20658362.600   108560428.973 5      3539.176          30.187    20658366.720    84592558.803 4      2757.799          29.937    20658367.160    84592558.806 7      2757.799          47.625
> 2024 07 31 11 56 45.0000000  0  9
G09  21477516.420   112865115.178 6      5618.820          40.875    21477514.840   112865115.191 6      5618.820          37.812    21477522.400    87946882.349 6      4378.301          37.375    21477522.960    87946885.326 6      4378.301          41.750
G22  23696416.940   124525519.914 7      1412.046          43.937    23696414.180   124525519.900 3      1412.046          21.187    23696420.500    97032859.137 3      1100.296          19.625
G17  20781591.100   109208020.311 6      4023.849          38.500    20781589.360   109208020.321 4      4023.849          27.625    20781593.640    85097172.283 4      3135.467          26.937    20781593.960    85097171.284 6      3135.467          38.562
G03  21202439.220   111419591.646 7       794.425          46.625    21202438.520   111419591.664 6       794.425          40.187    21202444.840    86820479.589 6       619.032          40.687    21202444.100    86820481.606 6       619.032          41.000
R05  20159554.140   107764370.988 6      5486.278          38.312    20159560.280   107764371.067 6      5486.278          37.687    20159564.660    83816776.552 7      4267.105          45.562    20159564.840    83816777.553 7      4267.105          44.812
R18  20965082.700   111913036.752 7      1189.129          45.875    20965081.200   111913036.737 7      1189.129          44.875    20965093.160    87043509.224 7       924.878          44.500    20965093.960    87043509.237 7       924.878          45.062
G02  22675389.020   119159959.880 8      1538.559          49.625    22675388.400   119159959.887 5      1538.559          31.937    22675390.620    92851930.448 5      1198.877          32.312
R04  19266786.320   103172762.802 7      1583.076          46.875    19266786.360   103172762.819 7      1583.076          45.625    19266796.200    80245520.405 8      1231.281          48.250    19266795.620    80245520.407 8      1231.281          49.062
G04  20657689.140   108556890.167 7      3538.345          42.625    20657689.280   108556890.177 5      3538.345          30.187    20657693.200    84589801.298 4      2757.152          29.875    20657693.640    84589801.308 7      2757.152          47.500
> 2024 07 31 11 56 46.0000000  0  9
G09  21476447.560   112859496.363 6      5618.559          41.062    21476445.760   112859496.373 6      5618.559          37.687    21476453.100    87942504.054 6      4378.098          37.500    21476453.820    87942507.033 6      4378.098          41.750
G22  23696148.060   124524107.844 7      1411.834          44.500    23696145.680   124524107.833 3      1411.834          21.187    23696151.860    97031758.814 3      1100.130          21.625
G17  20780825.040   109203996.670 6      4023.238          38.625    20780823.520   109203996.685 4      4023.238          27.625    20780828.100    85094036.982 4      3134.991          26.937    20780828.160    85094035.989 6      3134.991          38.562
G03  21202288.260   111418797.295 7       794.225          46.812    21202287.540   111418797.310 6       794.225          40.500    21202293.680    86819860.610 6       618.877          40.625    21202292.620    86819862.627 6       618.877          41.000
R05  20158527.620   107758884.722 6      5485.998          38.312    20158531.820   107758884.785 6      5485.998          37.687    20158538.120    83812509.450 7      4266.887          45.250    20158538.240    83812510.455 7      4266.887          44.750
R18  20964859.940   111911847.721 7      1188.729          45.125    20964858.140   111911847.701 7      1188.729          45.250    20964870.420    87042584.412 7       924.567          44.500    20964871.480    87042584.431 7       924.567          45.062
G02  22675096.280   119158421.360 8      1538.404          49.875    22675095.440   119158421.368 5      1538.404          31.562    22675097.960    92850731.591 5      1198.756          32.312
R04  19266490.460   103171180.000 7      1582.384          46.312    19266490.660   103171180.029 7      1582.384          45.625    19266500.460    80244289.343 8      1230.743          48.625    19266500.280    80244289.346 8      1230.743          49.062
G04  20657016.420   108553352.015 7      3537.904          42.187    20657015.960   108553352.020 5      3537.904          30.187    20657019.880    84587044.294 4      2756.808          29.875    20657020.120    84587044.298 7      2756.808          47.562
> 2024 07 31 11 56 47.0000000  0  9
G09  21475378.320   112853877.965 7      5618.309          42.250    21475376.960   112853877.970 6      5618.309          37.625    21475384.020    87938126.077 6      4377.903          37.312    21475384.440    87938129.057 6      4377.903          41.750
G22  23695879.200   124522696.089 7      1411.678          43.937    23695877.300   124522696.078 3      1411.678          21.187    23695883.520    97030658.737 3      1100.009          21.625
G17  20780059.900   109199973.588 6      4022.829          39.812    20780058.140   109199973.603 4      4022.829          27.625    20780062.860    85090902.109 4      3134.672          29.125    20780063.160    85090901.098 6      3134.672          39.500
G03  21202137.060   111418003.112 7       794.130          46.375    21202136.380   111418003.125 6       794.130          40.062    21202142.420    86819241.758 6       618.803          40.250    21202141.880    86819243.773 6       618.803          41.000
R05  20157501.460   107753399.231 6      5485.058          38.312    20157505.120   107753399.275 6      5485.058          37.687    20157512.140    83808242.955 7      4266.156          44.875    20157511.940    83808243.954 7      4266.156          44.562
R18  20964637.280   111910659.222 7      1188.302          44.187    20964635.620   111910659.206 7      1188.302          44.812    20964647.600    87041660.017 7       924.235          44.437    20964648.780    87041660.041 7       924.235          44.812
G02  22674803.520   119156883.096 8      1538.153          50.312    22674802.880   119156883.103 5      1538.153          31.562    22674805.040    92849532.939 5      1198.561          32.312
R04  19266194.380   103169597.986 7      1581.784          46.500    19266195.180   103169598.012 7      1581.784          45.750    19266205.020    80243058.886 8      1230.276          48.312    19266204.620    80243058.888 8      1230.276          48.875
G04  20656343.520   108549814.527 7      3537.204          42.500    20656342.780   108549814.532 5      3537.204          30.187    20656346.740    84584287.808 4      2756.263          29.875    20656347.060    84584287.810 7      2756.263          47.937
> 2024 07 31 11 56 48.0000000  0  9
G09  21474308.900   112848259.941 7      5617.860          42.375    21474308.280   112848259.953 6      5617.860          38.187    21474314.900    87933748.402 6      4377.553          37.250    21474314.800    87933751.381 6      4377.553          41.750
G22  23695610.700   124521284.605 7      1411.238          44.250    23695608.840   124521284.596 3      1411.238          21.187    23695614.980    97029558.869 3      1099.666          21.625
G17  20779294.560   109195950.989 6      4022.102          39.937    20779292.680   109195951.002 4      4022.102          29.375    20779297.680    85087767.617 4      3134.106          29.125    20779297.500    85087766.630 6      3134.106          39.500
G03  21201986.080   111417209.073 7       793.907          46.750    21201985.260   111417209.089 6       793.907          39.875    21201991.180    86818623.028 6       618.629          40.437    21201990.580    86818625.051 6       618.629          40.812
R05  20156475.520   107747914.310 6      5484.652          38.312    20156478.220   107747914.346 6      5484.652          37.687    20156486.040    83803976.901 7      4265.840          45.187    20156485.560    83803977.900 7      4265.840          44.500
R18  20964414.580   111909471.224 7      1187.705          45.187    20964413.160   111909471.206 7      1187.705          44.875    20964424.940    87040736.009 7       923.770          43.812    20964426.220    87040736.034 7       923.770          45.062
G02  22674510.860   119155345.028 8      1537.891          50.187    22674510.260   119155345.036 5      1537.891          31.562    22674512.180    92848334.439 5      1198.356          31.875
R04  19265899.060   103168016.721 7      1580.839          46.187    19265900.000   103168016.753 7      1580.839          45.562    19265909.400    80241829.020 8      1229.542          48.437    19265909.260    80241829.020 7      1229.542          47.812
G04  20655670.300   108546277.623 7      3536.576          42.687    20655669.640   108546277.628 5      3536.576          30.250    20655673.580    84581531.779 4      2755.774          29.875    20655673.660    84581531.781 7      2755.774          47.250
> 2024 07 31 11 56 49.0000000  0  9
G09  21473240.080   112842642.279 7      5617.416          43.437    21473239.480   112842642.294 6      5617.416          37.875    21473245.920    87929371.003 6      4377.207          38.375    21473246.180    87929373.980 6      4377.207          41.750
G22  23695342.080   124519873.362 7      1411.034          44.312    23695340.540   124519873.357 3      1411.034          21.187    23695346.760    97028459.196 3      1099.507          21.625
G17  20778528.980   109191928.835 6      4021.913          39.937    20778527.380   109191928.845 4      4021.913          29.375    20778532.440    85084633.471 4      3133.958          29.125    20778532.840    85084632.478 6      3133.958          39.500
G03  21201834.600   111416415.137 7       793.841          47.187    21201834.420   111416415.158 6       793.841          40.125    21201839.980    86818004.377 6       618.577          40.500    21201840.300    86818006.398 6       618.577          40.812
R05  20155449.240   107742430.038 6      5484.015          38.312    20155450.940   107742430.098 6      5484.015          37.687    20155459.780    83799711.377 7      4265.345          45.000    20155459.520    83799712.382 7      4265.345          44.437
R18  20964192.220   111908283.648 7      1187.303          44.937    20964190.580   111908283.627 7      1187.303          44.937    20964202.520    87039812.328 7       923.458          43.625    20964203.780    87039812.354 7       923.458          44.625
G02  22674218.320   119153807.134 8      1537.737          50.375    22674217.580   119153807.142 5      1537.737          31.312    22674219.440    92847136.074 5      1198.237          31.875
R04  19265603.540   103166436.126 7      1580.200          46.750    19265604.900   103166436.168 7      1580.200          45.625    19265614.000    80240599.670 8      1229.044          48.187    19265614.160    80240599.670 8      1229.044          48.562
G04  20654997.160   108542741.284 6      3536.059          41.875    20654996.680   108542741.289 5      3536.059          30.250    20655000.700    84578776.192 5      2755.371          30.187    20655001.140    84578776.196 7      2755.371          47.812
> 2024 07 31 11 56 50.0000000  0  9
G09  21472171.080   112837024.853 7      5617.458          43.187    21472170.740   112837024.866 6      5617.458          38.875    21472176.880    87924993.789 6      4377.240          38.000    21472176.940    87924996.774 6      4377.240          41.687
G22  23695073.480   124518462.241 7      1411.266          44.250    23695072.080   124518462.238 3      1411.266          21.187    23695078.460    97027359.615 3      1099.688          21.625
G17  20777763.660   109187907.096 6      4021.742          40.062    20777762.220   109187907.106 4      4021.742          29.375    20777767.240    85081499.646 4      3133.825          29.125    20777767.420    85081498.647 6      3133.825          39.812
G03  21201683.580   111415621.230 7       794.070          46.687    21201683.340   111415621.243 6       794.070          39.812    21201688.940    86817385.740 6       618.756          39.812    21201688.700    86817387.769 6       618.756          40.812
R05  20154423.200   107736946.287 6      5483.724          36.937    20154423.780   107736946.355 5      5483.724          35.500    20154434.420    83795446.256 7      4265.118          44.687    20154433.980    83795447.261 7      4265.118          44.500
R18  20963969.880   111907096.392 7      1187.313          45.187    20963968.320   111907096.377 7      1187.313          44.750    20963980.080    87038888.897 7       923.466          44.062    20963981.180    87038888.920 7       923.466          44.375
G02  22673925.660   119152269.301 8      1537.989          50.062    22673924.920   119152269.303 5      1537.989          31.312    22673926.640    92845937.754 5      1198.433          31.875
R04  19265308.680   103164856.176 7      1579.816          46.312    19265310.120   103164856.216 7      1579.816          45.625    19265318.920    80239370.812 8      1228.746          48.562    19265319.060    80239370.810 8      1228.746          48.500
G04  20654324.200   108539205.454 7      3535.723          42.500    20654323.860   108539205.462 5      3535.723          30.250    20654327.860    84576020.998 5      2755.109          30.187    20654328.300    84576020.998 7      2755.109          47.750
> 2024 07 31 11 56 51.0000000  0  9
G09  21471102.180   112831407.793 7      5616.733          43.125    21471102.120   112831407.801 6      5616.733          38.750    21471107.900    87920616.857 6      4376.675          38.000    21471108.020    87920619.844 6      4376.675          41.687
G22  23694805.220   124517051.403 7      1410.723          44.562    23694803.760   124517051.395 3      1410.723          21.187    23694810.040    97026260.248 3      1099.265          21.625
G17  20776998.660   109183885.820 6      4021.067          40.187    20776997.100   109183885.824 5      4021.067          30.937    20777002.200    85078366.182 5      3133.299          30.750    20777002.040    85078365.187 6      3133.299          39.812
G03  21201532.460   111414827.428 7       793.659          46.625    21201532.300   111414827.441 6       793.659          39.250    21201537.660    86816767.191 6       618.436          39.875    21201537.340    86816769.216 6       618.436          40.250
R05  20153397.320   107731463.215 6      5482.674          36.937    20153398.100   107731463.267 5      5482.674          35.500    20153408.320    83791181.632 7      4264.302          45.062    20153408.340    83791182.626 7      4264.302          44.250
R18  20963747.720   111905909.620 7      1186.464          44.500    20963746.000   111905909.615 7      1186.464          44.500    20963757.800    87037965.853 7       922.806          43.937    20963758.880    87037965.875 7       922.806          44.625
G02  22673632.900   119150731.664 8      1537.502          49.437    22673632.340   119150731.666 5      1537.502          31.312    22673633.880    92844739.585 5      1198.053          31.875
R04  19265014.000   103163276.963 7      1578.846          46.250    19265015.120   103163277.005 7      1578.846          45.562    19265023.860    80238142.537 7      1227.992          47.875    19265023.860    80238142.530 7      1227.992          47.812
G04  20653651.440   108535670.176 6      3534.946          41.750    20653651.220   108535670.184 5      3534.946          30.250    20653655.200    84573266.234 5      2754.503          30.187    20653655.660    84573266.236 7      2754.503          47.875
> 2024 07 31 11 56 52.0000000  0  9
G09  21470033.560   112825791.206 7      5616.451          43.187    21470033.640   112825791.214 6      5616.451          38.500    21470039.080    87916240.293 6      4376.455          38.500    21470039.260    87916243.275 6      4376.455          41.500
G22  23694537.100   124515640.938 7      1410.443          45.125    23694535.500   124515640.930 4      1410.443          24.625    23694541.760    97025161.177 3      1099.046          21.625
G17  20776233.240   109179865.160 6      4020.598          40.187    20776232.020   109179865.171 5      4020.598          30.937    20776237.140    85075233.204 5      3132.933          30.750    20776237.180    85075232.218 6      3132.933          39.812
G03  21201381.700   111414033.878 7       793.603          47.250    21201381.340   111414033.894 6       793.603          39.562    21201386.560    86816148.842 6       618.392          39.750    21201386.260    86816150.863 6       618.392          40.250
R05  20152371.260   107725980.910 6      5481.882          36.937    20152372.200   107725980.941 5      5481.882          35.500    20152382.900    83786917.599 7      4263.686          44.625    20152382.820    83786918.599 7      4263.686          44.562
R18  20963525.740   111904723.469 7      1186.011          45.312    20963523.980   111904723.459 7      1186.011          45.062    20963535.520    87037043.275 7       922.453          44.500    20963536.500    87037043.297 7       922.453          44.750
G02  22673340.320   119149194.335 8      1537.348          50.187    22673339.860   119149194.340 5      1537.348          31.375    22673341.360    92843541.660 5      1197.933          31.687
R04  19264719.460   103161698.619 7      1578.124          46.875    19264720.800   103161698.651 7      1578.124          45.687    19264728.820    80236914.922 8      1227.430          48.250    19264728.860    80236914.918 7      1227.430          47.812
G04  20652978.800   108532135.626 6      3534.374          41.937    20652978.560   108532135.631 5      3534.374          30.312    20652982.500    84570512.039 5      2754.057          30.187    20652982.920    84570512.039 7      2754.057          47.500
> 2024 07 31 11 56 53.0000000  0  9
G09  21468964.700   112820174.979 7      5615.900          43.562    21468964.940   112820174.984 6      5615.900          38.437    21468970.300    87911864.012 6      4376.026          38.375    21468970.800    87911866.998 6      4376.026          41.500
G22  23694269.160   124514230.734 7      1409.895          45.062    23694267.300   124514230.728 4      1409.895          24.625    23694273.620    97024062.306 3      1098.620          21.625
G17  20775468.000   109175845.029 6      4019.732          39.875    20775467.220   109175845.039 5      4019.732          30.937    20775472.260    85072100.633 5      3132.258          30.750    20775471.080    85072099.642 6      3132.258          40.062
G03  21201230.520   111413240.465 7       793.202          47.500    21201230.580   111413240.483 6       793.202          39.625    21201235.560    86815530.596 6       618.079          40.187    21201235.680    86815532.632 6       618.079          40.250
R05  20151347.020   107720499.097 6      5481.309          36.937    20151344.920   107720499.144 5      5481.309          35.500    20151357.300    83782653.989 7      4263.240          44.687    20151357.620    83782654.992 7      4263.240          44.125
R18  20963303.400   111903537.775 7      1185.310          44.187    20963301.640   111903537.773 7      1185.310          44.625    20963313.560    87036121.060 7       921.908          44.000    20963314.420    87036121.082 7       921.908          44.312
G02  22673048.020   119147657.206 8      1536.863          50.375    22673047.280   119147657.213 5      1536.863          31.375    22673048.840    92842343.889 5      1197.555          31.687
R04  19264424.420   103160120.985 7      1577.090          47.062    19264425.740   103160121.017 7      1577.090          45.750    19264433.960    80235687.867 8      1226.625          48.062    19264434.220    80235687.867 7      1226.625          47.000
G04  20652306.480   108528601.665 6      3533.596          41.937    20652306.260   108528601.670 5      3533.596          30.312    20652309.960    84567758.301 5      2753.452          30.125    20652311.000    84567758.291 7      2753.452          47.875
> 2024 07 31 11 56 54.0000000  0  9
G09  21467895.960   112814559.059 7      5615.784          44.000    21467896.320   112814559.069 6      5615.784          38.187    21467901.580    87907487.977 6      4375.935          37.812    21467901.560    87907490.969 6      4375.935          41.437
G22  23694001.100   124512820.726 7      1409.893          45.000    23693999.160   124512820.726 4      1409.893          24.625    23694005.600    97022963.590 4      1098.618          25.062
G17  20774703.380   109171825.298 6      4019.575          40.937    20774702.460   109171825.308 5      4019.575          30.937    20774707.520    85068968.376 5      3132.136          31.187    20774705.960    85068967.394 6      3132.136          40.062
G03  21201079.620   111412447.128 7       793.384          46.187    21201079.680   111412447.146 6       793.384          39.437    21201084.500    86814912.410 6       618.222          39.625    21201084.000    86814914.433 6       618.222          39.875
R05  20150321.700   107715017.928 6      5480.909          36.937    20150319.720   107715017.954 5      5480.909          35.500    20150332.040    83778390.854 7      4262.929          44.312    20150332.040    83778391.856 7      4262.929          43.750
R18  20963081.440   111902352.489 7      1185.085          44.125    20963079.740   111902352.487 7      1185.085          44.937    20963091.380    87035199.161 7       921.732          43.437    20963092.160    87035199.178 7       921.732          43.687
G02  22672755.540   119146120.213 8      1536.889          50.187    22672754.840   119146120.218 5      1536.889          31.375    22672756.160    92841146.222 5      1197.576          31.687
R04  19264130.240   103158543.997 7      1576.631          47.250    19264131.740   103158544.033 7      1576.631          45.562    19264139.220    80234461.324 7      1226.268          47.000    19264139.680    80234461.320 7      1226.268          46.750
G04  20651634.200   108525068.242 7      3533.306          42.687    20651633.840   108525068.250 5      3533.306          30.312    20651637.720    84565004.984 5      2753.226          30.125    20651638.480    84565004.970 7      2753.226          47.312
> 2024 07 31 11 56 55.0000000  0  9
G09  21466827.460   112808943.549 7      5615.275          44.062    21466828.080   112808943.559 6      5615.275          38.875    21466832.900    87903112.261 6      4375.539          38.125    21466833.480    87903115.263 6      4375.539          41.437
G22  23693732.800   124511411.024 7      1409.480          45.250    23693730.980   124511411.026 4      1409.480          24.625    23693737.600    97021865.115 4      1098.296          25.062
G17  20773938.600   109167806.141 6      4018.835          40.937    20773937.780   109167806.152 5      4018.835          31.437    20773942.720    85065836.566 5      3131.560          31.187    20773941.280    85065835.571 6      3131.560          40.062
G03  21200928.480   111411653.991 7       792.942          46.750    21200928.720   111411654.006 6       792.942          39.562    21200933.480    86814294.377 6       617.877          40.000    21200933.380    86814296.408 6       617.877          39.875
R05  20149296.280   107709537.476 6      5479.786          36.937    20149295.020   107709537.482 5      5479.786          35.500    20149306.900    83774128.271 7      4262.056          44.625    20149306.580    83774129.269 7      4262.056          44.500
R18  20962859.540   111901167.712 7      1184.504          44.625    20962858.400   111901167.708 7      1184.504          44.375    20962869.340    87034277.664 7       921.281          44.375    20962869.980    87034277.677 7       921.281          44.250
G02  22672462.920   119144583.454 8      1536.578          50.437    22672462.340   119144583.454 5      1536.578          31.375    22672463.620    92839948.735 5      1197.333          31.125
R04  19263835.660   103156967.763 7      1575.721          47.125    19263837.000   103156967.808 7      1575.721          45.812    19263845.000    80233235.373 7      1225.560          47.562    19263845.200    80233235.373 7      1225.560          47.312
G04  20650961.440   108521535.479 7      3532.442          42.250    20650961.680   108521535.486 5      3532.442          30.312    20650965.460    84562252.182 5      2752.552          30.125    20650966.220    84562252.170 7      2752.552          47.812
> 2024 07 31 11 56 56.0000000  0  9
G09  21465758.920   112803328.557 7      5615.005          45.187    21465759.720   112803328.572 6      5615.005          38.687    21465764.540    87898736.943 6      4375.328          38.375    21465764.480    87898739.932 6      4375.328          41.437
G22  23693464.740   124510001.720 7      1409.237          45.937    23693462.960   124510001.720 4      1409.237          24.625    23693469.620    97020766.948 4      1098.107          25.062
G17  20773174.180   109163787.592 6      4018.387          40.937    20773173.100   109163787.602 5      4018.387          31.437    20773178.060    85062705.227 5      3131.211          31.187    20773177.220    85062704.245 6      3131.211          40.062
G03  21200777.620   111410861.106 7       792.854          46.125    21200777.860   111410861.119 6       792.854          39.250    21200782.600    86813676.538 6       617.809          39.625    21200782.240    86813678.565 6       617.809          39.875
R05  20148271.560   107704057.662 6      5479.811          36.937    20148268.740   107704057.685 5      5479.811          35.500    20148282.100    83769866.206 7      4262.075          44.500    20148281.420    83769867.211 7      4262.075          44.562
R18  20962637.900   111899983.566 7      1184.012          45.000    20962636.660   111899983.564 7      1184.012          44.625    20962647.540    87033356.651 7       920.898          44.187    20962648.060    87033356.664 7       920.898          44.562
G02  22672170.540   119143047.021 8      1536.429          50.125    22672169.820   119143047.021 5      1536.429          30.562    22672171.120    92838751.509 5      1197.217          31.125
R04  19263541.640   103155392.395 7      1575.127          46.625    19263542.700   103155392.450 7      1575.127          45.625    19263550.620    80232010.093 7      1225.099          47.375    19263551.020    80232010.095 7      1225.099          47.437
G04  20650289.180   108518003.438 7      3531.762          42.250    20650289.560   108518003.446 5      3531.762          30.625    20650293.300    84559499.942 5      2752.022          30.125    20650294.040    84559499.938 7      2752.022          47.875
> 2024 07 31 11 56 57.0000000  0  9
G09  21464690.960   112797714.117 7      5614.218          44.750    21464691.420   112797714.137 6      5614.218          38.437    21464696.020    87894362.054 6      4374.715          38.687    21464696.040    87894365.047 6      4374.715          41.250
G22  23693196.600   124508592.877 7      1408.636          45.562    23693195.120   124508592.877 4      1408.636          24.625    23693201.960    97019669.140 4      1097.639          25.062
G17  20772409.920   109159769.729 6      4017.572          40.937    20772408.680   109159769.736 5      4017.572          32.062    20772413.520    85059574.427 5      3130.576          31.875    20772411.980    85059573.440 6      3130.576          40.062
G03  21200626.980   111410068.536 7       792.394          46.937    21200627.220   111410068.546 6       792.394          39.062    21200631.640    86813058.951 6       617.450          39.375    21200631.780    86813060.972 6       617.450          40.062
R05  20147246.660   107698578.842 6      5478.177          36.937    20147243.760   107698578.857 5      5478.177          35.500    20147257.020    83765604.908 7      4260.805          44.750    20147256.600    83765605.905 7      4260.805          44.125
R18  20962415.960   111898800.074 7      1183.205          44.562    20962414.640   111898800.067 7      1183.205          44.125    20962426.000    87032436.146 7       920.270          44.250    20962426.440    87032436.156 7       920.270          44.312
G02  22671878.220   119141510.977 8      1535.900          50.187    22671877.620   119141510.976 5      1535.900          30.562    22671878.740    92837554.583 5      1196.805          31.125
R04  19263247.620   103153817.979 7      1574.014          46.312    19263248.640   103153818.029 7      1574.014          45.562    19263256.420    80230785.545 7      1224.233          47.562    19263257.060    80230785.547 7      1224.233          47.187
G04  20649616.920   108514472.183 7      3530.833          42.125    20649617.840   108514472.193 5      3530.833          30.625    20649621.360    84556748.315 5      2751.298          30.437    20649622.300    84556748.303 7      2751.298          47.750
> 2024 07 31 11 56 58.0000000  0  8
G09  21463622.500   112792099.902 7      5614.004          44.687    21463623.480   112792099.928 6      5614.004          39.187    21463627.560    87889987.345 6      4374.549          39.062    21463627.840    87889990.343 6      4374.549          41.250
G22  23692928.580   124507184.139 7      1408.620          45.812    23692927.220   124507184.138 4      1408.620          24.625    23692934.120    97018571.411 4      1097.626          25.062
G17  20771645.160   109155752.228 6      4017.224          40.875    20771644.280   109155752.235 5      4017.224          32.062    20771649.060    85056443.906 5      3130.305          31.875    20771648.080    85056442.916 6      3130.305          40.062
G03  21200476.300   111409275.946 7       792.545          47.750    21200476.500   111409275.961 6       792.545          39.375    21200480.540    86812441.348 6       617.567          39.375    21200481.100    86812443.371 6       617.567          40.062
R18  20962194.760   111897616.899 7      1182.952          44.687    20962192.840   111897616.897 7      1182.952          44.500    20962204.360    87031515.895 7       920.074          44.125    20962204.740    87031515.902 7       920.074          44.375
G02  22671585.980   119139974.982 8      1535.919          50.812    22671585.440   119139974.979 5      1535.919          30.562    22671586.340    92836357.692 5      1196.820          31.125
R04  19262953.840   103152244.147 7      1573.387          46.312    19262954.440   103152244.197 7      1573.387          45.812    19262962.700    80229561.452 7      1223.745          47.250    19262963.140    80229561.456 7      1223.745          47.375
G04  20648944.740   108510941.390 7      3530.350          42.125    20648945.980   108510941.398 5      3530.350          30.625    20648949.520    84553997.042 5      2750.922          30.437    20648950.280    84553997.032 7      2750.922          47.375
> 2024 07 31 11 56 59.0000000  0  8
G09  21462554.260   112786486.116 7      5613.824          45.125    21462555.300   112786486.142 6      5613.824          38.625    21462559.300    87885612.967 6      4374.408          38.937    21462560.240    87885615.958 6      4374.408          41.125
G22  23692660.640   124505775.729 7      1408.453          45.687    23692659.280   124505775.731 4      1408.453          27.187    23692666.300    97017473.939 4      1097.496          25.062
G17  20770880.720   109151735.263 6      4016.908          40.437    20770880.040   109151735.273 5      4016.908          32.062    20770884.680    85053313.808 5      3130.058          31.875    20770883.280    85053312.815 6      3130.058          40.812
G03  21200325.360   111408483.586 7       792.463          47.062    21200325.600   111408483.596 6       792.463          39.125    21200329.760    86811823.917 6       617.504          39.312    21200329.640    86811825.930 6       617.504          40.062
R18  20961973.240   111896434.274 7      1182.663          44.687    20961971.500   111896434.264 7      1182.663          44.625    20961982.840    87030596.055 7       919.849          44.812    20961983.220    87030596.060 7       919.849          44.250
G02  22671293.580   119138439.243 8      1535.874          49.812    22671293.380   119138439.245 5      1535.874          30.125    22671294.080    92835161.008 5      1196.785          30.750
R04  19262660.540   103150671.108 7      1572.823          46.562    19262660.940   103150671.144 7      1572.823          45.750    19262669.060    80228337.964 7      1223.307          47.312    19262669.260    80228337.966 7      1223.307          47.062
G04  20648273.320   108507411.236 7      3529.879          42.000    20648274.440   108507411.252 5      3529.879          30.625    20648277.780    84551246.272 5      2750.555          30.437    20648278.400    84551246.266 7      2750.555          47.875
> 2024 07 31 11 57  0.0000000  0  8
G09  21461486.220   112780872.613 7      5613.324          44.812    21461487.200   112780872.637 6      5613.324          39.312    21461491.060    87881238.803 6      4374.019          38.875    21461491.520    87881241.790 6      4374.019          41.125
G22  23692392.640   124504367.487 7      1408.103          45.875    23692391.540   124504367.492 4      1408.103          27.187    23692398.520    97016376.599 4      1097.223          27.437
G17  20770116.480   109147718.713 6      4016.402          40.937    20770115.920   109147718.721 5      4016.402          32.937    20770120.360    85050184.023 5      3129.664          33.000    20770119.160    85050183.024 6      3129.664          40.812
G03  21200174.700   111407691.219 7       792.385          46.875    21200174.700   111407691.231 6       792.385          38.875    21200178.600    86811206.486 6       617.443          39.125    21200179.260    86811208.507 6       617.443          40.000
R18  20961751.780   111895252.036 7      1181.994          44.437    20961749.820   111895252.026 7      1181.994          44.625    20961761.280    87029676.532 7       919.329          44.062    20961761.600    87029676.540 7       919.329          44.687
G02  22671001.300   119136903.611 8      1535.604          50.125    22671001.320   119136903.611 5      1535.604          30.125    22671001.960    92833964.403 5      1196.575          30.750
R04  19262366.620   103149098.687 7      1572.084          46.437    19262367.280   103149098.721 7      1572.084          45.625    19262375.320    80227114.968 8      1222.732          48.187    19262375.720    80227114.970 7      1222.732          46.937
G04  20647602.060   108503881.560 7      3529.365          42.250    20647602.960   108503881.573 5      3529.365          30.437    20647606.080    84548495.876 5      2750.154          30.437    20647606.520    84548495.872 7      2750.154          47.625
> 2024 07 31 11 57  1.0000000  0  8
G09  21460418.000   112775259.463 7      5612.977          45.250    21460419.120   112775259.486 6      5612.977          39.000    21460422.860    87876864.923 6      4373.749          38.875    21460423.120    87876867.913 6      4373.749          41.000
G22  23692124.660   124502959.508 7      1407.975          45.750    23692123.740   124502959.515 4      1407.975          27.187    23692130.640    97015279.467 4      1097.123          27.437
G17  20769352.500   109143702.634 6      4016.061          41.312    20769351.880   109143702.647 5      4016.061          32.937    20769356.120    85047054.614 5      3129.398          33.000    20769355.560    85047053.622 6      3129.398          41.062
G03  21200023.920   111406899.033 7       792.149          46.437    21200024.340   111406899.045 6       792.149          38.750    21200027.840    86810589.194 6       617.259          39.375    21200028.780    86810591.217 6       617.259          40.000
R18  20961530.120   111894070.247 7      1181.641          44.937    20961528.120   111894070.248 7      1181.641          43.750    20961539.680    87028757.361 7       919.054          44.187    20961540.240    87028757.372 7       919.054          44.375
G02  22670709.180   119135368.153 8      1535.496          49.750    22670709.060   119135368.155 5      1535.496          30.125    22670709.820    92832767.936 5      1196.491          30.750
R04  19262073.200   103147527.019 7      1571.347          47.625    19262073.780   103147527.058 7      1571.347          46.000    19262081.860    80225892.561 7      1222.159          46.875    19262082.400    80225892.563 7      1222.159          47.125
G04  20646930.700   108500352.533 7      3528.700          42.875    20646931.520   108500352.546 5      3528.700          30.437    20646934.600    84545745.984 5      2749.637          30.187    20646934.940    84545745.972 7      2749.637          47.312
> 2024 07 31 11 57  2.0000000  0  8
G09  21459349.800   112769646.636 7      5612.739          45.687    21459351.060   112769646.651 6      5612.739          39.750    21459354.820    87872491.290 6      4373.563          39.187    21459354.500    87872494.285 6      4373.563          41.000
G22  23691856.900   124501551.734 7      1407.691          45.687    23691855.880   124501551.741 4      1407.691          27.187    23691862.900    97014182.492 4      1096.902          27.437
G17  20768587.900   109139687.048 6      4015.374          40.812    20768587.960   109139687.061 5      4015.374          33.875    20768592.100    85043925.589 5      3128.863          33.750    20768591.120    85043924.592 6      3128.863          41.062
G03  21199873.280   111406106.891 8       792.152          48.250    21199873.760   111406106.899 6       792.152          39.250    21199876.920    86809971.937 6       617.261          39.875    21199878.220    86809973.947 6       617.261          40.000
R18  20961308.620   111892888.900 7      1181.215          45.875    20961306.660   111892888.896 7      1181.215          44.187    20961319.020    87027838.530 7       918.722          44.125    20961319.080    87027838.535 7       918.722          44.625
G02  22670416.960   119133832.863 8      1535.247          50.687    22670417.000   119133832.870 5      1535.247          30.187    22670417.880    92831571.598 5      1196.297          30.750
R04  19261780.060   103145956.036 8      1570.679          48.000    19261780.100   103145956.072 7      1570.679          46.625    19261788.240    80224670.683 7      1221.639          47.250    19261788.900    80224670.688 7      1221.639          47.312
G04  20646259.120   108496823.987 7      3528.318          42.500    20646260.280   108496824.003 5      3528.318          30.437    20646263.140    84542996.468 5      2749.339          30.187    20646263.380    84542996.468 7      2749.339          47.375
> 2024 07 31 11 57  3.0000000  0  8
G09  21458281.760   112764034.295 7      5612.145          45.125    21458283.280   112764034.310 6      5612.145          39.312    21458286.860    87868118.033 6      4373.100          39.625    21458286.940    87868121.028 6      4373.100          41.000
G22  23691588.980   124500144.338 7      1407.182          46.125    23691588.200   124500144.343 4      1407.182          27.187    23691595.340    97013085.809 4      1096.506          27.437
G17  20767824.540   109135672.070 6      4014.549          41.562    20767824.200   109135672.080 5      4014.549          34.312    20767828.040    85040797.024 5      3128.220          33.750    20767827.260    85040796.029 6      3128.220          41.062
G03  21199722.500   111405315.023 8       791.695          48.562    21199722.820   111405315.031 6       791.695          39.375    21199726.400    86809354.890 6       616.905          39.500    21199727.100    86809356.907 6       616.905          40.000
R18  20961087.680   111891708.144 7      1180.451          45.500    20961085.320   111891708.139 7      1180.451          44.000    20961097.660    87026920.159 7       918.129          44.312    20961098.020    87026920.168 7       918.129          44.625
G02  22670124.940   119132297.883 8      1534.754          51.062    22670124.880   119132297.888 5      1534.754          30.187    22670125.880    92830375.499 5      1195.912          30.625
R04  19261486.800   103144385.888 7      1569.723          47.875    19261487.240   103144385.922 7      1569.723          46.437    19261495.420    80223449.455 7      1220.895          46.937    19261495.840    80223449.460 7      1220.895          47.437
G04  20645587.740   108493296.219 7      3527.301          43.375    20645589.180   108493296.237 5      3527.301          30.500    20645591.840    84540247.558 5      2748.546          30.187    20645591.980    84540247.558 7      2748.546          47.500
> 2024 07 31 11 57  4.0000000  0  8
G09  21457213.840   112758422.371 7      5611.703          44.500    21457215.400   112758422.392 6      5611.703          39.500    21457218.780    87863745.112 6      4372.756          38.812    21457219.240    87863748.101 6      4372.756          41.187
G22  23691321.080   124498737.239 7      1407.003          45.750    23691320.600   124498737.249 4      1407.003          28.000    23691327.700    97011989.365 4      1096.366          27.437
G17  20767060.840   109131657.585 6      4014.160          41.812    20767060.560   109131657.601 5      4014.160          34.312    20767064.040    85037668.854 5      3127.917          34.250    20767063.380    85037667.863 6      3127.917          41.187
G03  21199572.100   111404523.326 7       791.532          47.000    21199572.040   111404523.333 6       791.532          38.750    21199575.360    86808737.979 6       616.778          39.312    21199577.320    86808739.988 6       616.778          40.000
R18  20960866.080   111890527.918 7      1179.923          44.875    20960864.180   111890527.911 7      1179.923          43.500    20960876.560    87026002.196 7       917.718          44.500    20960876.640    87026002.207 7       917.718          45.000
G02  22669833.100   119130763.139 8      1534.605          49.812    22669832.760   119130763.144 5      1534.605          30.187    22669834.080    92829179.587 5      1195.796          30.625
R04  19261193.900   103142816.495 7      1568.927          47.500    19261194.040   103142816.542 7      1568.927          46.062    19261202.380    80222228.829 7      1220.277          47.187    19261202.940    80222228.833 7      1220.277          47.437
G04  20644916.460   108489769.047 7      3526.926          43.000    20644918.220   108489769.060 5      3526.926          30.500    20644920.660    84537499.112 5      2748.254          30.500    20644920.760    84537499.104 7      2748.254          47.250
> 2024 07 31 11 57  5.0000000  0  8
G09  21456146.280   112752810.800 7      5611.479          44.437    21456147.480   112752810.818 6      5611.479          39.625    21456151.000    87859372.457 6      4372.581          39.500    21456151.580    87859375.442 6      4372.581          41.187
G22  23691053.560   124497330.422 7      1406.766          45.937    23691053.000   124497330.429 4      1406.766          28.000    23691060.100    97010893.135 4      1096.182          28.500
G17  20766297.000   109127643.624 7      4013.865          42.375    20766296.900   109127643.631 5      4013.865          34.375    20766300.280    85034541.090 5      3127.687          34.500    20766299.140    85034540.085 6      3127.687          41.187
G03  21199421.420   111403731.736 7       791.642          46.812    21199421.520   111403731.744 6       791.642          39.000    21199424.800    86808121.158 6       616.864          39.562    21199426.360    86808123.171 6       616.864          40.000
R18  20960645.020   111889348.149 7      1179.570          43.875    20960642.920   111889348.145 7      1179.570          43.375    20960655.820    87025084.595 7       917.444          44.312    20960655.940    87025084.611 7       917.444          44.875
G02  22669540.900   119129228.574 8      1534.573          49.500    22669540.580   119129228.576 5      1534.573          30.187    22669542.340    92827983.808 5      1195.771          30.625
R04  19260901.080   103141247.839 7      1568.428          46.375    19260900.920   103141247.878 7      1568.428          45.937    19260909.300    80221008.755 7      1219.889          47.250    19260909.800    80221008.759 7      1219.889          47.187
G04  20644245.620   108486242.495 7      3526.364          43.187    20644247.160   108486242.505 5      3526.364          30.500    20644249.680    84534751.147 5      2747.816          30.500    20644249.800    84534751.141 7      2747.816          47.312
> 2024 07 31 11 57  6.0000000  0  8
G09  21455078.540   112747199.610 7      5611.191          45.187    21455079.780   112747199.628 6      5611.191          39.500    21455083.440    87855000.103 6      4372.356          39.437    21455084.160    87855003.096 6      4372.356          41.125
G22  23690785.960   124495923.861 7      1406.637          46.375    23690785.480   124495923.869 4      1406.637          28.000    23690792.520    97009797.106 4      1096.081          28.500
G17  20765533.340   109123630.172 7      4013.312          42.062    20765533.300   109123630.179 5      4013.312          34.375    20765536.440    85031413.723 5      3127.256          34.500    20765535.180    85031412.716 6      3127.256          41.312
G03  21199270.420   111402940.333 7       791.341          47.437    21199270.940   111402940.340 6       791.341          38.437    21199274.020    86807504.478 6       616.630          38.937    21199275.960    86807506.491 6       616.630          40.187
R18  20960424.100   111888168.879 7      1179.069          43.875    20960421.880   111888168.864 7      1179.069          43.375    20960434.860    87024167.367 7       917.054          44.062    20960435.100    87024167.384 7       917.054          44.750
G02  22669249.020   119127694.232 8      1534.383          50.250    22669248.520   119127694.232 5      1534.383          30.250    22669250.480    92826788.207 5      1195.623          30.625
R04  19260608.040   103139679.932 7      1567.679          46.625    19260608.120   103139679.977 7      1567.679          45.812    19260616.480    80219789.274 7      1219.306          46.437    19260617.020    80219789.276 7      1219.306          46.187
G04  20643574.300   108482716.569 7      3525.692          43.875    20643576.300   108482716.579 5      3525.692          30.500    20643578.740    84532003.668 5      2747.292          30.500    20643578.640    84532003.658 7      2747.292          46.875
> 2024 07 31 11 57  7.0000000  0  8
G09  21454010.580   112741588.769 7      5610.629          45.250    21454012.040   112741588.792 6      5610.629          39.937    21454015.840    87850628.025 6      4371.919          39.937    21454016.320    87850631.006 6      4371.919          41.125
G22  23690518.460   124494517.553 7      1406.184          45.937    23690517.920   124494517.561 4      1406.184          28.000    23690525.100    97008701.273 4      1095.728          28.500
G17  20764769.860   109119617.177 7      4012.726          42.687    20764769.920   109119617.187 5      4012.726          34.937    20764772.800    85028286.718 5      3126.799          34.812    20764771.660    85028285.711 6      3126.799          41.312
G03  21199120.120   111402149.011 7       791.118          47.687    21199120.220   111402149.019 6       791.118          39.062    21199123.380    86806887.860 6       616.455          39.312    21199125.080    86806889.867 6       616.455          40.187
R18  20960203.220   111886990.020 7      1178.522          43.375    20960200.840   111886990.000 7      1178.522          43.187    20960214.240    87023250.476 7       916.628          44.562    20960214.400    87023250.490 7       916.628          45.687
G02  22668956.980   119126160.051 8      1534.066          49.000    22668956.640   119126160.056 5      1534.066          30.250    22668958.640    92825592.735 5      1195.376          30.562
R04  19260315.040   103138112.719 7      1566.702          46.625    19260315.340   103138112.769 7      1566.702          45.750    19260323.880    80218570.339 7      1218.546          47.312    19260324.120    80218570.343 7      1218.546          47.000
G04  20642903.760   108479191.173 7      3525.062          43.437    20642905.560   108479191.180 5      3525.062          30.125    20642907.660    84529256.604 5      2746.801          30.500    20642908.160    84529256.597 7      2746.801          47.375
> 2024 07 31 11 57  8.0000000  0  8
G09  21452943.100   112735978.307 7      5610.152          44.687    21452944.400   112735978.330 6      5610.152          39.437    21452948.260    87846256.236 6      4371.547          39.812    21452948.500    87846259.209 6      4371.547          41.375
G22  23690250.720   124493111.482 7      1405.842          46.062    23690250.260   124493111.487 4      1405.842          28.000    23690257.720    97007605.629 4      1095.462          28.500
G17  20764006.060   109115604.692 7      4012.077          42.187    20764006.500   109115604.705 5      4012.077          34.937    20764009.240    85025160.104 5      3126.294          34.812    20764008.200    85025159.093 6      3126.294          41.875
G03  21198969.520   111401357.816 7       791.014          47.875    21198969.600   111401357.818 6       791.014          38.750    21198972.760    86806271.338 6       616.374          39.250    21198974.300    86806273.347 6       616.374          40.187
R18  20959982.900   111885811.669 7      1177.960          42.750    20959979.880   111885811.651 7      1177.960          42.687    20959994.040    87022333.976 7       916.191          44.687    20959993.540    87022333.992 7       916.191          45.250
G02  22668665.240   119124626.075 8      1533.775          49.687    22668664.620   119124626.077 5      1533.775          30.250    22668666.920    92824397.426 5      1195.149          30.562
R04  19260022.420   103136546.234 7      1565.987          47.062    19260023.160   103136546.276 7      1565.987          45.750    19260031.620    80217351.953 7      1217.990          47.125    19260031.740    80217351.960 7      1217.990          46.937
G04  20642233.200   108475666.384 7      3524.345          43.000    20642234.880   108475666.394 5      3524.345          30.125    20642236.940    84526510.020 5      2746.243          30.062    20642237.260    84526510.012 7      2746.243          47.062
> 2024 07 31 11 57  9.0000000  0  8
G09  21451875.600   112730368.144 7      5610.194          45.000    21451876.880   112730368.162 6      5610.194          39.562    21451880.740    87841884.675 6      4371.580          40.000    21451881.100    87841887.650 6      4371.580          41.375
G22  23689983.280   124491705.639 7      1405.954          46.437    23689982.660   124491705.641 4      1405.954          28.625    23689990.220    97006510.161 4      1095.548          28.500
G17  20763242.480   109111592.651 7      4011.967          42.250    20763243.220   109111592.659 5      4011.967          35.375    20763245.720    85022033.839 5      3126.208          35.125    20763244.480    85022032.813 6      3126.208          41.875
G03  21198818.900   111400566.710 8       791.198          48.062    21198818.960   111400566.720 6       791.198          38.312    21198821.900    86805654.891 6       616.518          39.187    21198824.260    86805656.902 6       616.518          40.375
R18  20959761.900   111884633.760 7      1177.744          42.750    20959759.020   111884633.737 7      1177.744          42.687    20959773.600    87021417.819 7       916.023          45.000    20959772.940    87021417.832 7       916.023          46.000
G02  22668373.400   119123092.232 8      1533.971          49.687    22668372.780   119123092.232 5      1533.971          30.187    22668375.280    92823202.212 5      1195.302          30.562
R04  19259729.820   103134980.456 7      1565.595          46.812    19259731.140   103134980.501 7      1565.595          46.250    19259738.960    80216134.126 7      1217.685          47.187    19259739.340    80216134.126 7      1217.685          46.687
G04  20641562.360   108472142.139 7      3524.119          42.750    20641564.340   108472142.155 5      3524.119          30.125    20641566.320    84523763.859 5      2746.067          30.062    20641566.280    84523763.857 7      2746.067          47.250
> 2024 07 31 11 57 10.0000000  0  8
G09  21450807.940   112724758.412 7      5609.232          44.625    21450809.620   112724758.432 6      5609.232          40.250    21450813.240    87837513.463 6      4370.830          40.125    21450813.920    87837516.432 6      4370.830          41.375
G22  23689716.040   124490300.104 7      1405.152          46.437    23689715.320   124490300.106 4      1405.152          28.625    23689722.860    97005414.930 4      1094.924          28.750
G17  20762479.100   109107581.125 7      4011.150          42.750    20762480.100   109107581.133 5      4011.150          35.312    20762482.300    85018907.972 5      3125.571          35.375    20762481.260    85018906.953 7      3125.571          42.062
G03  21198668.240   111399775.787 7       790.589          47.000    21198668.500   111399775.792 6       790.589          38.562    21198671.340    86805038.586 6       616.044          39.000    21198674.060    86805040.593 6       616.044          40.375
R18  20959541.480   111883456.326 7      1176.897          42.375    20959538.060   111883456.306 7      1176.897          42.312    20959553.380    87020502.035 7       915.364          45.125    20959552.440    87020502.046 7       915.364          45.562
G02  22668081.620   119121558.637 8      1533.272          49.250    22668080.820   119121558.639 5      1533.272          30.187    22668083.700    92822007.199 5      1194.757          30.562
R04  19259437.700   103133415.468 7      1564.316          46.500    19259438.740   103133415.515 7      1564.316          45.812    19259446.740    80214916.917 7      1216.690          47.125    19259447.080    80214916.919 7      1216.690          46.750
G04  20640891.660   108468618.564 7      3522.992          42.937    20640893.880   108468618.577 5      3522.992          30.125    20640895.640    84521018.214 5      2745.189          30.062    20640895.860    84521018.204 7      2745.189          47.375
> 2024 07 31 11 57 11.0000000  0  8
G09  21449740.380   112719149.216 7      5609.112          45.312    21449742.280   112719149.234 6      5609.112          40.250    21449745.980    87833142.661 6      4370.737          39.750    21449746.060    87833145.634 6      4370.737          41.625
G22  23689448.660   124488894.999 7      1405.092          46.187    23689447.900   124488895.004 4      1405.092          28.625    23689455.420    97004320.036 4      1094.877          28.750
G17  20761716.060   109103570.304 7      4010.780          43.125    20761717.220   109103570.319 5      4010.780          35.562    20761718.860    85015782.659 5      3125.283          35.375    20761718.560    85015781.639 7      3125.283          42.062
G03  21198517.840   111398985.159 7       790.709          47.250    21198518.120   111398985.164 6       790.709          38.312    21198520.780    86804422.511 6       616.137          38.687    21198522.900    86804424.527 6       616.137          40.375
R18  20959320.680   111882279.544 7      1176.616          42.000    20959317.380   111882279.526 7      1176.616          42.000    20959332.920    87019586.760 7       915.146          45.000    20959332.000    87019586.775 7       915.146          45.687
G02  22667789.980   119120025.420 8      1533.226          49.375    22667789.020   119120025.420 5      1533.226          30.187    22667792.220    92820812.480 5      1194.721          30.562
R04  19259145.360   103131851.345 7      1563.928          46.750    19259146.820   103131851.397 7      1563.928          46.750    19259154.800    80213700.383 7      1216.388          47.062    19259154.960    80213700.383 7      1216.388          46.250
G04  20640221.540   108465095.741 7      3522.574          42.625    20640223.460   108465095.751 5      3522.574          30.062    20640225.160    84518273.157 5      2744.863          30.062    20640225.780    84518273.143 7      2744.863          46.875
> 2024 07 31 11 57 12.0000000  0  8
G09  21448672.960   112713540.383 7      5608.674          45.437    21448675.120   112713540.398 6      5608.674          40.375    21448678.820    87828772.142 6      4370.395          40.375    21448678.720    87828775.113 6      4370.395          41.625
G22  23689181.440   124487490.139 7      1404.772          46.062    23689180.640   124487490.144 4      1404.772          28.625    23689188.140    97003225.333 4      1094.628          28.750
G17  20760952.580   109099559.965 7      4010.163          43.312    20760954.240   109099559.978 5      4010.163          35.562    20760955.820    85012657.716 5      3124.802          35.500    20760955.500    85012656.690 7      3124.802          42.562
G03  21198367.480   111398194.663 7       790.464          47.062    21198367.620   111398194.665 6       790.464          38.250    21198370.300    86803806.531 6       615.946          38.875    21198372.060    86803808.542 6       615.946          40.250
R18  20959100.720   111881103.239 7      1176.114          42.000    20959097.220   111881103.208 7      1176.114          42.000    20959112.720    87018671.842 7       914.755          44.875    20959111.580    87018671.853 7       914.755          45.562
G02  22667498.280   119118492.379 8      1532.989          49.187    22667497.260   119118492.379 5      1532.989          30.187    22667500.920    92819617.888 5      1194.537          30.562
R04  19258853.760   103130287.952 7      1563.092          47.125    19258855.020   103130288.002 7      1563.092          46.250    19258862.760    80212484.405 7      1215.738          46.750    19258863.100    80212484.405 7      1215.738          46.937
G04  20639551.260   108461573.501 7      3521.954          42.187    20639553.120   108461573.509 5      3521.954          30.062    20639554.860    84515528.550 5      2744.380          30.062    20639554.920    84515528.538 7      2744.380          46.750
> 2024 07 31 11 57 13.0000000  0  8
G09  21447605.820   112707931.872 7      5608.152          45.812    21447607.820   112707931.888 6      5608.152          40.187    21447611.560    87824401.874 6      4369.989          40.125    21447611.940    87824404.839 7      4369.989          42.000
G22  23688913.940   124486085.497 7      1404.406          46.250    23688913.440   124486085.504 4      1404.406          29.187    23688920.920    97002130.801 4      1094.342          28.750
G17  20760189.500   109095550.084 7      4009.475          44.125    20760191.360   109095550.094 5      4009.475          35.750    20760192.860    85009533.129 5      3124.266          35.625    20760192.500    85009532.099 7      3124.266          42.687
G03  21198216.960   111397404.245 7       790.223          46.437    21198217.260   111397404.250 6       790.223          38.312    21198219.880    86803190.621 6       615.758          39.125    21198222.340    86803192.626 6       615.758          40.250
R18  20958880.300   111879927.383 6      1175.391          41.187    20958876.860   111879927.360 6      1175.391          41.937    20958892.340    87017757.289 7       914.193          45.000    20958891.300    87017757.302 7       914.193          45.250
G02  22667206.520   119116959.485 8      1532.675          49.125    22667205.580   119116959.482 5      1532.675          30.250    22667209.560    92818423.419 5      1194.292          30.562
R04  19258561.560   103128725.237 7      1562.176          46.812    19258563.520   103128725.279 7      1562.176          46.500    19258570.840    80211268.954 7      1215.026          46.687    19258571.140    80211268.954 7      1215.026          46.375
G04  20638881.040   108458051.786 7      3521.428          42.562    20638882.920   108458051.794 5      3521.428          30.062    20638884.700    84512784.355 4      2743.970          29.750    20638885.260    84512784.345 7      2743.970          46.812
> 2024 07 31 11 57 14.0000000  0  8
G09  21446538.660   112702323.788 7      5607.827          46.187    21446540.800   112702323.801 6      5607.827          40.187    21446544.480    87820031.936 6      4369.735          40.187    21446544.820    87820034.901 7      4369.735          42.000
G22  23688646.840   124484681.181 7      1404.159          46.062    23688646.180   124484681.186 4      1404.159          29.187    23688653.740    97001036.518 4      1094.150          28.750
G17  20759426.360   109091540.742 7      4009.055          43.687    20759428.560   109091540.755 6      4009.055          36.000    20759429.800    85006408.966 6      3123.939          36.062    20759429.520    85006407.936 7      3123.939          42.687
G03  21198066.700   111396614.024 7       790.087          47.437    21198066.760   111396614.032 6       790.087          38.687    21198069.560    86802574.863 6       615.652          38.562    21198071.180    86802576.877 6       615.652          40.250
R18  20958660.120   111878752.044 6      1175.084          41.187    20958656.780   111878752.013 6      1175.084          41.937    20958672.560    87016843.131 7       913.954          45.250    20958670.860    87016843.146 7       913.954          45.437
G02  22666914.700   119115426.846 8      1532.485          49.125    22666913.880   119115426.843 5      1532.485          30.250    22666918.240    92817229.147 5      1194.144          30.562
R04  19258269.900   103127163.326 7      1561.434          47.625    19258272.180   103127163.365 7      1561.434          46.250    19258279.220    80210054.129 7      1214.448          47.500    19258279.580    80210054.129 7      1214.448          46.437
G04  20638210.660   108454530.779 7      3520.755          42.062    20638212.880   108454530.784 5      3520.755          30.062    20638214.600    84510040.711 4      2743.446          29.750    20638215.420    84510040.693 7      2743.446          46.625
> 2024 07 31 11 57 15.0000000  0  8
G09  21445471.580   112696715.982 7      5607.623          46.562    21445473.560   112696715.997 6      5607.623          40.187    21445477.480    87815662.223 6      4369.576          40.625    21445478.300    87815665.200 7      4369.576          42.187
G22  23688379.560   124483277.043 7      1404.075          46.375    23688378.880   124483277.045 4      1404.075          29.187    23688386.680    96999942.377 4      1094.084          29.437
G17  20758663.640   109087531.809 7      4008.766          44.250    20758665.800   109087531.827 6      4008.766          36.000    20758666.840    85003285.124 6      3123.714          36.062    20758666.820    85003284.099 7      3123.714          42.875
G03  21197916.620   111395823.867 7       790.128          47.375    21197916.280   111395823.872 6       790.128          38.187    21197919.080    86801959.149 6       615.684          39.125    21197921.060    86801961.154 6       615.684          40.125
R18  20958439.920   111877577.098 6      1174.747          41.062    20958436.900   111877577.075 7      1174.747          42.250    20958452.360    87015929.280 7       913.692          44.875    20958450.720    87015929.285 7       913.692          45.250
G02  22666623.180   119113894.333 8      1532.450          49.750    22666622.320   119113894.336 5      1532.450          30.250    22666627.020    92816034.975 5      1194.117          30.812
R04  19257978.380   103125602.089 7      1560.906          47.687    19257980.720   103125602.131 7      1560.906          46.875    19257987.680    80208839.834 7      1214.038          47.000    19257987.960    80208839.834 7      1214.038          46.687
G04  20637541.180   108451010.257 6      3520.358          41.937    20637542.840   108451010.259 5      3520.358          30.062    20637544.760    84507297.443 4      2743.136          29.750    20637545.340    84507297.437 7      2743.136          46.500
> 2024 07 31 11 57 16.0000000  0  8
G09  21444404.640   112691108.565 7      5607.281          45.812    21444406.540   112691108.583 6      5607.281          40.125    21444410.720    87811292.811 6      4369.310          40.750    21444411.420    87811295.778 7      4369.310          42.312
G22  23688112.380   124481873.179 7      1403.816          46.687    23688111.740   124481873.178 4      1403.816          29.187    23688119.400    96998848.446 4      1093.882          29.437
G17  20757901.020   109083523.392 7      4008.394          45.125    20757903.020   109083523.407 6      4008.394          36.312    20757904.060    85000161.680 6      3123.424          36.312    20757904.040    85000160.648 7      3123.424          42.875
G03  21197766.160   111395033.827 7       790.083          47.062    21197765.880   111395033.830 6       790.083          38.375    21197768.740    86801343.526 6       615.649          39.000    21197770.380    86801345.541 6       615.649          40.125
R18  20958219.680   111876402.601 6      1174.406          40.562    20958216.600   111876402.577 7      1174.406          42.000    20958232.040    87015015.779 7       913.427          45.625    20958230.800    87015015.786 7       913.427          45.562
G02  22666331.440   119112362.015 8      1532.280          48.937    22666330.500   119112362.020 5      1532.280          30.812    22666335.680    92814840.951 5      1193.985          30.812
R04  19257687.120   103124041.604 7      1560.141          47.750    19257689.480   103124041.651 7      1560.141          46.625    19257696.240    80207626.134 7      1213.443          46.875    19257696.660    80207626.136 7      1213.443          47.000
G04  20636871.220   108447490.345 7      3519.806          43.375    20636872.860   108447490.350 4      3519.806          29.812    20636875.000    84504554.656 4      2742.706          29.750    20636875.580    84504554.655 7      2742.706          46.625
> 2024 07 31 11 57 17.0000000  0  8
G09  21443337.540   112685501.565 7      5606.804          46.187    21443339.480   112685501.581 6      5606.804          40.812    21443343.720    87806923.725 6      4368.938          40.625    21443344.060    87806926.698 7      4368.938          42.312
G22  23687845.220   124480469.614 7      1403.427          46.375    23687844.540   124480469.614 4      1403.427          29.187    23687852.340    96997754.755 4      1093.580          29.437
G17  20757138.320   109079515.544 7      4007.620          44.437    20757140.360   109079515.554 6      4007.620          36.187    20757141.420    84997038.678 6      3122.821          36.000    20757141.600    84997037.646 7      3122.821          42.937
G03  21197615.540   111394243.990 7       789.754          46.500    21197615.520   111394243.998 6       789.754          38.125    21197618.080    86800728.073 6       615.393          38.562    21197619.580    86800730.077 6       615.393          40.125
R18  20957999.020   111875228.677 6      1173.735          40.562    20957996.740   111875228.651 7      1173.735          42.000    20958012.200    87014102.723 7       912.905          44.937    20958011.080    87014102.726 7       912.905          45.437
G02  22666040.080   119110829.959 8      1531.910          48.187    22666038.880   119110829.961 5      1531.910          30.812    22666044.500    92813647.133 5      1193.696          30.812
R04  19257395.820   103122481.883 7      1559.383          46.875    19257398.340   103122481.930 7      1559.383          46.687    19257405.140    80206413.009 7      1212.853          46.937    19257405.400    80206413.009 7      1212.853          46.937
G04  20636201.420   108443971.103 7      3518.928          42.000    20636203.000   108443971.108 4      3518.928          29.812    20636205.400    84501812.388 4      2742.022          29.687    20636205.360    84501812.384 7      2742.022          46.562
> 2024 07 31 11 57 18.0000000  0  8
G09  21442270.780   112679894.944 7      5606.443          46.312    21442272.740   112679894.957 6      5606.443          40.625    21442276.920    87802554.931 6      4368.657          40.125    21442277.000    87802557.904 7      4368.657          42.750
G22  23687578.300   124479066.333 7      1403.110          46.187    23687577.480   124479066.333 4      1403.110          29.250    23687585.440    96996661.283 4      1093.332          29.437
G17  20756375.680   109075508.183 7      4007.113          44.812    20756377.760   109075508.191 6      4007.113          36.000    20756378.840    84993916.059 6      3122.426          36.000    20756378.680    84993915.031 7      3122.426          42.937
G03  21197465.260   111393454.292 7       789.615          47.062    21197465.360   111393454.295 6       789.615          37.875    21197467.980    86800112.719 6       615.284          38.375    21197469.920    86800114.730 6       615.284          39.562
R18  20957779.400   111874055.260 6      1173.270          40.562    20957777.160   111874055.213 6      1173.270          41.812    20957792.580    87013190.051 7       912.543          44.937    20957791.180    87013190.050 7       912.543          44.687
G02  22665748.480   119109298.098 8      1531.741          48.250    22665747.320   119109298.100 5      1531.741          30.812    22665753.420    92812453.466 5      1193.564          31.312
R04  19257104.620   103120922.854 7      1558.638          47.687    19257107.140   103120922.904 7      1558.638          46.937    19257113.820    80205200.440 7      1212.274          46.625    19257114.440    80205200.438 7      1212.274          46.375
G04  20635531.880   108440452.441 7      3518.357          42.625    20635533.280   108440452.449 4      3518.357          29.812    20635535.660    84499070.576 4      2741.577          29.687    20635535.440    84499070.570 7      2741.577          46.187
> 2024 07 31 11 57 19.0000000  0  8
G09  21441203.780   112674288.652 7      5606.223          45.437    21441205.720   112674288.665 6      5606.223          40.500    21441210.200    87798186.396 6      4368.485          40.437    21441210.200    87798189.371 7      4368.485          42.750
G22  23687311.280   124477663.246 7      1402.969          45.625    23687310.400   124477663.246 4      1402.969          29.250    23687318.380    96995567.961 4      1093.223          29.437
G17  20755613.020   109071501.279 7      4006.724          44.000    20755615.160   109071501.289 6      4006.724          36.000    20755616.240    84990793.794 6      3122.123          36.000    20755616.200    84990792.768 7      3122.123          42.750
G03  21197315.140   111392664.689 7       789.555          46.500    21197315.080   111392664.691 6       789.555          38.125    21197317.540    86799497.440 6       615.238          38.562    21197318.840    86799499.449 6       615.238          39.562
R18  20957559.500   111872882.270 6      1172.719          40.250    20957558.020   111872882.223 6      1172.719          41.812    20957572.540    87012277.722 7       912.115          45.250    20957571.360    87012277.721 7       912.115          45.437
G02  22665456.920   119107766.400 7      1531.587          47.937    22665455.740   119107766.399 5      1531.587          30.812    22665462.460    92811259.927 5      1193.444          31.312
R04  19256813.560   103119364.493 7      1558.019          47.937    19256816.360   103119364.538 7      1558.019          46.687    19256822.800    80203988.377 7      1211.793          46.437    19256823.260    80203988.375 7      1211.793          46.562
G04  20634862.740   108436934.337 7      3517.826          43.000    20634863.840   108436934.345 4      3517.826          29.812    20634866.280    84496329.198 4      2741.163          29.687    20634866.520    84496329.198 7      2741.163          46.187
> 2024 07 31 11 57 20.0000000  0  8
G09  21440137.180   112668682.856 7      5605.592          46.000    21440139.020   112668682.869 6      5605.592          40.750    21440143.700    87793818.249 6      4367.993          40.625    21440143.800    87793821.233 7      4367.993          43.125
G22  23687044.180   124476260.530 7      1402.580          45.750    23687043.560   124476260.530 4      1402.580          29.250    23687051.320    96994474.931 4      1092.920          29.437
G17  20754850.740   109067494.987 7      4005.980          44.125    20754852.620   109067494.997 6      4005.980          36.000    20754853.700    84987672.010 5      3121.543          35.875    20754853.860    84987670.986 7      3121.543          42.750
G03  21197164.720   111391875.328 7       789.269          46.875    21197164.860   111391875.330 6       789.269          38.125    21197167.560    86798882.345 6       615.015          38.875    21197169.300    86798884.364 6       615.015          39.562
R18  20957339.920   111871709.804 6      1172.248          41.312    20957338.860   111871709.762 7      1172.248          42.187    20957352.620    87011365.801 7       911.748          45.625    20957351.700    87011365.798 7       911.748          44.937
G02  22665165.600   119106235.003 7      1531.234          47.812    22665164.320   119106235.003 5      1531.234          31.000    22665171.600    92810066.623 5      1193.169          31.312
R04  19256522.820   103117806.956 8      1557.136          48.250    19256525.860   103117806.995 7      1557.136          46.562    19256531.780    80202776.953 7      1211.106          47.000    19256532.080    80202776.951 7      1211.106          46.687
G04  20634192.940   108433416.950 7      3517.003          42.625    20634194.280   108433416.965 4      3517.003          29.187    20634196.900    84493588.381 4      2740.521          29.687    20634197.040    84493588.391 7      2740.521          46.875
> 2024 07 31 11 57 21.0000000  0  8
G09  21439070.380   112663077.268 7      5605.567          45.875    21439072.160   112663077.272 6      5605.567          40.812    21439077.240    87789450.256 6      4367.974          40.812    21439077.160    87789453.235 7      4367.974          43.375
G22  23686777.360   124474857.948 7      1402.504          45.937    23686776.600   124474857.948 4      1402.504          29.250    23686784.460    96993382.000 4      1092.860          29.437
G17  20754088.420   109063489.034 7      4005.800          43.500    20754090.420   109063489.047 5      4005.800          35.625    20754091.460    84984550.484 5      3121.403          35.937    20754091.460    84984549.465 7      3121.403          42.750
G03  21197014.580   111391085.943 7       789.453          46.250    21197014.460   111391085.945 6       789.453          38.125    21197017.260    86798267.238 6       615.158          38.500    21197019.120    86798269.255 6       615.158          39.562
R18  20957120.660   111870537.721 6      1171.850          41.312    20957119.260   111870537.677 7      1171.850          42.562    20957132.900    87010454.171 7       911.439          44.562    20957132.160    87010454.166 7       911.439          45.125
G02  22664874.120   119104703.649 8      1531.315          48.000    22664872.740   119104703.652 5      1531.315          31.000    22664880.700    92808873.354 5      1193.232          31.562
R04  19256232.180   103116250.022 8      1556.679          48.000    19256235.020   103116250.064 7      1556.679          47.187    19256241.300    80201566.004 7      1210.750          46.875    19256241.260    80201566.002 7      1210.750          46.875
G04  20633523.900   108429900.018 7      3516.660          42.687    20633524.600   108429900.028 4      3516.660          29.187    20633527.640    84490847.916 4      2740.254          29.687    20633527.680    84490847.924 7      2740.254          46.500
> 2024 07 31 11 57 22.0000000  0  8
G09  21438003.680   112657472.076 7      5604.980          45.937    21438005.620   112657472.081 6      5604.980          40.625    21438010.700    87785082.579 6      4367.517          40.812    21438010.900    87785085.556 7      4367.517          43.375
G22  23686510.480   124473455.629 7      1402.154          45.625    23686509.640   124473455.626 4      1402.154          29.250    23686517.600    96992289.278 4      1092.587          29.437
G17  20753326.360   109059483.620 7      4005.083          43.437    20753328.040   109059483.638 5      4005.083          35.625    20753329.040    84981429.386 5      3120.844          35.937    20753328.980    84981428.367 7      3120.844          42.750
G03  21196864.060   111390296.712 7       789.161          46.187    21196864.260   111390296.717 6       789.161          37.937    21196867.020    86797652.247 6       614.931          38.312    21196869.300    86797654.266 6       614.931          39.250
R18  20956901.560   111869366.133 6      1171.213          41.187    20956900.620   111869366.083 7      1171.213          42.562    20956913.360    87009542.930 7       910.943          45.375    20956912.580    87009542.924 7       910.943          44.937
G02  22664582.760   119103172.511 7      1531.015          47.812    22664581.480   119103172.516 5      1531.015          31.000    22664589.560    92807680.257 5      1192.999          31.562
R04  19255941.520   103114693.912 8      1555.635          48.062    19255944.260   103114693.960 7      1555.635          47.000    19255950.500    80200355.699 7      1209.938          46.875    19255950.740    80200355.695 7      1209.938          45.937
G04  20632854.500   108426383.674 7      3516.097          42.000    20632855.180   108426383.686 4      3516.097          29.187    20632858.360    84488107.910 4      2739.816          28.875    20632858.660    84488107.924 7      2739.816          46.312
> 2024 07 31 11 57 23.0000000  0  8
G09  21436936.980   112651867.265 7      5604.585          45.625    21436938.940   112651867.270 6      5604.585          40.187    21436944.280    87780715.192 6      4367.209          40.625    21436944.440    87780718.177 7      4367.209          43.312
G22  23686243.800   124472053.591 7      1401.881          46.250    23686243.060   124472053.582 4      1401.881          29.375    23686250.820    96991196.772 4      1092.374          29.437
G17  20752564.320   109055478.692 7      4004.661          43.437    20752566.060   109055478.707 5      4004.661          35.625    20752566.660    84978308.659 5      3120.515          35.625    20752567.240    84978307.643 7      3120.515          42.750
G03  21196713.920   111389507.611 7       789.045          47.312    21196714.040   111389507.621 6       789.045          37.937    21196716.840    86797037.361 6       614.840          38.125    21196719.220    86797039.388 6       614.840          39.250
R18  20956682.220   111868195.014 7      1170.821          42.250    20956681.800   111868194.967 7      1170.821          42.750    20956693.760    87008632.062 7       910.639          45.187    20956692.900    87008632.056 7       910.639          44.812
G02  22664291.400   119101641.585 8      1530.814          48.375    22664290.160   119101641.590 5      1530.814          31.437    22664298.640    92806487.318 5      1192.842          31.562
R04  19255650.980   103113138.502 8      1555.098          48.250    19255653.800   103113138.549 7      1555.098          47.125    19255659.780    80199145.937 7      1209.521          46.750    19255660.160    80199145.931 7      1209.521          46.250
G04  20632185.340   108422867.976 7      3515.356          42.250    20632186.020   108422867.991 4      3515.356          29.187    20632189.380    84485368.405 4      2739.238          28.875    20632189.660    84485368.424 7      2739.238          46.500
> 2024 07 31 11 57 24.0000000  0  8
G09  21435870.480   112646262.891 7      5604.093          45.875    21435872.260   112646262.893 6      5604.093          40.312    21435877.740    87776348.151 6      4366.826          40.625    21435878.100    87776351.144 7      4366.826          43.250
G22  23685977.120   124470651.886 7      1401.414          46.375    23685976.340   124470651.878 4      1401.414          29.375    23685984.000    96990104.527 4      1092.011          29.437
G17  20751802.460   109051474.341 7      4003.948          42.500    20751803.680   109051474.359 5      4003.948          35.937    20751804.560    84975188.388 5      3119.960          35.937    20751805.340    84975187.381 7      3119.960          42.812
G03  21196563.900   111388718.759 7       788.611          46.937    21196563.920   111388718.761 6       788.611          37.875    21196566.840    86796422.663 6       614.502          38.250    21196569.280    86796424.676 6       614.502          39.250
R18  20956462.900   111867024.453 7      1170.027          42.250    20956462.940   111867024.398 7      1170.027          42.500    20956474.180    87007721.615 7       910.021          45.312    20956473.760    87007721.610 7       910.021          45.000
G02  22664000.200   119100110.927 8      1530.424          48.125    22663998.980   119100110.932 5      1530.424          31.437    22664007.840    92805294.591 5      1192.538          31.562
R04  19255360.660   103111583.899 8      1554.152          48.312    19255363.560   103111583.938 7      1554.152          47.250    19255369.220    80197936.796 7      1208.785          46.687    19255369.500    80197936.794 7      1208.785          45.687
G04  20631516.500   108419352.946 7      3514.564          42.125    20631516.780   108419352.959 4      3514.564          29.187    20631520.500    84482629.419 4      2738.622          28.875    20631520.540    84482629.433 7      2738.622          46.500
> 2024 07 31 11 57 25.0000000  0  8
G09  21434804.360   112640658.803 7      5603.715          45.625    21434805.740   112640658.813 6      5603.715          41.000    21434811.320    87771981.337 6      4366.531          40.875    21434811.720    87771984.337 7      4366.531          43.250
G22  23685710.480   124469250.347 7      1401.223          46.562    23685709.660   124469250.341 4      1401.223          29.375    23685717.280    96989012.412 4      1091.862          29.250
G17  20751040.420   109047470.406 7      4003.424          42.375    20751041.680   109047470.427 5      4003.424          35.750    20751042.600    84972068.441 5      3119.551          35.750    20751043.220    84972067.438 7      3119.551          42.812
G03  21196413.900   111387929.918 7       788.558          46.937    21196413.620   111387929.920 6       788.558          38.000    21196416.560    86795807.977 6       614.461          38.625    21196418.640    86795809.996 6       614.461          39.250
R18  20956243.800   111865854.215 6      1169.764          41.500    20956243.940   111865854.163 7      1169.764          43.125    20956255.080    87006811.426 7       909.816          45.000    20956254.500    87006811.416 7       909.816          44.000
G02  22663708.900   119098580.377 7      1530.301          47.937    22663707.800   119098580.384 5      1530.301          31.437    22663717.000    92804101.948 5      1192.442          31.562
R04  19255069.940   103110029.878 8      1553.434          49.062    19255073.500   103110029.928 7      1553.434          47.500    19255079.120    80196728.119 7      1208.226          46.125    19255079.320    80196728.110 7      1208.226          45.875
G04  20630847.600   108415838.402 6      3514.110          41.125    20630847.740   108415838.409 4      3514.110          29.187    20630851.740    84479890.811 4      2738.268          28.875    20630852.080    84479890.825 7      2738.268          46.437
> 2024 07 31 11 57 26.0000000  0  8
G09  21433737.780   112635055.174 7      5603.387          45.625    21433739.180   112635055.185 6      5603.387          41.125    21433745.140    87767614.873 6      4366.276          40.812    21433745.220    87767617.883 7      4366.276          43.625
G22  23685444.020   124467849.150 7      1400.976          46.125    23685443.000   124467849.144 4      1400.976          29.375    23685450.680    96987920.566 4      1091.669          29.250
G17  20750278.820   109043467.049 7      4002.963          43.125    20750279.720   109043467.065 5      4002.963          35.750    20750280.820    84968948.936 5      3119.192          35.750    20750280.960    84968947.935 7      3119.192          42.875
G03  21196263.680   111387141.297 7       788.396          47.000    21196263.500   111387141.300 6       788.396          38.312    21196266.540    86795193.460 6       614.334          38.812    21196268.680    86795195.483 6       614.334          39.000
R18  20956024.600   111864684.591 7      1169.293          42.437    20956025.440   111864684.533 7      1169.293          43.125    20956035.900    87005901.712 7       909.450          45.187    20956035.220    87005901.702 7       909.450          44.250
G02  22663417.680   119097050.100 8      1530.179          48.125    22663416.480   119097050.105 5      1530.179          31.625    22663426.020    92802909.523 5      1192.348          31.562
R04  19254779.980   103108476.684 8      1552.687          48.750    19254783.480   103108476.731 7      1552.687          47.437    19254789.100    80195520.079 7      1207.646          46.687    19254789.520    80195520.073 7      1207.646          45.562
G04  20630178.980   108412324.562 6      3513.443          40.875    20630178.820   108412324.564 4      3513.443          28.250    20630183.040    84477152.752 4      2737.748          28.875    20630183.480    84477152.766 7      2737.748          46.437
> 2024 07 31 11 57 27.0000000  0  9
G09  21432671.580   112629451.880 7      5603.240          45.312    21432672.820   112629451.890 6      5603.240          40.500    21432679.060    87763248.678 6      4366.161          40.437    21432679.220    87763251.684 7      4366.161          43.812
G22  23685177.360   124466448.176 7      1401.013          46.500    23685176.540   124466448.173 4      1401.013          28.875    23685184.000    96986828.890 4      1091.698          29.250
G17  20749516.880   109039464.142 7      4002.768          42.312    20749517.840   109039464.160 5      4002.768          35.375    20749518.800    84965829.791 5      3119.040          35.437    20749519.340    84965828.794 7      3119.040          42.375
G03  21196113.900   111386352.761 7       788.584          46.750    21196113.460   111386352.761 6       788.584          38.000    21196116.700    86794579.012 6       614.481          38.562    21196118.480    86794581.028 6       614.481          39.000
R05  20116552.660   107534500.638 6      5459.369          40.250
R18  20955805.560   111863515.464 7      1168.773          42.937    20955807.140   111863515.411 7      1168.773          43.000    20955816.500    87004992.386 7       909.046          45.375    20955816.500    87004992.381 7       909.046          44.812
G02  22663126.260   119095520.005 8      1530.111          48.125    22663125.440   119095520.007 5      1530.111          31.625    22663135.020    92801717.232 5      1192.295          31.562
R04  19254489.880   103106924.205 8      1552.160          48.437    19254493.560   103106924.244 7      1552.160          47.500    19254499.080    80194312.587 7      1207.235          46.937    19254499.460    80194312.581 7      1207.235          45.875
G04  20629510.560   108408811.266 6      3513.172          40.875    20629509.920   108408811.266 4      3513.172          28.250    20629514.320    84474415.114 4      2737.536          28.875    20629514.740    84474415.129 7      2737.536          46.250
> 2024 07 31 11 57 28.0000000  0  9
G09  21431605.500   112623848.914 7      5602.859          44.750    21431606.600   112623848.921 6      5602.859          40.437    21431613.060    87758882.732 6      4365.864          40.375    21431613.580    87758885.740 7      4365.864          43.812
G22  23684910.760   124465047.409 7      1400.703          46.375    23684909.960   124465047.403 4      1400.703          28.875    23684917.400    96985737.377 4      1091.457          29.250
G17  20748755.380   109035461.678 7      4002.301          42.250    20748756.020   109035461.696 5      4002.301          35.625    20748757.000    84962710.990 5      3118.676          35.312    20748757.760    84962709.999 7      3118.676          42.375
G03  21195963.800   111385564.324 7       788.382          46.250    21195963.260   111385564.324 6       788.382          38.125    21195966.780    86793964.639 6       614.323          38.750    21195968.280    86793966.668 6       614.323          39.000
R05  20115531.520   107529041.607 6      5458.864          40.062
R18  20955586.420   111862346.696 7      1168.564          43.875    20955588.740   111862346.649 7      1168.564          43.437    20955597.520    87004083.349 7       908.883          45.062    20955597.460    87004083.340 7       908.883          44.312
G02  22662835.360   119093990.038 8      1529.908          48.375    22662834.120   119093990.037 5      1529.908          31.812    22662843.980    92800525.042 5      1192.136          32.125
R04  19254199.880   103105372.414 8      1551.446          48.250    19254203.660   103105372.456 7      1551.446          46.875    19254209.280    80193105.639 7      1206.680          46.812    19254209.840    80193105.637 7      1206.680          46.125
G04  20628841.880   108405298.501 6      3512.645          40.875    20628841.220   108405298.498 4      3512.645          28.250    20628845.840    84471677.895 4      2737.126          27.625    20628846.220    84471677.917 7      2737.126          46.187
> 2024 07 31 11 57 29.0000000  0  9
G09  21430539.320   112618246.410 7      5602.364          45.812    21430540.320   112618246.415 6      5602.364          40.625    21430547.020    87754517.147 6      4365.478          40.625    21430547.420    87754520.157 7      4365.478          43.625
G22  23684644.400   124463647.008 7      1400.351          46.000    23684643.480   124463647.007 4      1400.351          28.875    23684650.900    96984646.153 4      1091.183          29.250
G17  20747993.600   109031459.819 6      4001.681          41.375    20747994.340   109031459.845 5      4001.681          35.437    20747995.360    84959592.664 5      3118.193          35.312    20747995.840    84959591.682 7      3118.193          42.500
G03  21195813.840   111384776.111 7       788.119          46.625    21195813.220   111384776.108 6       788.119          38.000    21195816.660    86793350.441 6       614.118          38.250    21195818.540    86793352.472 6       614.118          39.375
R05  20114510.580   107523583.336 6      5457.921          40.062
R18  20955367.760   111861178.519 7      1167.959          43.062    20955369.680   111861178.466 7      1167.959          43.187    20955378.720    87003174.750 7       908.412          45.062    20955378.560    87003174.743 7       908.412          44.625
G02  22662544.380   119092460.365 8      1529.589          48.000    22662542.920   119092460.362 5      1529.589          31.812    22662552.780    92799333.090 5      1191.887          32.125
R04  19253910.380   103103821.494 8      1550.616          48.500    19253914.280   103103821.533 7      1550.616          46.812    19253919.560    80191899.367 7      1206.035          46.375    19253920.340    80191899.365 7      1206.035          46.000
G04  20628173.660   108401786.476 6      3511.659          41.187    20628172.640   108401786.473 4      3511.659          28.250    20628177.520    84468941.257 4      2736.358          27.625    20628177.780    84468941.292 7      2736.358          45.937
> 2024 07 31 11 57 30.0000000  0  9
G09  21429473.600   112612644.414 7      5601.966          44.812    21429474.100   112612644.416 6      5601.966          39.437    21429480.980    87750151.957 6      4365.168          39.812    21429481.600    87750154.973 7      4365.168          43.750
G22  23684377.920   124462247.045 7      1399.849          46.625    23684377.100   124462247.040 4      1399.849          28.875    23684384.580    96983555.267 4      1090.792          28.875
G17  20747232.900   109027458.632 6      4000.987          41.625    20747232.860   109027458.658 5      4000.987          35.437    20747233.900    84956474.854 5      3117.652          35.312    20747234.440    84956473.872 7      3117.652          42.500
G03  21195663.660   111383988.171 7       787.932          46.312    21195663.080   111383988.173 6       787.932          38.062    21195666.780    86792736.460 6       613.973          38.062    21195668.700    86792738.487 6       613.973          39.375
R05  20113489.820   107518125.846 6      5457.294          40.062
R18  20955148.800   111860010.923 7      1167.439          44.187    20955151.380   111860010.881 7      1167.439          43.375    20955160.100    87002266.620 7       908.008          44.562    20955159.960    87002266.613 7       908.008          44.812
G02  22662253.280   119090931.058 7      1529.285          47.500    22662251.840   119090931.055 5      1529.285          31.812    22662261.600    92798141.422 5      1191.651          32.125
R04  19253621.300   103102271.440 8      1549.814          48.687    19253624.800   103102271.482 7      1549.814          47.375    19253630.240    80190693.770 7      1205.411          46.000    19253630.720    80190693.770 7      1205.411          45.187
G04  20627505.460   108398275.164 6      3511.129          40.125    20627504.120   108398275.164 4      3511.129          28.250    20627509.100    84466205.175 4      2735.944          27.625    20627509.700    84466205.194 7      2735.944          45.625
> 2024 07 31 11 57 31.0000000  0  9
G09  21428407.280   112607042.916 7      5601.334          44.500    21428408.020   112607042.919 6      5601.334          40.375    21428414.940    87745787.158 6      4364.676          40.562    21428415.140    87745790.176 7      4364.676          43.750
G22  23684111.840   124460847.422 7      1399.446          46.625    23684110.660   124460847.411 4      1399.446          28.875    23684118.320    96982464.643 4      1090.477          28.875
G17  20746471.060   109023458.045 6      4000.288          41.500    20746471.520   109023458.065 5      4000.288          35.250    20746472.560    84953357.509 5      3117.107          35.125    20746473.620    84953356.527 7      3117.107          42.750
G03  21195513.980   111383200.496 7       787.537          45.625    21195513.120   111383200.496 6       787.537          37.562    21195516.880    86792122.679 6       613.665          37.875    21195517.880    86792124.700 6       613.665          39.375
R05  20112469.080   107512669.165 6      5456.340          40.062
R18  20954930.180   111858843.920 7      1166.663          44.000    20954933.140   111858843.884 7      1166.663          43.812    20954941.400    87001358.949 7       907.404          44.250    20954941.080    87001358.950 7       907.404          44.937
G02  22661962.360   119089402.058 7      1528.721          47.750    22661960.720   119089402.058 5      1528.721          31.812    22661970.560    92796949.987 5      1191.211          32.000
R04  19253332.120   103100722.207 8      1548.807          48.500    19253335.240   103100722.243 7      1548.807          47.562    19253340.740    80189488.802 7      1204.627          46.812    19253341.360    80189488.802 7      1204.627          46.437
G04  20626837.220   108394764.585 6      3510.171          40.875    20626835.780   108394764.587 4      3510.171          28.250    20626840.920    84463469.661 4      2735.198          27.625    20626841.660    84463469.680 7      2735.198          46.062
> 2024 07 31 11 57 32.0000000  0  9
G09  21427341.460   112601441.852 7      5600.951          44.250    21427342.220   112601441.852 6      5600.951          40.125    21427349.120    87741422.695 6      4364.377          40.312    21427349.280    87741425.709 7      4364.377          43.437
G22  23683845.560   124459448.100 7      1399.281          46.000    23683844.440   124459448.090 4      1399.281          28.875    23683851.980    96981374.255 4      1090.349          28.875
G17  20745710.120   109019457.991 6      3999.897          41.187    20745710.260   109019458.003 5      3999.897          35.250    20745711.280    84950240.580 5      3116.803          35.125    20745712.200    84950239.604 7      3116.803          42.750
G03  21195364.280   111382412.993 7       787.462          46.312    21195363.160   111382412.997 6       787.462          37.750    21195366.920    86791509.038 6       613.607          38.437    21195368.880    86791511.061 6       613.607          39.375
R05  20111448.300   107507213.197 6      5455.662          38.750    20111449.640   107507213.258 6      5455.662          37.437    20111457.100    83616759.164 6      4243.292          40.000
R18  20954711.560   111857677.475 7      1166.284          44.000    20954714.680   111857677.439 7      1166.284          44.125    20954722.780    87000451.712 7       907.109          44.500    20954722.760    87000451.709 7       907.109          45.062
G02  22661671.480   119087873.276 7      1528.714          47.437    22661669.760   119087873.279 5      1528.714          31.812    22661679.580    92795758.729 5      1191.205          32.000
R04  19253042.880   103099173.690 8      1548.293          48.375    19253046.280   103099173.729 7      1548.293          47.375    19253051.760    80188284.405 7      1204.228          46.125    19253052.380    80188284.407 7      1204.228          45.937
G04  20626169.500   108391254.634 6      3509.685          40.812    20626167.720   108391254.641 4      3509.685          26.812    20626173.100    84460734.640 4      2734.820          27.625    20626173.800    84460734.667 7      2734.820          46.062
> 2024 07 31 11 57 33.0000000  0  9
G09  21426275.780   112595841.051 7      5600.728          44.937    21426276.360   112595841.048 6      5600.728          40.687    21426283.420    87737058.441 6      4364.204          40.437    21426283.240    87737061.461 7      4364.204          43.375
G22  23683578.980   124458048.947 7      1399.129          46.500    23683578.020   124458048.936 4      1399.129          28.250    23683585.820    96980284.000 4      1090.230          28.875
G17  20744949.200   109015458.330 6      3999.566          41.187    20744948.820   109015458.351 5      3999.566          35.000    20744949.920    84947123.968 5      3116.545          34.937    20744951.440    84947122.996 7      3116.545          43.187
G03  21195214.320   111381625.518 7       787.531          46.250    21195213.320   111381625.520 6       787.531          38.125    21195217.220    86790895.413 6       613.660          38.312    21195218.980    86790897.446 6       613.660          39.000
R05  20110428.380   107501757.776 6      5455.301          38.750    20110428.560   107501757.817 6      5455.301          37.437    20110437.160    83612516.040 6      4243.012          41.125    20110437.760    83612524.056 6      4243.012          41.125
R18  20954493.140   111856511.438 7      1165.922          44.062    20954496.400   111856511.402 7      1165.922          44.125    20954504.960    86999544.782 7       906.828          44.687    20954504.560    86999544.781 7       906.828          45.437
G02  22661380.860   119086344.629 8      1528.551          48.375    22661378.880   119086344.631 5      1528.551          31.812    22661388.580    92794567.568 5      1191.078          32.000
R04  19252753.880   103097625.862 8      1547.506          48.250    19252757.240   103097625.904 7      1547.506          46.562    19252762.620    80187080.540 7      1203.616          46.562    19252763.360    80187080.540 7      1203.616          46.187
G04  20625500.880   108387745.208 6      3509.212          40.437    20625499.520   108387745.216 4      3509.212          26.812    20625505.240    84458000.025 4      2734.451          27.625    20625506.120    84458000.042 7      2734.451          46.062
> 2024 07 31 11 57 34.0000000  0  9
G09  21425210.180   112590240.592 7      5600.183          44.562    21425210.680   112590240.589 6      5600.183          40.500    21425217.620    87732694.442 6      4363.779          40.375    21425217.400    87732697.470 7      4363.779          43.375
G22  23683312.800   124456650.023 7      1398.733          46.562    23683311.860   124456650.012 4      1398.733          28.250    23683319.720    96979193.922 4      1089.922          28.875
G17  20744187.980   109011459.162 6      3998.856          40.750    20744187.600   109011459.188 5      3998.856          34.875    20744188.860    84944007.730 5      3115.992          34.937    20744190.280    84944006.760 7      3115.992          42.875
G03  21195064.460   111380838.148 7       787.272          46.437    21195063.520   111380838.147 6       787.272          38.062    21195067.520    86790281.871 6       613.458          38.125    21195069.160    86790283.892 6       613.458          39.000
R05  20109407.600   107496302.915 6      5454.551          38.750    20109407.040   107496302.956 6      5454.551          37.437    20109417.240    83608273.393 6      4242.429          41.625    20109417.700    83608281.408 7      4242.429          42.500
R18  20954274.980   111855345.794 7      1165.423          43.750    20954277.680   111855345.760 7      1165.423          44.000    20954286.360    86998638.167 7       906.440          45.000    20954286.400    86998638.168 7       906.440          45.375
G02  22661089.920   119084816.107 7      1528.388          47.625    22661087.860   119084816.107 5      1528.388          31.750    22661097.580    92793376.504 5      1190.952          32.062
R04  19252464.880   103096078.717 8      1546.703          48.375    19252467.940   103096078.756 7      1546.703          47.125    19252473.740    80185877.201 7      1202.991          46.187    19252474.340    80185877.205 7      1202.991          46.562
G04  20624833.220   108384236.342 6      3508.415          40.437    20624831.620   108384236.347 4      3508.415          26.812    20624837.640    84455265.837 4      2733.830          27.625    20624838.860    84455265.852 7      2733.830          45.687
> 2024 07 31 11 57 35.0000000  0  9
G09  21424144.480   112584640.369 7      5599.980          44.562    21424145.080   112584640.369 6      5599.980          40.062    21424151.660    87728330.642 6      4363.621          40.250    21424151.820    87728333.666 7      4363.621          43.187
G22  23683046.560   124455251.232 7      1398.644          46.437    23683045.640   124455251.226 4      1398.644          28.250    23683053.620    96978103.949 4      1089.853          28.875
G17  20743426.640   109007460.364 6      3998.499          40.375    20743426.460   109007460.392 5      3998.499          34.875    20743427.900    84940891.786 5      3115.713          34.500    20743429.680    84940890.818 7      3115.713          42.875
G03  21194914.660   111380050.783 7       787.342          46.687    21194913.660   111380050.780 6       787.342          38.312    21194917.600    86789668.334 6       613.514          39.062    21194918.900    86789670.349 6       613.514          39.000
R05  20108386.600   107490848.543 6      5454.368          38.750    20108386.420   107490848.585 6      5454.368          37.437    20108396.940    83604031.115 6      4242.286          41.625    20108396.960    83604039.127 7      4242.286          42.500
R18  20954056.840   111854180.504 7      1165.060          43.562    20954059.360   111854180.476 7      1165.060          43.625    20954068.220    86997731.829 7       906.158          45.000    20954068.240    86997731.832 7       906.158          46.000
G02  22660799.040   119083287.690 7      1528.320          47.375    22660796.920   119083287.687 5      1528.320          31.750    22660806.740    92792185.526 5      1190.899          32.062
R04  19252175.920   103094532.206 7      1546.105          47.625    19252179.000   103094532.248 7      1546.105          46.625    19252184.980    80184674.365 7      1202.526          46.500    19252185.660    80184674.365 7      1202.526          46.437
G04  20624166.100   108380727.925 6      3508.023          39.625    20624163.820   108380727.936 4      3508.023          26.812    20624169.940    84452532.019 4      2733.525          26.437    20624171.340    84452532.035 7      2733.525          46.000
> 2024 07 31 11 57 36.0000000  0  9
G09  21423079.100   112579040.679 7      5599.159          45.125    21423079.540   112579040.679 6      5599.159          40.562    21423086.040    87723967.252 6      4362.981          40.500    21423086.120    87723970.280 7      4362.981          42.937
G22  23682780.220   124453852.862 7      1397.956          46.062    23682779.520   124453852.856 4      1397.956          28.250    23682787.480    96977014.300 4      1089.316          28.062
G17  20742665.880   109003462.206 6      3997.616          40.437    20742665.700   109003462.235 5      3997.616          34.812    20742666.920    84937776.339 5      3115.025          34.562    20742669.040    84937775.379 7      3115.025          43.312
G03  21194764.860   111379263.713 7       786.724          47.250    21194763.800   111379263.712 6       786.724          38.187    21194767.920    86789055.029 6       613.032          38.812    21194769.700    86789057.052 6       613.032          39.000
R05  20107366.160   107485395.024 6      5453.132          37.375    20107365.520   107485395.068 6      5453.132          38.000    20107377.280    83599789.493 7      4241.325          42.062    20107377.280    83599797.503 7      4241.325          43.000
R18  20953838.720   111853015.855 7      1164.102          43.625    20953841.280   111853015.827 7      1164.102          44.187    20953850.000    86996825.987 7       905.413          45.187    20953849.800    86996825.990 7       905.413          45.937
G02  22660508.140   119081759.610 7      1527.783          47.250    22660506.000   119081759.610 5      1527.783          31.750    22660516.020    92790994.808 5      1190.480          32.062
R04  19251887.160   103092986.560 8      1544.960          48.250    19251889.920   103092986.596 7      1544.960          46.687    19251896.240    80183472.188 7      1201.635          46.500    19251896.920    80183472.192 7      1201.635          46.000
G04  20623498.460   108377220.289 6      3506.925          39.437    20623496.360   108377220.299 4      3506.925          26.812    20623502.320    84449798.793 4      2732.669          26.437    20623503.720    84449798.816 7      2732.669          46.187
> 2024 07 31 11 57 37.0000000  0  9
G09  21422013.280   112573441.387 7      5599.283          44.625    21422013.920   112573441.389 6      5599.283          40.562    21422020.560    87719604.168 6      4363.077          40.687    21422020.580    87719607.197 7      4363.077          42.937
G22  23682514.180   124452454.778 7      1398.142          46.750    23682513.460   124452454.770 4      1398.142          28.250    23682521.420    96975924.880 4      1089.461          28.062
G17  20741905.340   108999464.583 6      3997.577          40.562    20741904.620   108999464.614 5      3997.577          34.812    20741906.140    84934661.309 5      3114.995          34.562    20741908.260    84934660.345 7      3114.995          43.437
G03  21194615.280   111378476.805 7       787.005          47.000    21194614.080   111378476.808 6       787.005          38.312    21194618.240    86788441.850 6       613.251          38.812    21194620.020    86788443.881 6       613.251          38.812
R05  20106346.360   107479942.195 6      5452.652          37.375    20106344.740   107479942.228 6      5452.652          38.000    20106357.840    83595548.407 7      4240.951          42.187    20106357.200    83595556.414 7      4240.951          43.500
R18  20953620.260   111851851.729 7      1164.034          43.500    20953623.160   111851851.706 7      1164.034          43.812    20953631.820    86995920.551 7       905.359          44.562    20953631.540    86995920.552 7       905.359          45.375
G02  22660217.220   119080231.787 7      1527.825          47.437    22660215.260   119080231.784 5      1527.825          31.750    22660225.260    92789804.295 5      1190.513          32.062
R04  19251598.720   103091441.653 8      1544.634          48.125    19251601.620   103091441.697 7      1544.634          46.625    19251608.000    80182270.600 7      1201.382          46.500    19251608.540    80182270.602 7      1201.382          46.125
G04  20622831.140   108373713.255 6      3506.950          39.437    20622828.620   108373713.265 4      3506.950          26.812    20622834.980    84447066.041 4      2732.689          26.437    20622836.100    84447066.048 7      2732.689          46.187
> 2024 07 31 11 57 38.0000000  0  9
G09  21420948.180   112567842.322 7      5599.038          44.625    21420948.500   112567842.317 6      5599.038          40.062    21420955.180    87715241.261 6      4362.887          39.687    21420955.760    87715244.292 7      4362.887          42.687
G22  23682248.120   124451056.799 7      1397.941          46.937    23682247.480   124451056.789 4      1397.941          28.250    23682255.360    96974835.538 4      1089.304          28.062
G17  20741144.500   108995467.308 6      3997.156          40.562    20741143.800   108995467.337 5      3997.156          34.437    20741145.400    84931546.550 5      3114.667          34.187    20741147.540    84931545.578 7      3114.667          43.437
G03  21194465.180   111377689.859 7       786.996          46.562    21194464.240   111377689.858 6       786.996          38.687    21194468.680    86787828.639 6       613.244          39.062    21194469.980    86787830.656 6       613.244          38.812
R05  20105325.760   107474489.793 6      5452.143          37.375    20105325.000   107474489.827 6      5452.143          38.000    20105338.140    83591307.651 7      4240.555          42.937    20105337.620    83591315.661 7      4240.555          43.625
R18  20953402.120   111850687.908 7      1163.593          44.750    20953404.760   111850687.890 7      1163.593          43.875    20953414.080    86995015.357 7       905.017          44.875    20953413.520    86995015.356 7       905.017          45.937
G02  22659926.220   119078703.975 7      1527.816          46.500    22659924.480   119078703.970 5      1527.816          31.750    22659934.480    92788613.788 5      1190.506          32.062
R04  19251310.260   103089897.297 8      1544.149          48.187    19251313.480   103089897.336 7      1544.149          46.500    19251319.660    80181069.428 7      1201.005          46.250    19251320.240    80181069.430 7      1201.005          46.312
G04  20622163.360   108370206.701 6      3506.330          38.875    20622161.300   108370206.706 4      3506.330          26.812    20622167.580    84444333.660 4      2732.205          26.437    20622168.600    84444333.658 7      2732.205          46.000
> 2024 07 31 11 57 39.0000000  0  9
G09  21419882.340   112562243.584 7      5598.673          44.625    21419883.060   112562243.576 6      5598.673          40.062    21419889.540    87710878.606 6      4362.602          40.312    21419889.660    87710881.638 7      4362.602          42.687
G22  23681982.120   124449659.036 7      1397.699          46.312    23681981.740   124449659.028 4      1397.699          27.500    23681989.220    96973746.370 4      1089.116          28.062
G17  20740384.080   108991470.507 6      3996.530          39.875    20740383.320   108991470.530 5      3996.530          34.437    20740384.780    84928432.160 5      3114.179          34.187    20740387.020    84928431.187 7      3114.179          43.875
G03  21194315.580   111376903.020 7       786.752          46.625    21194314.660   111376903.022 6       786.752          38.312    21194318.960    86787215.511 6       613.054          38.375    21194320.100    86787217.526 6       613.054          38.812
R05  20104306.040   107469038.012 6      5451.618          37.375    20104305.220   107469038.034 6      5451.618          38.000    20104318.980    83587067.372 7      4240.147          42.937    20104317.680    83587075.382 7      4240.147          43.250
R18  20953184.140   111849524.492 7      1163.243          42.875    20953186.700   111849524.471 7      1163.243          43.750    20953196.160    86994110.469 7       904.745          45.000    20953195.820    86994110.464 7       904.745          45.812
G02  22659635.420   119077176.328 7      1527.556          46.312    22659633.600   119077176.325 5      1527.556          31.750    22659643.820    92787423.416 5      1190.303          32.062
R04  19251022.000   103088353.662 8      1543.276          48.500    19251025.060   103088353.706 7      1543.276          46.937    19251031.360    80179868.823 7      1200.326          45.875    19251031.940    80179868.825 7      1200.326          46.062
G04  20621496.780   108366700.675 6      3505.559          38.875    20621493.860   108366700.677 4      3505.559          26.000    20621500.300    84441601.689 4      2731.604          26.437    20621501.520    84441601.710 7      2731.604          46.125
> 2024 07 31 11 57 40.0000000  0 10
G09  21418817.180   112556645.324 7      5598.039          44.750    21418817.760   112556645.310 6      5598.039          39.750    21418824.100    87706516.319 6      4362.109          40.375    21418824.380    87706519.356 7      4362.109          42.000
G22  23681716.340   124448261.622 7      1397.257          46.062    23681715.780   124448261.617 4      1397.257          27.500    23681723.040    96972657.472 4      1088.772          28.062
G17  20739623.240   108987474.308 6      3995.781          39.625    20739622.780   108987474.328 5      3995.781          34.125    20739624.360    84925318.230 5      3113.596          33.937    20739626.920    84925317.253 7      3113.596          43.937
G03  21194165.940   111376116.367 7       786.624          46.500    21194165.020   111376116.367 6       786.624          37.562    21194169.340    86786602.525 6       612.954          38.250    21194170.580    86786604.530 6       612.954          39.125
R05  20103285.920   107463586.957 6      5450.793          37.375    20103285.920   107463586.998 6      5450.793          38.375    20103299.120    83582827.675 7      4239.506          42.812    20103298.200    83582835.688 7      4239.506          43.625
G19  21678670.000   113922182.047 6      5583.133          40.000
R18  20952966.120   111848361.655 7      1162.515          44.000    20952968.700   111848361.648 7      1162.515          43.812    20952978.120    86993206.049 7       904.178          45.062    20952977.920    86993206.044 7       904.178          45.375
G02  22659344.900   119075648.971 7      1527.253          46.187    22659342.860   119075648.968 5      1527.253          31.750    22659353.060    92786233.265 5      1190.067          31.687
R04  19250733.980   103086810.846 8      1542.399          48.375    19250736.860   103086810.890 7      1542.399          46.312    19250743.100    80178668.853 7      1199.644          46.125    19250744.060    80178668.857 7      1199.644          46.062
G04  20620829.860   108363195.340 6      3504.929          37.625    20620826.620   108363195.345 4      3504.929          26.000    20620833.120    84438870.258 4      2731.114          26.437    20620834.420    84438870.266 7      2731.114          45.687
> 2024 07 31 11 57 41.0000000  0 10
G09  21417751.960   112551047.437 7      5597.764          45.000    21417752.740   112551047.423 6      5597.764          39.812    21417758.900    87702154.335 6      4361.894          40.062    21417758.600    87702157.372 7      4361.894          42.000
G22  23681450.420   124446864.495 7      1397.119          46.437    23681450.000   124446864.495 4      1397.119          27.500    23681456.800    96971568.801 4      1088.665          28.062
G17  20738862.960   108983478.578 6      3995.543          39.625    20738862.420   108983478.596 5      3995.543          34.125    20738863.860    84922204.674 5      3113.410          33.937    20738866.400    84922203.710 7      3113.410          44.187
G03  21194016.140   111375329.909 7       786.394          46.875    21194015.520   111375329.909 6       786.394          38.812    21194019.740    86785989.702 6       612.775          39.187    21194020.600    86785991.713 6       612.775          39.125
R05  20102266.600   107458136.592 6      5450.071          37.375    20102266.120   107458136.633 6      5450.071          38.375    20102280.100    83578588.517 7      4238.944          43.250    20102278.860    83578596.531 7      4238.944          44.625
G19  21677607.500   113916599.045 6      5582.751          39.937
R18  20952748.540   111847199.336 7      1162.070          43.000    20952751.460   111847199.334 7      1162.070          43.812    20952760.340    86992302.030 7       903.833          45.062    20952760.040    86992302.026 7       903.833          45.312
G02  22659054.240   119074121.842 7      1527.047          46.562    22659052.040   119074121.839 5      1527.047          31.312    22659062.600    92785043.286 5      1189.906          31.687
R04  19250446.040   103085268.788 7      1541.692          47.562    19250449.300   103085268.827 7      1541.692          47.000    19250455.680    80177469.472 7      1199.094          46.562    19250456.280    80177469.476 7      1199.094          46.375
G04  20620163.460   108359690.605 6      3504.403          37.625    20620159.740   108359690.612 4      3504.403          26.000    20620166.200    84436139.299 4      2730.704          26.437    20620167.760    84436139.320 7      2730.704          45.875
> 2024 07 31 11 57 42.0000000  0 10
G09  21416686.780   112545449.991 7      5597.130          45.062    21416687.780   112545449.980 6      5597.130          39.562    21416693.580    87697792.697 6      4361.400          40.125    21416693.220    87697795.744 6      4361.400          41.625
G22  23681184.440   124445467.728 7      1396.456          46.625    23681184.040   124445467.727 4      1396.456          27.500    23681190.980    96970480.398 4      1088.148          28.062
G17  20738103.040   108979483.464 6      3994.597          39.562    20738101.880   108979483.482 5      3994.597          34.125    20738103.600    84919091.604 5      3112.673          33.625    20738106.120    84919090.634 7      3112.673          44.187
G03  21193866.800   111374543.640 7       785.990          47.312    21193866.040   111374543.645 6       785.990          38.500    21193870.080    86785377.021 6       612.460          38.500    21193871.820    86785379.032 6       612.460          39.125
R05  20101246.860   107452686.949 6      5448.998          36.875    20101246.900   107452686.998 6      5448.998          38.375    20101260.760    83574349.914 7      4238.110          43.000    20101259.600    83574357.926 7      4238.110          44.000
G19  21676545.200   113911017.010 6      5582.248          39.937
R18  20952530.980   111846037.551 7      1161.423          43.125    20952532.740   111846037.547 7      1161.423          43.500    20952543.220    86991398.409 7       903.329          44.375    20952542.700    86991398.401 7       903.329          45.062
G02  22658763.660   119072594.973 7      1526.671          45.437    22658761.480   119072594.970 5      1526.671          31.312    22658772.060    92783853.516 5      1189.614          31.687
R04  19250157.960   103083727.506 7      1540.746          47.625    19250161.200   103083727.553 7      1540.746          46.062    19250167.820    80176270.699 7      1198.358          45.812    19250168.400    80176270.706 7      1198.358          46.187
G04  20619496.580   108356186.576 6      3503.601          37.625    20619493.040   108356186.586 4      3503.601          26.000    20619499.360    84433408.891 4      2730.079          25.812    20619500.840    84433408.891 7      2730.079          45.875
> 2024 07 31 11 57 43.0000000  0 10
G09  21415621.580   112539852.850 7      5597.025          45.875    21415622.880   112539852.842 6      5597.025          39.750    21415628.400    87693431.297 6      4361.318          40.125    21415628.340    87693434.336 6      4361.318          41.625
G22  23680918.760   124444071.084 7      1396.693          46.812    23680918.380   124444071.083 4      1396.693          27.500    23680925.180    96969392.094 4      1088.332          26.750
G17  20737342.860   108975488.741 6      3994.567          39.937    20737341.700   108975488.756 5      3994.567          34.125    20737343.400    84915978.833 5      3112.649          33.625    20737345.520    84915977.857 7      3112.649          44.250
G03  21193717.180   111373757.413 7       786.265          47.250    21193716.440   111373757.415 6       786.265          38.375    21193720.540    86784764.371 6       612.674          39.062    21193721.820    86784766.369 6       612.674          39.125
R05  20100228.320   107447237.840 6      5448.773          36.875    20100227.600   107447237.884 6      5448.773          38.937    20100241.300    83570111.710 7      4237.935          43.562    20100240.340    83570119.722 7      4237.935          44.500
G19  21675483.040   113905434.294 6      5582.118          39.687
R18  20952313.220   111844876.174 7      1161.251          43.000    20952315.400   111844876.156 7      1161.251          43.000    20952326.000    86990495.099 7       903.195          45.187    20952324.980    86990495.089 7       903.195          45.500
G02  22658473.100   119071068.212 7      1526.800          46.187    22658471.000   119071068.209 5      1526.800          31.312    22658481.380    92782663.830 5      1189.714          31.687
R04  19249870.400   103082186.896 7      1540.403          47.875    19249873.380   103082186.941 7      1540.403          46.187    19249880.400    80175072.441 7      1198.092          46.250    19249880.840    80175072.447 7      1198.092          46.625
G04  20618830.120   108352683.026 6      3503.488          37.375    20618826.440   108352683.033 4      3503.488          26.000    20618832.680    84430678.850 4      2729.991          25.812    20618834.100    84430678.856 7      2729.991          45.750
> 2024 07 31 11 57 44.0000000  0 10
G09  21414556.800   112534255.872 7      5596.827          45.750    21414557.900   112534255.861 6      5596.827          39.687    21414563.300    87689070.011 6      4361.164          39.750    21414563.600    87689073.048 6      4361.164          41.500
G22  23680652.940   124442674.521 7      1396.400          46.437    23680652.720   124442674.526 4      1396.400          27.500    23680659.360    96968303.862 4      1088.104          26.750
G17  20736582.580   108971494.360 6      3993.946          40.375    20736581.620   108971494.372 5      3993.946          34.125    20736583.200    84912866.322 5      3112.165          33.375    20736585.400    84912865.344 7      3112.165          43.937
G03  21193567.580   111372971.110 7       786.232          47.625    21193566.700   111372971.112 6       786.232          38.562    21193570.940    86784151.661 6       612.648          38.687    21193572.120    86784153.666 6       612.648          39.437
R05  20099209.100   107441789.148 6      5448.235          36.875    20099208.480   107441789.195 6      5448.235          38.937    20099222.220    83565873.857 7      4237.516          43.750    20099221.160    83565881.867 7      4237.516          44.437
G19  21674420.920   113899852.261 6      5581.769          40.375
R18  20952095.820   111843715.035 7      1160.836          42.250    20952097.940   111843715.028 7      1160.836          43.187    20952108.560    86989592.001 7       902.873          45.437    20952107.440    86989591.992 7       902.873          46.000
G02  22658182.740   119069541.461 7      1526.525          45.625    22658180.380   119069541.463 5      1526.525          31.125    22658190.880    92781474.152 5      1189.500          31.187
R04  19249582.660   103080646.833 7      1539.635          47.812    19249585.940   103080646.880 7      1539.635          46.250    19249593.160    80173874.614 7      1197.494          46.687    19249593.280    80173874.620 7      1197.494          46.500
G04  20618163.000   108349179.930 6      3502.764          37.375    20618159.860   108349179.932 4      3502.764          26.000    20618166.060    84427949.165 4      2729.427          25.812    20618167.600    84427949.165 7      2729.427          45.875
> 2024 07 31 11 57 45.0000000  0 10
G09  21413491.640   112528659.222 7      5596.339          45.500    21413492.800   112528659.211 6      5596.339          39.625    21413498.200    87684708.984 6      4360.784          39.937    21413497.980    87684712.012 6      4360.784          41.500
G22  23680387.460   124441278.172 7      1396.150          46.687    23680387.020   124441278.174 4      1396.150          26.000    23680393.420    96967215.791 4      1087.909          26.750
G17  20735822.420   108967500.367 6      3993.617          40.375    20735821.660   108967500.380 5      3993.617          33.625    20735823.200    84909754.120 5      3111.909          33.375    20735825.400    84909753.133 7      3111.909          44.000
G03  21193418.040   111372184.891 7       786.070          47.437    21193417.140   111372184.899 6       786.070          38.375    21193421.560    86783539.023 6       612.522          39.000    21193422.140    86783541.021 6       612.522          39.437
R05  20098190.460   107436341.065 6      5447.599          36.875    20098189.260   107436341.109 6      5447.599          38.937    20098202.600    83561636.466 7      4237.021          43.375    20098202.280    83561644.484 7      4237.021          44.750
G19  21673358.500   113894270.573 6      5581.402          40.562
R18  20951878.060   111842554.374 7      1160.193          42.750    20951879.980   111842554.356 7      1160.193          43.500    20951890.340    86988689.254 7       902.372          45.125    20951890.220    86988689.240 7       902.372          45.250
G02  22657892.140   119068014.860 7      1526.400          45.312    22657889.920   119068014.860 5      1526.400          31.125    22657900.440    92780284.583 5      1189.403          31.187
R04  19249295.340   103079107.401 8      1539.039          48.000    19249298.540   103079107.445 7      1539.039          46.312    19249305.740    80172677.272 7      1197.030          46.500    19249305.700    80172677.278 7      1197.030          46.437
G04  20617496.660   108345677.343 6      3502.058          37.937    20617493.440   108345677.346 4      3502.058          26.000    20617499.360    84425219.879 4      2728.877          25.812    20617500.600    84425219.883 7      2728.877          45.750
> 2024 07 31 11 57 46.0000000  0 10
G09  21412426.780   112523062.967 7      5596.028          44.875    21412427.780   112523062.959 6      5596.028          39.875    21412433.220    87680348.267 6      4360.541          40.125    21412433.420    87680351.308 6      4360.541          41.500
G22  23680121.540   124439882.082 7      1396.015          46.687    23680121.260   124439882.082 4      1396.015          26.000    23680127.660    96966127.923 4      1087.804          26.750
G17  20735062.120   108963506.908 6      3993.199          40.687    20735061.680   108963506.921 5      3993.199          33.625    20735063.260    84906642.338 5      3111.583          34.000    20735065.360    84906641.341 7      3111.583          44.312
G03  21193268.280   111371398.830 7       786.004          46.875    21193267.600   111371398.837 6       786.004          38.687    21193272.000    86782926.501 6       612.471          38.812    21193272.620    86782928.485 6       612.471          39.437
R05  20097171.560   107430893.651 6      5447.068          38.187    20097171.280   107430893.687 6      5447.068          39.750    20097183.920    83557399.575 7      4236.608          43.812    20097183.060    83557407.588 7      4236.608          44.250
G19  21672296.760   113888689.286 6      5581.128          41.187
R18  20951661.060   111841394.139 7      1160.032          42.875    20951662.640   111841394.121 7      1160.032          43.750    20951673.280    86987786.841 7       902.247          44.500    20951672.880    86987786.832 7       902.247          45.312
G02  22657601.840   119066488.461 7      1526.301          45.375    22657599.320   119066488.458 5      1526.301          31.125    22657609.960    92779095.175 5      1189.325          31.187
R04  19249008.080   103077568.690 7      1538.401          47.312    19249011.640   103077568.734 7      1538.401          46.562    19249018.760    80171480.488 7      1196.534          46.812    19249018.440    80171480.494 7      1196.534          47.250
G04  20616829.640   108342175.361 6      3501.715          37.937    20616827.020   108342175.361 4      3501.715          26.000    20616833.060    84422491.066 4      2728.609          25.812    20616834.300    84422491.060 7      2728.609          45.687
> 2024 07 31 11 57 47.0000000  0 10
G09  21411361.860   112517467.045 7      5595.759          45.625    21411363.080   112517467.034 6      5595.759          39.875    21411368.380    87675987.809 6      4360.332          40.062    21411368.260    87675990.851 6      4360.332          41.375
G22  23679855.840   124438486.240 7      1395.704          46.250    23679855.660   124438486.242 4      1395.704          26.000    23679861.920    96965040.247 4      1087.562          26.750
G17  20734301.920   108959513.935 6      3992.675          40.687    20734301.940   108959513.948 5      3992.675          34.437    20734303.560    84903530.924 5      3111.175          34.000    20734306.040    84903529.936 7      3111.175          44.312
G03  21193118.540   111370612.889 7       785.834          47.562    21193118.020   111370612.891 6       785.834          38.750    21193122.520    86782314.072 6       612.338          39.312    21193123.360    86782316.058 6       612.338          39.750
R05  20096152.560   107425446.833 6      5446.595          38.187    20096152.180   107425446.877 6      5446.595          39.750    20096165.000    83553163.172 7      4236.241          44.187    20096164.240    83553171.184 7      4236.241          45.062
G19  21671234.840   113883108.378 6      5580.716          41.000
R18  20951443.680   111840234.412 7      1159.545          43.500    20951445.400   111840234.381 7      1159.545          43.750    20951456.300    86986884.823 7       901.868          44.875    20951455.720    86986884.805 7       901.868          45.000
G02  22657311.460   119064962.247 7      1526.088          45.812    22657308.920   119064962.249 5      1526.088          31.125    22657319.420    92777905.915 5      1189.160          30.937
R04  19248720.900   103076030.680 7      1537.650          47.312    19248724.180   103076030.721 7      1537.650          46.812    19248731.900    80170284.254 7      1195.950          46.812    19248731.180    80170284.258 7      1195.950          47.000
G04  20616163.840   108338673.976 6      3501.145          38.062    20616160.880   108338673.981 4      3501.145          25.562    20616166.780    84419762.715 4      2728.165          25.812    20616168.780    84419762.703 7      2728.165          46.062
