     3.05           OBSERVATION DATA    MIXED               RINEX VERSION / TYPE
TPS2RIN 1.0.29.3920 TPS-USER            20240801 093646 UTC PGM / RUN BY / DATE
Win64 build Feb 23, 2024 (c) Topcon Positioning Systems     COMMENT
SRC: 20240731_CAMI2.tps                                     COMMENT
OPT: -S -v 3.05                                             COMMENT
Observer            Agency                                  OBSERVER / AGENCY
O0M3X53SBGM         TPS HIPER_SR        4.8 HSR Jul,08,2022 REC # / TYPE / VERS
FW: 4.8 HSR Jul,08,2022 p3                                  COMMENT
SN: HiPer SR 1212-12575                                     COMMENT
000                 TPSHIPER_SR     NONE                    ANT # / TYPE
        1.8000        0.0000        0.0000                  ANTENNA: DELTA H/E/N
CAMI2                                                       MARKER NAME
  5387819.2739 -1598385.2067  3009679.4325                  APPROX POSITION XYZ
  2024     7    31    12    23   17.0000000     GPS         TIME OF FIRST OBS
  2024     7    31    12    38   40.0000000     GPS         TIME OF LAST OBS
     1.000                                                  INTERVAL
   924 EPOCHS                                               COMMENT
G   16 C1C L1C D1C S1C C1W L1W D1W S1W C2W L2W D2W S2W C2X  SYS / # / OBS TYPES
       L2X D2X S2X                                          SYS / # / OBS TYPES
R   16 C1C L1C D1C S1C C1P L1P D1P S1P C2P L2P D2P S2P C2C  SYS / # / OBS TYPES
       L2C D2C S2C                                          SYS / # / OBS TYPES
    13                                                      # OF SATELLITES
   G02   753   753   753   753   748   748   748   748   748PRN / # OF OBS
         748   748   748     0     0     0     0            PRN / # OF OBS
   G03   924   924   924   924   924   924   924   924   924PRN / # OF OBS
         924   924   924   924   924   924   924            PRN / # OF OBS
   G04   924   924   924   924   924   924   924   924   924PRN / # OF OBS
         924   924   924   924   924   924   924            PRN / # OF OBS
   G06   833   833   833   833   833   833   833   833   833PRN / # OF OBS
         833   833   833   833   833   833   833            PRN / # OF OBS
   G09   924   924   924   924   924   924   924   924   924PRN / # OF OBS
         924   924   924   924   924   924   924            PRN / # OF OBS
   G17   924   924   924   924   924   924   924   924   924PRN / # OF OBS
         924   924   924   924   924   924   924            PRN / # OF OBS
   G19   924   924   924   924   924   924   924   924   924PRN / # OF OBS
         924   924   924     0     0     0     0            PRN / # OF OBS
   G21    47    47    47    47    34    34    34    34    31PRN / # OF OBS
          31    31    31     0     0     0     0            PRN / # OF OBS
   G22   458   458   458   458   446   446   446   446   446PRN / # OF OBS
         446   446   446     0     0     0     0            PRN / # OF OBS
   R04   924   924   924   924   924   924   924   924   924PRN / # OF OBS
         924   924   924   924   924   924   924            PRN / # OF OBS
   R05   924   924   924   924   924   924   924   924   924PRN / # OF OBS
         924   924   924   924   924   924   924            PRN / # OF OBS
   R18   380   380   380   380   370   370   370   370   370PRN / # OF OBS
         370   370   370   368   368   368   368            PRN / # OF OBS
   R19   294   294   294   294   294   294   294   294   294PRN / # OF OBS
         294   294   294   294   294   294   294            PRN / # OF OBS
G L1C                                                       SYS / PHASE SHIFT
G L1W -0.25000                                              SYS / PHASE SHIFT
G L2W  0.00000                                              SYS / PHASE SHIFT
G L2X  0.25000                                              SYS / PHASE SHIFT
R L1C                                                       SYS / PHASE SHIFT
R L1P -0.25000                                              SYS / PHASE SHIFT
R L2P -0.25000                                              SYS / PHASE SHIFT
R L2C                                                       SYS / PHASE SHIFT
  4 R04  6 R05  1 R18 -3 R19  3                             GLONASS SLOT / FRQ #
                                                            GLONASS COD/PHS/BIS
    18    18  1929     7GPS                                 LEAP SECONDS
                                                            END OF HEADER
> 2024 07 31 12 23 17.0000000  0 10
G04  20628247.500   108402172.091 7      2544.907          45.000    20628247.640   108402172.109 6      2544.907          37.000    20628251.560    84469241.608 6      1983.044          36.687    20628251.900    84469242.598 8      1983.044          50.500
G02  23155776.940   121684417.091 7      1170.150          43.187    23155775.420   121684417.103 4      1170.150          28.000    23155783.820    94819027.598 4       911.805          28.000
R19  19736602.980   105577504.371 6      2975.006          39.625    19736602.360   105577504.372 6      2975.006          39.187    19736611.920    82115882.468 7      2313.893          47.000    19736612.340    82115883.469 7      2313.893          46.812
G17  20585767.580   108178938.000 7      3146.424          47.812    20585766.160   108178938.000 7      3146.424          47.687    20585771.080    84295283.884 8      2451.759          48.000    20585771.500    84295288.890 8      2451.759          50.812
R04  19851236.200   106302469.278 8       543.631          50.125    19851239.060   106302469.325 8       543.631          48.937    19851247.600    82679742.646 8       422.824          49.937    19851247.040    82679741.653 8       422.824          50.500
R05  19582308.820   104678661.820 8      4365.904          48.062    19582308.340   104678661.829 7      4365.904          47.875    19582317.940    81416782.454 7      3395.703          46.500    19582317.500    81416778.463 7      3395.703          46.062
G06  22942086.820   120561476.948 7      5266.888          43.250    22942086.460   120561476.958 6      5266.888          36.937    22942093.620    93944044.120 6      4104.068          37.625    22942095.500    93944054.083 7      4104.068          42.312
G19  21043102.300   110582247.253 8      4830.906          48.062    21043100.880   110582247.260 6      4830.906          36.812    21043103.500    86167989.778 6      3764.342          37.000
G09  20771992.340   109157558.087 7      4897.807          46.500    20771991.740   109157558.097 8      4897.807          48.187    20771999.400    85057863.134 7      3816.473          47.875    20771999.620    85057864.140 8      3816.473          50.812
G03  21882281.380   114992164.517 6       634.245          40.875    21882278.740   114992164.522 6       634.245          36.000    21882288.800    89604309.622 6       494.217          36.000    21882289.360    89604313.651 7       494.217          42.500
> 2024 07 31 12 23 18.0000000  0 10
G04  20627763.080   108399627.500 7      2544.370          44.750    20627763.220   108399627.516 6      2544.370          36.812    20627767.220    84467258.813 6      1982.626          36.437    20627767.680    84467259.802 8      1982.626          50.375
G02  23155554.220   121683247.020 7      1170.083          44.375    23155552.820   121683247.030 4      1170.083          28.500    23155561.140    94818115.847 4       911.753          28.562
R19  19736046.400   105574529.766 6      2974.350          40.062    19736046.580   105574529.765 6      2974.350          39.187    19736055.920    82113568.880 7      2313.384          47.375    19736056.420    82113569.879 7      2313.384          47.250
G17  20585168.840   108175791.981 8      3145.764          48.125    20585167.640   108175791.978 7      3145.764          47.750    20585172.400    84292832.441 7      2451.244          47.750    20585172.900    84292837.449 8      2451.244          51.062
R04  19851134.920   106301925.983 8       543.068          50.687    19851137.140   106301926.032 8       543.068          49.187    19851145.960    82679320.090 8       422.386          50.312    19851145.700    82679319.097 8       422.386          50.625
R05  19581492.460   104674296.337 8      4365.183          48.500    19581491.720   104674296.335 8      4365.183          48.375    19581501.180    81413387.082 7      3395.142          46.437    19581501.040    81413383.082 7      3395.142          46.312
G06  22941084.580   120556210.142 7      5266.891          42.750    22941084.080   120556210.149 6      5266.891          36.875    22941091.360    93939940.113 6      4104.071          37.250    22941092.760    93939950.084 6      4104.071          41.937
G19  21042183.100   110577416.645 8      4830.389          48.187    21042181.600   110577416.655 6      4830.389          37.000    21042184.200    86164225.668 6      3763.939          37.125
G09  20771060.420   109152660.609 7      4897.261          46.687    20771059.900   109152660.616 7      4897.261          47.750    20771067.460    85054046.916 7      3816.048          47.625    20771067.860    85054047.924 8      3816.048          50.437
G03  21882161.140   114991530.418 6       634.159          40.312    21882157.980   114991530.423 6       634.159          36.000    21882168.020    89603815.519 6       494.150          36.000    21882168.300    89603819.559 7       494.150          42.562
> 2024 07 31 12 23 19.0000000  0 10
G04  20627278.800   108397083.574 7      2543.441          44.687    20627278.980   108397083.592 6      2543.441          36.937    20627283.180    84465276.535 6      1981.902          36.500    20627283.500    84465277.524 8      1981.902          50.687
G02  23155331.520   121682077.265 7      1169.320          43.437    23155330.100   121682077.275 4      1169.320          28.500    23155338.460    94817204.341 4       911.159          28.562
R19  19735490.520   105571555.728 6      2973.420          40.062    19735490.000   105571555.740 6      2973.420          39.187    19735500.040    82111255.752 7      2312.660          47.312    19735500.400    82111256.755 7      2312.660          47.187
G17  20584570.600   108172646.564 7      3144.879          47.375    20584568.920   108172646.561 7      3144.879          47.687    20584573.820    84290381.462 7      2450.555          47.312    20584574.300    84290386.472 8      2450.555          50.687
R04  19851033.580   106301383.245 8       542.188          50.125    19851035.920   106301383.297 8       542.188          49.000    19851044.560    82678897.960 8       421.702          50.250    19851044.180    82678896.965 8       421.702          50.062
R05  19580675.700   104669931.625 8      4364.056          48.812    19580675.300   104669931.632 8      4364.056          48.312    19580684.440    81409992.306 7      3394.266          45.750    19580684.500    81409988.311 7      3394.266          45.875
G06  22940082.760   120550943.348 6      5266.519          41.937    22940081.760   120550943.356 6      5266.519          37.250    22940089.340    93935836.116 6      4103.781          37.375    22940090.640    93935846.093 6      4103.781          41.687
G19  21041264.020   110572586.635 8      4829.556          48.312    21041262.560   110572586.642 6      4829.556          37.250    21041264.960    86160462.028 6      3763.290          37.437
G09  20770128.620   109147763.662 7      4896.374          47.312    20770128.000   109147763.675 7      4896.374          47.875    20770135.480    85050231.119 7      3815.356          47.812    20770135.900    85050232.127 8      3815.356          50.562
G03  21882040.000   114990896.414 6       633.674          39.875    21882037.360   114990896.419 5       633.674          35.937    21882047.620    89603321.483 5       493.772          35.875    21882048.480    89603325.513 7       493.772          42.625
> 2024 07 31 12 23 20.0000000  0 10
G04  20626795.220   108394540.552 7      2542.560          45.312    20626794.940   108394540.568 6      2542.560          36.687    20626799.200    84463294.961 6      1981.216          36.687    20626799.380    84463295.950 8      1981.216          49.250
G02  23155109.200   121680907.980 6      1169.002          41.875    23155107.580   121680907.993 4      1169.002          28.500    23155115.960    94816293.202 4       910.910          28.562
R19  19734935.400   105568582.533 6      2972.861          40.062    19734934.700   105568582.547 6      2972.861          39.312    19734944.220    82108943.262 7      2312.225          47.250    19734944.540    82108944.268 7      2312.225          46.750
G17  20583972.200   108169501.988 7      3144.135          47.937    20583970.560   108169501.990 7      3144.135          47.062    20583975.520    84287931.145 7      2449.975          46.812    20583975.700    84287936.151 8      2449.975          50.750
R04  19850932.320   106300841.361 8       541.433          49.312    19850934.820   106300841.405 8       541.433          48.937    19850943.240    82678476.489 8       421.114          50.062    19850942.980    82678475.495 8       421.114          48.625
R05  19579859.260   104665567.903 8      4363.269          48.812    19579858.980   104665567.910 8      4363.269          48.187    19579868.360    81406598.304 7      3393.653          46.437    19579868.000    81406594.303 7      3393.653          45.500
G06  22939080.460   120545676.796 6      5266.406          41.625    22939079.540   120545676.809 6      5266.406          36.812    22939087.040    93931732.317 6      4103.693          36.562    22939087.880    93931742.303 6      4103.693          41.687
G19  21040345.000   110567757.462 8      4828.782          48.312    21040343.580   110567757.469 6      4828.782          36.687    21040345.880    86156699.036 6      3762.687          36.875
G09  20769196.700   109142867.509 7      4895.711          46.687    20769196.280   109142867.519 8      4895.711          48.437    20769203.700    85046415.931 7      3814.840          47.937    20769203.960    85046416.941 8      3814.840          49.250
G03  21881919.320   114990262.709 6       633.546          40.750    21881917.000   114990262.717 6       633.546          36.375    21881927.180    89602827.687 5       493.672          35.937    21881928.400    89602831.725 7       493.672          42.625
> 2024 07 31 12 23 21.0000000  0 10
G04  20626311.680   108391998.316 7      2541.777          45.062    20626311.280   108391998.329 6      2541.777          36.500    20626315.540    84461313.994 6      1980.606          36.562    20626315.520    84461314.977 8      1980.606          50.687
G02  23154886.980   121679739.121 7      1168.629          43.000    23154885.200   121679739.139 4      1168.629          28.500    23154893.460    94815382.397 4       910.620          28.562
R19  19734379.160   105565610.126 6      2971.925          39.750    19734379.100   105565610.136 6      2971.925          39.312    19734388.680    82106631.382 7      2311.497          47.125    19734389.100    82106632.386 7      2311.497          47.062
G17  20583373.980   108166358.171 8      3143.321          48.250    20583372.180   108166358.168 7      3143.321          47.750    20583377.180    84285481.413 7      2449.341          47.812    20583377.320    84285486.419 8      2449.341          50.625
R04  19850831.260   106300300.229 8       540.699          49.687    19850833.460   106300300.282 8       540.699          48.500    19850842.200    82678055.609 8       420.544          49.812    19850841.820    82678054.613 8       420.544          50.062
R05  19579042.920   104661205.092 8      4362.266          48.437    19579042.980   104661205.096 8      4362.266          48.437    19579052.240    81403205.000 7      3392.874          46.687    19579051.980    81403201.001 7      3392.874          46.000
G06  22938078.200   120540410.405 6      5266.244          41.062    22938077.120   120540410.417 6      5266.244          36.625    22938084.800    93927628.635 6      4103.567          36.687    22938085.480    93927638.609 6      4103.567          41.562
G19  21039426.440   110562929.022 8      4827.983          48.687    21039424.940   110562929.030 6      4827.983          37.062    21039427.080    86152936.615 6      3762.064          37.000
G09  20768265.140   109137972.028 7      4895.034          46.812    20768264.640   109137972.041 7      4895.034          47.375    20768271.940    85042601.275 7      3814.312          47.062    20768272.260    85042602.282 8      3814.312          50.812
G03  21881798.720   114989629.238 6       633.242          40.500    21881796.420   114989629.249 6       633.242          36.000    21881806.560    89602334.078 5       493.435          35.687    21881808.000    89602338.103 7       493.435          43.062
> 2024 07 31 12 23 22.0000000  0 10
G04  20625827.980   108389456.784 7      2541.270          46.625    20625827.640   108389456.799 6      2541.270          37.000    20625831.900    84459333.583 6      1980.211          36.625    20625832.200    84459334.564 8      1980.211          50.187
G02  23154664.500   121678570.632 7      1168.375          42.750    23154662.660   121678570.648 4      1168.375          28.500    23154671.080    94814471.876 4       910.422          28.562
R19  19733823.920   105562638.375 6      2971.382          39.750    19733823.600   105562638.369 6      2971.382          39.312    19733833.160    82104320.008 7      2311.075          47.500    19733833.700    82104321.013 7      2311.075          47.375
G17  20582775.960   108163215.013 8      3142.848          48.125    20582774.040   108163215.018 7      3142.848          47.812    20582779.200    84283032.212 7      2448.972          47.500    20582779.260    84283037.218 8      2448.972          50.937
R04  19850730.640   106299759.762 8       540.131          49.750    19850732.400   106299759.811 8       540.131          48.812    19850741.260    82677635.249 8       420.102          49.875    19850741.100    82677634.254 8       420.102          50.562
R05  19578226.940   104656843.088 8      4361.635          48.625    19578226.840   104656843.090 8      4361.635          48.312    19578236.120    81399812.337 7      3392.383          45.875    19578235.640    81399808.336 7      3392.383          45.687
G06  22937076.100   120535144.081 6      5266.364          41.312    22937074.800   120535144.091 6      5266.364          36.812    22937082.540    93923525.007 6      4103.660          36.437    22937083.340    93923534.988 6      4103.660          41.562
G19  21038507.300   110558101.237 8      4827.531          48.500    21038506.340   110558101.242 6      4827.531          37.125    21038508.300    86149174.709 6      3761.712          37.312
G09  20767333.940   109133077.168 7      4894.579          46.625    20767332.940   109133077.186 7      4894.579          47.937    20767340.580    85038787.106 7      3813.958          47.687    20767340.740    85038788.109 8      3813.958          50.187
G03  21881678.420   114988995.915 6       633.381          40.500    21881675.960   114988995.927 6       633.381          36.000    21881686.120    89601840.581 6       493.544          36.125    21881687.400    89601844.600 7       493.544          43.000
> 2024 07 31 12 23 23.0000000  0 10
G04  20625344.460   108386915.985 7      2540.370          45.937    20625344.140   108386915.997 6      2540.370          36.937    20625348.320    84457353.740 6      1979.509          36.375    20625348.720    84457354.720 8      1979.509          50.500
G02  23154442.320   121677402.456 7      1168.018          43.500    23154440.240   121677402.474 4      1168.018          28.500    23154448.760    94813561.603 4       910.144          28.375
R19  19733268.620   105559667.272 6      2970.617          40.437    19733267.960   105559667.281 6      2970.617          39.625    19733277.840    82102009.160 7      2310.480          47.687    19733278.160    82102010.161 7      2310.480          47.375
G17  20582177.920   108160072.546 8      3142.049          48.187    20582175.940   108160072.546 8      3142.049          48.125    20582181.080    84280583.526 7      2448.350          47.875    20582181.280    84280588.528 8      2448.350          50.750
R04  19850629.780   106299219.878 8       539.529          50.187    19850631.640   106299219.928 8       539.529          48.500    19850640.260    82677215.337 8       419.634          49.750    19850640.160    82677214.344 8       419.634          50.500
R05  19577411.020   104652481.887 8      4360.770          49.000    19577411.120   104652481.888 8      4360.770          48.625    19577420.680    81396420.293 7      3391.710          45.875    19577419.980    81396416.288 7      3391.710          45.875
G06  22936073.780   120529877.837 6      5266.030          41.187    22936072.700   120529877.852 6      5266.030          36.437    22936080.260    93919421.452 6      4103.400          36.625    22936080.980    93919431.429 6      4103.400          40.937
G19  21037588.820   110553274.116 8      4826.682          48.312    21037587.860   110553274.124 6      4826.682          37.062    21037589.560    86145413.318 6      3761.051          37.250
G09  20766402.580   109128182.917 7      4893.890          46.625    20766401.780   109128182.929 8      4893.890          48.250    20766409.100    85034973.404 7      3813.421          47.812    20766409.300    85034974.409 8      3813.421          50.500
G03  21881557.960   114988362.767 6       632.907          39.687    21881555.680   114988362.780 6       632.907          36.000    21881566.000    89601347.211 6       493.175          36.437    21881567.060    89601351.230 7       493.175          43.750
> 2024 07 31 12 23 24.0000000  0 10
G04  20624860.940   108384375.829 7      2539.839          46.125    20624860.720   108384375.842 6      2539.839          36.750    20624864.920    84455374.396 6      1979.095          36.437    20624865.300    84455375.377 8      1979.095          50.875
G02  23154220.080   121676234.577 7      1167.642          42.375    23154217.740   121676234.598 4      1167.642          28.500    23154226.580    94812651.561 4       909.851          28.375
R19  19732713.440   105556696.794 6      2970.097          40.437    19732712.860   105556696.795 6      2970.097          39.625    19732722.540    82099698.790 7      2310.076          47.625    19732723.140    82099699.791 8      2310.076          48.062
G17  20581580.040   108156930.668 8      3141.571          48.000    20581578.040   108156930.671 7      3141.571          47.812    20581583.140    84278135.314 7      2447.977          47.687    20581583.260    84278140.318 8      2447.977          51.062
R04  19850529.320   106298680.583 8       539.061          49.875    19850530.960   106298680.630 8       539.061          48.875    19850539.320    82676795.875 8       419.269          49.812    19850539.260    82676794.880 8       419.269          50.187
R05  19576595.440   104648121.455 8      4360.055          48.625    19576595.380   104648121.466 8      4360.055          48.187    19576604.760    81393028.859 7      3391.154          46.437    19576604.220    81393024.855 7      3391.154          46.437
G06  22935071.820   120524611.587 6      5266.265          41.937    22935070.520   120524611.597 6      5266.265          37.187    22935078.080    93915317.885 6      4103.583          36.875    22935078.660    93915327.858 6      4103.583          40.937
G19  21036670.460   110548447.569 8      4826.279          48.312    21036669.280   110548447.576 6      4826.279          37.437    21036670.960    86141652.374 6      3760.737          37.312
G09  20765471.260   109123289.204 7      4893.484          46.625    20765470.360   109123289.217 8      4893.484          48.000    20765477.720    85031160.124 7      3813.105          47.375    20765478.220    85031161.129 8      3813.105          50.375
G03  21881437.600   114987729.661 6       633.035          40.750    21881435.160   114987729.671 6       633.035          36.812    21881445.560    89600853.878 6       493.274          36.250    21881446.660    89600857.895 7       493.274          43.750
> 2024 07 31 12 23 25.0000000  0 10
G04  20624377.620   108381836.386 7      2538.674          46.625    20624377.360   108381836.396 6      2538.674          37.000    20624381.660    84453395.609 6      1978.188          36.437    20624382.000    84453396.594 8      1978.188          50.187
G02  23153997.620   121675067.003 6      1167.175          41.875    23153995.420   121675067.021 4      1167.175          28.500    23154004.420    94811741.756 4       909.487          28.375
R19  19732158.220   105553727.009 6      2968.980          40.437    19732157.920   105553727.015 6      2968.980          39.625    19732167.540    82097388.955 7      2309.207          47.562    19732167.980    82097389.961 7      2309.207          47.812
G17  20580982.220   108153789.466 7      3140.549          47.812    20580980.320   108153789.471 7      3140.549          47.875    20580985.440    84275687.623 7      2447.181          47.375    20580985.660    84275692.627 8      2447.181          50.687
R04  19850428.560   106298141.899 8       537.992          49.875    19850430.280   106298141.946 8       537.992          48.937    19850438.820    82676376.901 8       418.438          49.562    19850438.560    82676375.905 8       418.438          50.000
R05  19575779.520   104643761.867 8      4358.860          48.812    19575779.480   104643761.871 8      4358.860          48.187    19575789.280    81389638.066 7      3390.225          46.250    19575788.860    81389634.065 7      3390.225          46.125
G06  22934069.680   120519345.416 6      5265.818          40.875    22934068.480   120519345.426 6      5265.818          36.625    22934075.860    93911214.375 6      4103.235          36.500    22934076.560    93911224.363 6      4103.235          41.125
G19  21035752.160   110543621.686 8      4825.233          48.375    21035750.960   110543621.693 6      4825.233          36.937    21035752.560    86137891.946 6      3759.922          37.125
G09  20764540.120   109118396.101 7      4892.417          46.687    20764539.180   109118396.114 8      4892.417          48.250    20764546.480    85027347.320 7      3812.273          47.812    20764546.880    85027348.326 8      3812.273          49.937
G03  21881317.080   114987096.700 6       632.581          41.625    21881314.600   114987096.710 6       632.581          36.562    21881325.000    89600360.665 6       492.920          36.500    21881325.940    89600364.685 7       492.920          43.187
> 2024 07 31 12 23 26.0000000  0 10
G04  20623894.660   108379297.833 7      2538.315          45.750    20623894.120   108379297.841 6      2538.315          37.000    20623898.520    84451417.514 6      1977.908          36.625    20623899.000    84451418.499 8      1977.908          50.250
G02  23153776.080   121673900.028 7      1166.766          42.937    23153773.160   121673900.046 4      1166.766          28.500    23153782.380    94810832.417 4       909.168          28.375
R19  19731603.560   105550758.069 6      2968.663          39.812    19731602.200   105550758.081 6      2968.663          39.375    19731612.560    82095079.788 8      2308.960          48.062    19731612.840    82095080.791 7      2308.960          47.937
G17  20580384.980   108150649.135 7      3140.096          47.750    20580382.760   108150649.138 8      3140.096          48.125    20580387.780    84273240.611 7      2446.828          47.750    20580387.800    84273245.613 8      2446.828          50.562
R04  19850328.540   106297604.055 8       537.573          49.875    19850330.000   106297604.099 8       537.573          49.000    19850338.080    82675958.578 8       418.113          49.687    19850337.820    82675957.583 8       418.113          50.062
R05  19574964.180   104639403.322 8      4358.178          48.750    19574964.260   104639403.326 7      4358.178          47.812    19574973.980    81386248.089 7      3389.694          46.437    19574973.620    81386244.088 7      3389.694          46.000
G06  22933067.500   120514079.519 6      5265.988          41.437    22933066.340   120514079.529 6      5265.988          36.437    22933073.840    93907111.082 6      4103.367          36.437    22933074.180    93907121.058 6      4103.367          41.125
G19  21034833.960   110538796.649 8      4824.841          48.687    21034832.860   110538796.654 6      4824.841          37.000    21034834.360    86134132.175 6      3759.616          37.062
G09  20763609.160   109113503.797 7      4892.077          46.250    20763608.140   109113503.807 7      4892.077          47.500    20763615.380    85023535.133 7      3812.008          47.000    20763615.940    85023536.133 8      3812.008          50.187
G03  21881196.620   114986464.117 6       632.593          41.562    21881194.420   114986464.128 6       632.593          37.000    21881204.740    89599867.740 6       492.930          36.625    21881205.540    89599871.757 7       492.930          43.375
> 2024 07 31 12 23 27.0000000  0 10
G04  20623411.680   108376760.079 7      2537.351          45.750    20623411.160   108376760.092 6      2537.351          36.812    20623415.540    84449440.049 6      1977.157          36.375    20623416.020    84449441.036 8      1977.157          50.250
G02  23153554.100   121672733.405 7      1166.291          42.000    23153550.880   121672733.425 4      1166.291          28.812    23153560.500    94809923.352 4       908.798          28.375
R19  19731048.700   105547789.926 6      2967.733          39.812    19731047.180   105547789.927 6      2967.733          39.375    19731057.820    82092771.222 7      2308.237          47.812    19731058.180    82092772.225 8      2308.237          48.250
G17  20579787.420   108147509.551 8      3139.160          48.312    20579785.420   108147509.556 8      3139.160          48.187    20579790.360    84270794.181 7      2446.099          47.812    20579790.600    84270799.183 8      2446.099          51.250
R04  19850228.160   106297066.961 8       536.674          49.750    19850229.680   106297067.006 8       536.674          48.187    19850237.720    82675540.834 8       417.413          49.687    19850237.760    82675539.837 8       417.413          49.187
R05  19574149.380   104635045.696 8      4357.127          48.687    19574149.260   104635045.700 8      4357.127          48.625    19574158.760    81382858.820 7      3388.877          46.375    19574158.440    81382854.821 7      3388.877          45.812
G06  22932065.220   120508813.763 6      5265.764          40.437    22932064.200   120508813.765 6      5265.764          36.437    22932071.600    93903007.888 6      4103.193          36.437    22932071.640    93903017.861 6      4103.193          40.562
G19  21033915.820   110533972.345 8      4823.899          48.375    21033914.720   110533972.350 6      4823.899          36.875    21033916.380    86130372.983 6      3758.883          37.000
G09  20762678.200   109108612.182 7      4891.264          46.750    20762677.340   109108612.189 7      4891.264          47.812    20762684.440    85019723.481 7      3811.374          47.250    20762685.080    85019724.486 8      3811.374          50.062
G03  21881076.020   114985831.734 6       632.153          41.375    21881074.340   114985831.744 6       632.153          36.937    21881084.360    89599374.969 6       492.587          36.812    21881085.280    89599378.995 7       492.587          43.437
> 2024 07 31 12 23 28.0000000  0 10
G04  20622929.060   108374223.006 7      2537.186          46.187    20622928.360   108374223.021 6      2537.186          36.562    20622932.680    84447463.111 6      1977.028          36.312    20622933.220    84447464.100 8      1977.028          50.687
G02  23153331.740   121671567.121 6      1166.505          41.562    23153328.780   121671567.139 4      1166.505          28.812    23153338.700    94809014.549 4       908.965          28.937
R19  19730493.500   105544822.398 6      2967.632          39.812    19730492.860   105544822.413 6      2967.632          39.375    19730503.140    82090463.155 8      2308.158          48.062    19730503.520    82090464.159 8      2308.158          48.250
G17  20579190.180   108144370.600 7      3139.027          47.750    20579187.940   108144370.608 7      3139.027          47.937    20579193.000    84268348.248 7      2445.995          47.562    20579193.120    84268353.248 8      2445.995          50.812
R04  19850127.940   106296530.472 8       536.582          49.750    19850129.240   106296530.525 8       536.582          49.062    19850137.360    82675123.573 8       417.341          49.812    19850137.600    82675122.580 8       417.341          49.500
R05  19573334.220   104630688.862 8      4356.821          49.000    19573334.020   104630688.860 8      4356.821          48.250    19573343.400    81379470.173 7      3388.639          46.312    19573343.160    81379466.170 7      3388.639          46.437
G06  22931063.260   120503548.049 6      5266.225          40.437    22931062.220   120503548.049 6      5266.225          36.437    22931069.620    93898904.740 6      4103.552          36.437    22931069.860    93898914.714 6      4103.552          40.562
G19  21032997.920   110529148.661 8      4823.788          48.812    21032996.880   110529148.671 6      4823.788          36.812    21032998.440    86126614.270 6      3758.796          37.500
G09  20761747.300   109103721.139 7      4891.121          46.187    20761746.440   109103721.152 7      4891.121          47.625    20761753.620    85015912.287 7      3811.263          47.187    20761754.260    85015913.290 8      3811.263          50.500
G03  21880955.840   114985199.483 6       632.498          40.625    21880953.940   114985199.498 6       632.498          37.250    21880963.960    89598882.310 6       492.856          37.062    21880965.060    89598886.329 7       492.856          43.312
> 2024 07 31 12 23 29.0000000  0 10
G04  20622446.280   108371686.408 7      2536.011          46.125    20622445.460   108371686.421 6      2536.011          36.250    20622450.060    84445486.543 6      1976.113          36.187    20622450.540    84445487.530 8      1976.113          50.562
G02  23153110.060   121670400.913 6      1165.753          40.750    23153106.740   121670400.933 4      1165.753          28.812    23153116.860    94808105.807 4       908.379          28.937
R19  19729938.040   105541855.338 6      2966.424          39.562    19729937.920   105541855.342 6      2966.424          39.375    19729948.520    82088155.430 7      2307.219          47.375    19729949.080    82088156.437 8      2307.219          48.250
G17  20578593.000   108141232.083 7      3137.882          47.562    20578590.740   108141232.090 7      3137.882          47.875    20578595.740    84265902.648 7      2445.103          47.187    20578595.720    84265907.648 8      2445.103          50.125
R04  19850027.540   106295994.364 8       535.560          49.812    19850029.020   106295994.411 8       535.560          48.500    19850037.160    82674706.598 8       416.547          49.750    19850037.340    82674705.601 8       416.547          49.500
R05  19572519.360   104626332.589 7      4355.587          47.875    19572519.140   104626332.587 7      4355.587          47.625    19572528.720    81376081.959 7      3387.679          46.187    19572528.400    81376077.962 7      3387.679          46.312
G06  22930061.680   120498282.162 6      5265.599          40.562    22930060.140   120498282.167 6      5265.599          36.562    22930067.720    93894801.460 6      4103.064          36.562    22930068.280    93894811.429 6      4103.064          40.625
G19  21032080.240   110524325.390 8      4822.725          48.937    21032078.940   110524325.397 6      4822.725          37.250    21032080.600    86122855.877 6      3757.967          37.625
G09  20760816.720   109098830.456 7      4890.104          46.625    20760815.800   109098830.466 7      4890.104          47.375    20760823.080    85012101.363 7      3810.471          47.062    20760823.540    85012102.366 8      3810.471          50.375
G03  21880836.140   114984567.100 6       632.024          41.562    21880833.520   114984567.110 6       632.024          37.062    21880843.700    89598389.542 6       492.486          36.937    21880845.200    89598393.561 7       492.486          43.312
> 2024 07 31 12 23 30.0000000  0 10
G04  20621963.600   108369150.520 7      2535.497          45.500    20621962.920   108369150.535 6      2535.497          36.812    20621967.400    84443510.529 6      1975.712          36.250    20621967.920    84443511.514 8      1975.712          50.437
G02  23152888.180   121669235.051 6      1165.631          41.625    23152884.860   121669235.069 4      1165.631          28.812    23152895.060    94807197.340 4       908.284          28.937
R19  19729383.660   105538888.921 6      2966.072          39.562    19729384.080   105538888.919 6      2966.072          39.312    19729394.240    82085848.212 7      2306.945          47.437    19729394.380    82085849.215 8      2306.945          48.250
G17  20577995.640   108138094.238 7      3137.417          47.375    20577993.640   108138094.238 7      3137.417          47.937    20577998.600    84263457.570 7      2444.741          47.562    20577998.840    84263462.570 8      2444.741          50.625
R04  19849927.680   106295458.887 8       535.128          49.750    19849929.120   106295458.937 8       535.128          48.937    19849937.000    82674290.114 8       416.211          49.562    19849937.420    82674289.117 8       416.211          50.000
R05  19571704.360   104621977.155 7      4354.978          47.687    19571704.180   104621977.156 8      4354.978          48.187    19571713.700    81372694.399 7      3387.205          46.375    19571713.540    81372690.402 7      3387.205          45.937
G06  22929059.320   120493016.348 6      5265.789          40.750    22929057.880   120493016.348 6      5265.789          36.500    22929065.600    93890698.229 6      4103.212          36.687    22929065.680    93890708.198 6      4103.212          40.625
G19  21031162.460   110519502.789 8      4822.193          49.062    21031161.260   110519502.794 6      4822.193          37.750    21031162.920    86119098.006 6      3757.553          37.750
G09  20759886.100   109093940.357 7      4889.883          46.000    20759885.080   109093940.364 7      4889.883          47.187    20759892.540    85008290.898 7      3810.299          47.000    20759892.880    85008291.895 8      3810.299          49.937
G03  21880715.600   114983934.882 6       632.033          41.562    21880713.440   114983934.892 6       632.033          37.125    21880723.160    89597896.905 6       492.493          37.375    21880724.280    89597900.914 7       492.493          43.187
> 2024 07 31 12 23 31.0000000  0 10
G04  20621480.900   108366615.541 7      2534.481          45.437    20621480.660   108366615.556 6      2534.481          36.375    20621485.080    84441535.220 6      1974.920          36.125    20621485.520    84441536.209 8      1974.920          50.812
G02  23152666.680   121668069.737 6      1165.060          40.812    23152662.880   121668069.755 4      1165.060          28.812    23152673.280    94806289.288 4       907.839          28.937
R19  19728828.880   105535923.428 6      2964.911          39.625    19728829.620   105535923.427 6      2964.911          39.312    19728839.940    82083541.716 7      2306.042          47.437    19728840.060    82083542.719 8      2306.042          48.312
G17  20577398.760   108134957.255 7      3136.543          47.937    20577396.660   108134957.255 8      3136.543          48.000    20577401.740    84261013.163 7      2444.059          47.500    20577402.060    84261018.165 8      2444.059          50.750
R04  19849827.660   106294924.251 8       534.185          49.000    19849828.920   106294924.298 8       534.185          48.187    19849837.180    82673874.282 8       415.478          49.625    19849837.520    82673873.289 8       415.478          49.750
R05  19570889.920   104617622.758 8      4353.892          49.000    19570889.500   104617622.753 8      4353.892          48.375    19570899.040    81369307.648 7      3386.360          46.312    19570898.860    81369303.645 7      3386.360          46.000
G06  22928057.160   120487750.785 6      5265.430          40.375    22928055.640   120487750.795 6      5265.430          36.375    22928063.700    93886595.200 6      4102.932          36.062    22928063.760    93886605.181 6      4102.932          40.812
G19  21030244.900   110514681.012 8      4821.389          49.437    21030243.720   110514681.020 6      4821.389          36.937    21030245.460    86115340.778 6      3756.927          37.187
G09  20758955.920   109089051.090 7      4888.868          46.312    20758954.700   109089051.105 7      4888.868          47.187    20758961.980    85004481.086 7      3809.508          46.687    20758962.440    85004482.085 8      3809.508          49.750
G03  21880595.220   114983302.985 6       631.862          41.312    21880593.440   114983302.992 6       631.862          37.687    21880602.700    89597404.507 6       492.360          37.625    21880604.680    89597408.522 7       492.360          43.125
> 2024 07 31 12 23 32.0000000  0 10
G04  20620998.860   108364081.413 7      2533.911          45.750    20620998.340   108364081.426 6      2533.911          36.250    20621002.780    84439560.573 6      1974.476          36.250    20621003.360    84439561.558 8      1974.476          49.500
G02  23152444.840   121666904.874 6      1164.813          41.750    23152441.280   121666904.892 4      1164.813          28.812    23152451.540    94805381.597 4       907.647          28.937
R19  19728275.700   105532958.720 6      2964.263          39.625    19728274.980   105532958.713 6      2964.263          39.312    19728285.760    82081235.825 7      2305.538          47.875    19728285.880    82081236.830 7      2305.538          47.687
G17  20576802.120   108131821.079 7      3136.017          47.187    20576799.940   108131821.079 7      3136.017          47.562    20576804.840    84258569.394 7      2443.650          47.187    20576805.000    84258574.394 8      2443.650          50.937
R04  19849728.220   106294390.375 8       533.778          49.500    19849729.460   106294390.420 8       533.778          48.437    19849737.540    82673459.047 8       415.161          48.937    19849737.880    82673458.056 8       415.161          49.062
R05  19570075.460   104613269.296 8      4353.326          48.312    19570075.380   104613269.295 7      4353.326          47.625    19570084.820    81365921.624 7      3385.920          46.437    19570084.540    81365917.625 7      3385.920          46.375
G06  22927055.280   120482485.462 6      5265.485          40.562    22927053.680   120482485.472 6      5265.485          36.062    22927061.660    93882492.354 5      4102.975          35.687    22927061.100    93882502.333 6      4102.975          40.812
G19  21029327.520   110509860.056 8      4820.802          49.437    21029326.240   110509860.064 6      4820.802          36.812    21029328.080    86111584.191 6      3756.469          37.250
G09  20758025.420   109084162.554 7      4888.430          45.875    20758024.280   109084162.567 7      4888.430          47.375    20758031.740    85000671.837 7      3809.166          46.687    20758032.240    85000672.836 8      3809.166          48.875
G03  21880474.860   114982671.395 6       631.765          41.625    21880473.020   114982671.398 6       631.765          37.562    21880482.500    89596912.357 6       492.285          37.312    21880484.280    89596916.377 7       492.285          43.187
> 2024 07 31 12 23 33.0000000  0 10
G04  20620516.940   108361548.073 7      2533.075          45.437    20620516.380   108361548.081 6      2533.075          36.500    20620520.720    84437586.542 6      1973.825          36.125    20620521.180    84437587.527 8      1973.825          50.500
G02  23152222.800   121665740.450 7      1164.329          42.125    23152219.780   121665740.466 4      1164.329          28.562    23152229.860    94804474.249 4       907.269          28.437
R19  19727721.900   105529994.722 6      2963.657          39.625    19727720.760   105529994.724 6      2963.657          39.187    19727731.620    82078930.498 7      2305.066          47.500    19727731.540    82078931.501 7      2305.066          47.250
G17  20576205.460   108128685.662 7      3135.127          47.625    20576203.160   108128685.667 7      3135.127          47.312    20576208.140    84256126.214 7      2442.956          46.750    20576208.480    84256131.212 8      2442.956          50.437
R04  19849628.640   106293857.239 8       532.934          49.500    19849629.800   106293857.281 8       532.934          48.500    19849637.860    82673044.381 8       414.504          49.375    19849638.240    82673043.386 8       414.504          48.875
R05  19569261.020   104608916.743 8      4352.206          48.500    19569261.020   104608916.745 8      4352.206          48.437    19569270.440    81362536.306 7      3385.049          46.375    19569270.280    81362532.309 7      3385.049          45.437
G06  22926053.340   120477220.290 6      5265.257          40.500    22926051.880   120477220.295 6      5265.257          36.125    22926059.560    93878389.622 6      4102.797          36.250    22926059.460    93878399.591 6      4102.797          40.812
G19  21028410.340   110505039.820 8      4820.032          48.875    21028409.080   110505039.827 6      4820.032          36.937    21028410.780    86107828.164 6      3755.869          37.125
G09  20757095.340   109079274.714 7      4887.660          45.937    20757094.260   109079274.724 7      4887.660          46.937    20757101.560    84996863.132 7      3808.566          46.625    20757102.100    84996864.128 8      3808.566          49.812
G03  21880354.540   114982040.006 6       631.532          40.812    21880353.060   114982040.008 6       631.532          37.000    21880362.200    89596420.365 6       492.103          37.000    21880363.700    89596424.389 7       492.103          43.062
> 2024 07 31 12 23 34.0000000  0 10
G04  20620035.400   108359015.551 7      2532.063          46.500    20620034.420   108359015.564 6      2532.063          36.437    20620038.800    84435613.152 6      1973.036          36.125    20620039.220    84435614.143 8      1973.036          50.750
G02  23152001.780   121664576.447 7      1163.762          42.187    23151998.320   121664576.459 4      1163.762          28.562    23152008.440    94803567.227 4       906.827          28.437
R19  19727167.840   105527031.498 6      2962.836          39.625    19727166.800   105527031.505 6      2962.836          39.187    19727177.740    82076625.774 8      2304.428          48.062    19727177.520    82076626.775 8      2304.428          48.437
G17  20575608.840   108125551.015 7      3134.167          47.187    20575606.640   108125551.017 7      3134.167          47.937    20575611.580    84253683.630 7      2442.208          47.500    20575612.040    84253688.630 8      2442.208          50.875
R04  19849529.400   106293324.852 8       531.937          49.312    19849530.120   106293324.894 8       531.937          48.187    19849538.440    82672630.301 8       413.729          49.000    19849538.740    82672629.307 8       413.729          49.375
R05  19568447.020   104604565.102 8      4351.150          48.375    19568447.040   104604565.103 8      4351.150          48.437    19568456.380    81359151.702 7      3384.228          46.375    19568456.100    81359147.699 7      3384.228          46.250
G06  22925051.580   120471955.275 6      5264.827          40.625    22925050.220   120471955.277 6      5264.827          36.125    22925057.640    93874287.017 5      4102.462          35.812    22925057.900    93874297.002 6      4102.462          40.812
G19  21027493.100   110500220.361 8      4818.966          48.687    21027491.900   110500220.371 6      4818.966          36.875    21027493.580    86104072.746 6      3755.039          37.062
G09  20756165.420   109074387.597 7      4886.745          45.750    20756164.160   109074387.599 7      4886.745          47.250    20756171.460    84993054.981 7      3807.853          46.562    20756172.200    84993055.980 8      3807.853          49.375
G03  21880234.500   114981408.894 6       631.056          41.250    21880232.820   114981408.904 6       631.056          37.750    21880242.240    89595928.592 6       491.732          37.437    21880243.440    89595932.612 7       491.732          43.062
> 2024 07 31 12 23 35.0000000  0 10
G04  20619553.580   108356483.730 7      2531.413          46.062    20619552.360   108356483.738 6      2531.413          36.437    20619556.980    84433640.303 6      1972.530          36.375    20619557.260    84433641.292 8      1972.530          50.687
G02  23151780.520   121663412.782 7      1163.473          42.375    23151776.960   121663412.798 4      1163.473          28.562    23151787.040    94802660.474 4       906.603          28.437
R19  19726613.420   105524068.948 6      2962.178          39.625    19726613.500   105524068.957 6      2962.178          39.187    19726623.640    82074321.577 7      2303.916          47.875    19726623.920    82074322.578 8      2303.916          48.062
G17  20575012.500   108122417.012 7      3133.663          47.812    20575010.400   108122417.017 7      3133.663          47.875    20575015.220    84251241.547 7      2441.815          47.437    20575015.460    84251246.549 8      2441.815          49.937
R04  19849430.180   106292793.078 8       531.396          49.500    19849430.980   106292793.117 8       531.396          48.625    19849439.000    82672216.697 8       413.308          49.250    19849439.580    82672215.701 8       413.308          49.937
R05  19567633.060   104600214.295 8      4350.346          48.937    19567633.100   104600214.299 8      4350.346          48.187    19567642.660    81355767.736 7      3383.603          47.062    19567642.280    81355763.735 7      3383.603          46.500
G06  22924049.760   120466690.302 6      5264.986          41.125    22924048.380   120466690.310 5      5264.986          35.750    22924055.420    93870184.447 5      4102.587          35.812    22924055.800    93870194.430 6      4102.587          40.812
G19  21026576.160   110495401.517 8      4818.474          49.062    21026574.980   110495401.524 6      4818.474          37.187    21026576.640    86100317.805 6      3754.655          37.312
G09  20755235.620   109069501.052 7      4886.201          46.000    20755234.300   109069501.062 7      4886.201          47.000    20755241.600    84989247.292 7      3807.429          46.250    20755242.320    84989248.283 8      3807.429          49.937
G03  21880114.360   114980777.917 6       630.957          41.375    21880112.520   114980777.924 6       630.957          37.312    21880122.360    89595436.915 6       491.655          37.312    21880123.420    89595440.927 7       491.655          42.937
> 2024 07 31 12 23 36.0000000  0 10
G04  20619071.740   108353952.629 7      2530.829          45.875    20619070.800   108353952.634 6      2530.829          36.500    20619075.220    84431668.012 6      1972.075          36.375    20619075.800    84431669.003 8      1972.075          50.562
G02  23151559.000   121662249.464 7      1163.147          42.687    23151555.900   121662249.480 4      1163.147          28.562    23151565.720    94801753.986 4       906.348          28.437
R19  19726060.080   105521107.091 6      2961.504          39.625    19726059.820   105521107.108 6      2961.504          39.125    19726070.140    82072017.910 8      2303.392          48.250    19726069.920    82072018.915 8      2303.392          48.000
G17  20574416.120   108119283.720 7      3132.990          47.500    20574414.000   108119283.723 7      3132.990          47.812    20574418.960    84248800.019 7      2441.291          47.562    20574419.300    84248805.021 8      2441.291          50.250
R04  19849330.840   106292261.955 8       530.849          49.250    19849331.700   106292261.997 8       530.849          48.187    19849339.720    82671803.597 8       412.883          49.750    19849340.280    82671802.604 8       412.883          49.187
R05  19566819.380   104595864.337 8      4349.576          48.250    19566819.280   104595864.341 7      4349.576          47.500    19566828.800    81352384.442 7      3383.004          46.812    19566828.580    81352380.437 7      3383.004          46.375
G06  22923047.900   120461425.466 6      5264.780          41.562    22923046.440   120461425.474 6      5264.780          36.250    22923053.700    93866081.977 6      4102.426          36.125    22923053.820    93866091.963 6      4102.426          40.687
G19  21025659.320   110490583.375 8      4817.854          48.812    21025658.120   110490583.380 6      4817.854          37.437    21025659.720    86096563.408 6      3754.172          37.562
G09  20754305.860   109064615.154 7      4885.580          45.750    20754304.640   109064615.167 7      4885.580          47.375    20754311.760    84985440.101 7      3806.946          47.125    20754312.320    84985441.098 8      3806.946          49.500
G03  21879994.160   114980147.100 6       630.794          40.937    21879992.540   114980147.099 6       630.794          37.000    21880002.240    89594945.364 6       491.528          36.875    21880003.800    89594949.385 7       491.528          42.875
> 2024 07 31 12 23 37.0000000  0 10
G04  20618590.120   108351422.306 7      2529.835          45.375    20618589.260   108351422.313 6      2529.835          36.500    20618593.780    84429696.332 5      1971.300          35.937    20618594.360    84429697.327 8      1971.300          50.937
G02  23151337.760   121661086.541 7      1162.674          42.812    23151334.680   121661086.556 4      1162.674          28.562    23151344.360    94800847.802 4       905.980          28.437
R19  19725506.400   105518145.955 6      2960.635          40.187    19725506.080   105518145.978 6      2960.635          39.125    19725516.620    82069714.805 8      2302.716          48.000    19725516.700    82069715.810 8      2302.716          48.375
G17  20573819.940   108116151.115 7      3132.286          47.062    20573817.800   108116151.117 7      3132.286          47.625    20573822.780    84246359.028 7      2440.743          47.625    20573823.140    84246364.028 8      2440.743          50.062
R04  19849231.860   106291731.525 8       530.011          48.812    19849232.460   106291731.564 8       530.011          48.187    19849240.760    82671391.036 8       412.231          49.500    19849241.000    82671390.041 8       412.231          48.875
R05  19566005.660   104591515.286 8      4348.534          48.812    19566005.640   104591515.287 8      4348.534          48.062    19566015.360    81349001.843 7      3382.193          46.812    19566014.800    81348997.842 7      3382.193          46.000
G06  22922046.200   120456160.727 6      5264.521          41.687    22922044.900   120456160.737 5      5264.521          35.875    22922051.740    93861979.587 5      4102.224          35.687    22922052.340    93861989.567 6      4102.224          40.687
G19  21024742.440   110485765.908 8      4817.113          48.875    21024741.420   110485765.910 6      4817.113          37.375    21024743.060    86092809.534 6      3753.594          37.875
G09  20753376.100   109059729.881 7      4884.943          45.937    20753375.060   109059729.889 7      4884.943          46.937    20753382.160    84981633.395 7      3806.449          46.562    20753382.760    84981634.392 8      3806.449          50.250
G03  21879874.340   114979516.446 6       630.668          40.750    21879872.540   114979516.445 6       630.668          37.687    21879882.080    89594453.939 6       491.429          37.500    21879883.040    89594457.956 7       491.429          42.875
> 2024 07 31 12 23 38.0000000  0 10
G04  20618108.680   108348892.724 7      2529.246          45.750    20618107.840   108348892.734 6      2529.246          36.500    20618112.320    84427725.233 6      1970.841          36.187    20618112.960    84427726.230 8      1970.841          50.375
G02  23151116.780   121659924.009 7      1162.380          42.375    23151113.540   121659924.024 4      1162.380          28.500    23151123.160    94799941.924 4       905.751          28.500
R19  19724953.300   105515185.534 6      2960.170          40.187    19724952.620   105515185.544 6      2960.170          39.125    19724962.900    82067412.245 8      2302.354          48.062    19724963.140    82067413.254 8      2302.354          48.562
G17  20573224.200   108113019.272 7      3131.505          47.937    20573221.960   108113019.274 8      3131.505          48.000    20573226.720    84243918.629 7      2440.134          47.500    20573227.120    84243923.631 8      2440.134          50.500
R04  19849133.280   106291201.805 8       529.304          49.125    19849133.460   106291201.844 7       529.304          47.750    19849141.760    82670979.036 8       411.681          49.437    19849142.140    82670978.036 8       411.681          49.187
R05  19565192.380   104587167.114 8      4347.723          48.375    19565191.880   104587167.104 8      4347.723          48.500    19565202.380    81345619.925 7      3381.562          46.562    19565201.600    81345615.918 7      3381.562          47.125
G06  22921044.500   120450896.088 6      5264.647          41.250    22921043.400   120450896.098 5      5264.647          35.312    22921049.860    93857877.273 5      4102.323          35.375    22921050.620    93857887.259 6      4102.323          40.437
G19  21023825.920   110480949.176 8      4816.353          48.750    21023824.820   110480949.181 6      4816.353          37.437    21023826.520    86089056.238 6      3753.002          37.562
G09  20752446.620   109054845.297 7      4884.300          46.250    20752445.520   109054845.302 7      4884.300          47.125    20752452.540    84977827.225 7      3805.948          46.750    20752453.420    84977828.220 8      3805.948          49.875
G03  21879754.440   114978886.038 6       630.353          41.437    21879752.860   114978886.043 6       630.353          37.375    21879762.000    89593962.712 6       491.184          37.875    21879762.900    89593966.736 7       491.184          42.687
> 2024 07 31 12 23 39.0000000  0 10
G04  20617627.680   108346363.790 7      2528.615          45.250    20617626.640   108346363.803 6      2528.615          36.250    20617631.040    84425754.637 6      1970.349          36.250    20617631.640    84425755.643 8      1970.349          50.625
G02  23150895.500   121658761.747 7      1161.923          43.312    23150892.400   121658761.757 4      1161.923          28.500    23150902.240    94799036.256 4       905.395          28.500
R19  19724400.540   105512225.725 6      2959.423          40.187    19724399.740   105512225.743 6      2959.423          39.125    19724409.700    82065110.178 7      2301.774          47.562    19724410.060    82065111.183 7      2301.774          47.875
G17  20572628.420   108109888.006 8      3130.908          48.562    20572626.040   108109888.011 7      3130.908          47.875    20572630.840    84241478.686 7      2439.668          47.437    20572631.200    84241483.686 8      2439.668          50.125
R04  19849034.360   106290672.629 8       528.895          49.375    19849034.520   106290672.670 8       528.895          48.000    19849042.820    82670567.456 8       411.363          49.375    19849043.280    82670566.457 8       411.363          48.750
R05  19564379.380   104582819.650 8      4347.080          49.437    19564378.940   104582819.649 7      4347.080          47.812    19564388.880    81342238.568 7      3381.062          46.937    19564388.380    81342234.561 7      3381.062          46.937
G06  22920042.500   120445631.489 7      5264.608          42.062    22920041.440   120445631.499 5      5264.608          35.312    22920048.120    93853774.994 6      4102.292          36.062    22920049.020    93853784.971 6      4102.292          40.437
G19  21022909.480   110476133.005 8      4815.825          48.937    21022908.380   110476133.009 6      4815.825          37.562    21022909.980    86085303.383 6      3752.591          37.562
G09  20751516.940   109049961.235 7      4883.754          45.875    20751516.100   109049961.240 7      4883.754          47.000    20751523.120    84974021.469 7      3805.522          46.187    20751523.800    84974022.462 8      3805.522          49.187
G03  21879634.300   114978255.689 6       630.220          41.625    21879633.060   114978255.689 6       630.220          37.812    21879642.100    89593471.527 6       491.080          37.562    21879643.300    89593475.542 7       491.080          42.687
> 2024 07 31 12 23 40.0000000  0 10
G04  20617146.640   108343835.811 7      2527.687          45.687    20617145.640   108343835.813 6      2527.687          36.125    20617150.140    84423784.783 5      1969.626          35.562    20617150.580    84423785.787 8      1969.626          50.375
G02  23150674.460   121657600.017 7      1161.630          43.375    23150671.280   121657600.024 4      1161.630          28.500    23150681.140    94798131.009 4       905.166          28.500
R19  19723847.360   105509266.815 6      2958.426          39.875    19723846.280   105509266.833 6      2958.426          39.312    19723856.380    82062808.803 7      2300.998          47.750    19723856.660    82062809.812 8      2300.998          48.000
G17  20572032.860   108106757.634 8      3130.030          48.187    20572030.360   108106757.639 7      3130.030          47.812    20572034.980    84239039.433 7      2438.984          47.312    20572035.540    84239044.435 8      2438.984          50.437
R04  19848935.780   106290144.335 8       528.045          48.375    19848935.720   106290144.375 8       528.045          48.062    19848944.300    82670156.561 8       410.701          49.125    19848944.740    82670155.560 8       410.701          49.500
R05  19563566.240   104578473.277 8      4345.998          48.625    19563565.860   104578473.278 7      4345.998          47.812    19563575.940    81338858.064 7      3380.220          47.000    19563575.200    81338854.053 7      3380.220          46.750
G06  22919040.400   120440367.170 6      5264.283          40.812    22919039.440   120440367.175 6      5264.283          36.187    22919046.480    93849672.930 6      4102.038          36.062    22919046.640    93849682.911 6      4102.038          40.312
G19  21021993.020   110471317.724 8      4814.968          48.875    21021991.920   110471317.728 6      4814.968          37.250    21021993.580    86081551.219 6      3751.923          37.125
G09  20750587.800   109045078.017 7      4882.887          45.812    20750586.940   109045078.020 7      4882.887          47.062    20750593.840    84970216.362 7      3804.847          46.750    20750594.360    84970217.355 8      3804.847          49.562
G03  21879514.440   114977625.705 6       629.890          41.125    21879512.940   114977625.704 6       629.890          37.625    21879522.120    89592980.620 6       490.823          37.312    21879523.000    89592984.645 7       490.823          42.687
> 2024 07 31 12 23 41.0000000  0 10
G04  20616665.600   108341308.507 7      2526.997          45.937    20616664.540   108341308.511 6      2526.997          36.250    20616669.220    84421815.461 6      1969.089          36.062    20616669.500    84421816.465 8      1969.089          50.000
G02  23150453.200   121656438.628 7      1161.304          42.750    23150450.360   121656438.632 4      1161.304          28.500    23150460.220    94797226.022 4       904.912          28.500
R19  19723294.240   105506308.531 6      2958.037          39.875    19723293.720   105506308.535 6      2958.037          39.312    19723303.600    82060507.903 7      2300.695          47.312    19723303.880    82060508.908 7      2300.695          47.937
G17  20571437.220   108103627.927 7      3129.340          47.375    20571434.800   108103627.929 7      3129.340          47.750    20571439.460    84236600.698 7      2438.447          47.500    20571439.980    84236605.693 8      2438.447          50.375
R04  19848837.280   106289616.640 8       527.398          48.187    19848836.840   106289616.684 7       527.398          47.937    19848845.740    82669746.129 8       410.199          49.812    19848846.280    82669745.128 8       410.199          49.250
R05  19562753.060   104574127.730 8      4345.138          48.562    19562752.820   104574127.731 7      4345.138          47.875    19562763.320    81335478.196 7      3379.552          46.937    19562762.500    81335474.187 7      3379.552          47.187
G06  22918038.740   120435102.883 6      5264.396          40.812    22918037.600   120435102.888 5      5264.396          35.500    22918044.560    93845570.892 5      4102.127          35.437    22918044.220    93845580.880 6      4102.127          40.312
G19  21021076.960   110466503.079 8      4814.333          48.312    21021075.820   110466503.083 6      4814.333          37.250    21021077.440    86077799.551 6      3751.428          37.687
G09  20749658.760   109040195.369 7      4882.366          46.062    20749657.660   109040195.369 7      4882.366          47.062    20749664.760    84966411.699 7      3804.441          46.625    20749665.240    84966412.692 8      3804.441          49.375
G03  21879394.460   114976995.831 6       629.853          41.437    21879393.120   114976995.836 6       629.853          37.750    21879402.440    89592489.811 6       490.795          37.750    21879402.320    89592493.824 7       490.795          42.375
> 2024 07 31 12 23 42.0000000  0 10
G04  20616184.840   108338781.872 7      2526.316          45.937    20616183.740   108338781.880 5      2526.316          35.937    20616188.200    84419846.655 6      1968.558          36.062    20616188.660    84419847.659 8      1968.558          50.062
G02  23150232.360   121655277.530 7      1160.929          43.687    23150229.580   121655277.535 4      1160.929          28.500    23150239.400    94796321.265 4       904.620          28.500
R19  19722740.840   105503350.887 6      2957.304          39.875    19722740.540   105503350.901 6      2957.304          39.312    19722750.660    82058207.517 7      2300.126          47.250    19722750.980    82058208.528 8      2300.126          48.062
G17  20570841.740   108100498.821 7      3128.804          47.562    20570839.400   108100498.823 7      3128.804          47.375    20570843.960    84234162.433 7      2438.029          47.062    20570844.620    84234167.431 8      2438.029          50.437
R04  19848738.680   106289089.530 8       526.807          48.562    19848738.240   106289089.569 7       526.807          47.812    19848747.500    82669336.157 8       409.739          49.187    19848747.620    82669335.153 8       409.739          49.937
R05  19561940.340   104569782.968 8      4344.374          49.062    19561940.100   104569782.967 7      4344.374          47.812    19561950.600    81332098.927 7      3378.958          46.625    19561949.660    81332094.919 7      3378.958          47.000
G06  22917036.620   120429838.672 6      5264.025          40.437    22917036.000   120429838.685 5      5264.025          35.375    22917042.720    93841468.916 5      4101.838          35.500    22917042.280    93841478.891 6      4101.838          40.125
G19  21020160.860   110461689.051 8      4813.674          49.750    21020159.840   110461689.053 6      4813.674          36.875    21020161.360    86074048.365 6      3750.915          37.250
G09  20748729.920   109035313.279 7      4881.718          45.750    20748728.560   109035313.286 7      4881.718          46.687    20748735.620    84962607.483 7      3803.936          45.812    20748735.980    84962608.476 8      3803.936          49.562
G03  21879274.740   114976366.060 6       629.832          41.437    21879273.280   114976366.059 6       629.832          37.875    21879282.500    89591999.068 6       490.778          37.687    21879282.780    89592003.075 7       490.778          42.375
> 2024 07 31 12 23 43.0000000  0 10
G04  20615704.160   108336255.969 7      2525.547          45.812    20615703.140   108336255.974 6      2525.547          36.312    20615707.440    84417878.423 5      1967.959          35.750    20615707.980    84417879.428 8      1967.959          49.625
G02  23150011.420   121654116.787 7      1160.609          43.437    23150008.760   121654116.792 4      1160.609          28.437    23150018.620    94795416.782 4       904.371          28.562
R19  19722188.300   105500393.918 6      2956.597          39.562    19722187.520   105500393.933 6      2956.597          39.250    19722197.580    82055907.655 7      2299.576          47.312    19722198.060    82055908.662 7      2299.576          47.937
G17  20570246.240   108097370.425 8      3128.085          48.687    20570244.080   108097370.427 7      3128.085          47.750    20570248.580    84231724.720 7      2437.468          47.375    20570249.320    84231729.722 8      2437.468          50.625
R04  19848639.940   106288563.066 8       526.065          48.562    19848639.740   106288563.110 7       526.065          47.937    19848649.060    82668926.691 8       409.162          49.187    19848649.400    82668925.687 8       409.162          49.625
R05  19561127.940   104565439.046 8      4343.548          49.250    19561127.580   104565439.039 8      4343.548          48.125    19561138.000    81328720.319 7      3378.315          46.875    19561137.160    81328716.309 7      3378.315          47.625
G06  22916035.160   120424574.491 6      5264.238          39.687    22916034.440   120424574.495 5      5264.238          35.375    22916041.120    93837366.954 5      4102.003          35.125    22916040.600    93837376.937 6      4102.003          40.125
G19  21019244.800   110456875.670 8      4813.080          48.875    21019243.700   110456875.672 6      4813.080          37.687    21019245.480    86070297.680 6      3750.452          37.875
G09  20747800.860   109030431.821 7      4881.193          46.312    20747799.840   109030431.826 7      4881.193          46.875    20747806.740    84958803.746 7      3803.527          46.812    20747807.360    84958804.735 8      3803.527          49.875
G03  21879154.980   114975736.459 6       629.567          41.437    21879153.220   114975736.461 6       629.567          37.312    21879162.340    89591508.464 6       490.572          37.125    21879162.820    89591512.487 7       490.572          42.375
> 2024 07 31 12 23 44.0000000  0 10
G04  20615223.520   108333730.845 7      2524.788          46.375    20615222.780   108333730.853 6      2524.788          36.312    20615226.840    84415910.796 6      1967.367          36.062    20615227.340    84415911.806 8      1967.367          49.125
G02  23149790.880   121652956.436 7      1160.232          43.375    23149787.980   121652956.441 4      1160.232          28.437    23149797.780    94794512.608 4       904.077          28.562
R19  19721635.840   105497437.745 6      2955.663          39.562    19721635.360   105497437.757 6      2955.663          39.250    19721644.980    82053608.411 7      2298.849          47.625    19721645.540    82053609.418 8      2298.849          48.187
G17  20569651.120   108094242.754 7      3127.433          47.500    20569648.800   108094242.756 7      3127.433          47.500    20569653.300    84229287.578 7      2436.961          47.250    20569654.020    84229292.578 8      2436.961          50.812
R04  19848541.700   106288037.271 8       525.593          48.250    19848541.620   106288037.315 7       525.593          47.937    19848550.860    82668517.739 7       408.794          47.750    19848551.140    82668516.736 8       408.794          49.312
R05  19560315.480   104561096.000 8      4342.685          49.062    19560315.200   104561095.996 8      4342.685          48.625    19560325.600    81325342.407 7      3377.644          47.062    19560324.700    81325338.401 7      3377.644          47.750
G06  22915033.060   120419310.485 6      5264.055          40.437    22915032.640   120419310.487 5      5264.055          35.437    22915039.540    93833265.133 5      4101.861          35.125    22915039.920    93833275.113 6      4101.861          40.125
G19  21018329.060   110452063.029 8      4812.375          49.000    21018327.800   110452063.034 6      4812.375          36.812    21018329.740    86066547.575 6      3749.903          37.312
G09  20746872.040   109025551.041 7      4880.488          46.250    20746871.040   109025551.043 7      4880.488          47.062    20746877.940    84955000.545 7      3802.978          46.562    20746878.540    84955001.536 8      3802.978          48.562
G03  21879035.060   114975107.074 6       629.319          40.875    21879033.340   114975107.082 6       629.319          37.750    21879042.440    89591018.038 6       490.379          37.562    21879042.660    89591022.059 7       490.379          42.062
> 2024 07 31 12 23 45.0000000  0 10
G04  20614743.220   108331206.452 7      2524.138          45.750    20614742.500   108331206.460 6      2524.138          36.375    20614746.500    84413943.737 5      1966.861          35.875    20614746.940    84413944.744 8      1966.861          50.062
G02  23149569.980   121651796.466 7      1159.905          43.062    23149567.480   121651796.471 4      1159.905          28.437    23149576.960    94793608.729 4       903.822          28.562
R19  19721082.720   105494482.213 6      2955.221          39.562    19721082.460   105494482.230 6      2955.221          39.250    19721092.400    82051309.666 7      2298.506          47.437    19721092.920    82051310.675 7      2298.506          47.875
G17  20569056.040   108091115.792 7      3126.752          47.750    20569053.860   108091115.797 7      3126.752          47.437    20569058.240    84226850.982 7      2436.430          47.000    20569058.980    84226855.984 8      2436.430          50.875
R04  19848443.860   106287512.161 7       524.908          47.562    19848443.100   106287512.206 7       524.908          47.375    19848452.900    82668109.321 8       408.262          49.437    19848453.400    82668108.319 8       408.262          48.375
R05  19559503.400   104556753.786 8      4341.889          48.250    19559502.900   104556753.784 8      4341.889          48.500    19559513.060    81321965.135 7      3377.025          47.437    19559512.500    81321961.125 7      3377.025          47.250
G06  22914031.060   120414046.576 6      5263.981          40.125    22914030.960   120414046.576 5      5263.981          34.812    22914037.620    93829163.388 5      4101.803          34.937    22914037.760    93829173.357 6      4101.803          40.187
G19  21017413.600   110447251.070 8      4811.731          48.437    21017412.040   110447251.072 6      4811.731          36.937    21017414.000    86062797.994 6      3749.401          36.875
G09  20745943.420   109020670.887 7      4879.893          45.562    20745942.320   109020670.889 7      4879.893          46.375    20745949.120    84951197.827 7      3802.514          45.750    20745949.800    84951198.820 8      3802.514          49.625
G03  21878915.560   114974477.849 6       629.214          41.062    21878913.560   114974477.841 6       629.214          37.437    21878922.780    89590527.719 6       490.297          37.375    21878922.980    89590531.740 7       490.297          42.187
> 2024 07 31 12 23 46.0000000  0 10
G04  20614263.020   108328682.800 7      2523.246          45.437    20614262.000   108328682.803 6      2523.246          36.437    20614266.340    84411977.251 5      1966.166          35.875    20614266.740    84411978.260 8      1966.166          50.187
G02  23149349.380   121650636.848 7      1159.417          42.812    23149346.820   121650636.853 4      1159.417          28.437    23149356.260    94792705.118 4       903.442          28.562
R19  19720530.280   105491527.406 6      2954.545          39.875    19720530.540   105491527.418 6      2954.545          39.250    19720539.680    82049011.476 7      2297.980          47.375    19720540.280    82049012.483 7      2297.980          47.812
G17  20568460.980   108087989.540 7      3125.785          47.250    20568458.840   108087989.550 7      3125.785          47.750    20568463.480    84224414.944 7      2435.677          47.250    20568464.320    84224419.944 8      2435.677          50.500
R04  19848345.820   106286987.740 8       524.073          48.500    19848345.380   106286987.779 7       524.073          47.875    19848355.160    82667701.436 8       407.612          49.687    19848355.300    82667700.430 8       407.612          49.625
R05  19558691.100   104552412.408 8      4340.909          48.437    19558690.820   104552412.401 8      4340.909          48.812    19558700.880    81318588.506 7      3376.262          46.937    19558700.420    81318584.505 7      3376.262          47.062
G06  22913029.560   120408782.773 6      5263.598          40.062    22913029.300   120408782.770 5      5263.598          34.812    22913035.880    93825061.725 5      4101.505          34.812    22913036.020    93825071.696 6      4101.505          40.187
G19  21016497.760   110442439.793 8      4810.863          48.500    21016496.460   110442439.792 6      4810.863          37.125    21016498.520    86059048.947 6      3748.724          37.250
G09  20745014.780   109015791.342 7      4879.283          46.000    20745013.860   109015791.350 7      4879.283          46.750    20745020.480    84947395.595 7      3802.039          46.187    20745021.340    84947396.588 8      3802.039          50.000
G03  21878795.780   114973848.785 6       628.916          41.250    21878793.840   114973848.795 6       628.916          37.625    21878802.820    89590037.549 6       490.064          37.375    21878803.360    89590041.568 7       490.064          42.187
> 2024 07 31 12 23 47.0000000  0 10
G04  20613782.900   108326159.926 7      2522.395          45.312    20613781.820   108326159.928 5      2522.395          35.812    20613786.340    84410011.379 5      1965.503          35.687    20613786.400    84410012.386 8      1965.503          50.062
G02  23149129.080   121649477.637 7      1158.927          43.562    23149126.520   121649477.642 4      1158.927          28.437    23149135.760    94791801.827 4       903.060          28.562
R19  19719978.200   105488573.356 6      2953.606          39.875    19719977.500   105488573.378 6      2953.606          39.250    19719987.460    82046713.892 7      2297.249          47.062    19719987.900    82046714.897 7      2297.249          47.562
G17  20567866.220   108084864.003 7      3125.138          47.187    20567863.960   108084864.002 7      3125.138          47.625    20567868.700    84221979.454 7      2435.172          47.000    20567869.580    84221984.456 8      2435.172          50.812
R04  19848248.300   106286464.004 8       523.337          48.312    19848247.440   106286464.046 7       523.337          47.750    19848257.420    82667294.083 8       407.040          49.812    19848257.680    82667293.080 8       407.040          50.187
R05  19557879.140   104548071.926 8      4339.980          49.187    19557879.080   104548071.919 8      4339.980          48.125    19557888.920    81315212.571 7      3375.540          47.125    19557888.500    81315208.568 7      3375.540          46.875
G06  22912027.840   120403519.085 6      5263.557          40.562    22912027.840   120403519.079 5      5263.557          34.500    22912034.000    93820960.146 5      4101.473          34.812    22912033.880    93820970.107 6      4101.473          39.625
G19  21015582.260   110437629.228 8      4810.149          48.312    21015581.040   110437629.231 6      4810.149          37.062    21015583.260    86055300.461 6      3748.168          37.000
G09  20744086.180   109010912.501 7      4878.508          45.062    20744085.420   109010912.512 7      4878.508          46.750    20744092.100    84943593.905 7      3801.435          45.687    20744092.940    84943594.894 8      3801.435          50.000
G03  21878676.220   114973219.915 6       628.809          40.687    21878674.060   114973219.925 6       628.809          37.687    21878683.060    89589547.516 6       489.981          37.687    21878684.060    89589551.535 6       489.981          41.875
> 2024 07 31 12 23 48.0000000  0 10
G04  20613302.900   108323637.977 7      2521.790          44.625    20613301.940   108323637.974 5      2521.790          35.875    20613306.360    84408046.221 5      1965.031          35.750    20613306.700    84408047.229 8      1965.031          49.375
G02  23148908.620   121648318.993 7      1158.529          43.812    23148906.180   121648319.001 4      1158.529          28.375    23148915.160    94790898.986 4       902.750          28.375
R19  19719426.860   105485620.212 6      2952.956          39.875    19719426.140   105485620.238 6      2952.956          39.250    19719435.380    82044417.003 7      2296.744          47.125    19719435.540    82044418.010 7      2296.744          47.000
G17  20567271.640   108081739.377 7      3124.373          47.687    20567269.580   108081739.379 7      3124.373          47.562    20567274.140    84219544.683 7      2434.576          46.875    20567275.120    84219549.683 8      2434.576          50.687
R04  19848150.900   106285941.135 7       522.746          47.250    19848149.920   106285941.169 7       522.746          47.562    19848159.920    82666887.402 8       406.580          49.500    19848160.120    82666886.400 8       406.580          50.312
R05  19557067.460   104543732.515 8      4339.153          48.187    19557067.260   104543732.500 7      4339.153          47.937    19557077.140    81311837.472 7      3374.897          47.000    19557076.380    81311833.475 7      3374.897          47.937
G06  22911026.180   120398255.657 6      5263.603          40.937    22911026.280   120398255.657 5      5263.603          34.500    22911032.400    93816858.782 5      4101.509          34.500    22911032.060    93816868.759 6      4101.509          39.625
G19  21014667.000   110432819.560 8      4809.448          48.812    21014665.880   110432819.565 6      4809.448          37.750    21014668.120    86051552.670 6      3747.622          37.437
G09  20743157.780   109006034.488 7      4877.883          46.375    20743157.180   109006034.493 7      4877.883          46.750    20743163.880    84939792.854 7      3800.948          46.187    20743164.700    84939793.847 8      3800.948          49.562
G03  21878556.960   114972591.444 6       628.650          41.062    21878554.480   114972591.451 6       628.650          37.625    21878563.580    89589057.794 6       489.857          37.437    21878564.260    89589061.802 6       489.857          41.875
> 2024 07 31 12 23 49.0000000  0 10
G04  20612823.000   108321116.842 7      2520.541          45.312    20612822.120   108321116.839 6      2520.541          36.000    20612826.540    84406081.701 5      1964.058          35.750    20612826.660    84406082.702 8      1964.058          49.812
G02  23148687.840   121647160.749 7      1157.921          43.687    23148685.960   121647160.754 4      1157.921          28.375    23148694.840    94789996.452 4       902.276          28.375
R19  19718874.380   105482667.836 6      2951.799          39.812    19718873.700   105482667.859 6      2951.799          39.250    19718883.340    82042120.713 7      2295.844          46.687    19718883.540    82042121.722 7      2295.844          47.187
G17  20566677.220   108078615.500 7      3123.271          47.812    20566675.220   108078615.500 7      3123.271          47.437    20566679.640    84217110.491 7      2433.717          47.125    20566680.880    84217115.491 8      2433.717          50.875
R04  19848053.200   106285418.982 7       521.571          47.937    19848052.320   106285419.023 8       521.571          48.000    19848062.280    82666481.293 8       405.666          49.562    19848062.640    82666480.291 8       405.666          50.250
R05  19556255.680   104539394.024 8      4337.799          48.750    19556255.680   104539394.017 8      4337.799          48.000    19556265.500    81308463.098 7      3373.844          47.500    19556265.020    81308459.101 7      3373.844          47.187
G06  22910024.800   120392992.426 6      5262.996          40.187    22910024.760   120392992.434 5      5262.996          34.625    22910030.700    93812757.565 5      4101.036          34.500    22910030.600    93812767.532 6      4101.036          39.625
G19  21013751.960   110428010.614 8      4808.450          48.187    21013750.900   110428010.616 6      4808.450          37.125    21013752.920    86047805.439 6      3746.844          37.500
G09  20742229.520   109001157.148 7      4876.869          45.937    20742228.980   109001157.150 7      4876.869          46.875    20742235.600    84935992.337 7      3800.158          45.812    20742236.460    84935993.332 8      3800.158          50.187
G03  21878437.340   114971963.196 6       628.051          40.562    21878434.820   114971963.207 6       628.051          37.312    21878444.080    89588568.243 6       489.390          37.125    21878444.500    89588572.256 6       489.390          41.812
> 2024 07 31 12 23 50.0000000  0 10
G04  20612343.500   108318596.569 7      2519.898          44.750    20612342.320   108318596.566 6      2519.898          36.250    20612346.820    84404117.850 6      1963.557          36.000    20612347.100    84404118.861 8      1963.557          49.625
G02  23148467.620   121646003.020 7      1157.702          44.062    23148465.720   121646003.023 4      1157.702          28.375    23148474.600    94789094.321 4       902.105          28.375
R19  19718322.440   105479716.292 6      2951.277          39.812    19718322.020   105479716.305 6      2951.277          38.812    19718331.220    82039825.061 7      2295.438          46.500    19718331.840    82039826.068 7      2295.438          46.812
G17  20566082.960   108075492.448 7      3122.711          46.750    20566080.860   108075492.451 7      3122.711          47.875    20566085.420    84214676.946 7      2433.281          47.500    20566086.380    84214681.946 8      2433.281          51.250
R04  19847955.660   106284897.631 8       521.107          48.062    19847955.060   106284897.670 8       521.107          48.000    19847965.020    82666075.794 8       405.305          49.687    19847965.300    82666074.794 8       405.305          49.687
R05  19555444.320   104535056.543 8      4337.066          48.937    19555444.220   104535056.536 8      4337.066          48.000    19555453.980    81305089.502 7      3373.273          47.437    19555453.600    81305085.505 7      3373.273          47.375
G06  22909023.160   120387729.443 6      5263.067          40.062    22909023.340   120387729.450 5      5263.067          34.687    22909028.980    93808656.541 5      4101.091          34.812    22909029.520    93808666.506 6      4101.091          39.875
G19  21012836.900   110423202.495 8      4807.880          48.312    21012835.900   110423202.498 6      4807.880          37.437    21012837.980    86044058.851 6      3746.400          37.312
G09  20741301.580   108996280.599 7      4876.350          46.062    20741301.120   108996280.601 7      4876.350          46.437    20741307.640    84932192.426 7      3799.753          46.125    20741308.640    84932193.425 8      3799.753          49.750
G03  21878317.920   114971335.267 6       627.891          41.500    21878315.420   114971335.272 6       627.891          37.750    21878324.500    89588078.943 6       489.266          37.312    21878324.740    89588082.962 7       489.266          42.187
> 2024 07 31 12 23 51.0000000  0 11
G22  24210517.120   127227125.505 6      1078.854          37.125
G04  20611864.300   108316076.937 7      2519.209          45.437    20611862.840   108316076.939 6      2519.209          36.250    20611867.360    84402154.504 5      1963.020          35.875    20611867.800    84402155.514 8      1963.020          49.500
G02  23148247.500   121644845.591 7      1157.165          43.250    23148245.640   121644845.593 4      1157.165          28.375    23148254.460    94788192.426 4       901.687          28.375
R19  19717770.680   105476765.364 6      2950.609          39.812    19717770.340   105476765.376 6      2950.609          38.812    19717779.580    82037529.896 7      2294.918          47.125    19717780.200    82037530.903 7      2294.918          46.875
G17  20565488.600   108072369.998 7      3122.077          46.250    20565486.820   108072370.001 8      3122.077          48.187    20565491.120    84212243.870 7      2432.787          47.562    20565492.260    84212248.870 8      2432.787          51.000
R04  19847858.280   106284376.875 8       520.422          48.500    19847857.960   106284376.917 8       520.422          48.125    19847867.740    82665670.767 8       404.773          49.750    19847867.920    82665669.768 8       404.773          50.125
R05  19554633.120   104530719.840 8      4336.252          48.625    19554632.980   104530719.836 8      4336.252          48.875    19554642.440    81301716.510 7      3372.640          47.000    19554642.240    81301712.515 7      3372.640          47.250
G06  22908021.240   120382466.456 6      5262.930          40.062    22908021.860   120382466.459 5      5262.930          34.687    22908027.500    93804555.513 5      4100.984          34.375    22908027.520    93804565.490 6      4100.984          39.875
G19  21011922.100   110418394.987 8      4807.124          48.625    21011921.000   110418394.989 6      4807.124          37.312    21011923.100    86040312.745 6      3745.811          37.250
G09  20740373.740   108991404.593 7      4875.694          46.062    20740373.280   108991404.598 7      4875.694          46.687    20740379.760    84928392.945 7      3799.242          45.937    20740380.700    84928393.939 8      3799.242          49.687
G03  21878198.540   114970707.419 6       627.613          41.375    21878195.640   114970707.427 6       627.613          37.500    21878204.920    89587589.711 6       489.049          37.375    21878205.540    89587593.708 7       489.049          42.187
> 2024 07 31 12 23 52.0000000  0 11
G22  24210312.240   127226046.778 6      1078.587          37.125
G04  20611384.940   108313557.952 7      2518.632          45.437    20611383.760   108313557.959 5      2518.632          35.812    20611388.160    84400191.661 5      1962.571          35.812    20611388.400    84400192.668 8      1962.571          49.437
G02  23148027.180   121643688.414 7      1156.953          43.687    23148025.460   121643688.413 4      1156.953          28.375    23148034.360    94787290.719 4       901.522          28.375
R19  19717219.040   105473815.053 6      2949.964          39.750    19717218.500   105473815.068 6      2949.964          38.812    19717227.940    82035235.206 7      2294.417          47.000    19717228.520    82035236.215 7      2294.417          46.187
G17  20564894.500   108069248.166 7      3121.547          47.500    20564892.760   108069248.168 8      3121.547          48.000    20564897.060    84209811.265 7      2432.374          47.312    20564898.240    84209816.265 8      2432.374          50.875
R04  19847761.200   106283856.671 8       519.949          49.500    19847761.140   106283856.715 8       519.949          49.187    19847770.720    82665266.160 8       404.405          49.750    19847770.920    82665265.162 8       404.405          50.187
R05  19553822.000   104526383.888 8      4335.560          50.187    19553821.940   104526383.889 8      4335.560          49.625    19553831.360    81298344.105 7      3372.102          47.125    19553831.020    81298340.110 7      3372.102          46.750
G06  22907020.120   120377203.470 6      5263.090          40.562    22907020.280   120377203.475 5      5263.090          34.437    22907025.980    93800454.483 5      4101.109          34.375    22907026.460    93800464.458 6      4101.109          39.875
G19  21011007.440   110413588.045 8      4806.678          48.250    21011006.460   110413588.045 6      4806.678          37.375    21011008.360    86036567.076 6      3745.463          37.687
G09  20739446.240   108986529.121 7      4875.213          46.062    20739445.520   108986529.126 7      4875.213          47.250    20739451.840    84924593.880 7      3798.867          46.625    20739452.800    84924594.880 8      3798.867          49.250
G03  21878079.180   114970079.629 6       627.580          40.750    21878076.080   114970079.634 6       627.580          37.687    21878085.640    89587100.518 6       489.023          37.625    21878086.540    89587104.527 7       489.023          42.000
> 2024 07 31 12 23 53.0000000  0 11
G22  24210107.140   127224968.382 6      1078.195          37.437
G04  20610905.560   108311039.799 7      2517.932          45.250    20610904.480   108311039.807 6      2517.932          36.437    20610908.920    84398229.466 5      1962.025          35.875    20610909.440    84398230.469 8      1962.025          49.625
G02  23147806.940   121642531.670 7      1156.618          43.937    23147805.360   121642531.667 4      1156.618          28.437    23147814.200    94786389.352 4       901.261          28.562
R19  19716667.740   105470865.517 6      2949.299          39.750    19716667.000   105470865.527 6      2949.299          38.812    19716676.540    82032941.123 7      2293.899          46.625    19716677.180    82032942.134 7      2293.899          46.687
G17  20564300.780   108066127.127 8      3120.723          48.062    20564298.820   108066127.131 8      3120.723          48.250    20564303.160    84207379.293 7      2431.732          47.687    20564304.300    84207384.291 8      2431.732          50.687
R04  19847664.000   106283337.203 8       519.207          49.812    19847663.900   106283337.250 8       519.207          49.125    19847673.680    82664862.131 8       403.828          49.500    19847673.880    82664861.136 8       403.828          50.125
R05  19553010.960   104522048.887 8      4334.628          49.500    19553010.760   104522048.888 8      4334.628          49.625    19553020.380    81294972.449 7      3371.378          47.000    19553020.000    81294968.456 7      3371.378          47.000
G06  22906018.780   120371940.681 6      5262.711          40.000    22906018.800   120371940.683 5      5262.711          34.437    22906024.400    93796353.616 5      4100.814          34.312    22906025.420    93796363.601 6      4100.814          39.437
G19  21010092.900   110408781.885 8      4805.909          48.500    21010091.920   110408781.889 6      4805.909          37.625    21010093.700    86032822.022 6      3744.864          37.312
G09  20738518.520   108981654.387 7      4874.510          45.875    20738517.880   108981654.387 7      4874.510          47.187    20738524.180    84920795.384 7      3798.319          46.375    20738525.120    84920796.384 8      3798.319          49.625
G03  21877960.100   114969452.083 6       627.609          41.500    21877956.880   114969452.080 6       627.609          37.562    21877966.240    89586611.513 6       489.046          37.187    21877967.520    89586615.518 7       489.046          42.000
> 2024 07 31 12 23 54.0000000  0 11
G22  24209901.520   127223890.190 6      1077.829          37.437
G04  20610426.320   108308522.435 7      2516.932          45.125    20610425.220   108308522.440 6      2516.932          36.312    20610430.020    84396267.883 5      1961.246          35.875    20610430.280    84396268.889 8      1961.246          49.125
G02  23147587.400   121641375.339 7      1156.023          43.750    23147585.380   121641375.339 4      1156.023          28.437    23147594.020    94785488.309 4       900.797          28.562
R19  19716117.420   105467916.750 6      2948.353          39.750    19716115.760   105467916.754 6      2948.353          39.437    19716125.020    82030647.631 7      2293.163          46.750    19716125.820    82030648.642 7      2293.163          46.312
G17  20563706.840   108063006.831 8      3119.759          48.125    20563705.120   108063006.838 7      3119.759          47.750    20563709.320    84204947.896 7      2430.981          47.375    20563710.500    84204952.896 8      2430.981          50.687
R04  19847566.940   106282818.458 8       518.272          49.000    19847567.100   106282818.502 8       518.272          48.687    19847576.780    82664458.659 8       403.101          49.500    19847576.880    82664457.663 8       403.101          49.812
R05  19552200.100   104517714.795 8      4333.547          48.937    19552200.080   104517714.797 8      4333.547          48.625    19552209.300    81291601.476 7      3370.537          47.000    19552209.300    81291597.483 7      3370.537          46.875
G06  22905017.880   120366678.049 6      5262.382          40.000    22905017.540   120366678.051 5      5262.382          34.187    22905022.680    93792252.864 5      4100.557          34.312    22905023.640    93792262.845 6      4100.557          39.437
G19  21009178.280   110403976.459 7      4804.991          47.937    21009177.380   110403976.464 6      4804.991          37.187    21009179.280    86029077.535 6      3744.149          37.250
G09  20737591.040   108976780.329 7      4873.612          45.500    20737590.420   108976780.328 7      4873.612          46.750    20737596.620    84916997.415 7      3797.620          46.000    20737597.360    84916998.410 8      3797.620          49.250
G03  21877840.200   114968824.758 6       627.210          41.500    21877837.500   114968824.765 6       627.210          38.000    21877846.820    89586122.692 6       488.735          37.687    21877848.220    89586126.691 7       488.735          42.375
> 2024 07 31 12 23 55.0000000  0 11
G22  24209696.920   127222812.304 6      1078.065          37.437
G04  20609947.940   108306005.833 7      2516.499          44.812    20609946.400   108306005.837 5      2516.499          35.875    20609951.120    84394306.890 5      1960.908          35.875    20609951.320    84394307.898 8      1960.908          49.562
G02  23147367.420   121640219.412 7      1155.901          44.062    23147365.620   121640219.407 4      1155.901          28.437    23147374.120    94784587.581 4       900.702          28.562
R19  19715565.260   105464968.688 6      2947.887          40.562    19715564.620   105464968.700 6      2947.887          39.437    19715573.840    82028354.700 7      2292.801          46.250    19715574.580    82028355.705 7      2292.801          45.875
G17  20563113.220   108059887.242 7      3119.451          47.437    20563111.540   108059887.250 7      3119.451          47.750    20563115.660    84202517.045 7      2430.741          47.375    20563116.700    84202522.045 8      2430.741          51.062
R04  19847470.360   106282300.387 8       518.031          48.625    19847470.420   106282300.429 7       518.031          47.562    19847479.960    82664055.715 8       402.913          49.625    19847480.060    82664054.722 8       402.913          50.062
R05  19551389.640   104513381.562 8      4333.055          48.187    19551389.020   104513381.566 8      4333.055          48.687    19551398.680    81288231.193 7      3370.154          47.437    19551398.700    81288227.196 7      3370.154          47.250
G06  22904015.960   120361415.499 6      5262.711          40.625    22904015.980   120361415.501 5      5262.711          34.187    22904021.480    93788152.182 5      4100.814          34.187    22904022.420    93788162.173 6      4100.814          39.437
G19  21008263.960   110399171.738 7      4804.563          47.500    21008263.080   110399171.743 6      4804.563          37.500    21008264.940    86025333.601 6      3743.816          37.562
G09  20736663.940   108971906.914 7      4873.288          45.000    20736662.980   108971906.914 7      4873.288          46.687    20736669.100    84913199.953 7      3797.368          45.875    20736669.980    84913200.952 8      3797.368          48.750
G03  21877720.740   114968197.654 6       627.272          41.562    21877718.060   114968197.666 6       627.272          38.125    21877727.220    89585634.037 6       488.783          37.875    21877728.480    89585638.032 7       488.783          42.562
> 2024 07 31 12 23 56.0000000  0 11
G22  24209491.760   127221734.688 6      1077.715          36.687    24209489.700   127221734.608 1      1077.715          10.250    24209495.600    99133832.883 1       839.778          11.812
G04  20609468.880   108303489.955 7      2515.732          44.437    20609467.660   108303489.960 5      2515.732          35.812    20609472.300    84392346.471 5      1960.311          35.812    20609472.600    84392347.482 8      1960.311          49.375
G02  23147147.720   121639063.830 7      1155.562          43.562    23147145.920   121639063.827 4      1155.562          28.437    23147154.140    94783687.123 4       900.438          28.562
R19  19715014.380   105462021.285 6      2947.326          40.562    19715014.360   105462021.300 6      2947.326          39.437    19715022.760    82026062.281 7      2292.365          46.125    19715023.780    82026063.289 7      2292.365          46.187
G17  20562519.800   108056768.342 7      3118.805          46.937    20562518.000   108056768.344 7      3118.805          47.250    20562522.200    84200086.733 7      2430.238          46.812    20562523.480    84200091.731 8      2430.238          49.312
R04  19847373.540   106281782.994 8       517.318          48.500    19847373.960   106281783.039 7       517.318          47.562    19847383.460    82663653.302 8       402.358          49.687    19847383.540    82663652.307 8       402.358          49.437
R05  19550579.280   104509049.191 8      4332.200          48.125    19550578.780   104509049.195 8      4332.200          48.062    19550588.080    81284861.576 7      3369.489          46.812    19550588.080    81284857.577 7      3369.489          47.125
G06  22903014.220   120356153.070 6      5262.516          39.812    22903014.640   120356153.072 5      5262.516          34.250    22903020.080    93784051.590 5      4100.662          34.187    22903021.400    93784061.569 6      4100.662          39.437
G19  21007349.760   110394367.687 7      4803.896          47.750    21007348.880   110394367.690 6      4803.896          36.875    21007350.720    86021590.184 6      3743.295          37.375
G09  20735736.560   108967034.114 7      4872.756          45.625    20735735.780   108967034.116 7      4872.756          46.375    20735741.840    84909402.970 7      3796.953          45.937    20735742.520    84909403.969 8      3796.953          48.625
G03  21877601.260   114967570.688 6       627.182          41.250    21877598.740   114967570.704 6       627.182          37.625    21877607.960    89585145.491 6       488.713          37.375    21877609.080    89585149.496 7       488.713          42.562
> 2024 07 31 12 23 57.0000000  0 11
G22  24209286.760   127220657.321 6      1077.070          36.687    24209286.740   127220657.282 2      1077.070          13.812    24209293.340    99132993.367 2       839.275          13.750
G04  20608990.380   108300974.861 7      2514.731          45.375    20608989.000   108300974.869 5      2514.731          35.812    20608993.660    84390386.659 5      1959.530          35.187    20608993.940    84390387.665 8      1959.530          50.062
G02  23146927.820   121637908.666 7      1154.915          43.187    23146925.920   121637908.663 4      1154.915          28.437    23146934.220    94782786.989 4       899.934          28.562
R19  19714463.000   105459074.681 6      2946.096          40.562    19714463.060   105459074.706 6      2946.096          38.812    19714471.780    82023770.491 7      2291.408          46.062    19714472.600    82023771.496 7      2291.408          46.000
G17  20561926.360   108053650.211 8      3117.671          48.000    20561924.820   108053650.216 7      3117.671          47.500    20561928.840    84197657.023 7      2429.354          47.000    20561929.900    84197662.019 8      2429.354          51.062
R04  19847277.240   106281266.343 8       516.151          48.125    19847277.320   106281266.387 7       516.151          47.562    19847286.960    82663251.467 8       401.451          48.187    19847287.240    82663250.471 8       401.451          49.875
R05  19549768.760   104504717.743 8      4330.922          48.375    19549768.340   104504717.747 8      4330.922          48.375    19549777.920    81281492.672 7      3368.495          46.375    19549778.120    81281488.675 7      3368.495          47.312
G06  22902012.780   120350890.795 6      5262.119          39.312    22902013.280   120350890.792 5      5262.119          34.250    22902018.680    93779951.120 5      4100.352          33.812    22902019.580    93779961.091 6      4100.352          39.437
G19  21006435.820   110389564.377 7      4802.873          47.375    21006434.680   110389564.385 6      4802.873          37.000    21006436.760    86017847.351 6      3742.499          37.125
G09  20734809.240   108962162.034 7      4871.720          45.562    20734808.740   108962162.028 7      4871.720          46.875    20734814.680    84905606.546 7      3796.146          46.437    20734815.380    84905607.545 8      3796.146          49.000
G03  21877481.620   114966943.973 6       626.588          41.375    21877479.500   114966943.988 6       626.588          37.250    21877488.700    89584657.139 6       488.250          36.937    21877489.960    89584661.136 7       488.250          42.500
> 2024 07 31 12 23 58.0000000  0 11
G22  24209081.760   127219580.394 5      1076.801          35.750    24209082.200   127219580.391 2      1076.801          14.500    24209091.180    99132154.262 2       839.066          14.250
G04  20608511.840   108298460.718 7      2513.725          45.375    20608510.440   108298460.723 5      2513.725          35.937    20608515.300    84388427.587 5      1958.747          35.625    20608515.460    84388428.590 8      1958.747          50.000
G02  23146708.080   121636754.045 7      1154.420          44.562    23146706.240   121636754.042 4      1154.420          28.312    23146714.340    94781887.278 4       899.548          28.187
R19  19713912.460   105456128.976 6      2945.262          39.437    19713912.120   105456128.980 6      2945.262          38.812    19713921.100    82021479.368 7      2290.759          45.500    19713922.120    82021480.369 7      2290.759          45.687
G17  20561333.100   108050532.972 8      3116.809          48.500    20561331.700   108050532.971 7      3116.809          47.812    20561335.480    84195228.001 7      2428.682          47.562    20561336.720    84195232.995 8      2428.682          50.812
R04  19847180.840   106280750.508 8       515.478          48.562    19847180.900   106280750.553 7       515.478          47.750    19847190.580    82662850.262 8       400.928          49.875    19847190.760    82662849.266 8       400.928          49.625
R05  19548958.660   104500387.321 8      4329.899          48.312    19548958.440   104500387.325 8      4329.899          48.312    19548967.700    81278124.570 7      3367.699          47.625    19548968.020    81278120.569 7      3367.699          47.187
G06  22901011.820   120345628.776 6      5261.898          40.000    22901011.940   120345628.770 5      5261.898          33.687    22901017.180    93775850.851 5      4100.180          33.812    22901018.120    93775860.837 6      4100.180          40.062
G19  21005522.060   110384761.950 7      4802.014          47.937    21005520.800   110384761.955 6      4802.014          37.062    21005522.940    86014105.202 6      3741.829          37.562
G09  20733882.500   108957290.779 7      4870.806          45.000    20733881.720   108957290.776 7      4870.806          46.500    20733887.800    84901810.765 7      3795.433          45.875    20733888.500    84901811.760 8      3795.433          48.687
G03  21877362.860   114966317.609 6       626.219          40.937    21877360.280   114966317.620 6       626.219          37.500    21877369.500    89584169.060 6       487.963          37.500    21877371.100    89584173.052 7       487.963          42.750
> 2024 07 31 12 23 59.0000000  0 11
G22  24208876.360   127218503.624 5      1076.863          35.750    24208876.960   127218503.694 2      1076.863          13.937    24208878.660    99131315.224 2       839.114          13.562
G04  20608033.600   108295947.214 7      2513.201          45.000    20608032.100   108295947.224 5      2513.201          35.625    20608036.960    84386469.018 5      1958.338          35.625    20608037.340    84386470.021 8      1958.338          49.687
G02  23146488.400   121635599.732 7      1154.233          43.687    23146486.720   121635599.729 4      1154.233          28.312    23146494.660    94780987.811 4       899.403          28.187
R19  19713361.960   105453183.840 6      2944.916          39.437    19713362.160   105453183.850 6      2944.916          38.812    19713370.320    82019188.709 7      2290.490          46.000    19713371.160    82019189.710 7      2290.490          45.250
G17  20560739.940   108047416.336 8      3116.319          48.062    20560738.740   108047416.338 7      3116.319          47.625    20560742.580    84192799.454 7      2428.301          47.312    20560743.620    84192804.450 8      2428.301          51.187
R04  19847084.580   106280235.252 8       515.082          48.750    19847084.740   106280235.294 7       515.082          47.687    19847094.360    82662449.503 8       400.619          49.812    19847094.540    82662448.505 8       400.619          49.812
R05  19548148.720   104496057.674 8      4329.267          48.812    19548148.160   104496057.675 7      4329.267          47.687    19548157.780    81274757.065 7      3367.207          47.437    19548158.080    81274753.063 7      3367.207          47.187
G06  22900010.680   120340366.801 6      5262.034          40.000    22900010.560   120340366.801 5      5262.034          33.687    22900015.960    93771750.615 5      4100.286          33.687    22900017.100    93771760.599 6      4100.286          40.062
G19  21004608.400   110379960.130 7      4801.568          47.687    21004607.120   110379960.135 6      4801.568          37.562    21004609.280    86010363.522 6      3741.482          37.625
G09  20732955.600   108952420.055 7      4870.408          45.062    20732954.980   108952420.054 7      4870.408          46.937    20732960.800    84898015.399 7      3795.123          46.500    20732961.760    84898016.393 8      3795.123          48.937
G03  21877243.540   114965691.330 6       626.238          41.187    21877241.060   114965691.343 6       626.238          37.375    21877250.240    89583681.052 6       487.978          37.250    21877251.840    89583685.048 7       487.978          43.187
> 2024 07 31 12 24  0.0000000  0 11
G22  24208671.500   127217427.083 5      1076.630          35.750    24208669.840   127217427.087 2      1076.630          13.750    24208678.640    99130476.334 2       838.933          13.562
G04  20607555.480   108293434.445 7      2512.539          44.812    20607553.780   108293434.453 5      2512.539          35.687    20607558.840    84384511.014 5      1957.823          35.375    20607559.140    84384512.020 8      1957.823          49.937
G02  23146268.800   121634445.758 7      1153.968          45.000    23146267.240   121634445.757 4      1153.968          28.312    23146274.940    94780088.602 4       899.196          28.187
R19  19712811.560   105450239.424 6      2944.164          39.437    19712810.940   105450239.434 6      2944.164          38.812    19712819.720    82016898.614 7      2289.905          45.750    19712820.960    82016899.613 7      2289.905          45.687
G17  20560147.040   108044300.397 8      3115.652          48.625    20560145.860   108044300.399 7      3115.652          47.562    20560149.660    84190371.450 7      2427.781          47.187    20560150.680    84190376.446 8      2427.781          50.687
R04  19846988.880   106279720.627 8       514.374          49.062    19846988.500   106279720.664 8       514.374          48.125    19846998.340    82662049.237 8       400.069          49.937    19846998.660    82662048.244 8       400.069          50.437
R05  19547338.420   104491728.887 8      4328.379          48.562    19547338.600   104491728.894 8      4328.379          48.187    19547348.180    81271390.237 7      3366.517          47.062    19547348.380    81271386.236 7      3366.517          47.750
G06  22899009.440   120335104.924 6      5261.873          39.937    22899009.280   120335104.926 5      5261.873          34.250    22899014.560    93767650.453 5      4100.161          33.687    22899015.360    93767660.445 6      4100.161          40.062
G19  21003694.500   110375158.969 7      4800.954          47.375    21003693.500   110375158.974 6      4800.954          37.062    21003695.680    86006622.362 6      3741.003          37.125
G09  20732028.720   108947549.977 7      4869.813          44.187    20732028.300   108947549.974 7      4869.813          46.937    20732034.000    84894220.531 7      3794.659          46.437    20732035.240    84894221.521 8      3794.659          48.812
G03  21877124.780   114965065.211 6       626.133          41.937    21877122.000   114965065.224 6       626.133          38.250    21877131.200    89583193.161 6       487.896          37.875    21877132.800    89583197.155 7       487.896          43.187
> 2024 07 31 12 24  1.0000000  0 11
G22  24208466.660   127216350.733 5      1076.289          35.687    24208465.100   127216350.735 2      1076.289          13.875    24208470.760    99129637.530 2       838.667          13.750
G04  20607077.400   108290922.370 7      2511.791          44.687    20607075.640   108290922.377 5      2511.791          35.687    20607080.720    84382553.553 5      1957.240          35.312    20607081.200    84382554.563 8      1957.240          50.125
G02  23146049.680   121633292.141 7      1153.410          43.750    23146047.680   121633292.140 4      1153.410          28.312    23146055.340    94779189.672 4       898.761          28.187
R19  19712261.000   105447295.645 6      2943.509          38.812    19712260.940   105447295.654 6      2943.509          38.500    19712269.440    82014609.006 7      2289.396          45.875    19712270.420    82014610.007 7      2289.396          45.625
G17  20559554.300   108041185.110 7      3114.966          47.062    20559552.980   108041185.112 7      3114.966          47.687    20559556.680    84187943.953 7      2427.246          47.187    20559557.660    84187948.949 8      2427.246          50.812
R04  19846892.660   106279206.594 8       513.652          48.750    19846892.640   106279206.631 7       513.652          47.625    19846902.520    82661649.434 8       399.507          49.750    19846902.520    82661648.440 8       399.507          50.375
R05  19546528.940   104487400.919 8      4327.558          48.375    19546529.120   104487400.918 7      4327.558          47.937    19546538.340    81268024.033 7      3365.878          46.937    19546538.580    81268020.032 7      3365.878          47.312
G06  22898007.880   120329843.107 6      5261.825          39.812    22898007.840   120329843.104 5      5261.825          33.875    22898013.420    93763550.334 5      4100.123          34.250    22898013.500    93763560.305 6      4100.123          40.062
G19  21002781.080   110370358.471 7      4800.231          46.562    21002780.140   110370358.473 6      4800.231          37.250    21002782.260    86002881.718 6      3740.440          37.687
G09  20731102.000   108942680.482 7      4869.185          44.187    20731101.600   108942680.479 7      4869.185          46.500    20731107.480    84890426.124 7      3794.170          45.687    20731108.340    84890427.115 8      3794.170          48.687
G03  21877005.540   114964439.221 6       625.996          41.250    21877003.020   114964439.233 6       625.996          37.750    21877012.220    89582705.374 6       487.789          37.687    21877014.040    89582709.358 7       487.789          43.125
> 2024 07 31 12 24  2.0000000  0 11
G22  24208261.920   127215274.633 5      1076.068          35.687    24208262.100   127215274.585 2      1076.068          14.312    24208271.320    99128798.993 2       838.495          14.375
G04  20606599.500   108288411.065 7      2510.894          44.562    20606597.800   108288411.070 5      2510.894          35.500    20606602.780    84380596.694 5      1956.541          35.062    20606603.640    84380597.701 8      1956.541          50.562
G02  23145829.940   121632138.873 7      1153.047          44.875    23145828.260   121632138.870 4      1153.047          28.312    23145835.880    94778291.014 4       898.478          28.187
R19  19711710.640   105444352.588 6      2942.733          38.812    19711710.540   105444352.605 6      2942.733          38.500    19711719.320    82012319.968 7      2288.793          46.062    19711720.220    82012320.971 7      2288.793          45.562
G17  20558961.560   108038070.534 8      3114.173          48.312    20558960.520   108038070.536 7      3114.173          47.812    20558964.040    84185517.013 7      2426.628          47.375    20558964.980    84185522.009 8      2426.628          50.937
R04  19846796.780   106278693.252 8       512.924          48.750    19846796.800   106278693.286 7       512.924          47.812    19846806.640    82661250.164 8       398.941          49.687    19846806.520    82661249.170 8       398.941          50.062
R05  19545719.460   104483073.833 8      4326.548          48.000    19545719.660   104483073.834 8      4326.548          48.187    19545728.540    81264658.528 7      3365.093          47.000    19545728.960    81264654.524 8      3365.093          48.000
G06  22897006.720   120324581.374 6      5261.855          38.687    22897006.460   120324581.365 5      5261.855          33.875    22897012.120    93759450.282 5      4100.147          34.250    22897012.760    93759460.262 6      4100.147          40.062
G19  21001867.700   110365558.674 7      4799.390          47.562    21001866.720   110365558.676 6      4799.390          36.875    21001868.820    85999141.612 6      3739.784          37.125
G09  20730175.540   108937811.647 7      4868.460          44.750    20730175.240   108937811.644 7      4868.460          46.437    20730180.960    84886632.229 7      3793.605          46.062    20730182.120    84886633.218 8      3793.605          49.250
G03  21876886.440   114963813.425 6       625.729          41.000    21876883.780   114963813.437 6       625.729          37.312    21876893.080    89582217.735 6       487.581          37.812    21876894.460    89582221.719 7       487.581          43.000
> 2024 07 31 12 24  3.0000000  0 11
G22  24208056.860   127214198.920 5      1075.167          35.687    24208056.500   127214198.898 2      1075.167          14.312    24208065.340    99127960.829 2       837.793          14.312
G04  20606121.980   108285900.569 7      2510.097          44.437    20606119.840   108285900.574 5      2510.097          35.375    20606125.340    84378640.463 5      1955.920          35.062    20606125.760    84378641.469 8      1955.920          50.250
G02  23145610.620   121630986.052 7      1152.609          44.812    23145608.920   121630986.049 4      1152.609          28.250    23145616.460    94777392.708 4       898.137          28.187
R19  19711161.020   105441410.343 6      2941.734          38.812    19711161.240   105441410.364 6      2941.734          38.500    19711169.180    82010031.566 7      2288.015          45.312    19711170.120    82010032.563 7      2288.015          45.312
G17  20558369.100   108034956.747 8      3113.344          48.625    20558367.920   108034956.749 7      3113.344          47.562    20558371.600    84183090.683 7      2425.983          46.937    20558372.440    84183095.677 8      2425.983          50.500
R04  19846701.080   106278180.716 8       512.179          48.562    19846701.280   106278180.745 7       512.179          47.750    19846711.080    82660851.522 8       398.361          50.062    19846711.140    82660850.523 8       398.361          50.000
R05  19544910.460   104478747.666 8      4325.678          49.312    19544910.440   104478747.672 8      4325.678          48.062    19544919.280    81261293.742 7      3364.416          47.187    19544919.520    81261289.736 7      3364.416          47.062
G06  22896005.280   120319319.861 6      5261.387          39.062    22896005.440   120319319.856 5      5261.387          33.500    22896010.880    93755350.407 5      4099.782          33.437    22896011.780    93755360.388 6      4099.782          40.312
G19  21000954.520   110360759.626 8      4798.722          48.062    21000953.480   110360759.628 6      4798.722          37.187    21000955.520    85995402.094 6      3739.264          37.500
G09  20729249.160   108932943.532 7      4867.713          45.000    20729248.840   108932943.529 7      4867.713          46.625    20729254.600    84882838.892 7      3793.023          46.125    20729255.460    84882839.882 8      3793.023          48.687
G03  21876767.680   114963187.878 6       625.338          41.250    21876764.800   114963187.896 6       625.338          37.875    21876773.740    89581730.294 6       487.276          37.250    21876775.580    89581734.287 7       487.276          43.000
> 2024 07 31 12 24  4.0000000  0 11
G22  24207852.200   127213123.424 5      1075.485          34.875    24207849.560   127213123.434 2      1075.485          14.500    24207862.320    99127122.717 2       838.040          14.437
G04  20605644.120   108283390.932 7      2509.253          44.312    20605642.380   108283390.939 5      2509.253          35.375    20605647.700    84376684.902 5      1955.262          35.187    20605648.340    84376685.920 8      1955.262          49.750
G02  23145391.520   121629833.733 7      1152.113          44.375    23145389.760   121629833.733 4      1152.113          28.250    23145396.940    94776494.793 4       897.750          28.187
R19  19710611.520   105438468.891 6      2941.198          38.812    19710611.160   105438468.903 6      2941.198          38.500    19710619.160    82007743.761 7      2287.598          45.875    19710620.200    82007744.762 7      2287.598          45.187
G17  20557776.640   108031843.759 8      3112.687          48.312    20557775.800   108031843.766 7      3112.687          47.750    20557779.160    84180664.980 7      2425.470          47.375    20557780.160    84180669.976 8      2425.470          50.437
R04  19846605.920   106277668.978 8       511.449          49.000    19846605.360   106277669.004 7       511.449          47.937    19846615.380    82660453.504 8       397.794          50.062    19846615.440    82660452.506 8       397.794          49.875
R05  19544101.260   104474422.474 8      4324.858          48.437    19544101.480   104474422.478 7      4324.858          47.937    19544110.060    81257929.702 7      3363.779          46.937    19544110.420    81257925.696 7      3363.779          47.062
G06  22895003.700   120314058.575 6      5261.183          39.062    22895004.060   120314058.569 5      5261.183          33.500    22895009.580    93751250.703 5      4099.623          33.437    22895010.500    93751260.688 6      4099.623          40.312
G19  21000041.620   110355961.389 7      4798.000          47.812    21000040.300   110355961.394 6      4798.000          36.937    21000042.500    85991663.217 6      3738.701          37.437
G09  20728323.180   108928076.148 7      4867.194          45.312    20728322.620   108928076.145 7      4867.194          47.187    20728328.500    84879046.129 7      3792.618          46.250    20728329.400    84879047.118 8      3792.618          49.000
G03  21876648.860   114962562.611 6       625.208          40.875    21876645.800   114962562.623 6       625.208          37.750    21876654.740    89581243.070 6       487.175          38.125    21876656.400    89581247.059 7       487.175          42.812
> 2024 07 31 12 24  5.0000000  0 11
G22  24207647.240   127212048.307 5      1075.010          34.875    24207644.780   127212048.293 2      1075.010          14.500    24207659.320    99126284.964 2       837.670          14.500
G04  20605166.480   108280882.057 7      2508.485          44.562    20605164.860   108280882.059 5      2508.485          35.375    20605170.380    84374729.931 5      1954.664          35.062    20605171.000    84374730.932 8      1954.664          50.437
G02  23145172.520   121628681.769 7      1151.750          44.437    23145170.660   121628681.769 4      1151.750          28.250    23145177.640    94775597.154 4       897.467          28.187
R19  19710062.280   105435528.188 6      2940.407          38.500    19710061.280   105435528.192 6      2940.407          38.500    19710069.580    82005456.539 7      2286.983          45.375    19710070.320    82005457.540 7      2286.983          45.687
G17  20557184.320   108028731.493 8      3111.884          48.875    20557183.560   108028731.492 7      3111.884          47.875    20557186.920    84178239.834 7      2424.844          47.625    20557187.720    84178244.828 8      2424.844          50.375
R04  19846510.160   106277157.874 8       510.712          49.000    19846509.920   106277157.908 8       510.712          48.125    19846520.040    82660055.985 8       397.220          49.937    19846519.920    82660054.990 8       397.220          49.750
R05  19543292.420   104470098.141 7      4323.901          47.875    19543292.520   104470098.139 8      4323.901          48.125    19543300.840    81254566.327 7      3363.034          46.500    19543301.460    81254562.324 7      3363.034          46.687
G06  22894002.540   120308797.357 6      5261.140          39.375    22894002.820   120308797.351 5      5261.140          33.500    22894008.480    93747151.051 5      4099.590          33.500    22894009.780    93747161.044 6      4099.590          40.312
G19  20999128.740   110351163.873 7      4797.111          47.500    20999127.480   110351163.878 6      4797.111          37.437    20999129.580    85987924.893 6      3738.009          37.500
G09  20727397.020   108923209.446 7      4866.315          45.500    20727396.720   108923209.446 7      4866.315          47.250    20727402.560    84875253.898 7      3791.934          46.437    20727403.280    84875254.890 8      3791.934          49.062
G03  21876529.660   114961937.535 6       625.041          41.062    21876527.000   114961937.542 6       625.041          37.375    21876536.020    89580755.992 6       487.045          37.812    21876537.220    89580759.982 7       487.045          42.750
> 2024 07 31 12 24  6.0000000  0 11
G22  24207443.300   127210973.387 5      1074.746          34.875    24207441.860   127210973.381 2      1074.746          14.562    24207455.020    99125447.368 2       837.464          14.562
G04  20604689.420   108278373.868 7      2507.924          44.062    20604687.640   108278373.865 5      2507.924          35.062    20604693.160    84372775.494 5      1954.227          35.062    20604693.660    84372776.501 8      1954.227          50.500
G02  23144953.040   121627530.144 7      1151.601          44.250    23144951.760   121627530.146 4      1151.601          28.250    23144958.260    94774699.780 4       897.351          28.187
R19  19709512.780   105432588.150 6      2939.779          38.500    19709511.780   105432588.159 6      2939.779          38.312    19709520.040    82003169.843 7      2286.495          45.437    19709521.080    82003170.846 7      2286.495          45.625
G17  20556592.420   108025619.892 8      3111.313          48.625    20556591.320   108025619.894 8      3111.313          48.187    20556594.840    84175815.212 7      2424.400          47.625    20556595.940    84175820.207 8      2424.400          50.062
R04  19846415.260   106276647.376 8       510.284          48.687    19846414.900   106276647.412 8       510.284          48.000    19846424.700    82659658.928 8       396.888          50.062    19846424.580    82659657.931 8       396.888          50.562
R05  19542483.980   104465774.604 8      4323.208          48.562    19542483.780   104465774.602 8      4323.208          48.062    19542491.960    81251203.578 7      3362.495          47.187    19542492.480    81251199.577 7      3362.495          46.625
G06  22893001.340   120303536.220 6      5261.133          39.437    22893001.720   120303536.220 5      5261.133          33.437    22893007.300    93743051.472 5      4099.584          33.500    22893008.720    93743061.461 6      4099.584          40.312
G19  20998215.720   110346367.006 7      4796.556          46.937    20998214.680   110346367.008 6      4796.556          37.750    20998216.880    85984187.070 6      3737.576          37.625
G09  20726471.060   108918343.331 7      4865.879          45.500    20726470.680   108918343.328 7      4865.879          47.125    20726476.600    84871462.118 7      3791.594          46.687    20726477.820    84871463.105 8      3791.594          48.875
G03  21876410.720   114961312.609 6       624.966          40.500    21876408.160   114961312.613 6       624.966          37.937    21876416.940    89580269.032 6       486.986          37.750    21876418.740    89580273.015 7       486.986          42.812
> 2024 07 31 12 24  7.0000000  0 11
G22  24207238.840   127209898.558 5      1074.708          35.562    24207238.540   127209898.569 2      1074.708          14.500    24207246.400    99124609.786 2       837.435          14.562
G04  20604212.100   108275866.352 7      2507.013          44.812    20604210.440   108275866.357 5      2507.013          35.000    20604216.060    84370821.589 5      1953.517          34.500    20604216.560    84370822.598 8      1953.517          50.687
G02  23144733.840   121626378.834 7      1151.045          44.687    23144732.620   121626378.839 4      1151.045          28.250    23144739.000    94773802.645 4       896.918          28.187
R19  19708963.160   105429648.720 6      2939.018          38.500    19708962.240   105429648.740 6      2939.018          38.312    19708970.700    82000883.634 7      2285.903          45.812    19708971.600    82000884.639 7      2285.903          45.562
G17  20556000.540   108022508.898 8      3110.598          49.187    20555999.460   108022508.897 7      3110.598          47.875    20556002.860    84173391.060 7      2423.842          47.562    20556003.760    84173396.054 8      2423.842          50.250
R04  19846319.640   106276137.440 8       509.559          48.687    19846319.680   106276137.476 7       509.559          47.500    19846329.680    82659262.311 8       396.324          49.812    19846329.640    82659261.316 8       396.324          50.250
R05  19541674.980   104461451.815 8      4322.329          48.000    19541675.060   104461451.814 8      4322.329          48.187    19541683.140    81247841.411 7      3361.812          46.562    19541683.580    81247837.410 7      3361.812          46.750
G06  22892000.320   120298275.118 6      5261.040          39.312    22892000.400   120298275.107 5      5261.040          33.437    22892006.280    93738951.905 5      4099.512          33.312    22892007.380    93738961.887 6      4099.512          40.312
G19  20997302.940   110341570.719 7      4795.877          47.625    20997301.940   110341570.724 6      4795.877          37.125    20997304.240    85980449.710 6      3737.047          37.500
G09  20725545.180   108913477.777 7      4865.111          45.125    20725544.720   108913477.772 7      4865.111          46.500    20725550.720    84867670.782 7      3790.996          46.062    20725551.840    84867671.767 8      3790.996          49.000
G03  21876291.580   114960687.766 6       624.771          41.750    21876289.360   114960687.769 6       624.771          38.250    21876298.020    89579782.130 6       486.835          38.125    21876299.800    89579786.119 7       486.835          42.812
> 2024 07 31 12 24  8.0000000  0 11
G22  24207033.680   127208824.053 5      1074.757          35.562    24207031.100   127208824.001 2      1074.757          14.437    24207042.640    99123772.534 2       837.473          14.437
G04  20603735.400   108273359.637 7      2506.381          44.125    20603733.460   108273359.644 5      2506.381          35.000    20603739.120    84368868.306 5      1953.025          35.062    20603739.320    84368869.310 8      1953.025          50.312
G02  23144514.620   121625227.939 7      1150.684          45.187    23144513.600   121625227.947 4      1150.684          27.375    23144519.940    94772905.840 4       896.637          28.187
R19  19708413.700   105426710.094 6      2938.371          38.875    19708413.020   105426710.112 6      2938.371          38.312    19708421.440    81998598.035 7      2285.400          45.250    19708422.300    81998599.044 7      2285.400          45.250
G17  20555408.680   108019398.686 8      3109.899          49.187    20555407.640   108019398.689 7      3109.899          47.812    20555410.920    84170967.523 7      2423.298          47.750    20555411.820    84170972.517 8      2423.298          49.375
R04  19846224.640   106275628.272 8       508.872          48.937    19846224.500   106275628.306 7       508.872          47.500    19846234.440    82658866.294 8       395.789          49.562    19846234.500    82658865.299 8       395.789          50.375
R05  19540866.460   104457129.954 8      4321.516          48.125    19540866.620   104457129.953 7      4321.516          47.375    19540874.720    81244479.972 7      3361.179          46.062    19540875.120    81244475.975 7      3361.179          46.312
G06  22890999.040   120293014.184 6      5261.056          39.312    22890999.060   120293014.175 5      5261.056          33.687    22891005.280    93734852.478 5      4099.524          33.312    22891006.000    93734862.466 6      4099.524          40.062
G19  20996390.600   110336775.210 7      4795.233          47.500    20996389.280   110336775.215 6      4795.233          37.250    20996391.780    85976712.952 6      3736.545          37.312
G09  20724619.520   108908612.923 7      4864.583          46.000    20724619.060   108908612.920 7      4864.583          46.500    20724625.080    84863879.995 7      3790.584          45.750    20724626.180    84863880.982 8      3790.584          49.000
G03  21876172.760   114960063.163 6       624.602          41.437    21876170.660   114960063.168 6       624.602          37.500    21876179.160    89579295.426 6       486.703          37.687    21876180.880    89579299.423 7       486.703          42.875
> 2024 07 31 12 24  9.0000000  0 11
G22  24206829.660   127207749.901 5      1074.075          35.562    24206827.600   127207749.926 2      1074.075          14.437    24206836.120    99122935.518 2       836.942          14.437
G04  20603258.100   108270853.723 7      2505.574          44.562    20603256.620   108270853.725 5      2505.574          35.187    20603262.180    84366915.642 5      1952.396          35.062    20603262.640    84366916.652 8      1952.396          49.875
G02  23144295.960   121624077.462 7      1150.344          44.312    23144294.680   121624077.467 4      1150.344          27.375    23144300.860    94772009.362 4       896.372          27.437
R19  19707864.140   105423772.271 6      2937.417          38.875    19707863.420   105423772.275 6      2937.417          38.312    19707872.380    81996313.053 7      2284.658          45.312    19707873.060    81996314.062 7      2284.658          45.625
G17  20554816.980   108016289.219 8      3109.146          48.875    20554815.980   108016289.224 7      3109.146          47.500    20554819.240    84168544.562 7      2422.711          47.125    20554820.040    84168549.557 8      2422.711          49.937
R04  19846129.660   106275119.816 8       508.146          48.812    19846129.800   106275119.855 7       508.146          47.312    19846139.520    82658470.826 8       395.225          48.062    19846139.780    82658469.831 8       395.225          50.187
R05  19540057.940   104452809.047 8      4320.463          48.312    19540058.020   104452809.051 7      4320.463          47.062    19540066.100    81241119.267 7      3360.360          45.875    19540066.800    81241115.266 7      3360.360          45.875
G06  22889998.280   120287753.399 6      5260.783          39.312    22889998.040   120287753.396 5      5260.783          33.687    22890004.340    93730753.172 5      4099.311          33.750    22890004.880    93730763.176 6      4099.311          40.062
G19  20995478.000   110331980.450 7      4794.405          47.812    20995476.960   110331980.455 6      4794.405          37.062    20995479.300    85972976.779 6      3735.900          37.250
G09  20723693.840   108903748.768 7      4863.778          45.250    20723693.620   108903748.770 7      4863.778          46.562    20723699.540    84860089.748 7      3789.957          45.875    20723700.300    84860090.733 8      3789.957          49.062
G03  21876053.960   114959438.789 6       624.274          41.062    21876051.900   114959438.794 6       624.274          37.375    21876060.260    89578808.903 6       486.447          37.250    21876062.080    89578812.896 7       486.447          42.625
> 2024 07 31 12 24 10.0000000  0 11
G22  24206625.620   127206676.102 5      1073.464          35.125    24206625.080   127206676.123 2      1073.464          14.437    24206632.120    99122098.826 2       836.466          14.437
G04  20602781.380   108268348.687 7      2504.581          44.125    20602779.960   108268348.689 5      2504.581          34.937    20602785.400    84364963.664 5      1951.622          34.562    20602785.860    84364964.668 8      1951.622          51.312
G02  23144077.060   121622927.503 7      1149.734          44.250    23144075.680   121622927.505 4      1149.734          27.375    23144082.060    94771113.284 4       895.897          27.437
R19  19707315.320   105420835.237 6      2936.674          38.875    19707314.640   105420835.233 6      2936.674          38.312    19707323.640    81994028.679 7      2284.080          45.375    19707324.240    81994029.688 7      2284.080          46.375
G17  20554225.300   108013180.587 8      3108.246          49.000    20554224.380   108013180.592 8      3108.246          48.312    20554227.740    84166122.249 7      2422.010          47.937    20554228.360    84166127.245 8      2422.010          50.625
R04  19846034.820   106274612.177 8       507.257          48.562    19846035.040   106274612.214 7       507.257          47.750    19846044.700    82658075.992 8       394.533          50.062    19846045.080    82658074.994 8       394.533          50.562
R05  19539250.320   104448489.135 7      4319.454          46.937    19539249.520   104448489.136 7      4319.454          46.875    19539258.020    81237759.335 7      3359.575          46.250    19539258.540    81237755.334 7      3359.575          45.875
G06  22888996.940   120282492.854 6      5260.468          39.375    22888997.000   120282492.853 5      5260.468          33.375    22889003.060    93726654.050 5      4099.066          33.750    22889004.040    93726664.047 6      4099.066          40.062
G19  20994565.760   110327186.492 7      4793.597          47.437    20994564.620   110327186.496 6      4793.597          37.250    20994567.220    85969241.225 6      3735.270          37.375
G09  20722768.520   108898885.374 7      4862.959          44.750    20722767.940   108898885.379 7      4862.959          46.437    20722774.140    84856300.095 7      3789.319          46.125    20722775.080    84856301.077 8      3789.319          49.437
G03  21875935.320   114958814.706 6       623.999          40.875    21875933.020   114958814.711 6       623.999          38.062    21875941.660    89578322.603 6       486.233          37.875    21875943.360    89578326.595 7       486.233          42.625
> 2024 07 31 12 24 11.0000000  0 11
G22  24206421.520   127205602.512 5      1073.489          35.125    24206419.780   127205602.501 2      1073.489          14.437    24206429.720    99121262.215 2       836.485          14.437
G04  20602305.020   108265844.408 7      2503.780          43.625    20602303.260   108265844.410 5      2503.780          34.937    20602308.960    84363012.276 5      1950.998          34.937    20602309.260    84363013.281 8      1950.998          50.250
G02  23143858.200   121621777.930 7      1149.254          45.250    23143857.140   121621777.927 4      1149.254          27.375    23143863.340    94770217.502 4       895.523          27.437
R19  19706765.940   105417898.968 6      2935.695          38.875    19706765.520   105417898.978 6      2935.695          38.312    19706774.580    81991744.935 7      2283.319          45.312    19706775.360    81991745.944 7      2283.319          46.062
G17  20553633.980   108010072.696 8      3107.472          49.125    20553633.040   108010072.693 8      3107.472          48.437    20553636.260    84163700.511 8      2421.407          48.062    20553637.100    84163705.503 8      2421.407          50.187
R04  19845939.960   106274105.234 8       506.479          48.937    19845940.220   106274105.263 8       506.479          48.187    19845950.120    82657681.703 8       393.928          50.312    19845950.080    82657680.706 8       393.928          50.687
R05  19538442.440   104444170.155 7      4318.403          46.875    19538441.420   104444170.156 7      4318.403          47.062    19538450.000    81234400.132 7      3358.758          46.750    19538450.580    81234396.127 7      3358.758          46.062
G06  22887995.960   120277232.440 6      5260.302          38.812    22887995.840   120277232.437 5      5260.302          33.375    22888002.040    93722555.028 5      4098.936          32.875    22888001.980    93722565.019 6      4098.936          40.000
G19  20993653.520   110322393.263 7      4792.713          47.687    20993652.560   110322393.271 6      4792.713          37.375    20993654.920    85965506.246 6      3734.581          37.250
G09  20721842.940   108894022.651 7      4862.203          45.000    20721842.740   108894022.656 7      4862.203          47.375    20721849.000    84852510.963 7      3788.730          46.562    20721849.720    84852511.951 8      3788.730          49.750
G03  21875816.320   114958190.863 6       623.576          41.625    21875814.480   114958190.867 6       623.576          37.875    21875823.000    89577836.482 6       485.903          37.750    21875825.120    89577840.485 7       485.903          42.687
> 2024 07 31 12 24 12.0000000  0 11
G22  24206217.700   127204529.410 5      1072.841          35.125    24206214.700   127204529.415 2      1072.841          14.437    24206224.780    99120426.026 2       835.980          14.437
G04  20601828.800   108263341.022 7      2503.105          44.000    20601826.940   108263341.024 5      2503.105          35.375    20601832.640    84361061.587 5      1950.472          35.000    20601832.980    84361062.593 8      1950.472          50.812
G02  23143639.720   121620628.882 7      1148.790          45.125    23143638.540   121620628.884 4      1148.790          27.375    23143644.340    94769322.134 4       895.161          27.437
R19  19706217.400   105414963.542 6      2935.123          38.562    19706217.100   105414963.559 6      2935.123          38.312    19706226.140    81989461.831 7      2282.873          45.625    19706226.740    81989462.839 7      2282.873          45.687
G17  20553042.620   108006965.653 8      3106.764          49.375    20553041.800   108006965.650 7      3106.764          47.875    20553045.080    84161279.444 7      2420.855          47.812    20553045.940    84161284.435 8      2420.855          50.500
R04  19845845.720   106273599.087 8       505.844          48.750    19845845.860   106273599.115 8       505.844          48.000    19845855.600    82657288.033 8       393.434          50.437    19845855.540    82657287.033 8       393.434          50.687
R05  19537634.480   104439852.177 7      4317.615          46.875    19537633.600   104439852.176 7      4317.615          47.250    19537642.120    81231041.703 7      3358.145          46.437    19537642.740    81231037.698 7      3358.145          46.375
G06  22886995.060   120271972.286 6      5260.094          38.812    22886994.920   120271972.288 5      5260.094          32.937    22887001.060    93718456.206 5      4098.774          32.875    22887001.200    93718466.200 6      4098.774          40.000
G19  20992741.680   110317600.881 8      4792.086          48.062    20992740.620   110317600.886 6      4792.086          37.437    20992742.880    85961771.920 6      3734.093          37.687
G09  20720917.820   108889160.710 7      4861.716          45.562    20720917.540   108889160.713 7      4861.716          47.187    20720923.780    84848722.441 7      3788.350          46.875    20720924.540    84848723.426 8      3788.350          49.812
G03  21875697.820   114957567.313 6       623.477          41.875    21875695.860   114957567.315 6       623.477          37.937    21875704.380    89577350.594 6       485.826          37.625    21875705.820    89577354.595 7       485.826          42.312
> 2024 07 31 12 24 13.0000000  0 11
G22  24206013.080   127203456.418 5      1072.547          35.500    24206009.880   127203456.402 2      1072.547          14.437    24206022.060    99119589.908 2       835.751          14.437
G04  20601352.620   108260838.359 7      2502.051          43.125    20601350.860   108260838.364 5      2502.051          35.062    20601356.340    84359111.464 5      1949.650          35.000    20601356.840    84359112.468 8      1949.650          50.250
G02  23143421.280   121619480.147 7      1148.342          44.687    23143419.920   121619480.147 4      1148.342          27.375    23143425.560    94768427.008 4       894.812          27.437
R19  19705668.440   105412028.787 6      2934.354          38.562    19705668.240   105412028.815 6      2934.354          38.312    19705677.560    81987179.248 7      2282.275          45.812    19705678.200    81987180.260 7      2282.275          45.750
G17  20552451.360   108003859.276 8      3105.873          49.062    20552450.640   108003859.275 8      3105.873          48.125    20552453.940    84158858.888 8      2420.161          48.000    20552454.640    84158863.883 8      2420.161          50.562
R04  19845751.320   106273093.536 8       505.009          49.125    19845751.380   106273093.567 7       505.009          47.375    19845761.380    82656894.822 8       392.784          50.250    19845761.280    82656893.827 8       392.784          50.875
R05  19536827.000   104435535.015 7      4316.478          47.687    19536825.820   104435535.011 7      4316.478          46.625    19536834.420    81227683.912 7      3357.261          46.437    19536835.160    81227679.905 7      3357.261          46.250
G06  22885993.840   120266712.214 6      5259.703          39.125    22885993.800   120266712.216 5      5259.703          32.937    22886000.140    93714357.449 5      4098.470          33.250    22886000.760    93714367.428 6      4098.470          39.875
G19  20991830.100   110312809.130 7      4791.243          47.250    20991828.680   110312809.135 6      4791.243          36.812    20991831.140    85958038.092 6      3733.436          37.250
G09  20719992.800   108884299.377 7      4860.898          45.812    20719992.380   108884299.384 7      4860.898          47.375    20719998.800    84844934.393 7      3787.713          46.625    20719999.280    84844935.382 8      3787.713          50.000
G03  21875579.380   114956943.903 7       623.137          42.250    21875577.380   114956943.908 6       623.137          38.562    21875585.780    89576864.824 6       485.561          38.375    21875586.980    89576868.820 7       485.561          42.312
> 2024 07 31 12 24 14.0000000  0 11
G22  24205808.620   127202383.758 5      1072.523          35.500    24205805.860   127202383.776 2      1072.523          14.437    24205818.340    99118754.065 2       835.732          14.437
G04  20600876.660   108258336.494 7      2501.502          43.062    20600874.840   108258336.496 5      2501.502          35.062    20600880.200    84357161.961 5      1949.222          34.812    20600880.840    84357162.965 8      1949.222          50.250
G02  23143202.900   121618331.877 7      1148.053          44.250    23143201.520   121618331.882 4      1148.053          26.500    23143206.940    94767532.250 4       894.587          27.437
R19  19705120.380   105409094.877 6      2933.560          38.562    19705119.780   105409094.884 6      2933.560          37.937    19705128.840    81984897.308 7      2281.658          45.312    19705129.640    81984898.317 7      2281.658          45.562
G17  20551860.520   108000753.673 8      3105.306          48.375    20551859.620   108000753.676 8      3105.306          48.312    20551863.040    84156438.946 7      2419.719          47.812    20551863.820    84156443.940 8      2419.719          50.312
R04  19845657.280   106272588.735 8       504.471          49.062    19845657.240   106272588.766 7       504.471          47.562    19845667.140    82656502.200 8       392.366          50.312    19845667.140    82656501.202 8       392.366          50.437
R05  19536019.380   104431218.759 7      4315.794          47.625    19536018.300   104431218.757 7      4315.794          46.562    19536026.980    81224326.824 7      3356.729          46.375    19536027.900    81224322.821 7      3356.729          46.500
G06  22884992.960   120261452.278 6      5259.861          39.125    22884992.880   120261452.283 5      5259.861          33.312    22884999.200    93710258.804 5      4098.593          33.250    22884999.640    93710268.797 6      4098.593          39.875
G19  20990918.340   110308018.153 7      4790.727          47.562    20990917.000   110308018.158 6      4790.727          37.125    20990919.640    85954304.866 6      3733.034          37.125
G09  20719067.480   108879438.795 7      4860.254          45.562    20719067.600   108879438.792 7      4860.254          47.375    20719073.940    84841146.924 7      3787.211          46.562    20719074.460    84841147.913 8      3787.211          49.312
G03  21875460.880   114956320.743 7       623.090          42.875    21875458.960   114956320.745 6       623.090          38.312    21875467.260    89576379.248 6       485.525          38.062    21875468.260    89576383.247 7       485.525          42.562
> 2024 07 31 12 24 15.0000000  0 11
G22  24205603.800   127201311.584 5      1072.002          35.500    24205601.920   127201311.594 2      1072.002          14.437    24205613.440    99117918.584 2       835.326          14.437
G04  20600400.520   108255835.573 7      2500.556          43.250    20600398.880   108255835.572 5      2500.556          35.062    20600404.520    84355213.190 5      1948.485          34.937    20600404.860    84355214.191 8      1948.485          50.937
G02  23142984.420   121617184.167 7      1147.486          45.437    23142983.000   121617184.172 4      1147.486          26.500    23142988.540    94766637.926 4       894.145          26.562
R19  19704572.440   105406161.831 6      2932.574          38.000    19704570.960   105406161.835 6      2932.574          37.937    19704580.420    81982616.046 7      2280.891          44.875    19704581.000    81982617.057 7      2280.891          45.562
G17  20551269.700   107997648.975 8      3104.420          48.750    20551268.840   107997648.972 8      3104.420          48.250    20551272.260    84154019.694 7      2419.028          47.750    20551273.060    84154024.688 8      2419.028          50.812
R04  19845562.960   106272084.815 8       503.584          49.125    19845563.200   106272084.849 7       503.584          47.937    19845573.120    82656110.264 8       391.677          50.687    19845573.040    82656109.264 8       391.677          50.812
R05  19535211.820   104426903.558 7      4314.746          47.375    19535211.000   104426903.557 7      4314.746          46.687    19535219.660    81220970.561 7      3355.913          46.250    19535220.300    81220966.562 7      3355.913          46.437
G06  22883992.520   120256192.644 6      5259.662          39.125    22883992.120   120256192.644 5      5259.662          33.312    22883998.320    93706160.390 5      4098.438          33.125    22883999.220    93706170.371 6      4098.438          39.875
G19  20990006.920   110303228.073 7      4789.745          47.875    20990005.380   110303228.078 6      4789.745          36.875    20990008.040    85950572.337 6      3732.269          37.125
G09  20718142.680   108874579.006 7      4859.475          46.687    20718142.920   108874579.011 7      4859.475          46.812    20718149.260    84837360.086 7      3786.604          46.375    20718149.940    84837361.075 8      3786.604          50.250
G03  21875342.440   114955697.968 7       622.621          43.375    21875340.800   114955697.968 6       622.621          38.437    21875348.780    89575893.961 6       485.159          38.562    21875350.060    89575897.958 7       485.159          42.250
> 2024 07 31 12 24 16.0000000  0 11
G22  24205400.160   127200239.767 5      1071.673          34.812    24205397.300   127200239.766 2      1071.673          14.437    24205407.820    99117083.383 2       835.070          14.437
G04  20599924.480   108253335.540 7      2499.787          44.125    20599923.240   108253335.544 5      2499.787          35.125    20599928.900    84353265.120 5      1947.886          34.937    20599928.940    84353266.123 8      1947.886          50.187
G02  23142766.280   121616036.972 7      1147.071          44.625    23142764.640   121616036.982 4      1147.071          26.500    23142770.240    94765744.008 4       893.822          26.562
R19  19704024.120   105403229.620 6      2932.056          38.000    19704023.240   105403229.632 6      2932.056          37.937    19704032.500    81980335.443 7      2280.488          45.500    19704033.020    81980336.452 7      2280.488          45.812
G17  20550678.980   107994545.135 8      3103.628          49.250    20550678.240   107994545.135 7      3103.628          47.750    20550681.680    84151601.120 7      2418.411          47.250    20550682.480    84151606.116 8      2418.411          50.312
R04  19845469.020   106271581.731 8       502.927          48.625    19845469.320   106271581.767 7       502.927          47.562    19845479.300    82655718.976 8       391.165          50.187    19845478.880    82655717.978 8       391.165          50.437
R05  19534404.920   104422589.389 7      4313.880          46.625    19534404.040   104422589.377 7      4313.880          46.937    19534412.680    81217615.088 7      3355.240          46.937    19534413.400    81217611.089 7      3355.240          46.125
G06  22882991.420   120250933.313 6      5259.449          39.312    22882991.200   120250933.310 5      5259.449          33.375    22882997.680    93702062.205 5      4098.272          33.125    22882998.800    93702072.201 6      4098.272          39.875
G19  20989095.460   110298438.825 7      4789.097          47.375    20989093.880   110298438.828 6      4789.097          37.250    20989096.800    85946840.456 6      3731.764          37.437
G09  20717218.340   108869720.040 7      4858.774          46.312    20717218.200   108869720.048 7      4858.774          47.062    20717224.740    84833573.883 7      3786.057          46.750    20717225.500    84833574.874 8      3786.057          50.250
G03  21875224.040   114955075.502 7       622.425          43.250    21875222.380   114955075.504 6       622.425          38.500    21875230.220    89575408.924 6       485.007          38.062    21875231.000    89575412.931 7       485.007          42.250
> 2024 07 31 12 24 17.0000000  0 11
G22  24205197.200   127199168.115 5      1071.725          34.812    24205193.640   127199168.115 2      1071.725          14.437    24205203.680    99116248.332 2       835.110          14.437
G04  20599448.920   108250836.197 7      2499.007          44.437    20599447.820   108250836.205 5      2499.007          35.000    20599453.280    84351317.581 5      1947.279          34.875    20599453.640    84351318.580 8      1947.279          50.625
G02  23142547.600   121614890.073 7      1146.826          44.687    23142546.480   121614890.083 4      1146.826          26.500    23142551.820    94764850.313 4       893.631          26.562
R19  19703475.780   105400298.082 6      2931.276          38.000    19703475.360   105400298.097 6      2931.276          37.937    19703484.280    81978055.356 7      2279.881          45.562    19703485.080    81978056.362 7      2279.881          45.812
G17  20550088.600   107991441.927 8      3102.966          48.875    20550087.780   107991441.924 7      3102.966          47.937    20550091.100    84149183.031 7      2417.896          47.500    20550092.020    84149188.025 8      2417.896          50.250
R04  19845374.900   106271079.235 8       502.220          48.875    19845375.480   106271079.274 8       502.220          48.250    19845385.460    82655328.146 8       390.616          50.562    19845385.260    82655327.144 8       390.616          50.750
R05  19533597.860   104418275.998 8      4313.037          48.062    19533596.980   104418275.994 7      4313.037          46.812    19533605.540    81214260.235 7      3354.584          46.625    19533606.460    81214256.234 7      3354.584          46.687
G06  22881990.980   120245673.960 6      5259.484          39.062    22881990.220   120245673.962 5      5259.484          33.375    22881996.820    93697964.013 5      4098.299          33.062    22881997.740    93697974.013 6      4098.299          39.875
G19  20988183.980   110293650.208 7      4788.371          47.625    20988182.640   110293650.211 6      4788.371          37.000    20988185.460    85943109.066 6      3731.199          36.937
G09  20716293.600   108864861.629 7      4858.238          45.937    20716293.760   108864861.631 7      4858.238          47.375    20716300.240    84829788.108 7      3785.640          46.562    20716300.780    84829789.101 8      3785.640          49.875
G03  21875105.400   114954453.142 7       622.389          42.687    21875104.100   114954453.139 6       622.389          38.312    21875111.780    89574923.961 6       484.978          38.125    21875112.260    89574927.958 6       484.978          41.875
> 2024 07 31 12 24 18.0000000  0 11
G22  24204993.240   127198096.595 5      1071.321          34.812    24204990.320   127198096.605 2      1071.321          14.437    24204999.420    99115413.373 2       834.795          14.437
G04  20598973.700   108248337.475 7      2498.280          44.937    20598972.220   108248337.480 5      2498.280          35.000    20598977.740    84349370.522 5      1946.711          34.937    20598978.300    84349371.524 8      1946.711          51.000
G02  23142329.440   121613743.432 7      1146.437          44.500    23142328.460   121613743.440 4      1146.437          26.500    23142333.420    94763956.822 4       893.327          26.562
R19  19702927.580   105397367.117 6      2930.488          38.000    19702927.980   105397367.156 6      2930.488          37.937    19702936.740    81975775.740 7      2279.268          45.187    19702937.060    81975776.741 7      2279.268          45.500
G17  20549497.900   107988339.317 8      3102.174          49.187    20549497.340   107988339.316 8      3102.174          48.687    20549500.860    84146765.415 8      2417.279          48.187    20549501.600    84146770.411 8      2417.279          50.625
R04  19845280.940   106270577.275 8       501.558          49.000    19845281.820   106270577.312 8       501.558          48.312    19845291.940    82654937.735 8       390.101          50.562    19845291.200    82654936.733 8       390.101          50.687
R05  19532791.180   104413963.374 7      4312.156          47.625    19532790.380   104413963.365 7      4312.156          46.500    19532798.820    81210905.972 7      3353.899          46.625    19532799.760    81210901.977 7      3353.899          45.937
G06  22880989.940   120240414.644 6      5259.270          39.000    22880989.340   120240414.652 5      5259.270          33.000    22880995.920    93693865.849 5      4098.133          33.062    22880997.100    93693875.849 6      4098.133          40.000
G19  20987272.720   110288862.164 7      4787.657          47.812    20987271.540   110288862.164 6      4787.657          37.187    20987274.240    85939378.121 6      3730.642          37.125
G09  20715369.480   108860003.753 7      4857.501          47.062    20715369.460   108860003.753 7      4857.501          47.375    20715375.680    84826002.756 7      3785.066          46.750    20715376.420    84826003.751 8      3785.066          50.187
G03  21874987.200   114953830.865 7       622.151          43.562    21874985.800   114953830.862 6       622.151          38.500    21874993.460    89574439.061 6       484.793          38.500    21874994.340    89574443.056 6       484.793          41.875
> 2024 07 31 12 24 19.0000000  0 11
G22  24204790.080   127197025.569 5      1070.932          35.500    24204786.400   127197025.589 2      1070.932          14.562    24204795.260    99114578.809 2       834.492          14.250
G04  20598498.240   108245839.731 7      2497.488          43.750    20598497.040   108245839.738 5      2497.488          35.437    20598502.420    84347424.228 5      1946.094          34.937    20598502.880    84347425.225 8      1946.094          50.125
G02  23142111.560   121612597.414 7      1145.865          44.812    23142110.460   121612597.422 4      1145.865          26.500    23142115.280    94763063.817 4       892.882          26.562
R19  19702379.320   105394437.139 6      2929.638          38.000    19702378.800   105394437.154 6      2929.638          37.812    19702388.960    81973496.847 7      2278.608          45.312    19702389.220    81973497.846 7      2278.608          45.625
G17  20548907.920   107985237.624 8      3101.452          49.000    20548906.940   107985237.624 8      3101.452          48.187    20548910.580    84144348.512 7      2416.716          47.937    20548911.420    84144353.508 8      2416.716          50.312
R04  19845187.580   106270076.193 8       500.860          49.437    19845188.020   106270076.230 8       500.860          48.250    19845198.380    82654548.002 8       389.558          50.312    19845197.780    82654547.001 8       389.558          50.062
R05  19531985.080   104409651.857 7      4311.159          47.250    19531983.500   104409651.837 7      4311.159          46.312    19531992.180    81207552.563 7      3353.123          46.250    19531993.020    81207548.564 7      3353.123          46.625
G06  22879988.760   120235155.665 6      5258.965          39.000    22879988.660   120235155.670 5      5258.965          33.000    22879995.080    93689767.943 5      4097.895          33.000    22879995.860    93689777.947 6      4097.895          40.000
G19  20986361.740   110284075.042 7      4786.833          47.562    20986360.480   110284075.045 6      4786.833          37.187    20986363.380    85935647.896 6      3730.000          36.875
G09  20714444.860   108855146.752 7      4856.753          46.312    20714445.160   108855146.760 7      4856.753          47.375    20714451.600    84822218.090 7      3784.483          46.562    20714452.140    84822219.088 8      3784.483          49.812
G03  21874868.740   114953208.968 7       621.918          42.687    21874867.460   114953208.970 6       621.918          38.312    21874875.160    89573954.462 6       484.612          39.000    21874875.840    89573958.465 6       484.612          41.687
> 2024 07 31 12 24 20.0000000  0 11
G22  24204586.220   127195954.774 5      1070.480          35.500    24204582.380   127195954.784 2      1070.480          14.562    24204591.320    99113744.405 2       834.141          14.250
G04  20598023.160   108243342.722 7      2496.390          43.812    20598021.980   108243342.732 5      2496.390          34.812    20598027.260    84345478.509 5      1945.239          34.437    20598027.620    84345479.510 8      1945.239          50.000
G02  23141893.560   121611451.725 7      1145.316          44.562    23141892.500   121611451.737 4      1145.316          26.500    23141897.360    94762171.066 4       892.454          26.562
R19  19701831.620   105391507.805 6      2928.688          38.125    19701832.180   105391507.836 6      2928.688          37.812    19701841.420    81971218.489 7      2277.868          45.687    19701841.800    81971219.494 7      2277.868          44.687
G17  20548317.880   107982136.638 8      3100.423          48.500    20548316.960   107982136.646 7      3100.423          47.000    20548320.600    84141932.167 7      2415.914          46.687    20548321.440    84141937.161 8      2415.914          50.187
R04  19845094.140   106269575.754 8       499.944          48.687    19845094.600   106269575.788 7       499.944          47.375    19845105.100    82654158.772 8       388.845          50.000    19845104.360    82654157.770 8       388.845          48.875
R05  19531178.620   104405341.155 7      4309.999          46.687    19531177.100   104405341.143 7      4309.999          46.875    19531185.720    81204199.809 7      3352.221          46.312    19531186.360    81204195.810 7      3352.221          45.562
G06  22878988.300   120229896.751 6      5258.738          38.750    22878987.800   120229896.759 5      5258.738          33.375    22878994.580    93685670.092 5      4097.718          33.000    22878995.240    93685680.075 6      4097.718          40.000
G19  20985450.960   110279288.604 7      4785.897          47.437    20985449.560   110279288.603 6      4785.897          37.000    20985452.680    85931918.206 6      3729.270          37.125
G09  20713520.680   108850290.382 7      4855.854          46.375    20713521.180   108850290.384 7      4855.854          46.625    20713527.560    84818433.906 7      3783.783          46.437    20713528.000    84818434.903 8      3783.783          49.187
G03  21874750.700   114952587.250 7       621.474          43.187    21874749.260   114952587.250 6       621.474          38.312    21874756.860    89573470.003 6       484.265          38.125    21874757.380    89573473.995 6       484.265          41.687
> 2024 07 31 12 24 21.0000000  0 11
G22  24204382.360   127194884.263 5      1070.485          35.500    24204379.420   127194884.262 2      1070.485          14.562    24204387.600    99112910.255 2       834.144          14.250
G04  20597548.240   108240846.506 7      2495.935          44.500    20597547.080   108240846.511 5      2495.935          34.812    20597552.220    84343533.404 5      1944.885          34.687    20597552.700    84343534.407 8      1944.885          50.312
G02  23141675.740   121610306.495 7      1145.076          44.437    23141674.700   121610306.505 4      1145.076          25.625    23141679.420    94761278.673 4       892.267          26.562
R19  19701283.780   105388579.250 6      2928.212          38.125    19701285.240   105388579.281 6      2928.212          37.812    19701293.680    81968940.724 7      2277.498          45.062    19701294.180    81968941.723 7      2277.498          45.125
G17  20547728.040   107979036.422 8      3099.853          48.375    20547727.060   107979036.430 7      3099.853          47.875    20547730.680    84139516.414 7      2415.470          47.437    20547731.640    84139521.408 8      2415.470          50.125
R04  19845000.800   106269076.081 8       499.361          48.437    19845001.360   106269076.117 7       499.361          47.937    19845012.020    82653770.135 8       388.392          50.250    19845011.160    82653769.131 8       388.392          49.750
R05  19530372.200   104401031.401 7      4309.268          46.437    19530370.920   104401031.384 7      4309.268          46.250    19530379.700    81200847.768 7      3351.653          46.375    19530380.160    81200843.778 7      3351.653          46.437
G06  22877987.760   120224638.037 6      5258.736          39.000    22877987.000   120224638.045 5      5258.736          33.375    22877993.980    93681572.391 5      4097.716          32.875    22877994.980    93681582.395 6      4097.716          40.125
G19  20984540.400   110274502.919 7      4785.355          46.000    20984538.780   110274502.921 6      4785.355          37.062    20984541.800    85928189.103 6      3728.848          36.500
G09  20712596.740   108845434.716 7      4855.310          46.312    20712597.020   108845434.719 7      4855.310          46.000    20712603.440    84814650.276 7      3783.358          45.812    20712604.060    84814651.282 8      3783.358          49.625
G03  21874632.500   114951965.769 7       621.448          43.562    21874631.100   114951965.766 6       621.448          38.312    21874638.480    89572985.727 6       484.245          38.187    21874639.180    89572989.730 6       484.245          41.500
> 2024 07 31 12 24 22.0000000  0 11
G22  24204178.080   127193813.985 6      1070.425          36.187    24204175.880   127193813.990 2      1070.425          14.562    24204184.120    99112076.277 2       834.097          14.250
G04  20597073.360   108238351.063 7      2495.148          43.937    20597072.420   108238351.068 5      2495.148          35.062    20597077.440    84341588.905 5      1944.271          34.687    20597077.800    84341589.908 8      1944.271          50.437
G02  23141457.700   121609161.651 7      1144.704          44.125    23141456.880   121609161.669 4      1144.704          25.625    23141461.580    94760386.582 4       891.977          25.625
R19  19700737.100   105385651.457 6      2927.421          38.125    19700738.180   105385651.491 6      2927.421          37.812    19700746.520    81966663.552 7      2276.883          45.187    19700746.760    81966664.557 7      2276.883          45.375
G17  20547138.120   107975936.934 8      3099.139          48.937    20547137.380   107975936.934 7      3099.139          47.875    20547140.840    84137101.227 7      2414.913          47.437    20547141.620    84137106.221 8      2414.913          50.750
R04  19844907.720   106268577.098 8       498.725          49.000    19844908.180   106268577.129 8       498.725          48.187    19844918.800    82653382.033 8       387.897          50.875    19844917.820    82653381.029 8       387.897          50.875
R05  19529566.400   104396722.527 7      4308.400          46.312    19529564.500   104396722.507 7      4308.400          46.000    19529573.680    81197496.424 7      3350.978          46.500    19529574.080    81197492.433 7      3350.978          46.250
G06  22876986.560   120219379.463 6      5258.567          39.812    22876986.460   120219379.468 5      5258.567          33.437    22876993.480    93677474.802 5      4097.585          32.875    22876994.060    93677484.790 6      4097.585          40.125
G19  20983630.140   110269717.954 7      4784.573          46.687    20983628.140   110269717.954 6      4784.573          37.000    20983631.320    85924460.565 6      3728.238          37.062
G09  20711673.140   108840579.715 7      4854.701          46.312    20711673.220   108840579.712 7      4854.701          47.187    20711679.620    84810867.150 7      3782.884          46.437    20711679.920    84810868.152 8      3782.884          50.000
G03  21874514.240   114951344.503 7       621.182          43.750    21874512.940   114951344.497 6       621.182          38.562    21874520.100    89572501.618 6       484.038          38.875    21874520.680    89572505.618 6       484.038          41.500
> 2024 07 31 12 24 23.0000000  0 11
G22  24203975.320   127192744.105 6      1069.739          36.187    24203972.020   127192744.118 2      1069.739          14.562    24203980.120    99111242.593 2       833.563          14.250
G04  20596598.660   108235856.467 7      2494.171          44.062    20596597.600   108235856.474 5      2494.171          35.187    20596602.640    84339645.065 5      1943.510          34.500    20596603.060    84339646.071 8      1943.510          51.000
G02  23141239.860   121608017.275 7      1144.201          43.500    23141239.060   121608017.290 4      1144.201          25.625    23141243.860    94759494.851 4       891.585          25.625
R19  19700190.060   105382724.429 6      2926.726          38.125    19700190.400   105382724.452 6      2926.726          37.750    19700199.520    81964386.966 7      2276.343          45.062    19700199.780    81964387.971 7      2276.343          45.187
G17  20546548.380   107972838.239 8      3098.291          48.562    20546547.560   107972838.236 8      3098.291          48.312    20546551.120    84134686.653 8      2414.252          48.312    20546551.800    84134691.647 8      2414.252          50.125
R04  19844814.320   106268078.873 8       497.802          49.125    19844815.360   106268078.912 8       497.802          48.312    19844825.740    82652994.531 8       387.179          50.562    19844825.000    82652993.527 8       387.179          51.437
R05  19528760.320   104392414.586 7      4307.557          45.875    19528758.600   104392414.569 7      4307.557          45.750    19528768.060    81194145.805 7      3350.322          46.562    19528768.360    81194141.810 7      3350.322          46.312
G06  22875985.500   120214121.064 6      5258.285          39.812    22875985.900   120214121.064 5      5258.285          33.437    22875993.200    93673377.347 5      4097.365          33.812    22875993.740    93673387.330 6      4097.365          40.687
G19  20982719.460   110264933.752 7      4783.884          46.875    20982717.560   110264933.754 6      4783.884          36.437    20982720.860    85920732.615 6      3727.702          36.875
G09  20710749.280   108835725.442 7      4853.902          45.875    20710749.480   108835725.439 7      4853.902          47.000    20710755.940    84807084.606 7      3782.261          46.687    20710756.460    84807085.611 8      3782.261          50.000
G03  21874395.940   114950723.455 7       620.993          43.937    21874394.840   114950723.452 6       620.993          38.500    21874402.020    89572017.686 6       483.891          38.500    21874402.480    89572021.687 6       483.891          41.437
> 2024 07 31 12 24 24.0000000  0 12
G22  24203771.260   127191674.519 6      1069.406          36.187    24203768.320   127191674.526 2      1069.406          14.562    24203776.300    99110409.139 2       833.303          14.250
G04  20596124.200   108233362.629 7      2493.580          43.937    20596123.040   108233362.637 5      2493.580          35.187    20596128.120    84337701.813 5      1943.049          35.062    20596128.460    84337702.816 8      1943.049          50.562
G21  24595252.240   129248923.303 6       841.215          36.062
G02  23141022.400   121606873.288 7      1143.856          44.375    23141021.480   121606873.298 4      1143.856          25.625    23141026.260    94758603.426 4       891.316          25.625
R19  19699643.340   105379798.180 6      2925.883          38.437    19699643.540   105379798.194 6      2925.883          37.750    19699652.460    81962110.990 7      2275.686          45.562    19699652.640    81962111.993 7      2275.686          45.125
G17  20545959.160   107969740.267 8      3097.610          48.625    20545958.160   107969740.267 8      3097.610          48.562    20545961.660    84132272.655 8      2413.722          48.187    20545962.200    84132277.645 8      2413.722          50.500
R04  19844721.300   106267581.304 8       497.270          48.625    19844722.500   106267581.348 7       497.270          47.625    19844732.880    82652607.533 8       386.766          51.062    19844731.980    82652606.529 8       386.766          51.375
R05  19527954.320   104388107.529 7      4306.772          46.187    19527952.740   104388107.523 7      4306.772          45.812    19527962.200    81190795.881 7      3349.712          47.250    19527962.560    81190791.888 7      3349.712          46.812
G06  22874985.300   120208862.797 6      5258.190          39.812    22874985.380   120208862.794 5      5258.190          34.062    22874992.560    93669279.997 5      4097.291          33.812    22874992.680    93669289.993 6      4097.291          40.687
G19  20981808.940   110260150.280 7      4783.230          47.187    20981807.220   110260150.282 6      4783.230          36.687    20981810.620    85917005.232 6      3727.192          36.750
G09  20709825.500   108830871.852 7      4853.265          46.875    20709825.760   108830871.846 7      4853.265          47.375    20709832.160    84803302.592 7      3781.765          47.125    20709833.040    84803303.593 8      3781.765          50.375
G03  21874277.640   114950102.667 7       620.756          44.125    21874276.660   114950102.658 6       620.756          38.750    21874283.900    89571533.949 6       483.706          38.937    21874284.360    89571537.952 6       483.706          41.312
> 2024 07 31 12 24 25.0000000  0 12
G22  24203568.380   127190605.093 5      1069.185          35.375    24203564.740   127190605.103 2      1069.185          14.562    24203572.120    99109575.812 2       833.131          14.250
G04  20595649.560   108230869.532 7      2492.566          44.812    20595648.660   108230869.537 5      2492.566          34.875    20595653.640    84335759.140 5      1942.259          34.750    20595654.020    84335760.144 8      1942.259          50.687
G21  24595093.360   129248081.966 6       841.211          36.000
G02  23140804.760   121605729.679 7      1143.243          43.500    23140803.660   121605729.689 4      1143.243          25.625    23140808.720    94757712.294 4       890.839          25.625
R19  19699095.640   105376872.588 6      2925.031          38.437    19699096.600   105376872.592 6      2925.031          37.750    19699105.420    81959835.527 7      2275.024          45.437    19699105.380    81959836.531 7      2275.024          45.187
G17  20545369.700   107966642.994 8      3096.719          48.312    20545368.720   107966642.991 8      3096.719          48.625    20545372.340    84129859.191 8      2413.028          48.187    20545372.820    84129864.181 8      2413.028          50.312
R04  19844628.640   106267084.412 8       496.325          49.187    19844629.660   106267084.457 7       496.325          47.750    19844640.320    82652221.064 8       386.031          50.750    19844639.160    82652220.060 8       386.031          51.250
R05  19527148.740   104383801.339 7      4305.500          45.750    19527147.120   104383801.332 7      4305.500          45.812    19527156.880    81187446.625 7      3348.723          46.875    19527157.280    81187442.626 7      3348.723          46.562
G06  22873984.800   120203604.619 6      5257.967          38.875    22873984.960   120203604.621 5      5257.967          34.062    22873992.080    93665182.722 5      4097.117          33.750    22873992.540    93665192.710 6      4097.117          41.187
G19  20980898.920   110255367.498 7      4782.286          46.875    20980897.280   110255367.503 6      4782.286          36.687    20980900.360    85913278.394 6      3726.457          36.562
G09  20708901.940   108826018.884 7      4852.451          46.062    20708902.200   108826018.884 7      4852.451          46.937    20708908.620    84799521.063 7      3781.130          46.625    20708909.120    84799522.068 8      3781.130          50.125
G03  21874159.480   114949482.002 7       620.355          44.125    21874158.780   114949481.997 6       620.355          39.062    21874165.800    89571050.313 6       483.394          39.187    21874166.820    89571054.326 6       483.394          41.312
> 2024 07 31 12 24 26.0000000  0 12
G22  24203364.920   127189535.903 5      1069.088          35.375    24203360.960   127189535.926 2      1069.088          14.562    24203369.160    99108742.667 2       833.055          14.250
G04  20595175.500   108228377.127 7      2492.207          44.812    20595174.280   108228377.137 5      2492.207          35.062    20595179.300    84333817.010 5      1941.979          34.750    20595179.600    84333818.018 8      1941.979          50.250
G21  24594933.420   129247240.916 6       841.032          36.000
G02  23140586.980   121604586.389 7      1143.264          44.187    23140586.140   121604586.399 4      1143.264          25.625    23140591.060    94756821.408 4       890.855          25.625
R19  19698548.920   105373947.635 6      2924.909          38.437    19698549.700   105373947.653 6      2924.909          37.750    19698558.700    81957560.571 7      2274.929          45.437    19698558.640    81957561.576 7      2274.929          45.062
G17  20544780.420   107963546.375 8      3096.382          48.250    20544779.500   107963546.377 8      3096.382          48.312    20544783.140    84127446.244 8      2412.765          48.500    20544783.800    84127451.235 8      2412.765          50.500
R04  19844536.000   106266588.129 8       496.119          49.000    19844537.280   106266588.165 7       496.119          47.937    19844547.760    82651835.061 8       385.870          50.750    19844546.780    82651834.057 8       385.870          50.937
R05  19526343.200   104379495.923 7      4305.185          46.312    19526341.760   104379495.914 7      4305.185          46.062    19526351.740    81184097.965 7      3348.477          47.062    19526352.220    81184093.966 7      3348.477          46.437
G06  22872984.060   120198346.522 6      5258.162          39.500    22872984.480   120198346.522 5      5258.162          34.312    22872991.460    93661085.500 5      4097.269          33.750    22872992.000    93661095.477 6      4097.269          41.187
G19  20979988.900   110250585.356 7      4781.944          47.187    20979987.240   110250585.363 6      4781.944          36.250    20979990.420    85909552.049 6      3726.190          36.312
G09  20707978.700   108821166.511 7      4852.142          46.687    20707978.900   108821166.513 7      4852.142          47.062    20707985.380    84795740.000 7      3780.890          46.312    20707986.060    84795741.004 8      3780.890          50.375
G03  21874041.300   114948861.485 7       620.556          44.875    21874040.920   114948861.480 6       620.556          39.062    21874047.740    89570566.795 6       483.550          38.750    21874048.260    89570570.789 6       483.550          41.687
> 2024 07 31 12 24 27.0000000  0 12
G22  24203161.200   127188467.150 5      1068.460          35.562    24203157.940   127188467.157 2      1068.460          14.562    24203165.700    99107909.862 2       832.567          14.250
G04  20594701.220   108225885.644 7      2491.167          43.875    20594700.140   108225885.651 5      2491.167          35.125    20594705.220    84331875.593 5      1941.169          34.750    20594705.380    84331876.602 8      1941.169          50.750
G21  24594773.900   129246400.305 5       840.489          35.562
G02  23140369.600   121603443.634 7      1142.597          44.437    23140368.540   121603443.644 4      1142.597          25.437    23140373.660    94755930.948 4       890.335          25.625
R19  19698002.300   105371023.627 6      2923.726          38.562    19698002.640   105371023.653 6      2923.726          37.750    19698012.360    81955286.338 7      2274.009          45.062    19698012.300    81955287.343 7      2274.009          45.312
G17  20544191.420   107960450.647 8      3095.366          48.500    20544190.420   107960450.649 8      3095.366          48.625    20544194.100    84125033.990 8      2411.973          48.375    20544194.740    84125038.980 8      2411.973          50.687
R04  19844443.500   106266092.699 8       495.103          49.000    19844444.520   106266092.741 7       495.103          47.750    19844455.200    82651449.733 8       385.080          50.875    19844454.140    82651448.727 8       385.080          51.250
R05  19525538.120   104375191.582 7      4303.905          45.812    19525536.480   104375191.578 7      4303.905          45.312    19525546.480    81180750.150 7      3347.481          47.125    19525546.880    81180746.151 7      3347.481          46.625
G06  22871983.120   120193088.707 6      5257.670          40.062    22871984.000   120193088.704 5      5257.670          34.312    22871990.920    93656988.501 5      4096.886          33.937    22871991.800    93656998.497 6      4096.886          41.437
G19  20979079.060   110245804.106 7      4780.851          47.125    20979077.300   110245804.114 6      4780.851          36.687    20979080.420    85905826.398 6      3725.338          37.000
G09  20707055.620   108816314.959 7      4851.174          46.000    20707055.700   108816314.964 7      4851.174          47.750    20707062.160    84791959.581 7      3780.135          46.500    20707062.800    84791960.587 8      3780.135          50.000
G03  21873923.480   114948241.312 7       620.073          45.000    21873922.960   114948241.312 6       620.073          39.062    21873929.760    89570083.545 6       483.174          38.875    21873930.640    89570087.546 6       483.174          41.687
> 2024 07 31 12 24 28.0000000  0 12
G22  24202958.260   127187398.578 5      1068.008          35.562    24202955.020   127187398.580 2      1068.008          14.562    24202962.800    99107077.209 2       832.214          14.250
G04  20594226.940   108223394.859 7      2490.456          44.687    20594226.140   108223394.867 5      2490.456          35.125    20594231.240    84329934.726 5      1940.615          34.812    20594231.400    84329935.731 8      1940.615          50.875
G21  24594613.420   129245559.954 5       840.294          35.562
G02  23140152.320   121602301.205 7      1142.317          43.312    23140151.100   121602301.215 4      1142.317          25.437    23140156.140    94755040.739 4       890.117          25.625
R19  19697455.680   105368100.229 6      2923.191          38.562    19697456.340   105368100.246 6      2923.191          37.562    19697465.740    81953012.584 7      2273.593          45.312    19697466.040    81953013.591 7      2273.593          45.312
G17  20543602.460   107957355.557 8      3094.836          48.875    20543601.560   107957355.556 8      3094.836          48.750    20543605.140    84122622.225 8      2411.560          48.375    20543605.680    84122627.215 8      2411.560          50.250
R04  19844351.120   106265597.864 8       494.520          48.750    19844352.240   106265597.903 7       494.520          47.562    19844362.800    82651064.859 8       384.627          50.250    19844361.720    82651063.857 8       384.627          51.750
R05  19524733.060   104370888.057 7      4303.126          45.375    19524731.380   104370888.053 7      4303.126          45.500    19524741.760    81177402.970 7      3346.876          47.062    19524741.920    81177398.967 7      3346.876          46.875
G06  22870983.080   120187830.944 6      5257.568          40.062    22870983.560   120187830.941 5      5257.568          34.000    22870990.360    93652891.545 5      4096.806          34.250    22870991.000    93652901.539 6      4096.806          41.437
G19  20978169.460   110241023.469 7      4780.293          47.250    20978167.500   110241023.477 6      4780.293          36.375    20978170.660    85902101.232 6      3724.903          36.562
G09  20706132.460   108811463.997 7      4850.680          45.687    20706132.640   108811463.996 7      4850.680          47.062    20706138.960    84788179.608 7      3779.750          46.562    20706139.340    84788180.614 8      3779.750          50.562
G03  21873805.480   114947621.239 7       620.075          44.000    21873805.040   114947621.241 6       620.075          39.062    21873811.800    89569600.371 6       483.175          38.937    21873812.220    89569604.382 6       483.175          41.562
> 2024 07 31 12 24 29.0000000  0 12
G22  24202754.820   127186330.218 5      1068.263          35.562    24202751.940   127186330.234 2      1068.263          14.562    24202759.080    99106244.721 2       832.413          14.250
G04  20593753.360   108220904.884 7      2489.625          44.875    20593752.260   108220904.889 5      2489.625          35.000    20593757.280    84327994.486 5      1939.968          34.812    20593757.740    84327995.491 8      1939.968          50.687
G21  24594453.900   129244719.892 5       839.957          35.562
G02  23139934.920   121601159.238 7      1141.642          43.250    23139933.860   121601159.246 4      1141.642          25.437    23139939.080    94754150.891 4       889.591          25.625
R19  19696909.060   105365177.657 6      2922.332          38.562    19696909.960   105365177.663 6      2922.332          37.562    19696919.500    81950739.457 7      2272.925          45.250    19696919.580    81950740.458 7      2272.925          45.125
G17  20543013.720   107954261.261 8      3093.952          48.625    20543012.620   107954261.263 8      3093.952          48.125    20543016.380    84120211.092 8      2410.872          48.250    20543016.620    84120216.079 8      2410.872          50.500
R04  19844258.360   106265103.759 8       493.805          48.562    19844260.040   106265103.796 7       493.805          47.000    19844270.580    82650680.554 8       384.071          50.750    19844269.540    82650679.552 8       384.071          51.062
R05  19523928.260   104366585.496 7      4302.105          44.000    19523926.520   104366585.484 7      4302.105          45.062    19523937.000    81174056.531 7      3346.082          47.375    19523936.840    81174052.524 7      3346.082          47.000
G06  22869983.100   120182573.320 6      5257.513          39.437    22869983.080   120182573.320 5      5257.513          34.000    22869990.080    93648794.695 5      4096.763          34.250    22869990.300    93648804.683 6      4096.763          40.875
G19  20977259.980   110236243.618 7      4779.486          46.437    20977257.940   110236243.623 6      4779.486          36.625    20977261.300    85898376.670 6      3724.275          36.750
G09  20705209.700   108806613.754 7      4849.931          45.250    20705209.640   108806613.756 7      4849.931          47.437    20705216.100    84784400.200 7      3779.167          46.687    20705216.540    84784401.204 8      3779.167          49.500
G03  21873687.500   114947001.463 7       619.680          44.750    21873687.180   114947001.457 6       619.680          38.687    21873693.840    89569117.427 6       482.867          38.437    21873694.720    89569121.434 6       482.867          41.562
> 2024 07 31 12 24 30.0000000  0 12
G22  24202551.460   127185262.277 5      1068.013          35.500    24202549.000   127185262.295 2      1068.013          14.562    24202556.040    99105412.546 2       832.218          14.250
G04  20593279.580   108218415.692 7      2488.947          44.000    20593278.440   108218415.694 5      2488.947          35.375    20593283.680    84326054.855 5      1939.439          34.937    20593283.920    84326055.863 8      1939.439          50.562
G21  24594293.860   129243880.200 5       839.688          35.625
G02  23139717.360   121600017.663 7      1141.407          42.750    23139716.660   121600017.676 4      1141.407          25.437    23139721.880    94753261.352 4       889.408          25.625
R19  19696363.260   105362255.828 6      2921.583          38.562    19696364.420   105362255.832 6      2921.583          37.562    19696373.060    81948466.918 7      2272.342          45.187    19696373.500    81948467.917 7      2272.342          45.250
G17  20542424.960   107951167.710 8      3093.274          49.062    20542423.960   107951167.718 8      3093.274          48.250    20542427.720    84117800.535 8      2410.343          48.062    20542427.800    84117805.527 8      2410.343          50.500
R04  19844166.700   106264610.383 8       493.062          48.875    19844167.840   106264610.422 7       493.062          47.312    19844178.620    82650296.819 8       383.492          51.562    19844177.680    82650295.815 8       383.492          51.687
R05  19523123.500   104362283.849 7      4301.212          45.250    19523121.540   104362283.831 7      4301.212          45.000    19523132.280    81170710.806 7      3345.387          46.812    19523132.640    81170706.801 7      3345.387          47.250
G06  22868982.380   120177315.870 6      5257.577          39.937    22868982.740   120177315.870 5      5257.577          34.125    22868989.540    93644697.981 5      4096.813          34.375    22868989.840    93644707.985 6      4096.813          40.875
G19  20976350.540   110231464.497 7      4778.769          46.937    20976348.540   110231464.504 6      4778.769          36.875    20976351.880    85894652.682 6      3723.716          37.125
G09  20704286.700   108801764.221 7      4849.195          46.250    20704286.860   108801764.220 7      4849.195          46.812    20704293.120    84780621.345 7      3778.594          46.187    20704293.680    84780622.349 8      3778.594          50.375
G03  21873569.680   114946381.884 7       619.540          44.062    21873569.300   114946381.873 6       619.540          39.125    21873576.000    89568634.631 6       482.758          39.312    21873576.440    89568638.628 6       482.758          41.812
> 2024 07 31 12 24 31.0000000  0 12
G22  24202348.720   127184194.606 5      1067.829          35.500    24202346.320   127184194.621 2      1067.829          13.000    24202352.300    99104580.591 2       832.075          13.437
G04  20592806.120   108215927.362 7      2488.028          43.500    20592804.940   108215927.367 5      2488.028          35.375    20592810.380    84324115.895 5      1938.723          34.875    20592810.420    84324116.906 8      1938.723          50.437
G21  24594134.640   129243040.887 5       839.134          35.625
G02  23139500.620   121598876.572 7      1140.931          43.312    23139499.600   121598876.582 4      1140.931          25.437    23139504.740    94752372.186 4       889.037          25.625
R19  19695817.220   105359334.781 6      2920.845          38.250    19695818.040   105359334.793 6      2920.845          37.562    19695826.960    81946195.003 7      2271.769          45.062    19695827.500    81946196.006 7      2271.769          45.750
G17  20541836.500   107948074.967 8      3092.444          49.125    20541835.540   107948074.975 8      3092.444          48.562    20541839.180    84115390.607 8      2409.697          48.312    20541839.620    84115395.597 8      2409.697          50.000
R04  19844074.500   106264117.751 8       492.354          49.000    19844075.920   106264117.783 8       492.354          48.062    19844086.600    82649913.654 8       382.942          51.000    19844085.460    82649912.651 8       382.942          51.187
R05  19522318.640   104357983.124 7      4300.420          44.687    19522316.980   104357983.112 7      4300.420          44.750    19522327.980    81167365.804 7      3344.771          47.312    19522327.880    81167361.799 7      3344.771          47.500
G06  22867981.900   120172058.667 6      5257.177          40.500    22867982.420   120172058.669 5      5257.177          34.687    22867989.140    93640601.461 5      4096.501          34.375    22867989.660    93640611.469 6      4096.501          41.125
G19  20975441.420   110226686.159 7      4778.101          46.875    20975439.240   110226686.161 6      4778.101          37.125    20975442.680    85890929.302 6      3723.196          36.812
G09  20703364.080   108796915.413 7      4848.475          46.437    20703364.120   108796915.415 7      4848.475          46.875    20703370.400    84776843.061 7      3778.033          46.687    20703370.980    84776844.069 8      3778.033          50.250
G03  21873451.920   114945762.591 7       619.225          44.312    21873451.540   114945762.582 6       619.225          39.312    21873458.020    89568152.066 6       482.513          39.250    21873458.320    89568156.077 6       482.513          41.812
> 2024 07 31 12 24 32.0000000  0 12
G22  24202145.400   127183127.188 5      1067.163          35.500    24202142.980   127183127.208 2      1067.163          13.000    24202149.140    99103748.836 2       831.556          13.437
G04  20592332.820   108213439.741 7      2487.118          43.812    20592331.640   108213439.743 5      2487.118          35.000    20592337.040    84322177.491 5      1938.014          34.750    20592337.120    84322178.501 8      1938.014          50.000
G21  24593974.580   129242201.823 5       838.607          35.625    24593970.020   129242202.041 1       838.607           1.000
G02  23139283.240   121597735.819 7      1140.343          42.437    23139282.640   121597735.832 4      1140.343          25.437    23139287.680    94751483.286 4       888.579          25.625
R19  19695271.520   105356414.480 6      2919.651          38.250    19695271.600   105356414.502 6      2919.651          37.562    19695281.060    81943923.668 7      2270.840          45.000    19695281.400    81943924.660 7      2270.840          44.937
G17  20541248.040   107944982.909 8      3091.477          49.000    20541247.160   107944982.912 8      3091.477          48.312    20541250.860    84112981.210 7      2408.943          47.875    20541250.840    84112986.199 8      2408.943          49.625
R04  19843982.460   106263625.762 8       491.493          48.937    19843983.940   106263625.801 7       491.493          46.937    19843994.840    82649531.005 8       382.272          50.750    19843993.600    82649530.003 8       382.272          50.250
R05  19521514.400   104353683.252 7      4299.256          45.437    19521512.700   104353683.245 7      4299.256          45.187    19521523.880    81164021.472 7      3343.866          46.937    19521523.340    81164017.469 7      3343.866          46.937
G06  22866981.960   120166801.519 6      5256.909          40.250    22866982.160   120166801.521 5      5256.909          34.687    22866988.740    93636504.982 5      4096.293          34.687    22866989.380    93636514.982 6      4096.293          41.125
G19  20974532.120   110221908.509 7      4777.163          47.375    20974530.160   110221908.514 6      4777.163          36.687    20974533.480    85887206.458 6      3722.465          36.812
G09  20702441.480   108792067.225 7      4847.659          45.875    20702441.440   108792067.227 7      4847.659          46.187    20702447.880    84773065.255 7      3777.397          45.812    20702448.360    84773066.262 8      3777.397          49.437
G03  21873334.120   114945143.440 7       618.846          44.062    21873333.740   114945143.432 6       618.846          39.187    21873340.260    89567669.610 6       482.218          39.500    21873340.200    89567673.619 6       482.218          41.750
> 2024 07 31 12 24 33.0000000  0 12
G22  24201942.420   127182060.224 5      1066.784          35.812    24201939.640   127182060.247 2      1066.784          13.000    24201946.200    99102917.426 2       831.260          13.437
G04  20591859.580   108210953.045 7      2486.423          43.250    20591858.300   108210953.053 5      2486.423          34.875    20591863.780    84320239.810 5      1937.472          34.750    20591863.780    84320240.822 8      1937.472          50.062
G21  24593815.740   129241363.246 5       838.171          34.937
G02  23139066.360   121596595.632 7      1140.049          42.312    23139065.420   121596595.647 4      1140.049          25.437    23139070.960    94750594.822 4       888.350          25.625
R19  19694725.480   105353495.045 6      2919.119          38.250    19694725.860   105353495.065 6      2919.119          37.250    19694735.280    81941652.994 7      2270.426          44.812    19694735.780    81941653.987 7      2270.426          44.625
G17  20540659.940   107941891.740 8      3090.834          48.937    20540658.940   107941891.737 7      3090.834          47.125    20540662.600    84110572.500 7      2408.442          47.062    20540662.720    84110577.492 8      2408.442          49.750
R04  19843890.880   106263134.659 8       490.845          48.625    19843892.280   106263134.701 7       490.845          47.312    19843903.100    82649149.038 8       381.768          49.937    19843902.160    82649148.032 8       381.768          48.875
R05  19520710.220   104349384.417 7      4298.515          44.750    19520708.560   104349384.408 7      4298.515          44.875    19520719.960    81160677.931 7      3343.290          46.937    19520719.040    81160673.928 7      3343.290          45.937
G06  22865981.520   120161544.655 6      5256.876          40.312    22865982.080   120161544.657 5      5256.876          34.437    22865988.440    93632408.726 5      4096.267          34.125    22865989.160    93632418.732 6      4096.267          41.375
G19  20973622.980   110217131.739 7      4776.449          46.625    20973621.100   110217131.747 6      4776.449          36.687    20973624.500    85883484.304 6      3721.908          36.562
G09  20701519.320   108787219.854 7      4847.153          45.437    20701519.040   108787219.859 7      4847.153          45.500    20701525.380    84769288.087 7      3777.002          45.187    20701525.920    84769289.096 8      3777.002          49.125
G03  21873216.380   114944524.654 7       618.736          44.000    21873216.000   114944524.649 6       618.736          39.125    21873222.720    89567187.436 6       482.132          39.062    21873222.820    89567191.439 6       482.132          41.687
> 2024 07 31 12 24 34.0000000  0 12
G22  24201738.840   127180993.409 5      1066.768          35.812    24201736.320   127180993.430 2      1066.768          13.000    24201743.420    99102086.142 2       831.248          13.437
G04  20591386.500   108208467.072 7      2485.636          43.375    20591385.280   108208467.082 5      2485.636          34.875    20591390.600    84318302.696 5      1936.859          34.500    20591390.980    84318303.706 8      1936.859          50.875
G21  24593656.320   129240524.855 5       838.341          34.937    24593654.200   129240524.731 1       838.341           2.937    24593656.060   100706907.236 1       653.253           1.000
G02  23138849.580   121595455.796 7      1139.618          42.562    23138848.360   121595455.809 4      1139.618          25.437    23138854.080    94749706.630 4       888.014          25.625
R19  19694179.380   105350576.292 6      2918.580          38.250    19694180.240   105350576.318 6      2918.580          37.250    19694189.640    81939382.855 7      2270.007          44.875    19694189.940    81939383.842 7      2270.007          45.312
G17  20540071.720   107938801.233 8      3090.193          49.250    20540070.800   107938801.230 8      3090.193          48.687    20540074.460    84108164.319 8      2407.942          48.312    20540074.380    84108169.310 8      2407.942          50.250
R04  19843799.200   106262644.167 8       490.266          49.312    19843800.920   106262644.206 7       490.266          47.625    19843811.560    82648767.539 8       381.318          51.000    19843810.460    82648766.536 8       381.318          52.000
R05  19519906.460   104345086.411 7      4297.669          44.875    19519904.840   104345086.401 7      4297.669          45.250    19519916.060    81157335.042 7      3342.632          47.875    19519915.200    81157331.038 7      3342.632          47.562
G06  22864981.480   120156287.872 6      5256.852          40.875    22864981.920   120156287.877 5      5256.852          35.000    22864987.960    93628312.534 5      4096.248          34.125    22864988.720    93628322.534 6      4096.248          41.562
G19  20972713.980   110212355.632 7      4775.789          46.875    20972712.200   110212355.637 6      4775.789          36.875    20972715.680    85879762.662 6      3721.394          36.812
G09  20700596.860   108782373.111 7      4846.508          46.000    20700596.780   108782373.116 7      4846.508          46.687    20700603.160    84765511.404 7      3776.500          46.312    20700603.700    84765512.416 8      3776.500          50.375
G03  21873098.640   114943906.018 7       618.633          44.562    21873098.340   114943906.005 6       618.633          39.687    21873104.900    89566705.378 6       482.052          39.500    21873104.340    89566709.372 6       482.052          41.687
> 2024 07 31 12 24 35.0000000  0 12
G22  24201536.320   127179926.984 5      1066.483          35.687    24201533.320   127179927.002 2      1066.483          13.000    24201540.080    99101255.155 2       831.026          13.437
G04  20590913.560   108205981.997 7      2484.577          42.625    20590912.240   108205982.002 5      2484.577          35.062    20590917.620    84316366.270 5      1936.034          34.687    20590917.920    84316367.269 8      1936.034          50.687
G21  24593497.200   129239686.884 5       837.509          34.937    24593498.440   129239686.729 1       837.509           1.625    24593501.180   100706254.327 1       652.604           1.000
G02  23138632.660   121594316.449 6      1138.987          41.562    23138631.360   121594316.462 4      1138.987          24.687    23138637.380    94748818.817 4       887.523          25.625
R19  19693634.400   105347658.425 6      2917.508          38.250    19693634.400   105347658.443 6      2917.508          37.250    19693644.020    81937113.386 7      2269.173          45.125    19693644.340    81937114.377 7      2269.173          45.437
G17  20539483.660   107935711.571 8      3089.203          49.437    20539482.980   107935711.574 8      3089.203          48.687    20539486.580    84105756.794 8      2407.172          48.312    20539486.480    84105761.788 8      2407.172          49.875
R04  19843707.840   106262154.454 8       489.310          48.562    19843709.640   106262154.496 7       489.310          47.250    19843720.200    82648386.651 8       380.575          50.937    19843718.900    82648385.646 8       380.575          51.250
R05  19519102.640   104340789.412 7      4296.380          45.437    19519101.120   104340789.410 7      4296.380          45.000    19519112.080    81153992.942 8      3341.629          48.062    19519111.500    81153988.938 7      3341.629          47.625
G06  22863981.100   120151031.347 6      5256.412          41.312    22863981.720   120151031.341 5      5256.412          35.000    22863987.820    93624216.536 5      4095.905          35.250    22863988.260    93624226.546 6      4095.905          41.562
G19  20971805.560   110207580.342 7      4774.846          46.687    20971803.620   110207580.344 6      4774.846          37.187    20971807.020    85876041.659 6      3720.659          37.062
G09  20699674.700   108777527.141 7      4845.646          45.750    20699674.260   108777527.138 7      4845.646          47.062    20699680.980    84761735.321 7      3775.828          46.500    20699681.620    84761736.329 8      3775.828          50.312
G03  21872980.920   114943287.669 7       618.273          44.562    21872980.760   114943287.655 6       618.273          39.187    21872987.100    89566223.541 6       481.771          38.937    21872986.520    89566227.542 6       481.771          41.437
> 2024 07 31 12 24 36.0000000  0 12
G22  24201333.920   127178860.982 5      1065.853          35.687    24201330.440   127178861.000 2      1065.853          13.000    24201337.300    99100424.502 2       830.534          13.437
G04  20590440.640   108203497.771 7      2483.693          43.250    20590439.340   108203497.776 5      2483.693          34.625    20590444.920    84314430.512 5      1935.346          34.687    20590445.340    84314431.517 8      1935.346          50.687
G21  24593336.960   129238849.321 5       837.647          34.937    24593349.740   129238849.207 1       837.647           1.000    24593321.580   100705601.677 1       652.712           1.000
G02  23138416.040   121593177.604 6      1138.528          41.562    23138414.520   121593177.617 4      1138.528          24.687    23138420.640    94747931.399 4       887.165          25.625
R19  19693089.080   105344741.379 6      2916.712          37.750    19693089.280   105344741.404 6      2916.712          37.250    19693098.660    81934844.585 7      2268.554          45.062    19693098.980    81934845.569 7      2268.554          45.250
G17  20538895.800   107932622.759 8      3088.393          49.812    20538895.180   107932622.761 8      3088.393          49.062    20538898.780    84103349.927 8      2406.540          48.875    20538898.780    84103354.921 8      2406.540          50.187
R04  19843616.620   106261665.549 8       488.451          49.062    19843618.040   106261665.594 7       488.451          47.312    19843628.720    82648006.398 8       379.906          50.750    19843627.580    82648005.391 8       379.906          51.500
R05  19518298.700   104336493.378 7      4295.530          45.250    19518297.600   104336493.376 7      4295.530          45.125    19518308.440    81150651.584 7      3340.968          47.437    19518307.900    81150647.583 7      3340.968          47.500
G06  22862980.960   120145775.032 6      5256.224          41.062    22862981.540   120145775.031 5      5256.224          35.000    22862987.900    93620120.712 5      4095.759          35.125    22862987.960    93620130.726 7      4095.759          42.437
G19  20970897.000   110202805.874 7      4774.141          46.812    20970895.120   110202805.877 6      4774.141          37.000    20970898.460    85872321.300 6      3720.110          37.187
G09  20698752.640   108772681.951 7      4844.875          45.937    20698752.300   108772681.955 7      4844.875          46.687    20698758.960    84757959.861 7      3775.227          46.187    20698759.500    84757960.864 8      3775.227          50.062
G03  21872863.400   114942669.661 7       617.882          45.375    21872863.260   114942669.655 6       617.882          39.875    21872869.640    89565741.974 6       481.467          39.625    21872868.820    89565745.973 6       481.467          41.437
> 2024 07 31 12 24 37.0000000  0 12
G22  24201131.040   127177795.208 5      1065.399          35.687    24201127.540   127177795.221 2      1065.399          13.000    24201134.580    99099594.029 2       830.181          13.437
G04  20589968.140   108201014.297 7      2482.866          43.437    20589966.780   108201014.304 5      2482.866          34.625    20589972.360    84312495.339 5      1934.701          34.375    20589972.620    84312496.340 8      1934.701          50.437
G21  24593177.140   129238012.052 5       837.040          34.437    24593185.020   129238011.973 1       837.040           1.000    24593176.520   100704949.171 1       652.239           1.000
G02  23138199.400   121592039.109 6      1138.240          41.625    23138197.720   121592039.124 4      1138.240          24.687    23138204.100    94747044.258 4       886.940          24.687
R19  19692543.800   105341825.052 6      2915.893          37.750    19692543.560   105341825.078 6      2915.893          37.250    19692553.520    81932576.331 7      2267.917          45.000    19692553.760    81932577.315 7      2267.917          44.500
G17  20538308.240   107929534.627 8      3087.660          49.562    20538307.620   107929534.626 8      3087.660          48.562    20538311.140    84100943.593 8      2405.969          48.312    20538311.220    84100948.589 8      2405.969          50.250
R04  19843525.540   106261177.316 8       487.714          48.187    19843527.140   106261177.353 7       487.714          46.812    19843537.660    82647626.658 8       379.333          50.625    19843536.560    82647625.654 8       379.333          51.062
R05  19517495.280   104332198.226 7      4294.604          44.562    19517494.260   104332198.222 7      4294.604          44.437    19517505.280    81147310.919 7      3340.248          47.875    19517504.260    81147306.911 7      3340.248          47.875
G06  22861980.800   120140518.866 6      5255.914          41.375    22861981.340   120140518.866 5      5255.914          35.312    22861987.420    93616025.003 5      4095.517          35.250    22861987.940    93616035.007 7      4095.517          42.125
G19  20969988.380   110198032.105 7      4773.401          46.500    20969986.620   110198032.105 6      4773.401          36.687    20969990.200    85868601.478 6      3719.533          36.937
G09  20697830.400   108767837.407 7      4844.117          45.937    20697830.200   108767837.409 7      4844.117          46.375    20697837.080    84754184.894 7      3774.637          45.687    20697837.580    84754185.899 8      3774.637          50.062
G03  21872745.960   114942051.808 7       617.636          45.625    21872745.620   114942051.805 6       617.636          39.312    21872752.040    89565260.534 6       481.275          39.437    21872752.040    89565264.533 6       481.275          41.250
> 2024 07 31 12 24 38.0000000  0 12
G22  24200928.680   127176729.786 5      1065.228          35.750    24200924.460   127176729.796 2      1065.228          13.000    24200931.960    99098763.822 2       830.048          13.437
G04  20589495.860   108198531.689 7      2482.093          43.312    20589494.280   108198531.697 5      2482.093          34.812    20589499.860    84310560.839 5      1934.099          34.562    20589500.260    84310561.843 8      1934.099          51.125
G21  24593017.380   129237175.227 5       836.586          34.437    24593016.380   129237175.240 1       836.586           3.250    24593031.580   100704297.114 1       651.885           1.812
G02  23137983.120   121590901.167 6      1137.689          41.062    23137981.020   121590901.183 4      1137.689          24.687    23137987.460    94746157.544 4       886.511          24.687
R19  19691998.600   105338909.584 6      2915.022          37.750    19691999.520   105338909.594 6      2915.022          37.250    19692008.220    81930308.726 7      2267.239          45.375    19692008.560    81930309.717 7      2267.239          44.000
G17  20537720.580   107926447.343 8      3086.838          49.000    20537720.020   107926447.343 8      3086.838          48.500    20537723.680    84098537.917 8      2405.328          48.500    20537723.800    84098542.911 8      2405.328          50.375
R04  19843434.300   106260689.866 8       487.083          48.687    19843435.880   106260689.902 7       487.083          47.062    19843446.480    82647247.533 8       378.842          50.687    19843445.460    82647246.526 8       378.842          51.375
R05  19516691.940   104327904.116 7      4293.540          45.750    19516690.920   104327904.104 7      4293.540          45.562    19516701.700    81143971.049 7      3339.420          47.875    19516701.220    81143967.044 8      3339.420          48.437
G06  22860980.760   120135262.893 6      5255.844          40.625    22860981.480   120135262.898 5      5255.844          35.312    22860987.460    93611929.439 5      4095.463          35.250    22860988.540    93611939.452 7      4095.463          42.125
G19  20969080.380   110193259.167 7      4772.522          46.937    20969078.280   110193259.164 6      4772.522          37.312    20969081.860    85864882.305 6      3718.849          37.062
G09  20696908.780   108762993.652 7      4843.326          45.250    20696908.460   108762993.651 7      4843.326          46.500    20696915.260    84750410.543 7      3774.020          45.812    20696916.040    84750411.548 8      3774.020          49.875
G03  21872628.480   114941434.276 7       617.400          45.000    21872628.100   114941434.273 6       617.400          39.375    21872634.260    89564779.332 6       481.091          39.250    21872634.520    89564783.325 6       481.091          41.250
> 2024 07 31 12 24 39.0000000  0 12
G22  24200726.240   127175664.533 5      1065.210          35.750    24200721.740   127175664.543 2      1065.210          13.000    24200729.260    99097933.752 2       830.034          13.437
G04  20589023.360   108196049.765 7      2481.606          42.437    20589021.760   108196049.770 5      2481.606          35.000    20589027.740    84308626.876 5      1933.719          34.562    20589027.800    84308627.882 8      1933.719          50.562
G21  24592859.080   129236338.609 5       836.610          34.437    24592865.220   129236338.635 1       836.610           4.687    24592874.020   100703645.239 1       651.904           3.250
G02  23137766.460   121589763.536 6      1137.422          40.687    23137764.540   121589763.549 4      1137.422          24.687    23137771.000    94745271.072 4       886.303          24.687
R19  19691453.940   105335994.782 6      2914.225          37.750    19691453.040   105335994.794 6      2914.225          36.875    19691463.300    81928041.664 7      2266.620          45.250    19691463.920    81928042.661 7      2266.620          44.187
G17  20537133.200   107923360.730 8      3086.198          48.875    20537132.740   107923360.735 8      3086.198          48.375    20537136.240    84096132.766 8      2404.830          48.125    20537136.380    84096137.760 8      2404.830          50.562
R04  19843343.440   106260203.057 8       486.479          48.687    19843345.120   106260203.094 7       486.479          47.500    19843355.560    82646868.899 8       378.372          51.500    19843354.580    82646867.889 8       378.372          51.500
R05  19515888.600   104323610.800 7      4292.910          45.250    19515887.980   104323610.799 7      4292.910          45.062    19515898.720    81140631.812 7      3338.930          47.812    19515898.040    81140627.809 7      3338.930          47.687
G06  22859980.420   120130006.988 6      5255.962          41.062    22859981.500   120130006.998 5      5255.962          35.437    22859987.460    93607833.933 5      4095.555          35.187    22859987.980    93607843.949 7      4095.555          42.437
G19  20968172.220   110188486.875 7      4771.954          47.000    20968170.220   110188486.877 6      4771.954          36.812    20968173.780    85861163.642 6      3718.406          36.937
G09  20695987.120   108758150.477 7      4842.778          45.125    20695986.540   108758150.484 7      4842.778          46.437    20695993.760    84746636.645 7      3773.593          45.562    20695994.460    84746637.652 8      3773.593          50.375
G03  21872510.960   114940816.867 7       617.275          45.687    21872510.820   114940816.858 6       617.275          40.000    21872516.840    89564298.236 6       480.993          40.250    21872517.420    89564302.223 6       480.993          41.250
> 2024 07 31 12 24 40.0000000  0 12
G22  24200522.340   127174599.734 5      1064.452          35.750    24200519.260   127174599.744 2      1064.452          13.000    24200526.460    99097104.032 2       829.443          13.437
G04  20588551.240   108193568.763 7      2480.482          43.000    20588549.580   108193568.773 5      2480.482          35.000    20588555.620    84306693.628 5      1932.843          34.625    20588555.640    84306694.631 8      1932.843          50.937
G21  24592700.660   129235502.460 5       835.606          34.437    24592702.720   129235502.475 1       835.606           3.687    24592703.160   100702993.717 1       651.122           2.500
G02  23137550.120   121588626.370 6      1137.063          40.187    23137547.940   121588626.380 4      1137.063          24.687    23137554.580    94744384.963 4       886.023          24.687
R19  19690909.240   105333080.750 6      2913.529          37.750    19690908.480   105333080.781 6      2913.529          36.875    19690918.500    81925775.207 7      2266.078          44.437    19690919.160    81925776.202 7      2266.078          44.187
G17  20536546.120   107920274.944 8      3085.293          49.187    20536545.540   107920274.949 8      3085.293          48.812    20536549.100    84093728.258 8      2404.124          48.687    20536549.040    84093733.252 8      2404.124          50.500
R04  19843252.880   106259717.050 8       485.529          48.500    19843254.080   106259717.084 7       485.529          46.500    19843264.820    82646490.893 8       377.634          50.625    19843263.900    82646489.889 8       377.634          51.687
R05  19515085.800   104319318.506 7      4291.721          45.187    19515085.040   104319318.507 7      4291.721          45.437    19515095.800    81137293.369 7      3338.005          47.937    19515095.040    81137289.366 8      3338.005          48.125
G06  22858980.140   120124751.364 6      5255.503          41.312    22858981.480   120124751.377 5      5255.503          35.812    22858987.320    93603738.646 5      4095.197          35.500    22858988.120    93603748.662 7      4095.197          42.812
G19  20967264.100   110183715.426 7      4771.026          46.250    20967262.280   110183715.426 6      4771.026          37.000    20967265.860    85857445.626 6      3717.682          37.250
G09  20695065.800   108753308.083 7      4842.018          44.687    20695064.880   108753308.087 7      4842.018          46.312    20695072.320    84742863.354 7      3773.001          45.437    20695072.820    84742864.358 8      3773.001          49.562
G03  21872393.580   114940199.752 7       616.955          45.375    21872393.260   114940199.746 6       616.955          39.562    21872399.560    89563817.366 6       480.744          39.750    21872400.020    89563821.367 6       480.744          41.250
> 2024 07 31 12 24 41.0000000  0 12
G22  24200320.280   127173535.208 5      1064.030          35.437    24200316.920   127173535.221 2      1064.030          13.000    24200323.780    99096274.526 2       829.114          13.437
G04  20588078.960   108191088.536 7      2479.782          43.062    20588077.620   108191088.543 5      2479.782          34.812    20588083.640    84304760.979 5      1932.298          34.625    20588083.940    84304761.977 8      1932.298          51.125
G21  24592542.100   129234666.533 5       835.472          34.437    24592544.140   129234666.420 1       835.472           3.500    24592537.220   100702342.331 1       651.017           2.000
G02  23137333.980   121587489.696 6      1136.312          40.937    23137331.640   121587489.706 4      1136.312          24.687    23137338.380    94743499.236 4       885.438          24.687
R19  19690364.480   105330167.518 6      2912.904          36.375    19690363.820   105330167.538 6      2912.904          36.875    19690373.880    81923509.350 7      2265.592          44.562    19690374.120    81923510.347 7      2265.592          44.625
G17  20535958.880   107917189.918 8      3084.537          49.062    20535958.380   107917189.922 8      3084.537          48.375    20535961.980    84091324.341 8      2403.535          48.375    20535961.940    84091329.339 8      2403.535          50.562
R04  19843162.580   106259231.728 8       484.947          49.125    19843163.440   106259231.756 7       484.947          47.125    19843174.140    82646113.420 8       377.181          50.500    19843173.100    82646112.414 8       377.181          51.000
R05  19514283.280   104315027.098 7      4290.914          45.375    19514282.460   104315027.102 7      4290.914          45.437    19514293.380    81133955.610 7      3337.378          47.687    19514292.220    81133951.604 8      3337.378          48.062
G06  22857980.100   120119495.889 6      5255.333          41.187    22857981.560   120119495.897 5      5255.333          35.812    22857987.360    93599643.473 5      4095.065          35.750    22857988.480    93599653.487 7      4095.065          42.812
G19  20966356.260   110178944.731 7      4770.213          46.812    20966354.440   110178944.731 6      4770.213          37.125    20966357.980    85853728.202 6      3717.049          37.187
G09  20694144.240   108748466.411 7      4841.152          44.437    20694143.480   108748466.410 7      4841.152          46.437    20694150.980    84739090.625 7      3772.326          45.750    20694151.360    84739091.631 8      3772.326          50.062
G03  21872276.320   114939582.877 7       616.733          45.875    21872275.980   114939582.874 6       616.733          39.687    21872282.340    89563336.686 6       480.571          39.875    21872282.800    89563340.670 6       480.571          41.312
> 2024 07 31 12 24 42.0000000  0 12
G22  24200117.360   127172470.914 5      1064.074          35.437    24200114.180   127172470.926 2      1064.074          13.000    24200121.500    99095445.203 2       829.148          13.437
G04  20587607.440   108188609.081 7      2479.159          42.500    20587605.840   108188609.089 5      2479.159          34.812    20587611.740    84302828.941 5      1931.812          34.250    20587612.020    84302829.942 8      1931.812          51.000
G21  24592382.920   129233830.914 5       835.754          34.437    24592375.100   129233830.885 1       835.754           2.625    24592387.760   100701691.052 1       651.237           1.375
G02  23137117.720   121586353.407 6      1136.014          40.437    23137115.360   121586353.417 4      1136.014          24.562    23137122.240    94742613.810 4       885.206          24.687
R19  19689820.660   105327255.075 6      2912.126          36.375    19689819.400   105327255.079 6      2912.126          36.875    19689829.480    81921244.106 7      2264.987          44.875    19689829.880    81921245.105 7      2264.987          44.312
G17  20535371.940   107914105.637 8      3083.964          49.187    20535371.520   107914105.637 8      3083.964          48.562    20535375.160    84088921.000 8      2403.089          48.250    20535375.180    84088925.998 8      2403.089          50.062
R04  19843071.780   106258747.136 8       484.269          48.687    19843072.660   106258747.170 7       484.269          47.312    19843083.440    82645736.520 8       376.654          50.437    19843082.760    82645735.514 8       376.654          51.875
R05  19513480.500   104310736.586 7      4290.126          45.375    19513479.840   104310736.593 7      4290.126          45.500    19513490.480    81130618.553 7      3336.765          47.812    19513489.760    81130614.548 8      3336.765          48.437
G06  22856979.980   120114240.533 6      5255.349          41.812    22856981.560   120114240.546 6      5255.349          36.375    22856987.220    93595548.390 5      4095.077          35.750    22856988.180    93595558.411 7      4095.077          43.000
G19  20965448.700   110174174.746 7      4769.633          47.562    20965446.660   110174174.749 6      4769.633          37.062    20965450.300    85850011.330 6      3716.597          37.312
G09  20693222.880   108743625.401 7      4840.576          44.000    20693222.080   108743625.403 7      4840.576          46.250    20693229.720    84735318.412 7      3771.877          46.250    20693229.960    84735319.413 8      3771.877          50.125
G03  21872158.800   114938966.238 7       616.517          45.125    21872158.600   114938966.232 6       616.517          39.312    21872165.000    89562856.175 6       480.403          39.625    21872165.160    89562860.158 6       480.403          41.437
> 2024 07 31 12 24 43.0000000  0 12
G22  24199915.200   127171406.774 5      1064.457          35.437    24199911.620   127171406.787 2      1064.457          12.250    24199919.280    99094616.006 2       829.447          12.000
G04  20587135.700   108186130.318 7      2478.585          42.500    20587134.060   108186130.325 5      2478.585          34.750    20587139.960    84300897.441 5      1931.365          34.250    20587140.520    84300898.430 8      1931.365          50.687
G21  24592222.760   129232995.563 5       835.778          34.437    24592215.620   129232995.524 1       835.778           2.937    24592225.440   100701040.322 1       651.256           1.625
G02  23136901.220   121585217.397 6      1136.002          40.625    23136899.220   121585217.407 4      1136.002          24.562    23136906.300    94741728.602 4       885.197          24.687
R19  19689276.280   105324343.210 6      2911.697          36.375    19689275.080   105324343.227 6      2911.697          36.875    19689284.880    81918979.334 7      2264.653          44.625    19689285.760    81918980.333 7      2264.653          45.125
G17  20534785.100   107911021.985 8      3083.455          49.562    20534784.760   107911021.988 8      3083.455          48.750    20534788.160    84086518.160 8      2402.693          48.750    20534788.680    84086523.156 8      2402.693          50.062
R04  19842981.140   106258263.115 8       483.921          48.562    19842982.300   106258263.152 7       483.921          46.750    19842993.180    82645360.065 8       376.383          50.812    19842992.340    82645359.062 8       376.383          51.500
R05  19512677.880   104306446.866 7      4289.502          46.312    19512677.560   104306446.869 7      4289.502          45.500    19512688.440    81127282.108 8      3336.279          48.062    19512687.400    81127278.100 7      3336.279          47.937
G06  22855979.940   120108985.243 6      5255.422          41.812    22855981.460   120108985.256 6      5255.422          36.375    22855987.180    93591453.359 6      4095.134          36.187    22855987.980    93591463.373 7      4095.134          43.000
G19  20964540.980   110169405.376 7      4769.226          46.937    20964539.100   110169405.376 6      4769.226          36.937    20964542.900    85846294.936 6      3716.280          37.125
G09  20692301.940   108738784.928 7      4840.363          44.875    20692300.840   108738784.932 7      4840.363          45.625    20692308.580    84731546.625 7      3771.711          45.125    20692309.060    84731547.628 8      3771.711          50.000
G03  21872041.660   114938349.667 7       616.684          44.937    21872041.140   114938349.659 6       616.684          39.625    21872047.740    89562375.729 6       480.533          39.687    21872047.620    89562379.723 6       480.533          41.437
> 2024 07 31 12 24 44.0000000  0 12
G22  24199712.820   127170343.265 5      1063.023          34.625    24199708.900   127170343.278 2      1063.023          12.250    24199716.900    99093787.294 2       828.330          12.000
G04  20586664.240   108183652.590 7      2477.089          42.187    20586662.360   108183652.600 5      2477.089          34.375    20586668.720    84298966.750 5      1930.199          34.250    20586668.960    84298967.743 8      1930.199          50.687
G21  24592064.000   129232160.791 5       834.601          34.437    24592064.400   129232160.837 1       834.601           2.000    24592078.340   100700389.853 1       650.338           1.000
G02  23136685.000   121584082.099 6      1134.854          40.312    23136683.020   121584082.107 4      1134.854          24.562    23136690.140    94740843.948 4       884.302          24.687
R19  19688731.960   105321432.404 6      2910.176          36.375    19688731.180   105321432.416 6      2910.176          36.875    19688740.740    81916715.368 7      2263.470          44.500    19688741.680    81916716.369 7      2263.470          45.062
G17  20534198.520   107907939.355 8      3081.904          49.375    20534198.080   107907939.357 8      3081.904          48.125    20534201.820    84084116.113 7      2401.484          47.812    20534202.000    84084121.109 8      2401.484          50.062
R04  19842891.040   106257780.088 8       482.336          48.375    19842892.120   106257780.124 7       482.336          47.250    19842903.100    82644984.377 8       375.150          50.187    19842902.180    82644983.375 8       375.150          50.687
R05  19511875.700   104302158.353 7      4287.752          45.812    19511875.060   104302158.359 7      4287.752          45.375    19511885.840    81123946.602 7      3334.918          47.562    19511885.200    81123942.599 8      3334.918          48.000
G06  22854979.900   120103730.371 7      5254.460          42.062    22854981.500   120103730.381 5      5254.460          35.937    22854987.380    93587358.657 5      4094.385          35.875    22854988.260    93587368.663 7      4094.385          43.125
G19  20963633.640   110164637.033 7      4767.652          47.812    20963631.860   110164637.033 6      4767.652          37.062    20963635.660    85842579.346 6      3715.053          36.875
G09  20691381.000   108733945.487 7      4838.767          45.062    20691379.920   108733945.486 7      4838.767          46.375    20691387.800    84727775.632 7      3770.468          45.562    20691388.180    84727776.635 8      3770.468          49.812
G03  21871924.480   114937733.609 7       615.607          45.750    21871923.760   114937733.606 6       615.607          39.500    21871930.440    89561895.683 6       479.693          39.812    21871930.420    89561899.676 6       479.693          41.500
> 2024 07 31 12 24 45.0000000  0 12
G22  24199509.880   127169280.106 5      1062.974          34.625    24199506.740   127169280.119 2      1062.974          12.250    24199515.160    99092958.856 2       828.292          12.000
G04  20586193.220   108181175.765 6      2476.589          41.625    20586191.020   108181175.767 5      2476.589          34.375    20586197.640    84297036.751 5      1929.810          34.000    20586197.620    84297037.742 8      1929.810          50.750
G21  24591906.180   129231326.477 5       833.925          33.625    24591909.540   129231326.527 1       833.925           1.750    24591911.380   100699739.665 1       649.812           1.000
G02  23136468.900   121582947.319 6      1134.474          40.625    23136467.160   121582947.327 4      1134.474          24.562    23136474.380    94739959.697 4       884.006          24.250
R19  19688188.320   105318522.456 6      2909.442          36.375    19688187.500   105318522.482 6      2909.442          36.375    19688197.220    81914452.081 7      2262.900          44.312    19688197.960    81914453.084 7      2262.900          45.062
G17  20533612.260   107904857.576 8      3081.381          49.062    20533611.560   107904857.581 7      3081.381          47.375    20533615.280    84081714.729 7      2401.076          46.937    20533615.560    84081719.727 8      2401.076          50.437
R04  19842801.080   106257297.842 7       481.867          47.687    19842802.180   106257297.878 7       481.867          46.625    19842812.980    82644609.297 8       374.786          48.437    19842812.360    82644608.295 8       374.786          49.437
R05  19511073.540   104297870.850 7      4287.036          45.937    19511073.020   104297870.854 7      4287.036          45.937    19511083.780    81120611.876 7      3334.361          47.812    19511083.500    81120607.873 7      3334.361          47.000
G06  22853980.160   120098475.756 6      5254.390          41.625    22853981.480   120098475.763 5      5254.390          35.687    22853987.440    93583264.146 5      4094.330          35.812    22853988.440    93583274.160 7      4094.330          43.125
G19  20962726.380   110159869.531 7      4767.166          47.062    20962724.560   110159869.528 6      4767.166          36.937    20962728.400    85838864.409 6      3714.675          37.187
G09  20690459.860   108729106.808 7      4838.263          44.937    20690459.040   108729106.802 7      4838.263          45.937    20690466.780    84724005.228 7      3770.075          45.312    20690467.520    84724006.230 8      3770.075          49.750
G03  21871807.360   114937117.868 7       615.543          45.812    21871806.660   114937117.860 6       615.543          39.500    21871813.340    89561415.883 6       479.644          39.500    21871813.920    89561419.878 6       479.644          41.500
> 2024 07 31 12 24 46.0000000  0 12
G22  24199308.160   127168216.976 5      1063.152          34.625    24199304.600   127168216.988 2      1063.152          12.250    24199313.140    99092130.434 2       828.430          12.000
G04  20585722.040   108178699.458 7      2476.253          42.062    20585719.660   108178699.466 5      2476.253          34.000    20585726.320    84295107.165 5      1929.548          33.687    20585726.620    84295108.165 8      1929.548          50.875
G21  24591746.180   129230492.164 5       834.464          33.625    24591741.520   129230492.196 1       834.464           1.812    24591755.800   100699089.527 1       650.232           1.000
G02  23136253.300   121581812.686 6      1134.673          40.750    23136251.300   121581812.691 4      1134.673          24.562    23136258.580    94739075.557 4       884.161          24.250
R19  19687644.760   105315612.979 6      2909.273          36.375    19687643.540   105315613.005 6      2909.273          36.375    19687653.740    81912189.157 7      2262.768          44.687    19687653.900    81912190.152 7      2262.768          45.000
G17  20533025.820   107901776.281 8      3081.196          48.875    20533025.240   107901776.283 8      3081.196          48.187    20533028.900    84079313.719 8      2400.932          48.000    20533029.140    84079318.715 8      2400.932          50.250
R04  19842711.060   106256816.030 8       481.718          48.375    19842712.140   106256816.064 7       481.718          46.687    19842723.020    82644234.554 8       374.670          50.437    19842722.240    82644233.555 8       374.670          51.187
R05  19510271.920   104293583.971 7      4286.694          45.375    19510270.920   104293583.977 7      4286.694          45.812    19510281.960    81117277.644 7      3334.095          47.937    19510281.380    81117273.639 8      3334.095          48.312
G06  22852980.180   120093220.967 6      5255.188          41.687    22852981.580   120093220.977 6      5255.188          36.250    22852987.560    93579169.503 6      4094.952          36.125    22852988.460    93579179.524 7      4094.952          43.250
G19  20961819.500   110155102.488 7      4766.949          47.062    20961817.380   110155102.488 6      4766.949          37.312    20961821.180    85835149.835 6      3714.506          37.125
G09  20689539.220   108724268.512 7      4838.272          44.750    20689538.220   108724268.509 7      4838.272          45.875    20689546.160    84720235.132 7      3770.082          45.437    20689546.780    84720236.138 8      3770.082          49.750
G03  21871690.180   114936502.067 7       615.928          46.000    21871689.360   114936502.059 6       615.928          39.437    21871696.320    89560936.041 6       479.944          39.500    21871696.440    89560940.031 6       479.944          41.687
> 2024 07 31 12 24 47.0000000  0 12
G22  24199105.600   127167154.013 5      1062.714          34.625    24199102.680   127167154.029 2      1062.714          12.250    24199111.360    99091302.148 2       828.089          12.000
G04  20585251.100   108176223.877 6      2475.036          41.437    20585248.500   108176223.887 5      2475.036          34.000    20585255.180    84293178.149 5      1928.599          33.687    20585255.640    84293179.138 8      1928.599          51.312
G21  24591586.340   129229658.167 5       833.611          33.625    24591585.160   129229658.282 1       833.611           1.812    24591600.680   100698439.628 1       649.567           1.000
G02  23136037.180   121580678.400 6      1133.806          40.125    23136035.300   121580678.405 4      1133.806          24.562    23136042.660    94738191.692 4       883.485          24.250
R19  19687101.280   105312704.198 6      2908.150          36.437    19687099.220   105312704.215 6      2908.150          36.375    19687109.540    81909926.767 7      2261.895          44.375    19687110.180    81909927.768 7      2261.895          45.062
G17  20532439.580   107898695.664 8      3080.037          48.312    20532438.940   107898695.666 8      3080.037          48.062    20532442.700    84076913.242 8      2400.029          48.062    20532442.740    84076918.238 8      2400.029          50.125
R04  19842621.220   106256334.871 7       480.583          47.437    19842621.820   106256334.908 7       480.583          46.812    19842633.240    82643860.326 8       373.787          50.625    19842632.300    82643859.324 8       373.787          52.062
R05  19509469.780   104289297.917 7      4285.485          45.625    19509469.020   104289297.918 7      4285.485          45.750    19509479.900    81113944.049 8      3333.155          48.375    19509479.680    81113940.046 8      3333.155          48.187
G06  22851980.440   120087966.344 7      5254.426          42.750    22851981.580   120087966.352 6      5254.426          36.687    22851987.560    93575074.994 6      4094.358          36.500    22851988.600    93575085.012 7      4094.358          43.500
G19  20960912.480   110150336.116 8      4765.869          48.000    20960910.280   110150336.118 6      4765.869          37.000    20960914.220    85831435.783 6      3713.665          36.937
G09  20688618.940   108719430.858 7      4837.156          44.812    20688617.760   108719430.863 7      4837.156          46.000    20688625.620    84716465.544 7      3769.212          45.500    20688626.240    84716466.547 8      3769.212          50.437
G03  21871573.000   114935886.408 7       615.324          45.500    21871572.340   114935886.411 6       615.324          39.750    21871579.020    89560456.308 6       479.473          39.812    21871579.820    89560460.305 6       479.473          41.687
> 2024 07 31 12 24 48.0000000  0 12
G22  24198903.320   127166091.511 5      1062.199          35.125    24198900.480   127166091.518 2      1062.199          12.250    24198909.420    99090474.213 2       827.688          12.000
G04  20584779.840   108173749.197 6      2474.374          41.125    20584777.540   108173749.207 5      2474.374          34.125    20584784.280    84291249.825 5      1928.083          33.687    20584784.680    84291250.812 8      1928.083          51.312
G21  24591427.920   129228824.555 5       833.081          33.625    24591429.620   129228824.681 1       833.081           1.812    24591444.240   100697789.993 1       649.154           1.000
G02  23135821.680   121579544.602 6      1133.655          40.125    23135819.440   121579544.602 4      1133.655          24.562    23135827.040    94737308.205 4       883.367          24.250
R19  19686557.760   105309796.302 6      2907.349          36.437    19686555.300   105309796.330 6      2907.349          36.375    19686565.800    81907665.081 7      2261.272          44.875    19686566.500    81907666.077 7      2261.272          45.250
G17  20531853.660   107895615.913 8      3079.353          49.187    20531852.920   107895615.918 7      3079.353          47.687    20531856.560    84074513.441 7      2399.496          47.875    20531856.660    84074518.439 8      2399.496          50.250
R04  19842531.540   106255854.537 7       479.940          47.437    19842532.140   106255854.571 7       479.940          46.937    19842543.560    82643486.727 8       373.287          50.875    19842542.720    82643485.727 8       373.287          51.187
R05  19508668.180   104285012.884 7      4284.590          45.625    19508667.220   104285012.888 7      4284.590          45.812    19508678.200    81110611.256 8      3332.459          48.062    19508677.960    81110607.253 7      3332.459          47.937
G06  22850980.540   120082711.939 7      5254.375          42.750    22850981.660   120082711.944 6      5254.375          36.437    22850987.680    93570980.653 6      4094.318          36.375    22850988.580    93570990.671 7      4094.318          43.375
G19  20960005.360   110145570.613 7      4765.171          47.750    20960003.580   110145570.613 6      4765.171          36.937    20960007.420    85827722.398 6      3713.120          36.937
G09  20687698.760   108714594.034 7      4836.452          44.125    20687697.300   108714594.031 7      4836.452          46.375    20687705.180    84712696.592 7      3768.664          45.750    20687706.000    84712697.589 8      3768.664          50.187
G03  21871455.780   114935271.102 7       615.170          45.187    21871455.160   114935271.099 6       615.170          39.687    21871461.900    89559976.842 6       479.353          39.937    21871462.680    89559980.835 7       479.353          42.062
> 2024 07 31 12 24 49.0000000  0 12
G22  24198701.360   127165029.416 5      1061.634          35.125    24198698.540   127165029.428 2      1061.634          12.250    24198707.260    99089646.601 2       827.247          12.000
G04  20584308.700   108171275.465 6      2473.065          40.875    20584306.660   108171275.483 5      2473.065          34.125    20584313.700    84289322.248 5      1927.063          33.687    20584314.080    84289323.243 8      1927.063          51.000
G21  24591269.540   129227991.395 5       832.643          33.625    24591268.960   129227991.461 1       832.643           1.812    24591284.860   100697140.734 1       648.812           1.000
G02  23135605.980   121578411.433 6      1132.629          40.500    23135603.780   121578411.432 4      1132.629          24.562    23135611.400    94736425.216 4       882.568          24.250
R19  19686014.420   105306889.315 6      2906.359          36.437    19686012.480   105306889.338 6      2906.359          36.375    19686022.920    81905404.093 7      2260.501          44.562    19686023.280    81905405.090 7      2260.501          45.500
G17  20531267.760   107892537.088 8      3078.141          48.687    20531266.900   107892537.093 8      3078.141          48.187    20531270.600    84072114.354 8      2398.552          48.250    20531271.120    84072119.356 8      2398.552          50.500
R04  19842441.580   106255375.062 8       478.722          48.312    19842442.580   106255375.102 7       478.722          46.625    19842454.040    82643113.808 8       372.339          50.875    19842453.040    82643112.811 8       372.339          51.625
R05  19507866.760   104280728.899 7      4283.201          44.625    19507865.740   104280728.911 7      4283.201          45.687    19507876.700    81107279.274 7      3331.378          47.937    19507876.700    81107275.275 8      3331.378          48.250
G06  22849980.860   120077457.865 6      5253.636          41.687    22849981.840   120077457.876 6      5253.636          36.250    22849987.980    93566886.577 6      4093.742          36.375    22849988.760    93566896.598 7      4093.742          43.375
G19  20959098.720   110140806.002 7      4764.008          47.625    20959096.880   110140806.009 6      4764.008          36.562    20959100.700    85824009.719 6      3712.214          36.687
G09  20686778.160   108709758.059 7      4835.270          45.250    20686777.060   108709758.053 7      4835.270          46.062    20686785.000    84708928.298 7      3767.743          45.625    20686785.640    84708929.303 8      3767.743          49.500
G03  21871338.700   114934656.173 7       614.574          45.562    21871338.180   114934656.173 6       614.574          40.250    21871345.020    89559497.671 6       478.889          40.250    21871345.860    89559501.666 7       478.889          42.000
> 2024 07 31 12 24 50.0000000  0 12
G22  24198498.920   127163967.720 5      1061.612          35.125    24198496.560   127163967.730 2      1061.612          12.250    24198505.080    99088819.297 2       827.230          12.000
G04  20583838.420   108168802.661 6      2472.403          41.000    20583836.200   108168802.671 5      2472.403          34.000    20583843.180    84287395.385 5      1926.548          33.812    20583843.540    84287396.376 8      1926.548          51.562
G21  24591110.800   129227158.722 5       832.577          32.812    24591109.880   129227158.727 1       832.577           1.812    24591128.900   100696492.021 1       648.761           1.000
G02  23135390.440   121577278.775 6      1132.494          40.125    23135388.220   121577278.775 4      1132.494          24.562    23135395.860    94735542.619 4       882.463          24.250
R19  19685470.580   105303983.227 6      2905.883          36.437    19685469.800   105303983.250 6      2905.883          36.375    19685479.860    81903143.800 7      2260.131          44.812    19685479.960    81903144.797 7      2260.131          45.125
G17  20530682.220   107889459.111 8      3077.689          48.687    20530681.220   107889459.113 8      3077.689          48.437    20530684.960    84069715.929 8      2398.199          48.187    20530685.160    84069720.925 8      2398.199          50.250
R04  19842352.620   106254896.429 8       478.284          48.062    19842353.420   106254896.465 7       478.284          46.625    19842364.620    82642741.537 8       371.998          50.687    19842363.760    82642740.540 8       371.998          51.187
R05  19507065.460   104276445.908 7      4282.609          45.500    19507064.400   104276445.915 7      4282.609          45.750    19507075.440    81103948.061 7      3330.918          47.687    19507075.120    81103944.066 7      3330.918          47.562
G06  22848981.380   120072204.044 7      5253.880          42.562    22848982.060   120072204.057 6      5253.880          36.875    22848988.220    93562792.696 6      4093.932          36.187    22848989.240    93562802.713 7      4093.932          43.375
G19  20958192.260   110136042.259 7      4763.369          46.750    20958190.400   110136042.267 6      4763.369          37.187    20958194.300    85820297.714 6      3711.716          37.250
G09  20685858.120   108704922.858 7      4834.943          44.500    20685856.880   108704922.850 7      4834.943          46.250    20685864.900    84705160.611 7      3767.488          45.500    20685865.500    84705161.615 8      3767.488          49.750
G03  21871221.860   114934041.584 7       614.530          45.500    21871221.220   114934041.581 6       614.530          40.187    21871228.240    89559018.764 6       478.855          40.250    21871228.700    89559022.763 7       478.855          42.000
> 2024 07 31 12 24 51.0000000  0 12
G22  24198296.940   127162906.334 5      1060.959          33.750    24198294.620   127162906.344 2      1060.959          12.250    24198303.300    99087992.231 2       826.721          12.000
G04  20583368.120   108166330.561 6      2471.545          40.875    20583365.760   108166330.571 5      2471.545          34.187    20583372.800    84285469.075 5      1925.879          33.812    20583373.240    84285470.067 8      1925.879          52.000
G21  24590952.480   129226326.351 5       832.176          32.812
G02  23135174.800   121576146.518 6      1131.804          39.937    23135172.920   121576146.512 3      1131.804          23.437    23135180.480    94734660.335 4       881.925          24.250
R19  19684927.880   105301077.880 6      2904.792          36.437    19684927.200   105301077.894 6      2904.792          36.562    19684936.280    81900884.082 7      2259.283          45.437    19684936.560    81900885.078 7      2259.283          44.937
G17  20530096.640   107886381.844 8      3076.735          48.875    20530095.560   107886381.846 8      3076.735          48.187    20530099.380    84067318.062 7      2397.456          47.750    20530099.460    84067323.062 8      2397.456          50.312
R04  19842263.400   106254418.451 8       477.443          48.062    19842264.160   106254418.484 7       477.443          47.187    19842275.460    82642369.781 8       371.344          50.562    19842274.640    82642368.779 8       371.344          51.375
R05  19506264.220   104272163.805 7      4281.524          45.125    19506263.400   104272163.811 7      4281.524          45.312    19506274.100    81100617.543 8      3330.074          48.250    19506273.980    81100613.545 8      3330.074          48.500
G06  22847981.540   120066950.346 7      5253.458          42.375    22847982.240   120066950.353 6      5253.458          36.750    22847988.440    93558698.908 6      4093.604          37.062    22847989.240    93558708.926 7      4093.604          43.375
G19  20957285.740   110131279.184 8      4762.564          48.187    20957284.100   110131279.187 6      4762.564          37.187    20957288.040    85816586.228 6      3711.089          37.187
G09  20684938.400   108700088.313 7      4834.041          45.000    20684936.980   108700088.310 7      4834.041          46.000    20684945.020    84701393.443 7      3766.785          45.625    20684945.540    84701394.450 8      3766.785          50.062
G03  21871104.860   114933427.162 7       614.135          46.250    21871104.360   114933427.154 6       614.135          40.000    21871111.240    89558539.990 6       478.547          40.187    21871112.200    89558543.983 7       478.547          42.562
> 2024 07 31 12 24 52.0000000  0 12
G22  24198095.680   127161845.340 5      1060.930          33.750    24198092.420   127161845.352 2      1060.930          12.250    24198101.640    99087165.478 2       826.698          12.000
G04  20582897.540   108163859.438 6      2470.754          41.000    20582895.500   108163859.443 5      2470.754          34.187    20582902.720    84283543.523 5      1925.263          33.937    20582903.360    84283544.519 8      1925.263          51.812
G21  24590795.460   129225494.421 5       831.844          32.812    24590791.400   129225494.447 1       831.844           3.000    24590792.560   100695187.882 1       648.190           1.000
G02  23134959.440   121575014.804 6      1131.519          39.937    23134957.540   121575014.795 3      1131.519          23.437    23134965.080    94733778.473 4       881.703          24.250
R19  19684384.640   105298173.437 6      2904.136          36.437    19684383.660   105298173.457 6      2904.136          36.562    19684393.320    81898625.074 7      2258.772          44.687    19684393.740    81898626.071 7      2258.772          45.000
G17  20529510.940   107883305.499 8      3076.053          48.937    20529510.100   107883305.496 8      3076.053          48.750    20529513.920    84064920.906 8      2396.925          48.250    20529514.200    84064925.904 8      2396.925          49.812
R04  19842174.360   106253941.356 8       476.751          49.062    19842175.160   106253941.390 7       476.751          47.562    19842186.380    82641998.703 8       370.806          50.687    19842185.620    82641997.706 8       370.806          51.687
R05  19505463.680   104267882.808 7      4280.606          46.625    19505462.820   104267882.815 7      4280.606          46.500    19505473.100    81097287.880 8      3329.360          48.062    19505473.140    81097283.883 8      3329.360          48.187
G06  22846981.860   120061696.968 7      5253.297          43.437    22846982.500   120061696.981 6      5253.297          37.000    22846988.900    93554605.375 6      4093.478          36.562    22846989.580    93554615.389 7      4093.478          43.625
G19  20956379.600   110126517.032 8      4761.818          48.125    20956377.800   110126517.039 6      4761.818          37.000    20956381.820    85812875.463 6      3710.508          37.187
G09  20684018.480   108695254.623 7      4833.394          45.250    20684017.300   108695254.620 7      4833.394          46.687    20684025.000    84697626.936 7      3766.281          45.875    20684025.400    84697627.939 8      3766.281          49.937
G03  21870987.760   114932813.130 7       614.012          46.125    21870987.580   114932813.127 6       614.012          40.187    21870994.420    89558061.519 6       478.451          40.375    21870995.760    89558065.510 7       478.451          42.500
> 2024 07 31 12 24 53.0000000  0 12
G22  24197893.740   127160784.519 5      1060.787          33.750    24197890.840   127160784.534 2      1060.787          12.250    24197900.000    99086338.852 2       826.587          12.000
G04  20582427.680   108161389.020 6      2469.983          40.625    20582425.260   108161389.027 5      2469.983          34.562    20582432.400    84281618.526 5      1924.662          34.187    20582433.100    84281619.519 8      1924.662          52.125
G21  24590635.100   129224658.368 5       847.641          32.812    24590629.840   129224658.468 1       847.641           1.500    24590634.320   100694536.480 1       660.500           1.000
G02  23134743.720   121573883.450 6      1131.134          39.937    23134742.240   121573883.439 3      1131.134          23.437    23134749.780    94732896.889 3       881.403          23.187
R19  19683841.520   105295269.665 6      2903.455          36.750    19683840.020   105295269.682 6      2903.455          36.562    19683850.520    81896366.583 7      2258.243          44.750    19683850.980    81896367.580 7      2258.243          45.187
G17  20528925.780   107880229.819 8      3075.373          49.250    20528924.800   107880229.818 8      3075.373          49.000    20528928.620    84062524.276 8      2396.394          48.250    20528928.900    84062529.278 8      2396.394          50.375
R04  19842085.440   106253464.846 8       476.188          49.312    19842086.260   106253464.874 8       476.188          48.062    19842097.200    82641628.078 8       370.369          50.812    19842096.400    82641627.080 8       370.369          50.750
R05  19504662.920   104263602.656 7      4279.697          46.875    19504662.040   104263602.662 7      4279.697          46.375    19504672.220    81093958.877 8      3328.653          48.062    19504672.440    81093954.880 7      3328.653          47.500
G06  22845981.820   120056443.654 7      5253.253          42.875    22845982.860   120056443.669 6      5253.253          36.812    22845989.120    93550511.883 6      4093.444          36.875    22845990.220    93550521.891 7      4093.444          43.250
G19  20955473.760   110121755.539 8      4761.159          48.125    20955471.760   110121755.546 6      4761.159          37.125    20955475.640    85809165.211 6      3709.994          36.937
G09  20683099.020   108690421.549 7      4832.796          45.687    20683097.560   108690421.548 7      4832.796          46.750    20683105.280    84693860.908 7      3765.815          46.062    20683105.700    84693861.915 8      3765.815          49.812
G03  21870871.100   114932199.218 7       613.894          46.250    21870870.640   114932199.218 6       613.894          40.687    21870877.680    89557583.155 6       478.359          41.000    21870878.800    89557587.147 7       478.359          42.625
> 2024 07 31 12 24 54.0000000  0 12
G22  24197691.360   127159724.029 5      1060.028          33.750    24197688.980   127159724.047 2      1060.028          12.250    24197698.400    99085512.490 2       825.996          12.000
G04  20581957.680   108158919.355 6      2469.292          40.687    20581955.360   108158919.363 5      2469.292          34.562    20581962.640    84279694.112 5      1924.123          34.187    20581963.240    84279695.103 8      1924.123          52.062
G21  24590476.920   129223826.861 5       830.917          32.812    24590474.180   129223826.919 1       830.917           2.437    24590471.500   100693888.522 1       647.468           1.500
G02  23134528.460   121572752.469 6      1130.857          39.687    23134527.020   121572752.458 3      1130.857          23.437    23134534.780    94732015.601 3       881.187          23.187
R19  19683298.680   105292366.655 6      2902.598          36.750    19683297.960   105292366.673 6      2902.598          36.562    19683307.800    81894108.676 7      2257.577          44.937    19683308.280    81894109.675 7      2257.577          44.187
G17  20528340.720   107877154.866 8      3074.599          48.750    20528339.620   107877154.871 8      3074.599          48.312    20528343.440    84060128.211 8      2395.791          48.250    20528343.720    84060133.213 8      2395.791          50.562
R04  19841996.360   106252989.023 8       475.347          48.375    19841997.180   106252989.054 7       475.347          47.562    19842008.400    82641258.002 8       369.714          50.500    19842007.560    82641257.007 8       369.714          50.875
R05  19503862.580   104259323.393 7      4278.856          46.375    19503861.640   104259323.384 7      4278.856          45.625    19503871.380    81090630.556 8      3327.999          48.000    19503871.820    81090626.557 7      3327.999          47.687
G06  22844982.260   120051190.479 7      5253.036          42.875    22844983.160   120051190.489 6      5253.036          37.250    22844989.520    93546418.494 6      4093.275          36.875    22844990.540    93546428.498 7      4093.275          43.562
G19  20954567.680   110116994.750 8      4760.506          48.062    20954565.660   110116994.758 6      4760.506          36.937    20954569.860    85805455.503 6      3709.485          37.187
G09  20682179.340   108685589.126 7      4832.077          46.125    20682178.220   108685589.128 7      4832.077          46.625    20682185.660    84690095.394 7      3765.255          46.062    20682186.400    84690096.401 8      3765.255          50.000
G03  21870754.500   114931585.517 7       613.631          46.250    21870753.880   114931585.516 6       613.631          40.312    21870760.880    89557104.944 6       478.154          40.562    21870762.140    89557108.932 7       478.154          42.625
> 2024 07 31 12 24 55.0000000  0 12
G22  24197488.800   127158663.410 5      1060.458          33.937    24197487.380   127158663.434 2      1060.458          13.125    24197496.680    99084686.024 2       826.331          13.125
G04  20581487.560   108156450.138 6      2468.902          40.750    20581485.580   108156450.142 5      2468.902          34.125    20581492.980    84277770.044 5      1923.820          33.687    20581493.320    84277771.050 8      1923.820          51.937
G21  24590318.500   129222996.003 5       831.173          31.375    24590340.220   129222996.179 1       831.173           1.062    24590333.540   100693241.385 1       647.668           1.000
G02  23134313.080   121571621.609 6      1130.613          39.062    23134311.760   121571621.595 3      1130.613          23.437    23134319.640    94731134.401 3       880.997          23.187
R19  19682756.300   105289464.063 6      2902.184          36.750    19682755.360   105289464.059 6      2902.184          36.562    19682765.040    81891851.103 7      2257.254          44.500    19682765.460    81891852.104 7      2257.254          44.937
G17  20527755.900   107874080.321 8      3074.270          48.562    20527754.500   107874080.320 7      3074.270          47.687    20527758.520    84057732.460 7      2395.535          47.750    20527758.880    84057737.462 8      2395.535          50.062
R04  19841907.660   106252513.565 7       475.115          47.875    19841908.560   106252513.599 7       475.115          47.125    19841919.560    82640888.201 8       369.534          50.875    19841918.740    82640887.208 8       369.534          50.687
R05  19503062.240   104255044.676 7      4278.355          45.562    19503060.940   104255044.667 7      4278.355          45.437    19503070.780    81087302.665 7      3327.609          47.875    19503071.240    81087298.670 7      3327.609          47.125
G06  22843982.680   120045937.101 7      5253.282          42.812    22843983.460   120045937.106 6      5253.282          36.875    22843989.820    93542324.953 6      4093.467          36.750    22843990.620    93542334.963 7      4093.467          43.562
G19  20953661.840   110112234.376 7      4760.009          47.500    20953659.980   110112234.389 6      4760.009          36.562    20953663.960    85801746.123 6      3709.098          36.437
G09  20681259.940   108680757.068 7      4831.790          45.812    20681258.760   108680757.070 7      4831.790          46.562    20681266.160    84686330.154 7      3765.031          46.250    20681267.000    84686331.161 8      3765.031          49.437
G03  21870637.880   114930971.692 7       613.783          46.125    21870637.160   114930971.694 6       613.783          40.750    21870644.040    89556626.637 6       478.273          41.125    21870645.100    89556630.631 7       478.273          42.812
> 2024 07 31 12 24 56.0000000  0 12
G22  24197285.940   127157603.265 5      1059.869          33.937    24197285.480   127157603.288 2      1059.869          13.125    24197295.060    99083859.930 2       825.872          13.125
G04  20581018.260   108153981.897 6      2467.867          41.562    20581015.780   108153981.902 5      2467.867          34.187    20581023.240    84275846.742 5      1923.013          33.687    20581023.820    84275847.740 8      1923.013          51.625
G21  24590160.100   129222165.111 5       830.562          31.375    24590185.540   129222165.345 1       830.562           1.000    24590159.300   100692593.955 1       647.191           1.000
G02  23134097.980   121570491.277 6      1130.020          39.187    23134096.420   121570491.261 3      1130.020          23.437    23134104.620    94730253.617 3       880.535          23.187
R19  19682214.220   105286562.383 6      2901.237          36.750    19682213.300   105286562.381 6      2901.237          36.562    19682222.800    81889594.240 7      2256.517          44.812    19682223.100    81889595.243 7      2256.517          44.437
G17  20527170.660   107871006.708 8      3073.194          48.937    20527169.540   107871006.711 7      3073.194          47.812    20527173.560    84055337.443 7      2394.697          47.500    20527173.780    84055342.447 8      2394.697          50.062
R04  19841819.200   106252039.001 8       474.226          48.250    19841819.920   106252039.029 7       474.226          47.250    19841830.860    82640519.091 8       368.842          50.062    19841830.260    82640518.094 8       368.842          50.687
R05  19502261.900   104250767.047 7      4277.184          45.875    19502260.860   104250767.038 7      4277.184          45.125    19502270.640    81083975.626 7      3326.698          47.437    19502270.880    81083971.627 7      3326.698          47.500
G06  22842983.120   120040684.060 6      5252.830          41.812    22842983.680   120040684.065 6      5252.830          37.250    22842990.020    93538231.676 6      4093.115          36.875    22842990.640    93538241.690 7      4093.115          43.562
G19  20952756.140   110107474.909 7      4759.040          47.125    20952754.240   110107474.914 6      4759.040          36.875    20952758.420    85798037.450 6      3708.343          37.125
G09  20680340.560   108675925.899 7      4830.759          45.437    20680339.460   108675925.893 7      4830.759          46.375    20680346.820    84682565.604 7      3764.228          45.875    20680347.380    84682566.610 8      3764.228          49.375
G03  21870521.320   114930358.274 7       613.239          45.000    21870520.400   114930358.274 6       613.239          40.187    21870527.380    89556148.653 6       477.848          40.437    21870528.560    89556152.644 7       477.848          43.062
> 2024 07 31 12 24 57.0000000  0 12
G22  24197085.160   127156543.374 5      1059.708          33.937    24197084.080   127156543.405 2      1059.708          13.125    24197093.140    99083034.039 2       825.746          13.125
G04  20580548.320   108151514.380 6      2467.294          41.437    20580546.360   108151514.387 5      2467.294          34.187    20580553.680    84273924.005 5      1922.566          33.875    20580554.200    84273925.013 8      1922.566          51.687
G21  24590003.640   129221334.474 5       830.451          31.375    24590010.840   129221334.660 1       830.451           1.000
G02  23133883.060   121569361.347 6      1129.824          39.187    23133881.460   121569361.334 3      1129.824          23.437    23133889.420    94729373.148 3       880.383          23.187
R19  19681671.400   105283661.425 6      2900.699          36.750    19681670.680   105283661.434 6      2900.699          36.937    19681680.580    81887337.950 7      2256.100          44.312    19681681.000    81887338.953 7      2256.100          44.125
G17  20526586.000   107867933.800 8      3072.663          49.000    20526584.720   107867933.800 7      3072.663          46.937    20526588.820    84052942.967 7      2394.283          46.875    20526589.060    84052947.971 8      2394.283          50.437
R04  19841730.340   106251565.068 7       473.718          47.625    19841731.580   106251565.108 7       473.718          46.812    19841742.500    82640150.486 8       368.448          48.500    19841741.620    82640149.488 8       368.448          48.375
R05  19501461.720   104246490.255 7      4276.512          45.000    19501460.480   104246490.251 7      4276.512          45.250    19501470.740    81080649.240 7      3326.176          46.500    19501470.920    81080645.239 7      3326.176          47.062
G06  22841983.580   120035431.108 7      5253.111          42.625    22841983.960   120035431.110 6      5253.111          37.187    22841990.480    93534138.467 6      4093.333          36.687    22841991.280    93534148.467 7      4093.333          43.562
G19  20951850.700   110102716.141 7      4758.565          47.750    20951848.760   110102716.143 6      4758.565          36.875    20951852.880    85794329.312 6      3707.973          36.875
G09  20679421.300   108671095.336 7      4830.352          45.937    20679420.340   108671095.328 7      4830.352          46.625    20679427.540    84678801.533 7      3763.911          45.875    20679428.220    84678802.539 8      3763.911          49.437
G03  21870404.460   114929745.017 7       613.269          44.812    21870403.640   114929745.014 6       613.269          40.562    21870410.700    89555670.786 6       477.872          40.625    21870412.240    89555674.774 7       477.872          42.687
> 2024 07 31 12 24 58.0000000  0 12
G22  24196884.420   127155483.696 5      1059.297          33.937    24196882.660   127155483.722 2      1059.297          13.125    24196891.600    99082208.312 2       825.426          13.125
G04  20580079.120   108149047.585 6      2466.340          41.500    20580077.080   108149047.600 5      2466.340          34.125    20580084.360    84272001.838 5      1921.824          33.750    20580084.840    84272002.837 8      1921.824          52.437
G21  24589845.220   129220504.050 5       830.200          31.375
G02  23133667.680   121568231.743 6      1129.272          38.937    23133666.520   121568231.724 3      1129.272          23.437    23133674.420    94728492.931 3       879.952          23.187
R19  19681129.240   105280761.141 6      2899.783          37.125    19681127.900   105280761.155 6      2899.783          36.937    19681138.000    81885082.182 7      2255.387          44.625    19681138.640    81885083.191 7      2255.387          44.437
G17  20526001.360   107864861.559 8      3071.754          48.875    20525999.980   107864861.559 8      3071.754          48.125    20526004.160    84050549.013 8      2393.574          48.000    20526004.400    84050554.019 8      2393.574          50.875
R04  19841641.640   106251091.755 8       472.912          48.250    19841643.180   106251091.789 7       472.912          46.125    19841654.060    82639782.353 8       367.820          50.375    19841653.280    82639781.355 8       367.820          50.937
R05  19500661.960   104242214.293 7      4275.437          45.687    19500660.500   104242214.289 7      4275.437          45.125    19500670.560    81077323.495 7      3325.340          47.500    19500670.920    81077319.487 7      3325.340          47.312
G06  22840983.920   120030178.248 7      5252.612          42.437    22840984.280   120030178.256 6      5252.612          37.500    22840990.920    93530045.333 6      4092.944          37.312    22840991.980    93530055.352 7      4092.944          43.562
G19  20950945.000   110097958.019 7      4757.653          47.437    20950943.300   110097958.029 6      4757.653          37.000    20950947.360    85790621.689 6      3707.262          36.875
G09  20678502.100   108666265.401 7      4829.445          46.187    20678501.500   108666265.398 7      4829.445          46.750    20678508.580    84675037.956 7      3763.204          46.375    20678509.180    84675038.964 8      3763.204          49.750
G03  21870287.900   114929131.904 7       612.843          45.125    21870286.960   114929131.903 6       612.843          40.812    21870294.180    89555193.034 6       477.540          41.000    21870295.400    89555197.024 7       477.540          42.687
> 2024 07 31 12 24 59.0000000  0 12
G22  24196682.460   127154424.415 5      1058.994          33.937    24196681.240   127154424.433 2      1058.994          13.125    24196690.260    99081382.888 2       825.190          13.125
G04  20579610.080   108146581.678 6      2465.686          41.875    20579607.900   108146581.690 5      2465.686          34.125    20579615.200    84270080.346 5      1921.314          33.750    20579615.540    84270081.351 8      1921.314          51.687
G21  24589687.860   129219674.109 5       830.044          31.375                                                                    24589689.500   100690652.480 1       646.788           1.000
G02  23133453.300   121567102.712 6      1128.776          38.812    23133451.540   121567102.696 3      1128.776          23.437    23133459.660    94727613.164 3       879.566          23.187
R19  19680587.400   105277861.747 6      2898.849          37.125    19680586.600   105277861.762 6      2898.849          36.937    19680596.080    81882827.102 7      2254.661          44.875    19680596.200    81882828.105 7      2254.661          44.750
G17  20525416.700   107861790.185 8      3071.037          48.625    20525415.580   107861790.182 7      3071.037          47.875    20525419.680    84048155.733 7      2393.016          47.437    20525419.980    84048160.733 8      2393.016          50.687
R04  19841553.280   106250619.292 8       472.127          48.312    19841555.020   106250619.329 7       472.127          47.125    19841565.880    82639414.882 8       367.210          50.750    19841565.060    82639413.883 8       367.210          51.187
R05  19499862.400   104237939.337 7      4274.564          45.750    19499860.880   104237939.325 7      4274.564          45.437    19499870.860    81073998.529 8      3324.661          48.000    19499871.280    81073994.521 7      3324.661          47.375
G06  22839984.620   120024925.627 6      5252.667          41.812    22839984.740   120024925.638 6      5252.667          37.937    22839991.220    93525952.384 6      4092.987          37.875    22839992.160    93525962.398 7      4092.987          43.562
G19  20950039.860   110093200.772 7      4756.896          47.500    20950037.980   110093200.779 6      4756.896          36.687    20950042.180    85786914.741 6      3706.672          37.250
G09  20677583.000   108661436.258 7      4828.830          46.187    20677582.520   108661436.260 7      4828.830          46.750    20677589.580    84671274.989 7      3762.725          46.250    20677590.220    84671276.001 8      3762.725          50.062
G03  21870171.260   114928519.109 7       612.692          45.500    21870170.320   114928519.108 6       612.692          40.500    21870177.600    89554715.531 6       477.422          40.437    21870179.240    89554719.524 7       477.422          43.250
> 2024 07 31 12 25  0.0000000  0 12
G22  24196481.380   127153365.588 5      1058.721          33.125    24196479.800   127153365.606 2      1058.721          13.125    24196488.820    99080557.822 2       824.978          13.125
G04  20579140.660   108144116.732 6      2464.815          41.875    20579138.760   108144116.750 5      2464.815          34.187    20579146.080    84268159.615 5      1920.635          34.000    20579146.420    84268160.617 8      1920.635          52.250
G21  24589530.440   129218844.775 5       828.849          31.375    24589516.760   129218844.701 1       828.849           1.000    24589513.180   100690005.715 1       645.856           1.000
G02  23133238.340   121565974.164 6      1128.784          38.812    23133236.580   121565974.148 3      1128.784          21.875    23133244.960    94726733.770 3       879.572          23.187
R19  19680045.720   105274963.242 6      2898.272          37.125    19680043.840   105274963.265 6      2898.272          36.937    19680054.320    81880572.715 7      2254.212          45.312    19680054.620    81880573.725 7      2254.212          44.875
G17  20524832.460   107858719.710 8      3070.257          48.500    20524831.320   107858719.710 7      3070.257          47.937    20524835.360    84045763.157 7      2392.408          47.437    20524835.840    84045768.159 8      2392.408          50.562
R04  19841465.520   106250147.703 7       471.448          47.750    19841467.100   106250147.737 7       471.448          47.000    19841477.740    82639048.084 8       366.681          50.062    19841477.240    82639047.087 8       366.681          51.437
R05  19499062.880   104233665.468 7      4273.602          46.187    19499061.260   104233665.459 7      4273.602          45.250    19499071.320    81070674.407 7      3323.912          47.875    19499071.500    81070670.399 7      3323.912          47.437
G06  22838984.800   120019673.361 7      5252.358          42.125    22838985.160   120019673.372 6      5252.358          37.625    22838991.620    93521859.709 6      4092.747          37.125    22838993.120    93521869.713 7      4092.747          43.312
G19  20949134.700   110088444.418 8      4756.064          48.187    20949132.960   110088444.428 6      4756.064          37.125    20949137.120    85783208.498 6      3706.024          36.937
G09  20676664.460   108656607.978 7      4828.032          46.812    20676663.920   108656607.983 7      4828.032          47.000    20676670.720    84667512.700 7      3762.103          46.250    20676671.720    84667513.707 8      3762.103          49.750
G03  21870054.700   114927906.700 7       612.394          46.000    21870053.720   114927906.700 6       612.394          40.687    21870061.140    89554238.325 6       477.190          40.875    21870061.940    89554242.310 7       477.190          43.187
> 2024 07 31 12 25  1.0000000  0 12
G22  24196280.720   127152306.990 5      1058.374          33.125    24196278.500   127152307.006 2      1058.374          13.125    24196287.740    99079732.928 2       824.707          13.125
G04  20578671.900   108141652.559 6      2463.663          41.937    20578669.800   108141652.577 5      2463.663          34.187    20578677.160    84266239.485 5      1919.738          34.062    20578677.480    84266240.484 8      1919.738          52.687
G21  24589372.140   129218015.525 5       828.855          30.812    24589372.800   129218015.696 1       828.855           1.000
G02  23133023.640   121564846.102 6      1127.926          38.187    23133021.980   121564846.084 3      1127.926          21.875    23133030.340    94725854.753 3       878.904          23.187
R19  19679504.000   105272065.493 6      2897.391          37.125    19679502.460   105272065.492 6      2897.391          36.937    19679512.540    81878318.884 7      2253.526          45.187    19679512.920    81878319.887 7      2253.526          44.875
G17  20524248.420   107855649.942 8      3069.423          48.562    20524247.040   107855649.942 8      3069.423          48.312    20524251.220    84043371.130 8      2391.758          48.062    20524251.580    84043376.132 8      2391.758          50.812
R04  19841377.400   106249676.764 8       470.683          48.250    19841379.500   106249676.795 7       470.683          46.750    19841389.760    82638681.790 8       366.087          50.812    19841389.180    82638680.795 8       366.087          51.187
R05  19498263.860   104229392.495 7      4272.445          46.000    19498261.720   104229392.481 7      4272.445          45.437    19498272.060    81067350.983 7      3323.013          47.437    19498272.420    81067346.976 7      3323.013          47.062
G06  22837985.000   120014421.174 7      5252.174          42.000    22837985.560   120014421.179 6      5252.174          37.500    22837992.200    93517767.098 6      4092.603          37.250    22837993.320    93517777.098 7      4092.603          43.812
G19  20948229.660   110083688.737 7      4755.401          47.875    20948227.860   110083688.747 6      4755.401          37.250    20948232.220    85779502.770 6      3705.507          37.250
G09  20675745.720   108651780.335 7      4827.260          46.312    20675745.360   108651780.334 7      4827.260          47.312    20675752.060    84663750.895 7      3761.501          46.625    20675752.880    84663751.903 8      3761.501          49.687
G03  21869938.100   114927294.462 7       612.096          45.375    21869937.200   114927294.464 6       612.096          40.812    21869944.720    89553761.255 6       476.958          40.875    21869945.600    89553765.249 7       476.958          43.250
> 2024 07 31 12 25  2.0000000  0 12
G22  24196079.580   127151248.618 5      1058.343          33.125    24196077.540   127151248.631 2      1058.343          13.125    24196086.780    99078908.215 2       824.683          13.125
G04  20578202.780   108139189.091 6      2463.185          41.875    20578201.200   108139189.109 5      2463.185          34.625    20578208.540    84264319.899 5      1919.365          34.062    20578208.720    84264320.904 8      1919.365          52.250
G21  24589213.980   129217186.646 5       828.727          30.812    24589215.500   129217186.643 1       828.727           1.000    24589209.840   100688713.595 1       645.761           1.000
G02  23132809.000   121563718.364 6      1127.712          38.312    23132807.480   121563718.345 3      1127.712          21.875    23132815.860    94724975.989 3       878.737          23.187
R19  19678963.260   105269168.406 6      2896.983          37.125    19678959.900   105269168.415 6      2896.983          36.937    19678971.000    81876065.606 7      2253.209          44.875    19678971.220    81876066.613 7      2253.209          45.062
G17  20523664.220   107852580.907 8      3068.719          48.187    20523662.880   107852580.906 8      3068.719          48.312    20523667.160    84040979.680 7      2391.210          47.812    20523667.740    84040984.682 8      2391.210          50.937
R04  19841289.240   106249206.524 8       469.987          48.437    19841292.120   106249206.558 7       469.987          46.937    19841302.200    82638316.052 8       365.545          50.625    19841301.120    82638315.053 8       365.545          51.187
R05  19497464.380   104225120.375 7      4271.835          45.625    19497463.120   104225120.365 7      4271.835          45.437    19497473.260    81064028.227 7      3322.538          47.750    19497473.100    81064024.219 8      3322.538          48.062
G06  22836985.700   120009169.129 7      5252.133          42.250    22836986.140   120009169.136 6      5252.133          37.625    22836992.820    93513674.591 6      4092.571          37.562    22836994.000    93513684.593 7      4092.571          44.000
G19  20947324.680   110078933.802 8      4754.666          48.062    20947323.120   110078933.810 6      4754.666          36.687    20947327.420    85775797.626 6      3704.935          37.187
G09  20674827.240   108646953.351 7      4826.797          47.250    20674826.860   108646953.351 7      4826.797          47.375    20674833.540    84659989.609 7      3761.141          46.875    20674834.400    84659990.623 8      3761.141          49.937
G03  21869821.740   114926682.416 7       612.082          45.000    21869820.680   114926682.413 6       612.082          40.437    21869828.240    89553284.332 6       476.947          40.750    21869829.020    89553288.328 7       476.947          43.562
> 2024 07 31 12 25  3.0000000  0 12
G22  24195878.280   127150190.467 5      1057.795          33.125    24195876.620   127150190.477 2      1057.795          13.125    24195885.720    99078083.673 2       824.256          13.125
G04  20577734.260   108136726.373 7      2462.336          42.250    20577732.600   108136726.386 5      2462.336          34.937    20577740.040    84262400.896 5      1918.703          34.375    20577740.140    84262401.895 8      1918.703          52.250
G21  24589056.800   129216358.008 5       828.226          30.812    24589060.180   129216358.113 1       828.226           1.000    24589044.080   100688068.067 1       645.371           1.000
G02  23132594.580   121562590.975 6      1127.325          38.312    23132592.980   121562590.953 3      1127.325          21.875    23132601.120    94724097.500 3       878.435          21.187
R19  19678421.680   105266272.064 6      2896.064          37.125    19678420.000   105266272.047 6      2896.064          36.187    19678429.700    81873812.887 7      2252.494          44.812    19678430.060    81873813.891 7      2252.494          44.937
G17  20523080.440   107849512.544 7      3067.905          47.250    20523078.860   107849512.541 7      3067.905          47.875    20523083.320    84038588.744 7      2390.575          47.500    20523083.860    84038593.748 8      2390.575          51.187
R04  19841201.640   106248736.887 8       469.293          48.625    19841204.620   106248736.923 7       469.293          47.125    19841214.500    82637950.785 8       365.005          50.625    19841213.460    82637949.787 8       365.005          51.062
R05  19496665.120   104220849.139 7      4270.728          46.250    19496663.780   104220849.124 7      4270.728          45.937    19496674.260    81060706.161 7      3321.678          47.500    19496674.440    81060702.149 7      3321.678          47.875
G06  22835986.320   120003917.168 6      5251.791          41.750    22835986.760   120003917.175 6      5251.791          38.500    22835993.220    93509582.154 6      4092.305          38.312    22835994.520    93509592.151 7      4092.305          43.937
G19  20946420.120   110074179.506 7      4753.994          47.500    20946418.420   110074179.511 6      4753.994          36.937    20946422.880    85772092.978 6      3704.411          37.062
G09  20673908.600   108642127.000 7      4825.929          46.062    20673908.420   108642127.005 7      4825.929          46.937    20673915.000    84656228.823 7      3760.464          46.625    20673915.820    84656229.834 8      3760.464          49.562
G03  21869705.020   114926070.512 7       611.801          45.250    21869704.240   114926070.509 6       611.801          40.625    21869711.740    89552807.521 6       476.728          41.187    21869712.800    89552811.512 7       476.728          43.375
> 2024 07 31 12 25  4.0000000  0 12
G22  24195675.720   127149132.828 5      1057.108          33.875    24195675.800   127149132.838 2      1057.108          13.125    24195684.400    99077259.531 2       823.720          13.125
G04  20577265.560   108134264.686 7      2460.842          42.750    20577264.440   108134264.696 5      2460.842          34.937    20577271.520    84260482.700 5      1917.539          34.312    20577271.680    84260483.702 8      1917.539          51.687
G21  24588900.520   129215529.922 5       827.749          30.812    24588890.900   129215530.035 1       827.749           1.000    24588885.160   100687422.738 1       644.999           1.000
G02  23132380.380   121561464.290 6      1125.991          37.625    23132378.640   121561464.266 3      1125.991          21.875    23132386.640    94723219.562 3       877.396          21.187
R19  19677880.620   105263376.696 6      2894.581          36.500    19677878.940   105263376.708 6      2894.581          36.187    19677888.440    81871560.943 7      2251.340          45.375    19677888.760    81871561.948 7      2251.340          45.625
G17  20522496.860   107846445.169 7      3066.664          47.687    20522495.200   107846445.164 8      3066.664          48.062    20522499.580    84036198.580 7      2389.609          47.625    20522500.300    84036203.580 8      2389.609          50.250
R04  19841114.500   106248268.202 8       467.912          48.000    19841116.920   106248268.239 7       467.912          47.000    19841126.680    82637586.254 8       363.931          50.437    19841125.840    82637585.255 8       363.931          51.125
R05  19495866.260   104216579.031 7      4269.342          46.187    19495864.840   104216579.022 7      4269.342          45.812    19495875.360    81057384.974 8      3320.600          48.187    19495875.760    81057380.966 7      3320.600          47.562
G06  22834987.080   119998665.590 6      5251.175          41.437    22834987.140   119998665.597 6      5251.175          38.062    22834993.980    93505490.015 6      4091.825          38.000    22834995.340    93505500.011 7      4091.825          44.062
G19  20945515.680   110069426.214 8      4752.595          48.187    20945514.120   110069426.216 6      4752.595          37.000    20945518.180    85768389.120 6      3703.321          37.125
G09  20672990.320   108637301.548 7      4824.889          47.125    20672990.300   108637301.548 7      4824.889          47.500    20672996.700    84652468.736 7      3759.653          47.000    20672997.680    84652469.746 8      3759.653          49.500
G03  21869588.520   114925459.089 7       610.991          44.500    21869587.860   114925459.088 6       610.991          41.125    21869595.720    89552331.085 6       476.097          41.000    21869596.960    89552335.078 7       476.097          44.000
> 2024 07 31 12 25  5.0000000  0 12
G22  24195473.640   127148075.526 5      1057.382          33.875    24195474.920   127148075.538 2      1057.382          13.125    24195483.180    99076435.650 2       823.934          13.125
G04  20576797.660   108131803.806 7      2460.441          43.187    20576796.180   108131803.816 5      2460.441          34.812    20576803.280    84258565.135 5      1917.226          34.312    20576803.280    84258566.143 8      1917.226          52.062
G21  24588742.380   129214702.246 5       827.166          30.812    24588746.180   129214702.369 1       827.166           1.000    24588722.980   100686777.789 1       644.545           1.000
G02  23132165.460   121560338.023 6      1125.961          37.625    23132164.380   121560337.999 3      1125.961          21.875    23132172.260    94722341.947 3       877.372          21.187
R19  19677339.320   105260482.141 6      2894.163          36.500    19677337.820   105260482.140 6      2894.163          36.187    19677347.480    81869309.618 7      2251.016          45.375    19677347.900    81869310.621 7      2251.016          44.562
G17  20521913.220   107843378.609 7      3066.137          47.687    20521911.460   107843378.606 7      3066.137          47.687    20521916.040    84033809.052 7      2389.198          47.375    20521916.620    84033814.052 8      2389.198          50.500
R04  19841026.980   106247800.260 8       467.551          48.062    19841029.540   106247800.296 7       467.551          47.062    19841039.540    82637222.297 8       363.651          50.687    19841038.660    82637221.297 8       363.651          50.937
R05  19495067.680   104212309.891 7      4268.700          46.562    19495066.220   104212309.878 7      4268.700          46.000    19495077.100    81054064.531 7      3320.100          47.875    19495076.840    81054060.524 8      3320.100          48.000
G06  22833987.540   119993414.215 6      5251.344          41.250    22833987.860   119993414.222 6      5251.344          37.875    22833994.660    93501398.034 6      4091.956          37.750    22833995.940    93501408.026 7      4091.956          44.187
G19  20944611.140   110064673.717 8      4752.032          48.125    20944609.760   110064673.722 6      4752.032          37.625    20944613.920    85764685.880 6      3702.882          37.562
G09  20672072.220   108632476.887 7      4824.229          46.750    20672072.280   108632476.887 7      4824.229          47.125    20672078.620    84648709.264 7      3759.139          46.562    20672079.340    84648710.276 8      3759.139          49.750
G03  21869472.640   114924847.923 7       610.965          44.812    21869471.620   114924847.922 6       610.965          41.437    21869479.640    89551854.854 6       476.077          41.437    21869480.900    89551858.853 7       476.077          44.000
