     3.05           OBSERVATION DATA    MIXED               RINEX VERSION / TYPE
TPS2RIN 1.0.29.3920 TPS-USER            20240801 093646 UTC PGM / RUN BY / DATE
Win64 build Feb 23, 2024 (c) Topcon Positioning Systems     COMMENT
SRC: 20240731_CAMI8.tps                                     COMMENT
OPT: -S -v 3.05                                             COMMENT
Observer            Agency                                  OBSERVER / AGENCY
O0M3X53SBGM         TPS HIPER_SR        4.8 HSR Jul,08,2022 REC # / TYPE / VERS
FW: 4.8 HSR Jul,08,2022 p3                                  COMMENT
SN: HiPer SR 1212-12575                                     COMMENT
000                 TPSHIPER_SR     NONE                    ANT # / TYPE
        1.8000        0.0000        0.0000                  ANTENNA: DELTA H/E/N
CAMI8                                                       MARKER NAME
  5390769.5334 -1598126.4192  3005650.2096                  APPROX POSITION XYZ
  2024     7    31    15    18   58.0000000     GPS         TIME OF FIRST OBS
  2024     7    31    15    33   58.0000000     GPS         TIME OF LAST OBS
     1.000                                                  INTERVAL
   901 EPOCHS                                               COMMENT
G   16 C1C L1C D1C S1C C1W L1W D1W S1W C2W L2W D2W S2W C2X  SYS / # / OBS TYPES
       L2X D2X S2X                                          SYS / # / OBS TYPES
R   16 C1C L1C D1C S1C C1P L1P D1P S1P C2P L2P D2P S2P C2C  SYS / # / OBS TYPES
       L2C D2C S2C                                          SYS / # / OBS TYPES
    16                                                      # OF SATELLITES
   G05   901   901   901   901   901   901   901   901   901PRN / # OF OBS
         901   901   901   901   901   901   901            PRN / # OF OBS
   G06   901   901   901   901   901   901   901   901   901PRN / # OF OBS
         901   901   901   901   901   901   901            PRN / # OF OBS
   G07   901   901   901   901   901   901   901   901   901PRN / # OF OBS
         901   901   901   901   901   901   901            PRN / # OF OBS
   G09   901   901   901   901   901   901   901   901   901PRN / # OF OBS
         901   901   901   901   901   901   901            PRN / # OF OBS
   G11   901   901   901   901   901   901   901   901   901PRN / # OF OBS
         901   901   901   901   901   901   901            PRN / # OF OBS
   G13   901   901   901   901   901   901   901   901   901PRN / # OF OBS
         901   901   901     0     0     0     0            PRN / # OF OBS
   G19   901   901   901   901   901   901   901   901   901PRN / # OF OBS
         901   901   901     0     0     0     0            PRN / # OF OBS
   G20   901   901   901   901   901   901   901   901   901PRN / # OF OBS
         901   901   901     0     0     0     0            PRN / # OF OBS
   G30   901   901   901   901   901   901   901   901   901PRN / # OF OBS
         901   901   901   901   901   901   901            PRN / # OF OBS
   R05   901   901   901   901   901   901   901   901   901PRN / # OF OBS
         901   901   901   901   901   901   901            PRN / # OF OBS
   R06   901   901   901   901   901   901   901   901     0PRN / # OF OBS
           0     0     0     0     0     0     0            PRN / # OF OBS
   R07   901   901   901   901   901   901   901   901   901PRN / # OF OBS
         901   901   901   901   901   901   901            PRN / # OF OBS
   R15   901   901   901   901   901   901   901   901   901PRN / # OF OBS
         901   901   901   901   901   901   901            PRN / # OF OBS
   R16   901   901   901   901   901   901   901   901   901PRN / # OF OBS
         901   901   901   901   901   901   901            PRN / # OF OBS
   R21   901   901   901   901   901   901   901   901   901PRN / # OF OBS
         901   901   901   901   901   901   901            PRN / # OF OBS
   R22   901   901   901   901   901   901   901   901   901PRN / # OF OBS
         901   901   901   901   901   901   901            PRN / # OF OBS
G L1C                                                       SYS / PHASE SHIFT
G L1W -0.25000                                              SYS / PHASE SHIFT
G L2W  0.00000                                              SYS / PHASE SHIFT
G L2X  0.25000                                              SYS / PHASE SHIFT
R L1C                                                       SYS / PHASE SHIFT
R L1P -0.25000                                              SYS / PHASE SHIFT
R L2P -0.25000                                              SYS / PHASE SHIFT
R L2C                                                       SYS / PHASE SHIFT
  7 R05  1 R06 -4 R07  5 R15  0 R16 -1 R21  4 R22 -3        GLONASS SLOT / FRQ #
                                                            GLONASS COD/PHS/BIS
    18    18  1929     7GPS                                 LEAP SECONDS
                                                            END OF HEADER
> 2024 07 31 15 18 58.0000000  0 16
G06  20474602.980   107594763.711 8      1635.724          48.750    20474602.040   107594763.714 8      1635.724          49.875    20474611.800    83840206.470 8      1274.590          49.937    20474612.720    83840113.470 8      1274.590          51.062
R21  19951312.100   106763508.729 8      3925.155          49.187    19951312.800   106763508.751 8      3925.155          48.000    19951324.140    83038335.764 8      3052.898          50.687    19951323.820    83038334.765 8      3052.898          50.437
R07  22878797.180   122471997.592 7      4621.898          42.250    22878797.800   122471997.623 6      4621.898          41.562    22878816.640    95256067.893 7      3594.809          45.625    22878816.960    95256072.914 7      3594.809          46.312
R16  23040101.100   123076087.273 6      5905.065          40.000    23040100.040   123076087.250 6      5905.065          39.000    23040127.460    95725948.725 7      4592.828          45.562    23040128.240    95725953.734 7      4592.828          45.375
G11  21147445.720   111130582.024 7      4502.151          46.937    21147444.680   111130582.031 6      4502.151          40.062    21147450.620    86595273.965 6      3508.169          39.625    21147448.920    86595269.968 8      3508.169          51.937
G09  22398820.580   117706592.033 7        96.753          45.062    22398819.800   117706592.040 7        96.753          43.500    22398829.680    91719461.700 7        75.392          43.562    22398830.060    91719467.689 7        75.392          46.250
R06  20642285.000   110151171.288 6      2827.485          39.500    20642285.140   110151171.286 6      2827.485          38.125
R05  22274965.580   119072462.517 7       398.514          44.000    22274962.160   119072462.505 7       398.514          43.875    22274980.080    92611963.349 7       309.956          44.437    22274980.060    92611962.333 7       309.956          45.375
G05  24375230.060   128092699.763 6      5241.577          40.250    24375227.980   128092699.778 5      5241.577          35.625    24375238.180    99812530.067 5      4084.346          35.562    24375238.560    99812533.076 6      4084.346          40.625
G20  22337158.560   117382558.666 7      4950.137          45.187    22337156.660   117382558.676 5      4950.137          34.125    22337163.720    91466950.521 5      3857.249          34.250
R15  22971474.580   122752595.596 7      3603.508          45.062    22971475.160   122752595.619 7      3603.508          44.562    22971492.720    95474323.563 7      2802.729          43.500    22971492.100    95474318.560 7      2802.729          44.187
G30  21588111.020   113446294.089 7      4689.150          47.625    21588109.280   113446294.099 7      4689.150          47.062    21588122.920    88399745.577 7      3653.883          47.437    21588124.360    88399759.579 7      3653.883          47.625
G07  21788641.900   114500081.141 8      2625.783          48.000    21788640.680   114500081.143 7      2625.783          45.937    21788648.980    89220876.748 7      2046.064          45.937    21788649.380    89220881.752 7      2046.064          47.562
G19  23594337.600   123989087.123 7      -493.416          42.875    23594336.360   123989087.141 5      -493.416          31.562    23594350.220    96614871.952 5      -384.480          30.875
G13  23211317.720   121976301.296 7      5714.936          42.750    23211316.900   121976301.301 4      5714.936          27.937    23211332.360    95046523.251 4      4453.197          27.937
R22  23610011.200   126031842.054 7      6748.754          42.625    23610011.880   126031842.068 7      6748.754          42.625    23610024.420    98024820.345 7      5249.031          45.125    23610024.540    98024823.343 7      5249.031          45.500
> 2024 07 31 15 18 59.0000000  0 16
G06  20474291.840   107593128.478 8      1635.045          48.937    20474290.900   107593128.481 8      1635.045          49.812    20474300.660    83838932.256 8      1274.061          50.562    20474301.720    83838839.258 8      1274.061          51.437
R21  19950578.860   106759584.165 8      3924.199          49.062    19950579.180   106759584.191 8      3924.199          48.250    19950590.780    83035283.323 8      3052.155          50.937    19950590.560    83035282.329 8      3052.155          50.812
R07  22877934.040   122467375.975 6      4621.577          41.500    22877933.860   122467376.000 6      4621.577          41.562    22877952.300    95252473.310 7      3594.560          45.812    22877953.380    95252478.337 7      3594.560          45.062
R16  23038995.860   123070182.339 6      5904.850          40.000    23038994.340   123070182.329 6      5904.850          39.312    23039022.160    95721356.002 7      4592.661          44.687    23039022.800    95721361.014 7      4592.661          45.437
G11  21146589.040   111126080.242 7      4501.612          47.500    21146588.060   111126080.250 6      4501.612          39.875    21146593.780    86591766.083 6      3507.750          39.687    21146592.320    86591762.081 8      3507.750          52.062
G09  22398802.160   117706495.445 7        96.656          44.562    22398801.340   117706495.450 7        96.656          43.625    22398811.200    91719386.437 7        75.317          43.375    22398811.300    91719392.428 7        75.317          45.500
R06  20641755.040   110148344.173 6      2826.838          39.500    20641755.280   110148344.164 6      2826.838          38.250
R05  22274891.100   119072064.213 7       398.444          42.812    22274888.240   119072064.209 7       398.444          43.500    22274904.640    92611653.561 7       309.901          43.875    22274905.300    92611652.539 7       309.901          45.250
G05  24374232.900   128087458.101 6      5241.767          40.750    24374230.840   128087458.114 5      5241.767          35.312    24374240.620    99808445.659 5      4084.494          35.500    24374240.540    99808448.663 6      4084.494          40.625
G20  22336216.400   117377608.654 7      4950.139          45.187    22336214.680   117377608.664 5      4950.139          34.125    22336221.700    91463093.371 5      3857.251          34.250
R15  22970800.060   122748992.561 7      3602.795          45.937    22970801.200   122748992.578 7      3602.795          45.187    22970818.500    95471521.212 7      2802.174          43.562    22970817.680    95471516.205 7      2802.174          44.062
G30  21587218.920   113441605.231 7      4688.758          47.562    21587217.080   113441605.236 7      4688.758          47.062    21587230.660    88396091.925 7      3653.578          47.062    21587232.100    88396105.928 8      3653.578          48.250
G07  21788142.480   114497455.649 7      2625.342          47.125    21788141.100   114497455.649 7      2625.342          46.000    21788149.340    89218830.912 7      2045.721          45.937    21788150.040    89218835.914 7      2045.721          47.625
G19  23594431.580   123989580.592 7      -493.488          42.375    23594430.320   123989580.602 5      -493.488          31.562    23594443.980    96615256.472 5      -384.536          31.562
G13  23210230.520   121970586.618 7      5714.573          43.812    23210229.480   121970586.621 4      5714.573          28.125    23210244.920    95042070.264 4      4452.914          27.937
R22  23608746.860   126025093.556 7      6748.600          42.437    23608747.440   126025093.576 7      6748.600          42.687    23608760.000    98019571.514 7      5248.911          45.062    23608760.280    98019574.516 7      5248.911          45.437
> 2024 07 31 15 19  0.0000000  0 16
G06  20473980.880   107591493.852 8      1634.224          48.125    20473979.800   107591493.854 8      1634.224          49.812    20473989.620    83837658.513 8      1273.421          50.375    20473990.540    83837565.516 8      1273.421          51.500
R21  19949845.740   106755660.495 8      3923.008          49.312    19949846.140   106755660.513 8      3923.008          48.000    19949857.540    83032231.578 8      3051.228          50.375    19949857.280    83032230.577 8      3051.228          50.375
R07  22877070.860   122462754.622 6      4620.973          41.500    22877070.140   122462754.648 6      4620.973          41.500    22877087.960    95248878.928 7      3594.090          44.875    22877089.760    95248883.950 7      3594.090          43.812
R16  23037890.220   123064277.597 6      5904.459          40.312    23037889.800   123064277.588 6      5904.459          39.312    23037916.200    95716763.422 7      4592.357          45.250    23037917.300    95716768.429 7      4592.357          45.500
G11  21145732.360   111121578.976 7      4500.832          47.375    21145731.500   111121578.984 6      4500.832          39.750    21145737.300    86588258.601 6      3507.142          39.375    21145735.840    86588254.603 8      3507.142          52.250
G09  22398784.120   117706398.992 7        96.158          44.562    22398782.980   117706398.994 7        96.158          44.312    22398792.940    91719311.272 7        74.928          43.812    22398792.800    91719317.274 7        74.928          44.937
R06  20641225.400   110145517.214 6      2826.637          39.500    20641225.420   110145517.215 6      2826.637          38.250
R05  22274816.620   119071665.874 7       398.081          42.562    22274814.220   119071665.886 7       398.081          42.937    22274828.880    92611343.740 7       309.618          44.125    22274830.200    92611342.722 7       309.618          44.250
G05  24373235.740   128082216.440 6      5241.447          41.250    24373233.660   128082216.445 6      5241.447          36.187    24373242.960    99804361.246 5      4084.244          35.875    24373242.960    99804364.260 6      4084.244          40.125
G20  22335274.700   117372658.689 7      4949.786          44.812    22335272.760   117372658.702 5      4949.786          34.000    22335279.720    91459236.259 5      3856.976          34.062
R15  22970126.060   122745390.222 7      3601.782          46.000    22970126.940   122745390.242 7      3601.782          45.062    22970144.400    95468719.404 7      2801.386          43.375    22970143.820    95468714.392 7      2801.386          44.062
G30  21586326.400   113436916.864 7      4687.945          47.000    21586324.840   113436916.872 7      4687.945          47.375    21586338.620    88392438.661 7      3652.944          47.375    21586339.700    88392452.665 7      3652.944          47.937
G07  21787642.920   114494830.743 7      2624.431          47.000    21787641.660   114494830.745 7      2624.431          46.000    21787649.740    89216785.533 7      2045.011          45.937    21787650.460    89216790.537 7      2045.011          47.437
G19  23594525.340   123990074.047 6      -493.619          41.500    23594524.300   123990074.057 5      -493.619          31.562    23594537.940    96615640.989 5      -384.638          31.562
G13  23209143.040   121964872.219 7      5714.209          43.312    23209141.940   121964872.224 4      5714.209          28.125    23209157.640    95037617.490 4      4452.630          27.937
R22  23607482.660   126018345.438 7      6747.798          42.250    23607484.460   126018345.433 7      6747.798          42.500    23607495.520    98014322.954 7      5248.287          45.187    23607496.140    98014325.955 7      5248.287          45.375
> 2024 07 31 15 19  1.0000000  0 16
G06  20473670.060   107589860.020 8      1633.531          48.875    20473669.000   107589860.025 8      1633.531          50.125    20473678.720    83836385.399 8      1272.881          50.875    20473679.920    83836292.401 8      1272.881          51.375
R21  19949112.880   106751737.863 8      3922.231          48.625    19949112.960   106751737.886 8      3922.231          48.375    19949124.460    83029180.644 8      3050.624          50.750    19949124.220    83029179.648 8      3050.624          50.625
R07  22876207.600   122458133.663 6      4620.845          41.687    22876206.940   122458133.694 6      4620.845          41.500    22876223.920    95245284.874 7      3593.990          44.687    22876226.040    95245289.895 7      3593.990          42.937
R16  23036784.660   123058373.246 6      5904.349          40.312    23036784.480   123058373.225 6      5904.349          39.312    23036810.720    95712171.152 7      4592.271          44.375    23036811.940    95712176.159 7      4592.271          44.937
G11  21144876.280   111117078.411 7      4500.339          47.375    21144875.020   111117078.419 6      4500.339          40.062    21144880.940    86584751.669 6      3506.758          40.000    21144879.520    86584747.665 8      3506.758          52.375
G09  22398765.880   117706302.796 7        96.160          44.625    22398764.760   117706302.793 7        96.160          44.250    22398774.700    91719236.306 7        74.930          43.937    22398774.240    91719242.326 7        74.930          45.000
R06  20640696.080   110142690.705 6      2826.460          39.500    20640695.580   110142690.709 6      2826.460          38.250
R05  22274742.280   119071267.647 7       398.290          42.562    22274741.320   119071267.659 7       398.290          43.812    22274753.540    92611034.004 7       309.781          43.375    22274755.120    92611032.984 7       309.781          44.000
G05  24372238.020   128076974.878 6      5241.651          41.437    24372236.420   128076974.883 6      5241.651          36.187    24372245.540    99800276.920 6      4084.403          36.000    24372246.300    99800279.936 6      4084.403          40.125
G20  22334332.740   117367708.952 7      4949.845          45.750    22334330.880   117367708.963 5      4949.845          34.000    22334337.780    91455379.322 5      3857.022          34.062
R15  22969452.100   122741788.795 7      3601.108          46.812    22969453.280   122741788.807 7      3601.108          45.062    22969470.500    95465918.292 7      2800.862          43.187    22969469.620    95465913.284 7      2800.862          43.687
G30  21585434.440   113432229.136 7      4687.551          47.250    21585432.840   113432229.141 7      4687.551          47.562    21585446.420    88388785.886 7      3652.637          47.687    21585447.800    88388799.886 7      3652.637          47.812
G07  21787143.400   114492206.573 7      2623.901          47.687    21787142.200   114492206.575 7      2623.901          46.062    21787150.480    89214740.729 7      2044.598          46.187    21787150.840    89214745.737 7      2044.598          47.437
G19  23594619.360   123990567.718 7      -493.693          42.750    23594618.240   123990567.726 5      -493.693          31.687    23594631.980    96616025.672 5      -384.696          31.562
G13  23208055.520   121959158.346 7      5713.751          43.500    23208054.800   121959158.351 4      5713.751          28.125    23208070.420    95033165.135 4      4452.274          27.937
R22  23606219.020   126011597.749 7      6747.489          42.250    23606220.480   126011597.750 7      6747.489          42.500    23606231.320    98009074.756 7      5248.047          45.000    23606231.640    98009077.756 7      5248.047          45.000
> 2024 07 31 15 19  2.0000000  0 16
G06  20473359.260   107588226.849 8      1633.001          49.187    20473358.160   107588226.851 8      1633.001          50.312    20473367.920    83835112.788 8      1272.468          50.375    20473369.220    83835019.789 8      1272.468          51.437
R21  19948379.880   106747816.203 8      3921.317          49.250    19948380.160   106747816.223 8      3921.317          48.000    19948391.600    83026130.458 8      3049.913          50.562    19948391.240    83026129.461 8      3049.913          50.500
R07  22875344.360   122453513.027 6      4620.624          41.687    22875344.460   122453513.061 6      4620.624          40.500    22875359.880    95241691.057 7      3593.818          43.812    22875362.640    95241696.068 7      3593.818          42.250
R16  23035679.400   123052469.180 6      5904.125          40.312    23035679.500   123052469.159 6      5904.125          39.500    23035705.200    95707579.093 7      4592.097          44.062    23035706.640    95707584.104 7      4592.097          44.500
G11  21144020.000   111112578.419 7      4499.896          47.937    21144018.720   111112578.424 6      4499.896          39.812    21144024.560    86581245.178 6      3506.412          39.875    21144023.100    86581241.171 8      3506.412          51.875
G09  22398747.560   117706206.789 7        96.078          43.250    22398746.580   117706206.791 7        96.078          44.125    22398756.380    91719161.494 7        74.866          44.125    22398756.240    91719167.511 7        74.866          45.687
R06  20640166.460   110139864.511 6      2826.093          39.500    20640165.700   110139864.512 6      2826.093          38.250
R05  22274668.040   119070869.456 7       398.381          45.125    22274668.500   119070869.470 7       398.381          44.125    22274678.280    92610724.299 7       309.852          43.500    22274680.320    92610723.287 7       309.852          42.812
G05  24371240.640   128071733.393 6      5241.668          41.875    24371239.340   128071733.400 5      5241.668          35.875    24371248.340    99796192.646 6      4084.417          36.187    24371249.260    99796195.650 6      4084.417          40.187
G20  22333391.000   117362759.340 7      4949.779          45.250    22333388.980   117362759.342 5      4949.779          34.625    22333395.880    91451522.481 5      3856.971          34.687
R15  22968778.320   122738188.113 7      3600.455          46.250    22968779.300   122738188.125 7      3600.455          44.625    22968796.740    95463117.764 7      2800.354          42.812    22968795.860    95463112.760 7      2800.354          43.500
G30  21584542.460   113427541.939 7      4687.092          47.750    21584540.840   113427541.941 7      4687.092          47.437    21584554.540    88385133.528 7      3652.280          47.625    21584555.600    88385147.533 7      3652.280          47.687
G07  21786644.160   114489583.036 7      2623.248          47.750    21786643.000   114489583.038 7      2623.248          45.750    21786651.160    89212696.414 7      2044.089          45.750    21786651.940    89212701.418 7      2044.089          47.375
G19  23594713.380   123991061.468 7      -493.599          42.062    23594712.280   123991061.476 5      -493.599          31.687    23594726.080    96616410.410 5      -384.622          31.687
G13  23206968.200   121953444.832 7      5713.462          43.562    23206967.640   121953444.837 4      5713.462          28.125    23206983.200    95028713.063 4      4452.048          27.937
R22  23604955.100   126004850.423 7      6747.188          42.062    23604956.120   126004850.424 7      6747.188          42.875    23604967.360    98003826.840 7      5247.813          45.250    23604967.900    98003829.840 7      5247.813          44.812
> 2024 07 31 15 19  3.0000000  0 16
G06  20473048.740   107586594.262 8      1632.415          48.625    20473047.440   107586594.264 8      1632.415          50.062    20473057.240    83833840.638 8      1272.012          50.437    20473058.420    83833747.637 8      1272.012          50.937
R21  19947647.200   106743895.415 8      3920.414          48.500    19947647.600   106743895.440 8      3920.414          48.437    19947658.880    83023080.960 8      3049.211          50.750    19947658.520    83023079.961 8      3049.211          50.437
R07  22874480.900   122448892.649 6      4620.381          40.750    22874481.600   122448892.680 6      4620.381          40.500    22874496.060    95238097.436 7      3593.630          43.625    22874498.820    95238102.449 7      3593.630          42.437
R16  23034574.440   123046565.245 6      5903.940          40.312    23034573.840   123046565.257 6      5903.940          39.500    23034599.460    95702987.166 7      4591.953          43.625    23034600.960    95702992.175 7      4591.953          44.437
G11  21143163.540   111108078.913 7      4499.337          47.250    21143162.400   111108078.921 6      4499.337          40.000    21143168.300    86577739.072 6      3505.977          39.437    21143167.040    86577735.071 8      3505.977          52.312
G09  22398729.400   117706110.853 7        96.038          44.750    22398728.260   117706110.858 7        96.038          43.562    22398738.160    91719086.743 7        74.835          43.437    22398738.820    91719092.752 7        74.835          46.875
R06  20639637.540   110137038.483 6      2825.987          39.312    20639636.060   110137038.484 6      2825.987          38.250
R05  22274593.640   119070471.160 7       398.499          46.187    22274594.760   119070471.188 7       398.499          45.875    22274603.680    92610414.524 7       309.943          43.500    22274605.620    92610413.520 7       309.943          42.500
G05  24370243.400   128066491.826 6      5241.840          41.875    24370241.960   128066491.828 6      5241.840          36.625    24370250.780    99792108.306 6      4084.551          36.187    24370251.280    99792111.318 6      4084.551          40.187
G20  22332449.140   117357809.737 7      4949.614          44.562    22332447.020   117357809.742 5      4949.614          34.500    22332454.040    91447665.658 5      3856.842          34.250
R15  22968104.880   122734588.086 7      3599.930          46.125    22968105.300   122734588.101 7      3599.930          45.000    22968122.760    95460317.757 7      2799.945          43.000    22968121.880    95460312.750 7      2799.945          43.375
G30  21583650.440   113422855.167 8      4686.687          48.312    21583649.100   113422855.172 7      4686.687          47.562    21583662.560    88381481.507 7      3651.964          47.562    21583663.920    88381495.505 8      3651.964          48.062
G07  21786144.760   114486960.000 7      2622.888          47.187    21786143.780   114486960.008 7      2622.888          45.750    21786152.120    89210652.499 7      2043.809          45.625    21786152.660    89210657.505 7      2043.809          47.437
G19  23594807.760   123991555.176 7      -493.498          42.812    23594806.340   123991555.179 5      -493.498          31.875    23594820.060    96616795.117 5      -384.544          31.687
G13  23205881.000   121947731.589 7      5713.280          42.812    23205880.520   121947731.599 4      5713.280          28.125    23205895.920    95024261.199 4      4451.906          27.937
R22  23603691.080   125998103.375 7      6747.209          42.062    23603692.180   125998103.365 7      6747.209          43.062    23603704.080    97998579.121 7      5247.829          45.750    23603704.240    97998582.120 7      5247.829          45.187
> 2024 07 31 15 19  4.0000000  0 16
G06  20472738.000   107584962.308 8      1631.492          49.125    20472736.980   107584962.313 8      1631.492          49.937    20472746.700    83832568.980 8      1271.293          50.437    20472747.780    83832475.978 8      1271.293          51.250
R21  19946914.660   106739975.592 8      3919.233          49.375    19946915.380   106739975.615 8      3919.233          48.375    19946926.540    83020032.205 8      3048.292          50.812    19946926.180    83020031.206 8      3048.292          49.750
R07  22873617.860   122444272.538 6      4619.885          40.750    22873618.700   122444272.572 6      4619.885          40.500    22873632.620    95234504.012 7      3593.244          43.375    22873635.500    95234509.027 6      3593.244          41.812
R16  23033469.320   123040661.593 6      5903.449          40.312    23033469.040   123040661.578 6      5903.449          39.937    23033494.220    95698395.414 7      4591.572          43.812    23033495.500    95698400.426 7      4591.572          44.125
G11  21142307.420   111103579.936 7      4498.558          47.312    21142306.380   111103579.943 6      4498.558          39.875    21142312.320    86574233.375 6      3505.370          39.500    21142310.880    86574229.374 8      3505.370          51.812
G09  22398711.100   117706015.061 7        95.629          45.875    22398710.080   117706015.066 7        95.629          44.812    22398719.940    91719012.092 7        74.516          43.812    22398720.960    91719018.093 7        74.516          47.250
R06  20639108.560   110134212.737 6      2825.386          39.312    20639106.840   110134212.738 6      2825.386          38.250
R05  22274519.020   119070072.840 7       398.191          45.937    22274521.120   119070072.857 7       398.191          45.062    22274529.260    92610104.726 7       309.704          43.062    22274530.920    92610103.739 6       309.704          41.875
G05  24369245.840   128061250.254 6      5241.442          41.500    24369244.520   128061250.256 6      5241.442          36.562    24369253.400    99788023.966 6      4084.241          36.750    24369253.940    99788026.988 6      4084.241          40.750
G20  22331507.080   117352860.190 7      4949.349          45.437    22331505.280   117352860.195 5      4949.349          34.500    22331512.180    91443808.870 5      3856.636          34.250
R15  22967431.100   122730988.796 7      3598.807          45.562    22967431.960   122730988.808 7      3598.807          44.812    22967449.180    95457518.314 7      2799.072          43.000    22967448.440    95457513.314 7      2799.072          43.312
G30  21582758.720   113418168.900 7      4685.876          47.437    21582757.300   113418168.907 7      4685.876          47.500    21582770.940    88377829.876 7      3651.332          47.437    21582772.060    88377843.874 7      3651.332          47.250
G07  21785645.680   114484337.580 7      2621.971          47.562    21785644.900   114484337.585 7      2621.971          45.437    21785653.020    89208609.054 7      2043.095          45.375    21785653.840    89208614.065 7      2043.095          47.812
G19  23594901.760   123992048.953 7      -493.969          42.062    23594900.160   123992048.960 5      -493.969          31.875    23594914.120    96617179.878 5      -384.911          31.687
G13  23204793.780   121942018.690 7      5712.676          43.562    23204793.340   121942018.698 4      5712.676          28.000    23204808.700    95019809.596 4      4451.436          27.937
R22  23602427.580   125991356.666 7      6746.481          42.062    23602427.340   125991356.661 7      6746.481          43.062    23602440.640    97993331.699 7      5247.263          45.187    23602440.340    97993334.698 7      5247.263          45.437
> 2024 07 31 15 19  5.0000000  0 16
G06  20472427.560   107583330.938 8      1631.200          48.937    20472426.480   107583330.942 8      1631.200          49.875    20472436.300    83831297.776 8      1271.065          49.937    20472437.260    83831204.780 8      1271.065          51.375
R21  19946182.240   106736056.690 8      3918.536          49.500    19946183.100   106736056.708 8      3918.536          48.437    19946194.120    83016984.166 8      3047.750          50.812    19946193.760    83016983.165 8      3047.750          50.500
R07  22872755.220   122439652.679 7      4619.810          43.187    22872755.900   122439652.724 6      4619.810          40.875    22872768.820    95230910.792 7      3593.186          43.375    22872771.780    95230915.801 6      3593.186          41.875
R16  23032363.900   123034758.101 6      5903.530          40.437    23032363.560   123034758.089 6      5903.530          39.937    23032389.140    95693803.812 7      4591.634          43.625    23032390.500    95693808.819 7      4591.634          44.000
G11  21141451.680   111099081.452 7      4498.297          47.187    21141450.140   111099081.457 6      4498.297          40.250    21141456.200    86570728.063 6      3505.167          39.375    21141454.860    86570724.060 8      3505.167          52.312
G09  22398692.700   117705919.341 7        95.849          45.187    22398691.920   117705919.348 7        95.849          43.937    22398701.760    91718937.502 7        74.687          44.250    22398702.980    91718943.491 7        74.687          46.937
R06  20638578.880   110131387.168 6      2825.443          39.312    20638577.800   110131387.163 6      2825.443          38.250
R05  22274444.620   119069674.423 7       398.649          45.562    22274446.720   119069674.435 7       398.649          45.437    22274455.280    92609794.857 7       310.061          42.937    22274456.480    92609793.876 6       310.061          41.937
G05  24368248.340   128056008.635 6      5241.681          41.312    24368246.980   128056008.640 6      5241.681          36.312    24368256.060    99783939.592 6      4084.427          36.562    24368257.180    99783942.593 6      4084.427          40.750
G20  22330565.000   117347910.664 7      4949.612          45.562    22330563.540   117347910.672 5      4949.612          34.375    22330570.300    91439952.098 5      3856.841          34.625
R15  22966757.580   122727390.140 7      3598.417          45.437    22966757.860   122727390.152 7      3598.417          44.187    22966776.080    95454719.365 7      2798.768          42.875    22966774.940    95454714.364 7      2798.768          44.125
G30  21581867.060   113413483.071 7      4685.679          47.062    21581865.640   113413483.074 7      4685.679          47.187    21581879.200    88374178.579 7      3651.178          47.062    21581880.420    88374192.579 7      3651.178          47.562
G07  21785147.000   114481715.683 8      2621.681          48.625    21785145.840   114481715.690 7      2621.681          46.250    21785154.100    89206566.024 7      2042.869          46.312    21785154.780    89206571.028 7      2042.869          47.500
G19  23594995.340   123992542.700 6      -493.591          41.187    23594993.800   123992542.705 5      -493.591          31.875    23595008.220    96617564.616 5      -384.617          31.687
G13  23203706.660   121936306.094 7      5712.484          43.625    23203706.160   121936306.098 4      5712.484          28.000    23203721.640    95015358.230 4      4451.286          27.937
R22  23601163.500   125984610.210 6      6746.464          41.500    23601163.700   125984610.211 7      6746.464          43.062    23601176.620    97988084.477 7      5247.250          45.875    23601176.360    97988087.477 7      5247.250          45.562
> 2024 07 31 15 19  6.0000000  0 16
G06  20472117.200   107581700.395 8      1630.071          48.750    20472116.200   107581700.397 8      1630.071          49.937    20472126.040    83830027.219 8      1270.185          50.125    20472127.060    83829934.217 8      1270.185          51.187
R21  19945450.200   106732138.910 8      3917.159          49.625    19945450.720   106732138.930 8      3917.159          48.500    19945461.980    83013937.005 8      3046.679          50.500    19945461.660    83013936.007 8      3046.679          50.500
R07  22871891.600   122435033.264 7      4619.089          43.187    22871892.720   122435033.322 6      4619.089          40.875    22871906.020    95227317.929 7      3592.624          43.062    22871908.580    95227322.923 6      3592.624          41.812
R16  23031258.720   123028855.029 6      5902.760          40.437    23031258.640   123028855.020 6      5902.760          39.937    23031283.800    95689212.533 7      4591.035          43.375    23031285.300    95689217.538 7      4591.035          43.500
G11  21140595.740   111094583.704 7      4497.271          47.687    21140594.340   111094583.714 6      4497.271          40.312    21140600.260    86567223.328 6      3504.367          40.125    21140598.940    86567219.326 8      3504.367          52.250
G09  22398674.760   117705823.980 7        95.064          44.937    22398673.760   117705823.991 7        95.064          43.812    22398683.600    91718863.195 7        74.076          43.625    22398685.000    91718869.180 7        74.076          47.000
R06  20638049.880   110128562.076 6      2824.862          39.312    20638047.860   110128562.042 6      2824.862          38.250
R05  22274369.480   119069276.202 7       398.150          46.625    22274371.780   119069276.212 7       398.150          45.875    22274381.940    92609485.137 7       309.672          43.875    22274382.280    92609484.151 7       309.672          42.812
G05  24367250.880   128050767.152 6      5241.391          41.187    24367249.220   128050767.162 6      5241.391          36.312    24367258.740    99779855.325 6      4084.201          36.375    24367259.380    99779858.335 6      4084.201          41.187
G20  22329623.400   117342961.414 7      4949.036          44.750    22329621.680   117342961.424 5      4949.036          34.375    22329628.540    91436095.544 5      3856.392          34.625
R15  22966084.520   122723792.400 7      3597.241          46.000    22966084.680   122723792.414 7      3597.241          44.937    22966102.800    95451921.135 7      2797.854          43.125    22966101.660    95451916.132 7      2797.854          43.687
G30  21580975.560   113408797.916 7      4684.796          47.687    21580974.060   113408797.920 7      4684.796          47.437    21580987.680    88370527.816 7      3650.491          47.500    21580989.320    88370541.815 7      3650.491          47.875
G07  21784648.220   114479094.576 8      2620.630          48.437    21784647.040   114479094.578 7      2620.630          46.312    21784655.300    89204523.603 7      2042.049          46.187    21784655.800    89204528.609 7      2042.049          47.437
G19  23595089.140   123993036.697 6      -494.244          40.875    23595087.500   123993036.694 5      -494.244          31.500    23595102.300    96617949.543 5      -385.126          31.687
G13  23202619.960   121930593.996 7      5711.759          44.625    23202619.300   121930593.998 4      5711.759          28.000    23202634.540    95010907.255 4      4450.721          28.500
R22  23599899.660   125977864.315 6      6745.545          41.687    23599900.580   125977864.318 7      6745.545          42.312    23599912.840    97982837.684 7      5246.535          45.312    23599912.980    97982840.682 7      5246.535          45.812
> 2024 07 31 15 19  7.0000000  0 16
G06  20471807.060   107580070.396 8      1629.887          49.125    20471805.960   107580070.395 8      1629.887          50.125    20471815.880    83828757.082 8      1270.041          49.812    20471816.900    83828664.084 8      1270.041          50.937
R21  19944718.500   106728221.969 8      3916.577          49.437    19944718.820   106728221.992 8      3916.577          48.750    19944730.100    83010890.494 8      3046.227          50.312    19944729.760    83010889.495 8      3046.227          50.437
R07  22871029.080   122430414.064 6      4619.065          41.500    22871029.400   122430414.105 6      4619.065          41.125    22871042.920    95223725.200 7      3592.606          43.250    22871045.140    95223730.188 7      3592.606          42.062
R16  23030153.820   123022952.058 6      5903.020          40.437    23030153.360   123022952.054 6      5903.020          39.187    23030178.960    95684621.332 7      4591.237          43.250    23030179.900    95684626.339 7      4591.237          43.375
G11  21139739.720   111090086.418 7      4497.096          47.750    21139738.660   111090086.423 6      4497.096          39.562    21139744.500    86563718.941 6      3504.231          39.625    21139743.260    86563714.941 8      3504.231          51.937
G09  22398656.420   117705728.636 7        95.396          44.687    22398655.660   117705728.643 7        95.396          44.250    22398665.420    91718788.897 7        74.334          44.312    22398666.440    91718794.877 7        74.334          46.375
R06  20637519.980   110125737.155 6      2824.864          39.312    20637518.520   110125737.142 6      2824.864          38.312
R05  22274295.100   119068877.872 7       398.549          46.625    22274296.720   119068877.873 7       398.549          45.937    22274308.500    92609175.329 7       309.982          43.500    22274308.360    92609174.342 7       309.982          43.750
G05  24366253.280   128045525.604 6      5241.645          40.687    24366251.600   128045525.611 6      5241.645          36.187    24366261.560    99775771.012 6      4084.399          36.312    24366262.220    99775774.022 6      4084.399          41.437
G20  22328681.660   117338012.156 7      4949.325          45.812    22328680.040   117338012.166 5      4949.325          34.625    22328686.580    91432238.983 5      3856.617          34.562
R15  22965411.160   122720195.320 7      3596.761          45.750    22965411.660   122720195.332 7      3596.761          44.125    22965429.500    95449123.404 7      2797.481          43.250    22965428.560    95449118.405 7      2797.481          43.625
G30  21580083.960   113404113.183 7      4684.592          47.687    21580082.600   113404113.190 7      4684.592          47.375    21580096.220    88366877.386 7      3650.332          47.000    21580097.380    88366891.382 8      3650.332          48.062
G07  21784149.200   114476473.977 8      2620.386          48.500    21784148.380   114476473.981 7      2620.386          45.187    21784156.540    89202481.581 7      2041.859          45.437    21784156.980    89202486.590 7      2041.859          47.625
G19  23595183.340   123993530.584 6      -493.540          40.875    23595181.100   123993530.583 5      -493.540          31.500    23595196.300    96618334.385 5      -384.577          31.687
G13  23201532.820   121924882.175 7      5711.702          44.125    23201532.400   121924882.174 4      5711.702          28.000    23201547.480    95006456.494 4      4450.677          28.500
R22  23598635.720   125971118.678 7      6745.594          42.625    23598637.000   125971118.669 7      6745.594          42.875    23598648.720    97977591.065 7      5246.573          45.062    23598649.240    97977594.070 7      5246.573          45.187
> 2024 07 31 15 19  8.0000000  0 16
G06  20471496.920   107578440.901 8      1629.322          48.875    20471495.920   107578440.903 8      1629.322          50.250    20471505.840    83827487.337 8      1269.601          50.312    20471506.860    83827394.340 8      1269.601          51.437
R21  19943986.680   106724305.783 8      3915.790          49.437    19943986.980   106724305.808 8      3915.790          48.875    19943998.240    83007844.573 8      3045.614          51.187    19943997.880    83007843.574 8      3045.614          50.812
R07  22870166.280   122425794.943 6      4619.089          41.500    22870165.520   122425794.980 6      4619.089          41.125    22870180.160    95220132.545 7      3592.624          42.812    22870182.060    95220137.529 7      3592.624          42.062
R16  23029048.660   123017049.181 6      5902.848          40.187    23029047.920   123017049.185 6      5902.848          39.187    23029073.900    95680030.203 7      4591.104          43.312    23029074.960    95680035.210 7      4591.104          43.250
G11  21138884.060   111085589.514 7      4496.787          47.625    21138882.940   111085589.518 6      4496.787          39.687    21138888.720    86560214.862 6      3503.990          39.500    21138887.440    86560210.861 8      3503.990          52.625
G09  22398638.420   117705633.317 7        95.336          44.625    22398637.780   117705633.320 7        95.336          44.312    22398647.300    91718714.616 7        74.288          44.125    22398648.000    91718720.601 7        74.288          45.687
R06  20636991.000   110122912.351 6      2824.803          39.312    20636988.760   110122912.352 6      2824.803          38.312
R05  22274220.560   119068479.367 7       398.620          46.375    22274221.020   119068479.355 7       398.620          45.125    22274234.380    92608865.377 7       310.038          44.500    22274233.960    92608864.386 7       310.038          44.375
G05  24365255.720   128040283.913 6      5241.712          41.187    24365253.900   128040283.926 6      5241.712          36.187    24365264.320    99771686.588 6      4084.451          36.375    24365265.160    99771689.590 6      4084.451          41.437
G20  22327739.880   117333062.816 7      4949.390          45.625    22327738.140   117333062.824 5      4949.390          34.625    22327744.700    91428382.357 5      3856.668          34.812
R15  22964738.220   122716598.809 7      3596.250          45.812    22964738.340   122716598.818 7      3596.250          44.562    22964756.260    95446326.128 7      2797.083          43.062    22964755.800    95446321.129 7      2797.083          43.437
G30  21579192.720   113399428.792 7      4684.238          47.625    21579191.180   113399428.807 7      4684.238          47.562    21579204.840    88363227.219 7      3650.055          47.562    21579205.820    88363241.217 8      3650.055          48.500
G07  21783650.780   114473853.808 8      2620.029          48.125    21783649.800   114473853.805 7      2620.029          45.562    21783658.060    89200439.888 7      2041.581          45.687    21783658.280    89200444.890 7      2041.581          47.750
G19  23595277.080   123994024.470 6      -493.842          39.812    23595274.860   123994024.467 5      -493.842          31.500    23595290.340    96618719.228 5      -384.812          30.875
G13  23200445.980   121919170.524 7      5711.585          43.312    23200445.480   121919170.523 4      5711.585          28.562    23200460.760    95002005.865 4      4450.586          28.500
R22  23597372.020   125964373.218 7      6745.338          42.625    23597374.040   125964373.227 7      6745.338          42.875    23597384.620    97972344.607 7      5246.374          45.062    23597385.320    97972347.609 7      5246.374          44.812
> 2024 07 31 15 19  9.0000000  0 16
G06  20471187.100   107576812.150 8      1628.428          48.375    20471185.960   107576812.147 8      1628.428          50.437    20471195.860    83826218.175 8      1268.905          50.625    20471197.020    83826125.171 8      1268.905          51.375
R21  19943254.840   106720390.624 8      3914.691          48.937    19943255.320   106720390.647 8      3914.691          48.687    19943266.580    83004799.443 8      3044.759          50.312    19943266.340    83004798.447 8      3044.759          50.187
R07  22869303.300   122421176.248 7      4618.427          42.187    22869302.160   122421176.290 6      4618.427          41.125    22869317.760    95216540.239 7      3592.110          43.125    22869319.220    95216545.217 7      3592.110          43.125
R16  23027943.600   123011146.632 6      5902.530          40.187    23027943.120   123011146.628 6      5902.530          39.187    23027968.820    95675439.319 7      4590.857          42.750    23027970.000    95675444.326 7      4590.857          43.625
G11  21138028.300   111081093.261 7      4496.021          47.437    21138027.180   111081093.263 6      4496.021          40.187    21138033.180    86556711.286 6      3503.393          39.750    21138031.880    86556707.288 8      3503.393          52.500
G09  22398620.500   117705538.212 7        95.044          44.250    22398619.560   117705538.214 7        95.044          44.687    22398629.160    91718640.504 7        74.060          44.375    22398629.460    91718646.495 7        74.060          45.125
R06  20636461.520   110120087.966 6      2824.071          39.312    20636459.960   110120087.970 6      2824.071          38.312
R05  22274146.100   119068080.900 7       398.430          45.500    22274145.080   119068080.888 7       398.430          44.062    22274160.660    92608555.450 7       309.890          44.812    22274159.620    92608554.463 7       309.890          45.312
G05  24364258.520   128035042.302 6      5241.629          41.625    24364256.520   128035042.317 6      5241.629          36.500    24364267.080    99767602.222 6      4084.386          36.437    24364268.100    99767605.232 6      4084.386          41.812
G20  22326797.820   117328113.661 7      4949.024          45.750    22326796.460   117328113.668 5      4949.024          34.625    22326802.860    91424525.876 5      3856.383          34.812
R15  22964065.000   122713003.145 7      3595.282          46.125    22964065.360   122713003.154 7      3595.282          44.375    22964083.440    95443529.509 7      2796.331          42.750    22964082.700    95443524.510 7      2796.331          43.625
G30  21578301.480   113394745.015 7      4683.509          47.937    21578300.000   113394745.020 7      4683.509          47.875    21578313.580    88359577.521 7      3649.487          47.687    21578314.700    88359591.523 8      3649.487          48.062
G07  21783152.260   114471234.336 8      2619.169          48.375    21783151.280   114471234.341 7      2619.169          46.312    21783159.580    89198398.746 7      2040.911          46.250    21783159.880    89198403.749 7      2040.911          47.500
G19  23595371.200   123994518.407 6      -493.906          40.000    23595368.580   123994518.409 5      -493.906          30.625    23595384.600    96619104.110 5      -384.862          30.875
G13  23199359.160   121913459.325 7      5711.005          43.750    23199358.860   121913459.325 4      5711.005          28.562    23199373.920    94997555.584 4      4450.134          28.500
R22  23596108.280   125957628.172 7      6744.908          43.187    23596109.780   125957628.181 7      6744.908          43.250    23596120.840    97967098.461 7      5246.039          45.312    23596121.660    97967101.462 7      5246.039          45.000
> 2024 07 31 15 19 10.0000000  0 16
G06  20470877.160   107575184.043 8      1627.641          49.500    20470876.160   107575184.048 8      1627.641          49.625    20470886.060    83824949.520 8      1268.291          49.937    20470887.300    83824856.520 8      1268.291          51.437
R21  19942523.520   106716476.458 8      3913.515          48.125    19942524.160   106716476.481 8      3913.515          48.312    19942534.940    83001755.094 8      3043.845          51.250    19942534.720    83001754.097 8      3043.845          50.375
R07  22868440.520   122416557.893 7      4618.010          42.187    22868438.900   122416557.938 6      4618.010          41.125    22868455.460    95212948.188 7      3591.786          43.375    22868456.740    95212953.169 7      3591.786          43.625
R16  23026838.500   123005244.367 6      5902.023          40.187    23026838.560   123005244.376 6      5902.023          39.187    23026863.900    95670848.674 7      4590.462          43.375    23026864.980    95670853.682 7      4590.462          43.750
G11  21137172.820   111076597.599 7      4495.271          47.500    21137171.760   111076597.606 6      4495.271          39.437    21137177.720    86553208.177 6      3502.809          39.437    21137176.520    86553204.179 8      3502.809          52.625
G09  22398602.500   117705443.298 7        94.682          44.687    22398601.540   117705443.297 7        94.682          44.500    22398610.980    91718566.541 7        73.778          44.437    22398611.680    91718572.546 7        73.778          44.875
R06  20635931.560   110117263.827 6      2823.877          39.625    20635930.280   110117263.822 6      2823.877          38.312
R05  22274071.740   119067682.441 7       398.312          44.000    22274069.620   119067682.421 7       398.312          44.125    22274086.740    92608245.531 7       309.798          44.750    22274085.400    92608244.536 7       309.798          45.500
G05  24363260.820   128029800.756 6      5241.358          41.437    24363259.200   128029800.769 6      5241.358          36.750    24363269.760    99763517.907 6      4084.175          36.750    24363271.060    99763520.919 7      4084.175          42.000
G20  22325855.920   117323164.597 7      4948.954          44.812    22325854.640   117323164.605 5      4948.954          34.250    22325861.040    91420669.465 5      3856.328          34.250
R15  22963392.320   122709408.253 7      3594.330          45.750    22963393.160   122709408.267 7      3594.330          44.500    22963410.420    95440733.494 7      2795.590          42.812    22963409.700    95440728.491 7      2795.590          43.375
G30  21577410.360   113390061.751 7      4682.896          47.437    21577408.700   113390061.754 7      4682.896          47.187    21577422.360    88355928.231 7      3649.010          47.312    21577423.440    88355942.231 7      3649.010          47.937
G07  21782653.980   114468615.497 8      2618.463          48.000    21782652.840   114468615.496 7      2618.463          45.750    21782661.280    89196358.097 7      2040.360          45.750    21782661.660    89196363.103 7      2040.360          47.687
G19  23595465.060   123995012.464 6      -494.207          40.125    23595462.380   123995012.469 5      -494.207          30.625    23595478.740    96619489.087 5      -385.097          30.875
G13  23198272.620   121907748.483 7      5710.666          43.062    23198272.140   121907748.480 4      5710.666          28.562    23198287.160    94993105.584 4      4449.870          28.500
R22  23594845.020   125950883.517 7      6744.309          42.062    23594845.840   125950883.521 7      6744.309          42.625    23594857.420    97961852.619 7      5245.574          44.687    23594857.660    97961855.616 7      5245.574          44.625
> 2024 07 31 15 19 11.0000000  0 16
G06  20470567.680   107573556.461 8      1627.342          48.437    20470566.480   107573556.464 8      1627.342          50.250    20470576.360    83823681.268 8      1268.059          50.500    20470577.560    83823588.268 8      1268.059          51.437
R21  19941792.220   106712563.100 8      3912.998          49.375    19941792.520   106712563.120 8      3912.998          49.125    19941803.660    82998711.367 8      3043.443          50.687    19941803.460    82998710.368 8      3043.443          50.625
R07  22867577.600   122411939.702 7      4618.175          42.187    22867576.600   122411939.733 6      4618.175          41.125    22867593.300    95209356.261 7      3591.914          43.750    22867594.240    95209361.238 7      3591.914          43.437
R16  23025733.760   122999342.192 6      5901.771          39.187    23025733.120   122999342.196 6      5901.771          39.000    23025759.140    95666258.096 7      4590.266          43.250    23025760.260    95666263.097 7      4590.266          44.000
G11  21136317.380   111072102.328 7      4495.070          47.562    21136316.300   111072102.333 6      4495.070          40.062    21136322.340    86549705.369 6      3502.652          39.750    21136320.840    86549701.371 8      3502.652          51.875
G09  22398584.420   117705348.363 7        94.907          45.250    22398583.420   117705348.365 7        94.907          44.437    22398592.920    91718492.564 7        73.953          44.125    22398593.060    91718498.579 7        73.953          45.000
R06  20635402.220   110114439.832 6      2823.986          39.625    20635401.420   110114439.832 6      2823.986          38.062
R05  22273996.880   119067283.864 7       398.496          44.312    22273994.400   119067283.844 7       398.496          43.812    22274012.040    92607935.514 7       309.941          44.750    22274011.240    92607934.517 7       309.941          46.000
G05  24362263.120   128024559.037 6      5241.701          41.375    24362261.760   128024559.050 6      5241.701          36.562    24362272.420    99759433.460 6      4084.442          36.312    24362273.380    99759436.477 7      4084.442          42.000
G20  22324914.400   117318215.494 7      4949.091          45.562    22324912.740   117318215.501 5      4949.091          34.187    22324919.300    91416813.025 5      3856.434          34.500
R15  22962719.900   122705813.927 7      3594.062          45.812    22962720.360   122705813.942 7      3594.062          44.937    22962738.200    95437937.918 7      2795.382          42.687    22962736.900    95437932.911 7      2795.382          43.125
G30  21576519.180   113385378.853 7      4682.736          47.312    21576517.540   113385378.857 8      4682.736          48.000    21576531.240    88352279.225 7      3648.885          47.500    21576532.320    88352293.227 7      3648.885          47.687
G07  21782155.720   114465997.102 8      2618.224          48.187    21782154.660   114465997.104 7      2618.224          46.000    21782162.900    89194317.791 7      2040.174          45.875    21782163.220    89194322.795 7      2040.174          47.250
G19  23595559.080   123995506.411 6      -493.994          41.062    23595556.300   123995506.424 5      -493.994          30.625    23595572.600    96619873.983 5      -384.931          30.875
G13  23197185.880   121902037.863 7      5710.581          43.500    23197185.500   121902037.865 4      5710.581          28.562    23197200.320    94988655.760 4      4449.804          28.125
R22  23593581.380   125944139.050 7      6744.341          42.750    23593582.540   125944139.056 7      6744.341          42.625    23593594.620    97956606.925 7      5245.599          45.375    23593594.520    97956609.923 7      5245.599          45.250
> 2024 07 31 15 19 12.0000000  0 16
G06  20470257.860   107571929.384 8      1626.837          49.187    20470256.840   107571929.386 8      1626.837          50.562    20470266.760    83822413.410 8      1267.665          50.625    20470267.940    83822320.412 8      1267.665          50.437
R21  19941061.000   106708650.587 8      3912.137          49.062    19941061.400   106708650.613 8      3912.137          48.500    19941072.600    82995668.308 8      3042.773          50.875    19941072.260    82995667.309 8      3042.773          50.062
R07  22866715.440   122407321.687 6      4617.951          41.500    22866713.400   122407321.718 6      4617.951          40.625    22866731.300    95205764.475 7      3591.740          44.437    22866731.680    95205769.459 7      3591.740          43.250
R16  23024629.000   122993440.084 6      5901.957          39.187    23024628.160   122993440.074 6      5901.957          39.000    23024654.380    95661667.557 7      4590.411          43.062    23024655.340    95661672.558 7      4590.411          43.687
G11  21135462.200   111067607.499 7      4494.577          47.500    21135460.980   111067607.507 6      4494.577          40.375    21135466.880    86546202.903 6      3502.267          39.687    21135465.580    86546198.907 8      3502.267          52.125
G09  22398566.200   117705253.465 7        94.848          45.250    22398565.320   117705253.470 7        94.848          44.562    22398574.900    91718418.619 7        73.907          44.250    22398575.340    91718424.633 7        73.907          45.875
R06  20634873.180   110111615.988 6      2823.687          39.625    20634872.380   110111615.992 6      2823.687          38.062
R05  22273922.440   119066885.125 7       398.821          42.750    22273919.040   119066885.105 7       398.821          43.812    22273937.780    92607625.375 7       310.194          44.875    22273936.540    92607624.380 7       310.194          45.687
G05  24361265.880   128019317.205 6      5241.827          40.500    24361264.240   128019317.215 6      5241.827          36.437    24361274.760    99755348.918 6      4084.541          36.187    24361276.240    99755351.938 6      4084.541          41.937
G20  22323972.480   117313266.349 7      4949.145          44.875    22323971.080   117313266.354 5      4949.145          34.187    22323977.480    91412956.547 5      3856.477          34.500
R15  22962046.960   122702220.214 7      3593.327          45.812    22962047.720   122702220.234 7      3593.327          44.875    22962065.500    95435142.816 7      2794.810          42.687    22962064.900    95435137.817 7      2794.810          43.062
G30  21575628.080   113380696.348 7      4682.268          47.812    21575626.460   113380696.353 8      4682.268          48.125    21575640.200    88348630.526 7      3648.520          47.812    21575641.240    88348644.526 8      3648.520          48.062
G07  21781657.660   114463379.195 7      2617.641          47.125    21781656.440   114463379.198 7      2617.641          46.000    21781664.760    89192277.868 7      2039.721          45.875    21781665.440    89192282.874 7      2039.721          47.437
G19  23595653.120   123996000.274 6      -493.838          40.750    23595650.320   123996000.292 5      -493.838          31.187    23595666.620    96620258.809 5      -384.809          30.875
G13  23196099.260   121896327.473 7      5710.237          44.625    23196098.780   121896327.483 4      5710.237          28.562    23196113.560    94984206.114 4      4449.535          28.125
R22  23592317.800   125937394.807 7      6744.063          42.750    23592319.560   125937394.816 7      6744.063          42.875    23592331.540    97951361.410 7      5245.383          45.687    23592331.300    97951364.411 7      5245.383          45.562
> 2024 07 31 15 19 13.0000000  0 16
G06  20469948.560   107570303.035 8      1626.064          48.437    20469947.340   107570303.037 8      1626.064          50.312    20469957.240    83821146.116 8      1267.063          50.312    20469958.140    83821053.117 8      1267.063          51.375
R21  19940330.000   106704739.099 8      3910.990          48.812    19940330.300   106704739.122 8      3910.990          48.375    19940341.700    82992626.033 8      3041.881          50.687    19940341.280    82992625.035 8      3041.881          50.062
R07  22865852.300   122402704.033 6      4617.598          41.500    22865850.440   122402704.056 6      4617.598          40.625    22865869.400    95202172.969 7      3591.465          44.500    22865869.800    95202177.961 7      3591.465          43.250
R16  23023524.620   122987538.299 6      5901.662          39.187    23023522.720   122987538.287 6      5901.662          39.000    23023549.760    95657077.286 7      4590.181          43.312    23023550.200    95657082.285 7      4590.181          43.375
G11  21134607.120   111063113.278 7      4494.031          47.375    21134605.780   111063113.280 6      4494.031          40.062    21134611.760    86542700.912 6      3501.842          39.750    21134610.200    86542696.913 8      3501.842          52.125
G09  22398548.040   117705158.785 7        94.671          45.312    22398547.380   117705158.792 7        94.671          43.750    22398556.860    91718344.839 7        73.769          43.937    22398557.940    91718350.842 7        73.769          46.125
R06  20634344.280   110108792.457 6      2823.455          39.187    20634343.080   110108792.458 6      2823.455          38.062
R05  22273847.680   119066486.476 7       398.708          42.750    22273845.060   119066486.475 7       398.708          43.250    22273863.300    92607315.319 7       310.107          45.125    22273862.280    92607314.318 7       310.107          46.375
G05  24360268.780   128014075.433 6      5241.756          41.687    24360266.920   128014075.438 6      5241.756          36.562    24360277.160    99751264.427 6      4084.485          36.625    24360278.140    99751267.437 6      4084.485          41.625
G20  22323030.800   117308317.346 7      4949.055          45.875    22323029.340   117308317.348 5      4949.055          34.750    22323035.760    91409100.184 5      3856.407          34.625
R15  22961374.660   122698627.288 7      3592.523          45.312    22961375.360   122698627.295 7      3592.523          44.250    22961393.060    95432348.321 7      2794.184          42.687    22961392.400    95432343.315 7      2794.184          43.437
G30  21574737.220   113376014.406 8      4681.727          48.000    21574735.580   113376014.405 7      4681.727          47.875    21574749.240    88344982.259 7      3648.099          47.875    21574750.160    88344996.262 7      3648.099          47.687
G07  21781159.420   114460761.949 7      2616.908          47.562    21781158.460   114460761.953 7      2616.908          46.250    21781166.860    89190238.461 7      2039.149          46.187    21781167.360    89190243.465 7      2039.149          47.500
G19  23595747.580   123996494.279 6      -494.013          40.562    23595744.720   123996494.297 5      -494.013          31.187    23595760.600    96620643.740 5      -384.945          30.875
G13  23195012.600   121890617.478 7      5709.877          43.875    23195012.340   121890617.488 4      5709.877          28.187    23195026.960    94979756.775 4      4449.255          28.125
R22  23591053.980   125930650.994 7      6743.580          43.875    23591056.640   125930650.992 7      6743.580          43.312    23591068.380    97946116.214 7      5245.007          45.750    23591068.020    97946119.215 7      5245.007          45.437
> 2024 07 31 15 19 14.0000000  0 16
G06  20469639.340   107568677.263 7      1625.382          47.937    20469638.020   107568677.266 8      1625.382          50.000    20469647.960    83819879.279 8      1266.531          50.187    20469648.880    83819786.278 8      1266.531          51.250
R21  19939599.200   106700828.449 8      3910.117          49.375    19939599.640   106700828.472 8      3910.117          48.937    19939610.880    82989584.412 8      3041.202          50.687    19939610.460    82989583.413 8      3041.202          49.750
R07  22864989.820   122398086.586 6      4617.155          41.000    22864987.360   122398086.617 6      4617.155          40.625    22865007.760    95198581.652 7      3591.121          45.062    22865006.920    95198586.646 7      3591.121          43.562
R16  23022419.840   122981636.717 6      5901.322          39.187    23022417.980   122981636.713 6      5901.322          38.750    23022445.240    95652487.175 7      4589.917          43.687    23022445.420    95652492.181 7      4589.917          43.937
G11  21133751.760   111058619.555 7      4493.350          47.500    21133750.760   111058619.565 6      4493.350          40.187    21133756.720    86539199.316 6      3501.312          39.812    21133755.160    86539195.319 8      3501.312          52.500
G09  22398529.880   117705064.197 7        94.470          45.125    22398529.240   117705064.199 7        94.470          44.375    22398538.820    91718271.128 7        73.613          44.187    22398540.300    91718277.121 7        73.613          47.000
R06  20633815.520   110105969.148 6      2823.186          39.187    20633814.360   110105969.138 6      2823.186          38.062
R05  22273773.360   119066087.755 7       398.715          43.125    22273771.220   119066087.759 7       398.715          43.875    22273788.520    92607005.188 7       310.112          45.187    22273787.480    92607004.185 7       310.112          45.687
G05  24359271.360   128008833.590 6      5241.742          40.812    24359269.400   128008833.598 6      5241.742          36.687    24359279.440    99747179.882 6      4084.474          36.312    24359280.560    99747182.892 6      4084.474          41.625
G20  22322088.940   117303368.390 7      4948.835          45.812    22322087.580   117303368.389 5      4948.835          34.562    22322093.900    91405243.855 5      3856.235          34.625
R15  22960702.420   122695035.004 7      3591.879          45.750    22960702.760   122695035.021 7      3591.879          44.750    22960721.040    95429554.343 7      2793.683          42.437    22960720.020    95429549.335 7      2793.683          43.187
G30  21573846.100   113371332.902 7      4681.258          47.875    21573844.720   113371332.902 7      4681.258          47.750    21573858.220    88341334.343 7      3647.733          47.375    21573859.340    88341348.341 7      3647.733          47.687
G07  21780661.340   114458145.233 7      2616.344          47.187    21780660.560   114458145.237 7      2616.344          46.375    21780668.780    89188199.460 7      2038.709          46.000    21780669.400    89188204.462 7      2038.709          47.312
G19  23595841.800   123996988.252 7      -494.096          42.062    23595839.020   123996988.270 5      -494.096          31.187    23595854.440    96621028.648 5      -385.010          31.250
G13  23193926.280   121884907.771 7      5709.564          44.062    23193925.760   121884907.779 4      5709.564          28.187    23193940.560    94975307.657 4      4449.011          28.125
R22  23589791.780   125923907.442 7      6743.329          43.062    23589793.240   125923907.448 7      6743.329          42.937    23589804.900    97940871.235 7      5244.812          45.500    23589804.820    97940874.240 7      5244.812          45.562
> 2024 07 31 15 19 15.0000000  0 16
G06  20469329.900   107567052.065 8      1624.723          48.625    20469328.780   107567052.070 8      1624.723          49.750    20469338.700    83818612.883 8      1266.018          50.250    20469339.500    83818519.885 8      1266.018          51.500
R21  19938868.380   106696918.689 8      3909.142          49.312    19938868.980   106696918.710 8      3909.142          49.062    19938880.280    82986543.486 8      3040.444          51.125    19938880.020    82986542.492 8      3040.444          50.062
R07  22864126.960   122393469.360 6      4616.974          41.000    22864124.300   122393469.386 6      4616.974          40.187    22864146.040    95194990.489 7      3590.980          45.312    22864144.980    95194995.480 7      3590.980          44.875
R16  23021314.760   122975735.344 6      5901.074          38.937    23021313.440   122975735.323 6      5901.074          38.750    23021340.500    95647897.210 7      4589.724          43.750    23021340.940    95647902.213 7      4589.724          44.062
G11  21132896.880   111054126.329 7      4492.742          47.125    21132895.640   111054126.339 6      4492.742          40.000    21132901.680    86535698.097 6      3500.838          39.687    21132900.340    86535694.098 8      3500.838          52.375
G09  22398512.160   117704969.698 7        94.273          44.000    22398511.300   117704969.698 7        94.273          44.812    22398520.780    91718197.486 7        73.460          43.937    22398522.100    91718203.475 7        73.460          46.312
R06  20633285.860   110103146.006 6      2822.938          39.187    20633284.800   110103146.010 6      2822.938          38.187
R05  22273698.560   119065688.914 7       398.686          43.312    22273698.180   119065688.934 7       398.686          44.062    22273713.440    92606694.985 7       310.089          45.062    22273712.900    92606693.979 7       310.089          46.312
G05  24358273.500   128003591.698 6      5241.718          40.250    24358272.080   128003591.705 6      5241.718          36.250    24358281.780    99743095.292 6      4084.456          36.312    24358282.500    99743098.304 6      4084.456          40.937
G20  22321147.380   117298419.436 7      4948.749          45.625    22321145.800   117298419.439 5      4948.749          34.812    22321152.140    91401387.536 5      3856.168          34.625
R15  22960030.300   122691443.439 7      3591.067          45.062    22960030.660   122691443.456 7      3591.067          44.125    22960048.700    95426760.905 7      2793.052          43.000    22960047.840    95426755.901 7      2793.052          43.312
G30  21572955.460   113366651.853 7      4680.631          47.687    21572953.980   113366651.858 7      4680.631          47.437    21572967.600    88337686.780 7      3647.245          47.062    21572968.680    88337700.785 8      3647.245          48.125
G07  21780163.480   114455529.050 8      2615.775          48.125    21780162.760   114455529.050 7      2615.775          45.750    21780171.000    89186160.876 7      2038.266          45.937    21780171.520    89186165.882 7      2038.266          47.000
G19  23595935.380   123997482.189 6      -494.046          41.937    23595933.360   123997482.202 5      -494.046          31.437    23595948.240    96621413.532 5      -384.971          31.250
G13  23192839.720   121879198.349 7      5709.148          44.062    23192839.380   121879198.361 4      5709.148          28.187    23192854.240    94970858.762 4      4448.687          28.125
R22  23588528.380   125917164.184 7      6743.003          43.750    23588529.820   125917164.182 7      6743.003          42.937    23588541.300    97935626.477 7      5244.558          45.375    23588541.340    97935629.477 7      5244.558          45.500
> 2024 07 31 15 19 16.0000000  0 16
G06  20469020.920   107565427.626 8      1624.093          48.812    20469019.580   107565427.628 8      1624.093          50.125    20469029.600    83817347.080 8      1265.527          50.187    20469030.700    83817254.080 8      1265.527          51.375
R21  19938137.920   106693009.947 8      3908.288          49.500    19938138.500   106693009.972 8      3908.288          49.125    19938149.800    82983503.359 8      3039.780          51.000    19938149.340    82983502.362 8      3039.780          50.187
R07  22863264.860   122388852.568 6      4616.689          41.000    22863262.000   122388852.597 6      4616.689          40.187    22863284.400    95191399.664 7      3590.758          46.000    22863282.700    95191404.656 7      3590.758          45.375
R16  23020209.720   122969834.301 6      5900.908          38.937    23020208.960   122969834.260 6      5900.908          38.750    23020236.060    95643307.500 7      4589.595          43.937    23020236.100    95643312.505 7      4589.595          44.875
G11  21132041.720   111049633.738 7      4492.295          47.375    21132040.700   111049633.751 6      4492.295          39.812    21132046.820    86532197.379 6      3500.489          39.375    21132045.300    86532193.383 8      3500.489          52.250
G09  22398494.060   117704875.433 7        94.206          43.625    22398493.380   117704875.433 7        94.206          43.812    22398502.840    91718124.031 7        73.407          44.125    22398504.120    91718130.018 7        73.407          46.187
R06  20632756.640   110100323.254 6      2822.697          39.187    20632756.020   110100323.260 6      2822.697          38.187
R05  22273624.020   119065290.131 7       398.804          43.250    22273624.660   119065290.157 7       398.804          44.750    22273638.240    92606384.816 7       310.181          44.687    22273638.240    92606383.807 7       310.181          45.375
G05  24357276.360   127998349.905 6      5241.802          40.250    24357274.460   127998349.912 5      5241.802          35.750    24357284.080    99739010.783 6      4084.521          36.000    24357284.400    99739013.795 6      4084.521          40.937
G20  22320205.440   117293470.657 7      4948.749          45.562    22320204.140   117293470.667 5      4948.749          34.812    22320210.520    91397531.350 5      3856.168          34.875
R15  22959358.800   122687852.766 7      3590.252          45.437    22959358.460   122687852.772 7      3590.252          43.812    22959376.720    95423968.167 7      2792.418          42.625    22959375.920    95423963.166 7      2792.418          43.312
G30  21572064.760   113361971.411 8      4680.137          48.437    21572063.360   113361971.416 7      4680.137          47.937    21572076.900    88334039.689 8      3646.860          48.062    21572078.000    88334053.689 8      3646.860          48.250
G07  21779665.760   114452913.577 7      2615.145          47.500    21779664.840   114452913.587 7      2615.145          45.687    21779673.240    89184122.855 7      2037.775          45.875    21779673.720    89184127.859 7      2037.775          47.437
G19  23596029.420   123997976.304 7      -494.101          42.062    23596027.660   123997976.314 5      -494.101          31.437    23596042.120    96621798.551 5      -385.014          31.375
G13  23191753.440   121873489.383 7      5708.829          43.812    23191752.980   121873489.396 4      5708.829          28.187    23191767.840    94966410.230 4      4448.438          28.250
R22  23587265.180   125910421.355 7      6742.605          43.250    23587265.980   125910421.367 7      6742.605          42.812    23587277.780    97930382.071 7      5244.249          45.375    23587278.280    97930385.070 7      5244.249          45.312
> 2024 07 31 15 19 17.0000000  0 16
G06  20468711.900   107563803.641 8      1623.562          48.750    20468710.560   107563803.646 8      1623.562          50.062    20468720.540    83816081.633 8      1265.113          50.250    20468721.760    83815988.631 8      1265.113          51.625
R21  19937407.220   106689101.958 8      3907.418          48.625    19937408.440   106689101.987 8      3907.418          49.125    19937419.420    82980463.811 8      3039.103          50.750    19937419.220    82980462.814 8      3039.103          50.187
R07  22862402.360   122384235.892 6      4616.355          40.500    22862399.200   122384235.912 6      4616.355          40.187    22862422.220    95187808.917 7      3590.498          47.250    22862420.840    95187813.905 7      3590.498          45.562
R16  23019105.360   122963933.259 6      5900.918          38.937    23019103.880   122963933.220 6      5900.918          38.750    23019131.540    95638717.800 7      4589.603          44.437    23019131.680    95638722.803 7      4589.603          44.875
G11  21131186.840   111045141.516 8      4491.895          48.125    21131185.960   111045141.524 6      4491.895          40.062    21131191.960    86528696.942 6      3500.178          39.687    21131190.280    86528692.943 8      3500.178          51.937
G09  22398476.180   117704781.129 7        94.111          45.250    22398475.380   117704781.134 7        94.111          44.000    22398485.040    91718050.549 7        73.333          43.875    22398485.460    91718056.540 7        73.333          45.437
R06  20632227.540   110097500.572 6      2822.448          39.562    20632226.800   110097500.588 6      2822.448          38.187
R05  22273549.540   119064891.124 7       398.967          44.687    22273550.940   119064891.152 7       398.967          45.250    22273563.060    92606074.476 7       310.308          44.812    22273563.420    92606073.466 7       310.308          45.187
G05  24356278.800   127993107.923 6      5241.852          40.875    24356276.980   127993107.938 6      5241.852          36.000    24356286.360    99734926.130 5      4084.560          35.687    24356287.300    99734929.133 6      4084.560          40.375
G20  22319263.580   117288521.795 7      4948.797          45.750    22319262.440   117288521.805 5      4948.797          34.750    22319268.840    91393675.093 5      3856.206          34.875
R15  22958686.700   122684262.584 7      3589.780          45.375    22958686.480   122684262.596 7      3589.780          44.250    22958704.840    95421175.812 7      2792.051          43.187    22958703.980    95421170.813 7      2792.051          43.437
G30  21571174.020   113357291.263 7      4679.844          47.875    21571172.780   113357291.271 8      4679.844          48.000    21571186.220    88330392.822 7      3646.631          47.750    21571187.460    88330406.827 8      3646.631          48.500
G07  21779168.020   114450298.506 7      2614.711          47.750    21779167.320   114450298.513 7      2614.711          46.250    21779175.640    89182085.133 7      2037.437          46.125    21779176.060    89182090.137 7      2037.437          47.687
G19  23596123.400   123998470.264 7      -494.005          42.187    23596121.860   123998470.275 5      -494.005          31.437    23596136.080    96622183.455 5      -384.939          31.375
G13  23190667.260   121867780.578 7      5708.554          43.312    23190666.560   121867780.588 4      5708.554          28.000    23190681.540    94961961.819 4      4448.224          28.250
R22  23586001.860   125903678.700 7      6742.332          43.250    23586002.860   125903678.698 7      6742.332          43.125    23586014.600    97925137.782 7      5244.036          45.000    23586015.100    97925140.778 7      5244.036          44.750
> 2024 07 31 15 19 18.0000000  0 16
G06  20468402.860   107562180.345 8      1623.136          48.375    20468401.720   107562180.352 8      1623.136          50.312    20468411.600    83814816.723 8      1264.781          50.500    20468412.780    83814723.723 8      1264.781          51.625
R21  19936677.300   106685195.011 8      3906.597          48.875    19936678.140   106685195.034 8      3906.597          48.875    19936689.380    82977425.074 8      3038.464          51.187    19936689.200    82977424.073 8      3038.464          49.812
R07  22861540.080   122379619.504 6      4616.327          40.500    22861536.820   122379619.527 6      4616.327          40.187    22861560.900    95184218.419 7      3590.476          47.125    22861558.680    95184223.411 7      3590.476          47.062
R16  23018000.600   122958032.511 6      5900.634          38.937    23017998.920   122958032.501 6      5900.634          38.312    23018027.340    95634128.363 7      4589.382          43.937    23018027.340    95634133.366 7      4589.382          45.250
G11  21130332.220   111040649.906 7      4491.457          47.187    21130331.200   111040649.916 6      4491.457          40.437    21130337.140    86525196.986 6      3499.837          39.750    21130335.520    86525192.994 8      3499.837          52.312
G09  22398458.180   117704687.004 7        94.281          45.062    22398457.440   117704687.006 7        94.281          44.437    22398467.140    91717977.205 7        73.465          43.937    22398467.180    91717983.200 7        73.465          44.687
R06  20631698.500   110094678.236 6      2822.338          39.562    20631698.800   110094678.261 6      2822.338          38.187
R05  22273474.840   119064492.158 7       399.140          45.375    22273477.080   119064492.180 7       399.140          45.875    22273487.980    92605764.172 7       310.442          44.437    22273488.240    92605763.158 7       310.442          44.812
G05  24355281.300   127987866.012 6      5241.915          41.437    24355279.420   127987866.022 5      5241.915          35.875    24355288.620    99730841.524 5      4084.609          35.937    24355289.860    99730844.527 6      4084.609          40.375
G20  22318321.840   117283573.055 7      4948.976          46.187    22318320.760   117283573.057 5      4948.976          34.437    22318327.200    91389818.931 5      3856.345          34.687
R15  22958015.080   122680673.196 7      3589.284          45.000    22958014.520   122680673.203 7      3589.284          44.250    22958033.480    95418384.068 7      2791.666          42.937    22958032.380    95418379.071 7      2791.666          43.250
G30  21570283.580   113352611.683 7      4679.490          46.687    21570282.220   113352611.693 7      4679.490          47.562    21570295.800    88326746.408 7      3646.356          47.812    21570297.100    88326760.407 8      3646.356          48.312
G07  21778670.460   114447684.104 7      2614.261          47.250    21778669.840   114447684.107 7      2614.261          46.062    21778678.100    89180047.939 7      2037.087          45.750    21778678.480    89180052.944 7      2037.087          47.750
G19  23596217.460   123998964.322 7      -493.880          42.500    23596215.980   123998964.327 5      -493.880          31.500    23596230.180    96622568.434 5      -384.842          31.375
G13  23189581.260   121862072.159 7      5708.511          43.625    23189580.100   121862072.169 4      5708.511          28.000    23189595.240    94957513.706 4      4448.190          28.250
R22  23584738.700   125896936.419 7      6742.315          42.937    23584739.860   125896936.414 7      6742.315          43.187    23584751.660    97919893.779 7      5244.023          45.437    23584752.020    97919896.776 7      5244.023          45.062
> 2024 07 31 15 19 19.0000000  0 16
G06  20468093.920   107560557.705 8      1622.348          49.437    20468092.980   107560557.710 8      1622.348          49.812    20468102.920    83813552.318 8      1264.167          49.562    20468104.020    83813459.319 8      1264.167          51.500
R21  19935947.280   106681289.019 8      3905.558          49.000    19935948.140   106681289.042 8      3905.558          48.500    19935959.420    82974387.076 8      3037.656          50.500    19935959.280    82974386.075 8      3037.656          49.000
R07  22860677.880   122375003.408 6      4616.103          40.500    22860674.480   122375003.434 6      4616.103          40.062    22860699.160    95180628.115 7      3590.302          47.187    22860696.660    95180633.114 7      3590.302          46.875
R16  23016896.360   122952131.949 6      5900.562          38.562    23016894.860   122952131.945 6      5900.562          38.312    23016922.780    95629539.045 7      4589.326          44.250    23016922.880    95629544.052 7      4589.326          44.437
G11  21129477.680   111036158.834 7      4490.840          47.875    21129476.620   111036158.842 6      4490.840          39.687    21129482.380    86521697.450 6      3499.356          39.312    21129481.060    86521693.451 8      3499.356          52.437
G09  22398440.280   117704593.046 7        93.936          45.125    22398439.460   117704593.051 7        93.936          44.062    22398449.180    91717903.989 7        73.197          44.250    22398449.500    91717909.996 7        73.197          44.500
R06  20631169.360   110091856.156 6      2822.052          39.562    20631169.420   110091856.189 6      2822.052          38.062
R05  22273400.280   119064093.188 7       398.895          47.187    22273402.080   119064093.205 7       398.895          45.625    22273412.480    92605453.869 7       310.251          43.812    22273413.460    92605452.853 7       310.251          43.500
G05  24354283.580   127982624.093 6      5241.805          41.625    24354281.960   127982624.103 6      5241.805          36.312    24354291.180    99726756.916 6      4084.523          36.062    24354292.540    99726759.926 6      4084.523          40.312
G20  22317380.280   117278624.417 7      4948.658          46.000    22317378.980   117278624.416 5      4948.658          34.437    22317385.540    91385962.854 5      3856.097          34.875
R15  22957343.320   122677084.557 7      3588.282          45.625    22957342.820   122677084.561 7      3588.282          44.500    22957361.980    95415592.915 7      2790.886          42.750    22957360.840    95415587.915 7      2790.886          43.500
G30  21569393.320   113347932.623 7      4678.846          47.187    21569391.840   113347932.628 7      4678.846          47.062    21569405.500    88323100.384 7      3645.854          47.062    21569406.780    88323114.386 8      3645.854          48.250
G07  21778173.040   114445070.276 7      2613.591          47.750    21778172.400   114445070.281 7      2613.591          46.062    21778180.620    89178011.196 7      2036.565          45.875    21778181.200    89178016.204 7      2036.565          47.312
G19  23596311.700   123999458.424 6      -494.147          41.750    23596310.060   123999458.426 5      -494.147          31.500    23596323.960    96622953.457 5      -385.049          31.437
G13  23188494.820   121856364.092 7      5707.935          43.875    23188493.800   121856364.097 4      5707.935          28.000    23188508.820    94953065.866 4      4447.742          28.250
R22  23583476.380   125890194.503 7      6741.735          43.625    23583477.720   125890194.498 7      6741.735          43.187    23583489.220    97914650.063 7      5243.571          45.250    23583489.040    97914653.068 7      5243.571          45.500
> 2024 07 31 15 19 20.0000000  0 16
G06  20467785.400   107558935.699 8      1621.637          48.375    20467784.300   107558935.704 8      1621.637          50.250    20467794.280    83812288.415 8      1263.613          50.250    20467795.340    83812195.416 8      1263.613          51.750
R21  19935217.880   106677383.974 8      3904.513          49.125    19935218.440   106677383.994 7      3904.513          47.875    19935229.580    82971349.816 8      3036.844          50.875    19935229.360    82971348.818 8      3036.844          49.625
R07  22859815.660   122370387.628 6      4615.522          40.687    22859813.200   122370387.654 6      4615.522          40.062    22859837.380    95177038.081 7      3589.851          47.500    22859834.720    95177043.081 8      3589.851          48.250
R16  23015791.140   122946231.678 6      5900.108          38.562    23015790.000   122946231.661 6      5900.108          38.312    23015818.240    95624949.946 7      4588.973          44.937    23015818.200    95624954.949 7      4588.973          45.312
G11  21128623.100   111031668.325 7      4490.160          46.937    21128622.100   111031668.335 6      4490.160          39.875    21128627.860    86518198.353 6      3498.826          39.625    21128626.500    86518194.353 8      3498.826          51.812
G09  22398422.500   117704499.233 7        93.632          45.062    22398421.580   117704499.238 7        93.632          44.062    22398431.240    91717830.882 7        72.960          43.937    22398431.260    91717836.899 7        72.960          44.812
R06  20630640.520   110089034.423 6      2821.352          39.125    20630640.860   110089034.443 6      2821.352          38.062
R05  22273325.300   119063694.224 7       398.835          46.750    22273327.300   119063694.225 7       398.835          45.437    22273337.060    92605143.557 7       310.205          43.687    22273338.380    92605142.545 7       310.205          43.687
G05  24353286.100   127977382.166 7      5241.824          42.312    24353284.740   127977382.168 6      5241.824          36.312    24353293.760    99722672.295 6      4084.538          36.187    24353294.740    99722675.309 6      4084.538          40.312
G20  22316438.720   117273675.852 7      4948.417          45.562    22316437.340   117273675.855 5      4948.417          34.562    22316443.820    91382106.834 5      3855.910          34.875
R15  22956672.200   122673496.636 7      3587.458          44.812    22956671.400   122673496.640 7      3587.458          44.500    22956690.640    95412802.318 7      2790.245          42.937    22956689.260    95412797.316 7      2790.245          43.125
G30  21568503.040   113343254.060 7      4678.231          47.437    21568501.520   113343254.068 7      4678.231          47.875    21568515.040    88319454.760 7      3645.375          47.375    21568516.480    88319468.758 7      3645.375          47.875
G07  21777675.900   114442457.063 7      2612.838          47.750    21777675.200   114442457.065 7      2612.838          46.062    21777683.420    89175974.926 7      2035.978          46.437    21777683.940    89175979.930 7      2035.978          47.375
G19  23596405.700   123999952.573 6      -494.280          41.875    23596404.200   123999952.576 5      -494.280          31.500    23596418.000    96623338.509 5      -385.153          31.437
G13  23187408.840   121850656.362 7      5707.575          43.750    23187407.600   121850656.369 4      5707.575          28.000    23187422.760    94948618.292 4      4447.461          28.250
R22  23582213.380   125883452.926 7      6741.310          43.375    23582215.660   125883452.916 7      6741.310          43.687    23582226.720    97909406.620 7      5243.241          45.750    23582226.400    97909409.619 7      5243.241          45.312
> 2024 07 31 15 19 21.0000000  0 16
G06  20467476.800   107557314.332 8      1621.138          49.250    20467475.780   107557314.334 8      1621.138          50.125    20467485.740    83811025.002 8      1263.224          50.062    20467486.880    83810932.002 8      1263.224          51.437
R21  19934488.000   106673479.804 7      3903.801          47.937    19934488.980   106673479.835 8      3903.801          48.000    19934499.940    82968313.242 8      3036.290          50.437    19934499.880    82968312.239 8      3036.290          49.750
R07  22858953.760   122365772.140 6      4615.388          40.687    22858951.000   122365772.168 6      4615.388          40.062    22858975.480    95173448.259 7      3589.746          47.687    22858972.760    95173453.255 8      3589.746          48.625
R16  23014686.300   122940331.574 6      5900.110          38.562    23014685.500   122940331.567 6      5900.110          38.312    23014713.920    95620360.982 7      4588.974          44.625    23014713.920    95620365.991 7      4588.974          45.375
G11  21127768.680   111027178.349 8      4489.815          48.000    21127767.700   111027178.357 6      4489.815          39.812    21127773.600    86514699.667 6      3498.557          39.187    21127772.220    86514695.664 8      3498.557          52.562
G09  22398404.760   117704405.536 7        93.716          44.437    22398403.680   117704405.541 7        93.716          43.562    22398413.460    91717757.869 7        73.025          43.687    22398413.920    91717763.884 7        73.025          45.375
R06  20630111.540   110086212.840 6      2821.536          39.125    20630111.260   110086212.878 6      2821.536          38.062
R05  22273250.300   119063295.236 7       399.080          46.125    22273251.520   119063295.218 7       399.080          45.062    22273262.560    92604833.229 7       310.396          43.625    22273263.680    92604832.223 7       310.396          43.312
G05  24352288.820   127972140.210 6      5242.041          41.875    24352287.460   127972140.223 6      5242.041          36.000    24352296.360    99718587.663 6      4084.708          36.187    24352297.000    99718590.679 6      4084.708          40.625
G20  22315497.000   117268727.351 7      4948.518          45.312    22315495.580   117268727.356 5      4948.518          34.375    22315502.140    91378250.860 5      3855.988          34.312
R15  22956001.100   122669909.428 7      3586.994          45.125    22956000.120   122669909.432 7      3586.994          43.875    22956019.120    95410012.269 7      2789.884          43.125    22956018.160    95410007.268 7      2789.884          43.375
G30  21567612.920   113338575.978 8      4677.877          48.187    21567611.280   113338575.985 7      4677.877          47.562    21567624.760    88315809.505 7      3645.099          47.312    21567626.040    88315823.503 7      3645.099          47.687
G07  21777179.040   114439844.424 8      2612.452          48.062    21777177.900   114439844.424 7      2612.452          45.562    21777186.240    89173939.104 7      2035.677          46.062    21777186.680    89173944.110 7      2035.677          47.250
G19  23596499.680   124000446.754 6      -494.171          41.562    23596498.060   124000446.756 5      -494.171          31.500    23596511.860    96623723.585 5      -385.069          31.437
G13  23186322.520   121844948.976 7      5707.374          43.625    23186321.440   121844948.980 4      5707.374          28.000    23186336.560    94944170.984 4      4447.304          28.187
R22  23580950.700   125876711.672 7      6741.097          44.437    23580953.080   125876711.671 7      6741.097          43.937    23580963.760    97904163.419 7      5243.076          45.812    23580963.540    97904166.424 7      5243.076          46.250
> 2024 07 31 15 19 22.0000000  0 16
G06  20467168.360   107555693.708 8      1620.467          49.312    20467167.400   107555693.710 8      1620.467          50.250    20467177.260    83809762.174 8      1262.701          50.750    20467178.220    83809669.174 8      1262.701          51.375
R21  19933758.760   106669576.683 8      3902.720          48.750    19933759.640   106669576.716 8      3902.720          48.437    19933770.780    82965277.483 8      3035.449          50.500    19933770.320    82965276.486 8      3035.449          49.875
R07  22858091.620   122361157.050 6      4615.042          40.687    22858090.140   122361157.086 6      4615.042          40.250    22858113.140    95169858.763 7      3589.477          47.312    22858110.900    95169863.770 8      3589.477          48.062
R16  23013582.040   122934431.880 6      5899.846          39.062    23013581.660   122934431.854 6      5899.846          38.187    23013609.100    95615772.321 7      4588.769          44.687    23013609.380    95615777.326 7      4588.769          45.312
G11  21126914.380   111022689.049 7      4489.050          47.375    21126913.460   111022689.056 6      4489.050          40.062    21126919.160    86511201.513 6      3497.961          39.625    21126917.960    86511197.508 8      3497.961          51.750
G09  22398386.880   117704312.112 7        93.513          44.625    22398385.800   117704312.112 7        93.513          44.000    22398395.700    91717685.063 7        72.868          43.875    22398396.360    91717691.080 7        72.868          46.187
R06  20629582.860   110083391.721 6      2820.965          39.125    20629582.620   110083391.751 6      2820.965          38.062
R05  22273175.840   119062896.373 7       398.830          44.875    22273175.880   119062896.356 7       398.830          44.812    22273187.440    92604523.009 7       310.201          43.812    22273188.760    92604522.020 7       310.201          43.125
G05  24351291.200   127966898.415 6      5241.799          41.812    24351290.080   127966898.425 6      5241.799          36.687    24351298.800    99714503.155 6      4084.519          36.562    24351299.520    99714506.165 6      4084.519          40.625
G20  22314555.480   117263779.041 7      4948.319          45.500    22314553.960   117263779.049 5      4948.319          34.375    22314560.460    91374395.039 5      3855.833          34.812
R15  22955329.560   122666323.081 7      3586.036          45.437    22955329.060   122666323.095 7      3586.036          44.250    22955347.920    95407222.911 7      2789.139          43.000    22955347.160    95407217.916 7      2789.139          43.500
G30  21566722.660   113333898.523 8      4677.283          48.000    21566721.280   113333898.531 7      4677.283          47.687    21566734.740    88312164.741 7      3644.636          47.437    21566736.060    88312178.740 8      3644.636          48.062
G07  21776681.960   114437232.512 7      2611.617          47.437    21776680.860   114437232.514 7      2611.617          45.750    21776689.240    89171903.853 7      2035.026          45.875    21776689.800    89171908.862 7      2035.026          47.437
G19  23596594.060   124000941.114 6      -494.438          41.687    23596592.180   124000941.113 5      -494.438          31.500    23596605.980    96624108.802 5      -385.276          31.062
G13  23185236.280   121839242.075 7      5706.713          42.625    23185235.540   121839242.078 4      5706.713          28.312    23185250.640    94939724.049 4      4446.790          28.187
R22  23579688.000   125869970.880 7      6740.706          44.375    23579690.100   125869970.881 7      6740.706          44.500    23579700.820    97898920.583 7      5242.772          45.437    23579700.740    97898923.587 7      5242.772          45.875
> 2024 07 31 15 19 23.0000000  0 16
G06  20466860.160   107554073.630 8      1619.607          48.687    20466859.120   107554073.635 8      1619.607          50.375    20466868.940    83808499.769 8      1262.031          50.187    20466869.980    83808406.772 8      1262.031          51.312
R21  19933029.480   106665674.383 8      3901.763          49.250    19933030.180   106665674.411 8      3901.763          48.375    19933041.520    82962242.354 8      3034.705          50.625    19933041.080    82962241.356 8      3034.705          50.125
R07  22857229.200   122356542.142 6      4614.666          40.812    22857227.820   122356542.171 6      4614.666          40.250    22857250.980    95166269.410 7      3589.185          47.437    22857249.080    95166274.414 7      3589.185          47.875
R16  23012477.880   122928532.317 6      5899.439          39.062    23012477.440   122928532.289 6      5899.439          38.187    23012505.420    95611183.787 7      4588.453          45.187    23012505.320    95611188.783 7      4588.453          45.937
G11  21126060.060   111018200.147 7      4488.573          47.312    21126059.260   111018200.152 6      4488.573          40.562    21126064.940    86507703.667 6      3497.589          39.687    21126063.660    86507699.667 8      3497.589          52.250
G09  22398369.140   117704218.693 7        93.283          44.312    22398368.120   117704218.703 7        93.283          43.687    22398377.900    91717612.273 7        72.688          43.437    22398378.900    91717618.276 7        72.688          46.062
R06  20629054.040   110080570.701 6      2820.813          39.125    20629054.100   110080570.709 6      2820.813          38.125
R05  22273100.960   119062497.334 7       398.869          45.312    22273100.360   119062497.322 7       398.869          44.375    22273113.520    92604212.643 7       310.232          43.437    22273114.440    92604211.652 7       310.232          42.937
G05  24350293.560   127961656.480 6      5241.896          41.937    24350292.760   127961656.488 6      5241.896          36.125    24350301.240    99710418.520 6      4084.595          36.562    24350301.900    99710421.522 6      4084.595          40.625
G20  22313613.740   117258830.706 7      4948.250          45.937    22313612.380   117258830.713 5      4948.250          34.750    22313618.960    91370539.199 5      3855.779          34.812
R15  22954658.740   122662737.321 7      3585.248          44.937    22954657.980   122662737.336 7      3585.248          44.250    22954677.580    95404433.995 7      2788.526          42.562    22954675.780    95404428.990 7      2788.526          43.625
G30  21565832.580   113329221.457 7      4676.674          47.125    21565831.220   113329221.462 7      4676.674          47.937    21565844.760    88308520.275 7      3644.162          47.812    21565846.040    88308534.277 8      3644.162          48.000
G07  21776185.120   114434621.035 7      2611.174          46.937    21776183.880   114434621.042 7      2611.174          45.687    21776192.280    89169868.940 7      2034.681          45.562    21776192.680    89169873.947 7      2034.681          47.625
G19  23596687.780   124001435.347 6      -494.312          40.125    23596686.040   124001435.342 5      -494.312          31.250    23596699.980    96624493.921 5      -385.178          31.062
G13  23184150.180   121833535.354 7      5706.354          42.500    23184149.600   121833535.361 4      5706.354          28.312    23184164.780    94935277.257 4      4446.510          28.187
R22  23578425.540   125863230.291 7      6740.281          44.125    23578426.420   125863230.311 7      6740.281          43.500    23578437.940    97893677.929 7      5242.440          45.937    23578438.020    97893680.934 7      5242.440          45.812
> 2024 07 31 15 19 24.0000000  0 16
G06  20466552.000   107552454.296 8      1618.974          48.000    20466550.980   107552454.298 8      1618.974          50.875    20466560.940    83807237.945 8      1261.538          50.062    20466562.140    83807144.943 8      1261.538          51.750
R21  19932300.280   106661773.199 8      3900.675          50.125    19932301.340   106661773.222 8      3900.675          49.625    19932312.620    82959208.092 8      3033.858          50.687    19932312.020    82959207.097 8      3033.858          50.250
R07  22856367.000   122351927.636 6      4614.494          40.812    22856366.300   122351927.659 6      4614.494          41.500    22856389.420    95162680.349 7      3589.051          47.812    22856387.220    95162685.352 7      3589.051          47.937
R16  23011372.780   122922633.145 6      5898.859          39.062    23011373.380   122922633.119 6      5898.859          38.187    23011401.180    95606595.547 7      4588.001          45.062    23011400.920    95606600.550 7      4588.001          45.687
G11  21125206.100   111013711.940 7      4487.947          47.187    21125205.060   111013711.947 6      4487.947          40.125    21125210.900    86504206.365 6      3497.101          39.750    21125209.460    86504202.362 8      3497.101          52.437
G09  22398351.820   117704125.558 7        93.071          44.062    22398350.420   117704125.560 7        93.071          43.875    22398360.220    91717539.694 7        72.523          44.187    22398361.520    91717545.679 7        72.523          46.125
R06  20628525.540   110077750.070 6      2820.556          39.125    20628526.060   110077750.073 6      2820.556          38.125
R05  22273026.340   119062098.354 7       399.014          45.437    22273025.160   119062098.342 7       399.014          45.000    22273038.980    92603902.327 7       310.344          43.875    22273039.580    92603901.342 7       310.344          43.625
G05  24349296.180   127956414.659 7      5241.891          43.187    24349295.300   127956414.666 6      5241.891          37.062    24349303.800    99706333.984 6      4084.590          36.937    24349304.820    99706336.988 6      4084.590          40.250
G20  22312672.220   117253882.577 7      4948.139          46.062    22312670.880   117253882.582 5      4948.139          35.062    22312677.260    91366683.511 5      3855.692          34.937
R15  22953987.600   122659152.414 7      3584.599          45.937    22953986.900   122659152.421 7      3584.599          44.812    22954006.640    95401645.738 7      2788.021          43.125    22954005.040    95401640.735 7      2788.021          43.625
G30  21564942.780   113324544.996 8      4676.193          48.062    21564941.320   113324545.001 8      4676.193          48.125    21564954.880    88304876.287 7      3643.787          47.687    21564956.180    88304890.285 8      3643.787          48.312
G07  21775688.440   114432010.304 7      2610.565          46.625    21775687.180   114432010.312 7      2610.565          46.000    21775695.460    89167834.607 7      2034.207          45.875    21775695.960    89167839.611 7      2034.207          47.250
G19  23596781.840   124001929.783 6      -494.470          39.875    23596779.620   124001929.780 5      -494.470          31.250    23596794.240    96624879.202 5      -385.301          31.062
G13  23183064.420   121827829.111 7      5705.998          42.250    23183063.820   121827829.118 4      5705.998          28.312    23183078.940    94930830.836 4      4446.233          28.187
R22  23577162.620   125856490.177 7      6739.983          44.250    23577163.500   125856490.191 7      6739.983          44.000    23577174.960    97888435.616 7      5242.209          44.937    23577175.480    97888438.617 7      5242.209          45.062
> 2024 07 31 15 19 25.0000000  0 16
G06  20466244.120   107550835.530 8      1618.571          49.500    20466242.960   107550835.532 8      1618.571          50.625    20466252.820    83805976.562 8      1261.224          50.125    20466254.060    83805883.567 8      1261.224          51.312
R21  19931571.320   106657872.892 8      3899.809          50.312    19931572.420   106657872.918 8      3899.809          50.187    19931583.660    82956174.522 8      3033.185          50.562    19931583.360    82956173.526 8      3033.185          50.250
R07  22855505.320   122347313.369 7      4614.175          42.812    22855504.400   122347313.389 6      4614.175          41.500    22855527.320    95159091.485 7      3588.803          47.875    22855525.220    95159096.489 7      3588.803          47.500
R16  23010269.020   122916734.111 6      5898.960          40.000    23010269.360   122916734.077 6      5898.960          39.375    23010296.720    95602007.402 7      4588.080          45.125    23010296.740    95602012.409 7      4588.080          46.000
G11  21124352.280   111009224.216 7      4487.493          47.375    21124351.140   111009224.226 6      4487.493          39.875    21124356.860    86500709.435 6      3496.748          39.937    21124355.720    86500705.435 8      3496.748          52.437
G09  22398334.180   117704032.497 7        92.991          44.500    22398332.700   117704032.496 7        92.991          44.250    22398342.500    91717467.169 7        72.460          43.937    22398343.840    91717473.155 7        72.460          46.000
R06  20627996.740   110074929.612 6      2820.438          39.125    20627996.600   110074929.613 6      2820.438          38.125
R05  22272951.860   119061699.318 7       399.021          45.750    22272950.300   119061699.303 7       399.021          45.187    22272965.040    92603591.967 7       310.350          43.812    22272965.260    92603590.981 7       310.350          43.500
G05  24348298.940   127951172.766 7      5242.025          42.562    24348297.720   127951172.773 6      5242.025          36.250    24348306.280    99702249.392 6      4084.695          36.750    24348306.520    99702252.394 6      4084.695          40.250
G20  22311730.720   117248934.462 7      4948.045          46.187    22311729.400   117248934.467 5      4948.045          35.062    22311735.620    91362827.836 5      3855.619          34.687
R15  22953317.220   122655568.178 7      3583.964          45.875    22953316.200   122655568.187 7      3583.964          45.375    22953335.900    95398858.007 7      2787.527          42.687    22953334.080    95398853.006 7      2787.527          43.500
G30  21564053.040   113319868.984 8      4675.812          48.000    21564051.460   113319868.986 7      4675.812          47.937    21564065.040    88301232.643 7      3643.490          47.625    21564066.200    88301246.646 7      3643.490          47.937
G07  21775191.640   114429400.128 7      2609.837          47.312    21775190.560   114429400.130 7      2609.837          46.437    21775198.780    89165800.700 7      2033.639          45.875    21775199.120    89165805.706 7      2033.639          47.375
G19  23596875.580   124002424.187 6      -494.440          40.625    23596873.280   124002424.184 5      -494.440          31.250    23596888.620    96625264.450 5      -385.278          30.687
G13  23181978.840   121822123.138 7      5705.808          43.312    23181978.020   121822123.148 4      5705.808          28.312    23181993.100    94926384.634 4      4446.085          28.187
R22  23575900.220   125849750.365 7      6739.691          44.500    23575901.060   125849750.371 7      6739.691          44.000    23575912.320    97883193.536 7      5241.982          45.687    23575912.620    97883196.536 7      5241.982          45.375
> 2024 07 31 15 19 26.0000000  0 16
G06  20465936.140   107549217.381 8      1617.743          49.437    20465935.000   107549217.386 8      1617.743          50.687    20465944.980    83804715.667 8      1260.579          50.375    20465946.020    83804622.665 8      1260.579          51.250
R21  19930842.780   106653973.471 8      3898.914          49.250    19930843.740   106653973.494 8      3898.914          50.500    19930854.880    82953141.637 8      3032.489          50.937    19930854.680    82953140.639 8      3032.489          50.437
R07  22854643.180   122342699.296 7      4613.939          42.812    22854642.640   122342699.325 7      4613.939          42.000    22854665.320    95155502.785 8      3588.619          48.062    22854663.460    95155507.787 7      3588.619          47.312
R16  23009164.840   122910835.256 6      5898.729          40.000    23009165.680   122910835.238 6      5898.729          39.375    23009192.640    95597419.416 7      4587.900          45.437    23009192.640    95597424.419 7      4587.900          46.000
G11  21123498.280   111004736.996 7      4486.814          47.500    21123497.280   111004737.009 6      4486.814          40.437    21123502.900    86497212.904 6      3496.219          39.437    21123501.800    86497208.910 8      3496.219          52.500
G09  22398316.080   117703939.517 7        92.947          44.125    22398315.140   117703939.516 7        92.947          44.437    22398324.900    91717394.713 7        72.426          44.437    22398325.720    91717400.701 7        72.426          45.562
R06  20627468.460   110072109.408 6      2819.984          39.125    20627468.580   110072109.420 6      2819.984          38.125
R05  22272877.140   119061300.190 7       399.069          44.500    22272875.640   119061300.186 7       399.069          44.437    22272891.620    92603281.531 7       310.387          44.437    22272890.900    92603280.542 7       310.387          45.562
G05  24347301.400   127945930.826 7      5241.941          42.750    24347300.180   127945930.836 6      5241.941          36.812    24347308.560    99698164.770 6      4084.630          36.500    24347309.620    99698167.784 6      4084.630          40.312
G20  22310788.840   117243986.389 7      4947.914          46.437    22310787.880   117243986.399 5      4947.914          34.562    22310794.080    91358972.201 5      3855.517          34.687
R15  22952646.580   122651984.662 7      3583.020          45.625    22952645.580   122651984.672 7      3583.020          44.500    22952665.240    95396070.833 7      2786.793          43.312    22952663.700    95396065.831 7      2786.793          44.000
G30  21563163.120   113315193.434 7      4675.206          47.687    21563161.740   113315193.437 7      4675.206          47.937    21563175.340    88297589.364 7      3643.018          47.687    21563176.140    88297603.369 8      3643.018          48.062
G07  21774695.020   114426790.459 7      2609.327          47.250    21774693.820   114426790.461 7      2609.327          45.687    21774702.120    89163767.193 7      2033.241          45.812    21774702.600    89163772.199 7      2033.241          47.500
G19  23596969.760   124002918.605 6      -494.613          40.312    23596966.860   124002918.604 5      -494.613          30.687    23596982.900    96625649.712 5      -385.413          30.687
G13  23180893.100   121816417.480 7      5705.416          43.500    23180892.360   121816417.501 4      5705.416          28.312    23180907.320    94921938.685 4      4445.779          27.562
R22  23574638.060   125843010.851 7      6739.321          44.250    23574639.380   125843010.846 7      6739.321          44.000    23574650.200    97877951.692 7      5241.694          44.875    23574650.400    97877954.692 7      5241.694          45.812
> 2024 07 31 15 19 27.0000000  0 16
G06  20465628.300   107547600.117 7      1616.622          47.687    20465627.300   107547600.122 8      1616.622          50.125    20465637.240    83803455.447 8      1259.706          50.437    20465638.180    83803362.452 8      1259.706          51.687
R21  19930114.260   106650075.206 7      3897.496          47.812    19930115.240   106650075.232 8      3897.496          48.750    19930126.460    82950109.651 8      3031.386          51.187    19930125.920    82950108.657 8      3031.386          50.875
R07  22853781.660   122338085.791 7      4613.102          42.875    22853781.440   122338085.817 7      4613.102          42.000    22853803.200    95151914.507 7      3587.968          47.000    22853801.500    95151919.512 7      3587.968          47.625
R16  23008060.320   122904936.874 6      5898.066          40.000    23008061.920   122904936.854 6      5898.066          39.375    23008088.280    95592831.796 7      4587.385          45.500    23008088.260    95592836.801 7      4587.385          45.875
G11  21122644.600   111000250.562 7      4485.914          46.312    21122643.540   111000250.572 6      4485.914          40.000    21122649.220    86493716.980 6      3495.518          39.750    21122648.100    86493712.979 8      3495.518          52.250
G09  22398298.520   117703846.952 7        92.202          43.750    22398297.500   117703846.957 7        92.202          43.375    22398307.220    91717322.586 7        71.845          43.500    22398307.580    91717328.581 7        71.845          44.875
R06  20626940.720   110069289.717 6      2819.210          39.562    20626940.320   110069289.715 6      2819.210          38.500
R05  22272802.520   119060901.282 7       398.578          43.937    22272800.760   119060901.281 7       398.578          44.437    22272817.500    92602971.275 7       310.005          44.937    22272816.500    92602970.286 7       310.005          45.625
G05  24346303.600   127940689.149 6      5241.408          41.875    24346302.500   127940689.162 6      5241.408          36.687    24346311.100    99694080.346 6      4084.214          37.000    24346311.580    99694083.346 6      4084.214          40.312
G20  22309847.400   117239038.642 7      4947.304          45.187    22309846.380   117239038.647 5      4947.304          34.875    22309852.500    91355116.814 5      3855.042          34.875
R15  22951975.980   122648402.093 7      3581.952          44.937    22951975.280   122648402.100 7      3581.952          43.500    22951994.660    95393284.390 7      2785.962          43.312    22951993.360    95393279.389 7      2785.962          44.125
G30  21562273.580   113310518.610 7      4674.303          47.375    21562272.200   113310518.615 8      4674.303          48.062    21562285.720    88293946.650 7      3642.314          47.937    21562286.760    88293960.650 7      3642.314          47.937
G07  21774198.340   114424181.647 7      2608.229          47.312    21774197.400   114424181.649 7      2608.229          46.062    21774205.720    89161734.352 7      2032.387          45.875    21774206.160    89161739.359 7      2032.387          47.562
G19  23597063.400   124003413.285 6      -495.030          39.562    23597060.780   124003413.287 5      -495.030          30.687    23597077.280    96626035.169 5      -385.737          30.687
G13  23179807.340   121810712.443 7      5704.473          43.500    23179806.580   121810712.451 4      5704.473          27.375    23179821.660    94917493.196 4      4445.044          27.562
R22  23573375.300   125836271.906 7      6738.484          43.000    23573376.700   125836271.904 7      6738.484          43.687    23573387.940    97872710.288 7      5241.043          45.687    23573387.940    97872713.286 7      5241.043          45.812
> 2024 07 31 15 19 28.0000000  0 16
G06  20465320.640   107545983.440 8      1616.405          49.625    20465319.640   107545983.440 8      1616.405          50.187    20465329.560    83802195.690 8      1259.536          50.437    20465330.540    83802102.695 8      1259.536          51.062
R21  19929386.060   106646177.843 8      3896.937          49.375    19929386.880   106646177.860 8      3896.937          48.562    19929398.080    82947078.369 8      3030.951          50.625    19929397.860    82947077.372 8      3030.951          50.687
R07  22852920.360   122333472.543 7      4613.103          42.875    22852919.240   122333472.577 7      4613.103          42.000    22852940.940    95148326.444 7      3587.969          46.937    22852939.620    95148331.453 7      3587.969          47.437
R16  23006956.280   122899038.711 6      5898.009          40.812    23006958.000   122899038.701 6      5898.009          40.000    23006984.260    95588244.342 7      4587.340          45.687    23006984.340    95588249.347 7      4587.340          46.125
G11  21121791.240   110995764.651 7      4485.631          47.000    21121789.840   110995764.661 6      4485.631          40.250    21121795.660    86490221.463 6      3495.297          39.562    21121794.280    86490217.462 8      3495.297          51.687
G09  22398281.000   117703754.463 7        92.471          43.875    22398279.740   117703754.466 7        92.471          44.375    22398289.760    91717250.517 7        72.055          43.750    22398289.540    91717256.524 7        72.055          44.687
R06  20626412.640   110066470.278 6      2819.178          39.562    20626411.940   110066470.266 6      2819.178          38.500
R05  22272727.960   119060502.318 7       398.972          43.937    22272726.500   119060502.322 7       398.972          43.187    22272743.520    92602660.968 7       310.311          45.062    22272742.320    92602659.971 7       310.311          45.875
G05  24345306.840   127935447.419 6      5241.642          41.937    24345304.940   127935447.432 6      5241.642          36.687    24345313.760    99689995.883 6      4084.397          36.625    24345314.640    99689998.893 6      4084.397          40.312
G20  22308906.080   117234090.910 7      4947.758          44.750    22308904.840   117234090.915 5      4947.758          34.500    22308911.160    91351261.441 5      3855.396          34.875
R15  22951305.620   122644820.197 7      3581.568          44.750    22951304.880   122644820.204 7      3581.568          43.500    22951324.360    95390498.477 7      2785.664          43.500    22951323.200    95390493.476 7      2785.664          44.375
G30  21561384.220   113305844.267 7      4674.167          46.687    21561382.640   113305844.271 7      4674.167          47.250    21561396.240    88290304.309 7      3642.208          47.125    21561397.260    88290318.309 7      3642.208          47.625
G07  21773702.100   114421573.383 7      2607.952          47.562    21773701.180   114421573.386 7      2607.952          46.062    21773709.320    89159701.946 7      2032.171          46.062    21773709.680    89159706.954 7      2032.171          47.687
G19  23597157.760   124003907.978 6      -494.823          39.812    23597154.780   124003907.980 5      -494.823          30.687    23597171.720    96626420.640 5      -385.577          31.125
G13  23178721.700   121805007.653 7      5704.654          44.187    23178720.960   121805007.660 4      5704.654          27.375    23178736.140    94913047.906 4      4445.185          27.562
R22  23572112.700   125829533.268 7      6738.628          43.750    23572113.940   125829533.269 7      6738.628          43.437    23572125.820    97867469.131 7      5241.155          45.437    23572125.680    97867472.134 7      5241.155          45.687
> 2024 07 31 15 19 29.0000000  0 16
G06  20465013.020   107544367.333 8      1615.637          48.312    20465012.200   107544367.337 8      1615.637          49.937    20465022.040    83800936.384 8      1258.938          50.312    20465023.000    83800843.386 8      1258.938          51.000
R21  19928657.780   106642281.362 8      3895.924          48.875    19928658.860   106642281.383 8      3895.924          48.875    19928670.000    82944047.773 8      3030.163          50.875    19928669.760    82944046.774 8      3030.163          50.875
R07  22852058.420   122328859.530 7      4612.628          42.000    22852058.280   122328859.570 6      4612.628          41.875    22852078.480    95144738.560 7      3587.599          47.125    22852077.840    95144743.569 7      3587.599          46.750
R16  23005852.060   122893140.668 6      5897.812          40.812    23005853.560   122893140.669 6      5897.812          40.000    23005880.120    95583656.985 7      4587.187          44.375    23005880.360    95583661.991 7      4587.187          45.687
G11  21120937.580   110991279.213 7      4484.968          46.625    21120936.280   110991279.223 6      4484.968          40.000    21120942.160    86486726.318 6      3494.780          40.000    21120940.700    86486722.320 8      3494.780          51.562
G09  22398263.380   117703662.075 7        92.101          44.625    22398262.220   117703662.085 7        92.101          43.687    22398272.080    91717178.522 7        71.767          43.875    22398271.940    91717184.539 7        71.767          44.687
R06  20625884.400   110063651.011 6      2818.948          39.562    20625883.760   110063650.993 6      2818.948          38.500
R05  22272653.280   119060103.282 7       398.928          43.375    22272652.040   119060103.283 7       398.928          43.562    22272669.220    92602350.583 7       310.278          45.750    22272667.780    92602349.582 7       310.278          46.250
G05  24344309.440   127930205.603 7      5241.693          42.062    24344307.520   127930205.613 6      5241.693          36.062    24344316.080    99685911.357 6      4084.436          36.375    24344316.780    99685914.367 6      4084.436          40.312
G20  22307964.420   117229143.221 7      4947.495          43.875    22307963.220   117229143.228 5      4947.495          34.500    22307969.580    91347406.102 5      3855.191          34.312
R15  22950635.560   122641238.937 7      3580.716          45.187    22950634.900   122641238.949 7      3580.716          43.812    22950654.000    95387713.053 7      2785.001          43.812    22950653.220    95387708.053 7      2785.001          44.375
G30  21560494.740   113301170.362 7      4673.517          47.125    21560493.280   113301170.361 7      4673.517          47.500    21560506.840    88286662.307 7      3641.702          47.500    21560507.940    88286676.309 7      3641.702          47.437
G07  21773205.900   114418965.622 7      2607.440          47.875    21773204.840   114418965.632 7      2607.440          46.000    21773213.100    89157669.936 7      2031.771          46.125    21773213.520    89157674.940 7      2031.771          47.312
G19  23597252.120   124004402.624 6      -494.818          40.875    23597248.980   124004402.626 5      -494.818          31.375    23597266.080    96626806.070 5      -385.573          31.125
G13  23177636.040   121799303.141 7      5704.222          43.687    23177635.360   121799303.146 4      5704.222          27.375    23177650.660    94908602.840 4      4444.848          27.562
R22  23570850.520   125822794.880 7      6738.209          43.750    23570851.540   125822794.887 7      6738.209          43.062    23570863.200    97862228.169 7      5240.829          45.812    23570863.520    97862231.174 7      5240.829          46.000
> 2024 07 31 15 19 30.0000000  0 16
G06  20464705.820   107542751.819 8      1615.350          48.437    20464704.780   107542751.827 8      1615.350          50.062    20464714.700    83799677.540 8      1258.715          50.812    20464715.820    83799584.543 8      1258.715          51.250
R21  19927930.200   106638385.808 8      3895.205          48.687    19927930.900   106638385.825 8      3895.205          48.437    19927942.060    82941017.893 8      3029.604          50.812    19927941.620    82941016.894 8      3029.604          50.625
R07  22851196.380   122324246.751 7      4612.618          42.750    22851196.900   122324246.798 6      4612.618          41.875    22851216.040    95141150.853 7      3587.592          46.500    22851216.120    95141155.862 7      3587.592          47.375
R16  23004748.220   122887242.873 6      5897.647          40.750    23004749.460   122887242.869 6      5897.647          40.125    23004775.940    95579069.810 7      4587.058          45.437    23004776.280    95579074.819 7      4587.058          45.875
G11  21120084.080   110986794.277 7      4484.699          46.062    21120082.680   110986794.287 6      4484.699          40.062    21120088.700    86483231.564 6      3494.571          39.562    21120087.260    86483227.564 8      3494.571          51.937
G09  22398245.720   117703569.765 7        92.302          45.062    22398244.840   117703569.772 7        92.302          44.125    22398254.460    91717106.588 7        71.924          43.875    22398254.920    91717112.607 7        71.924          45.125
R06  20625355.880   110060831.978 6      2818.987          39.562    20625355.220   110060831.969 6      2818.987          38.500
R05  22272578.740   119059704.176 7       399.173          43.875    22272578.180   119059704.191 7       399.173          44.062    22272594.960    92602040.166 7       310.468          45.500    22272593.160    92602039.164 7       310.468          46.125
G05  24343311.960   127924963.768 7      5241.949          42.437    24343310.080   127924963.775 6      5241.949          36.000    24343318.580    99681826.813 6      4084.635          36.250    24343319.980    99681829.821 6      4084.635          39.812
G20  22307022.820   117224195.550 7      4947.764          44.750    22307021.780   117224195.555 5      4947.764          34.437    22307027.960    91343550.778 5      3855.400          34.812
R15  22949965.580   122637658.380 7      3580.243          45.562    22949964.560   122637658.389 7      3580.243          44.125    22949983.960    95384928.183 7      2784.633          43.375    22949982.800    95384923.186 7      2784.633          43.687
G30  21559605.480   113296496.893 7      4673.335          47.062    21559603.920   113296496.895 7      4673.335          47.250    21559617.480    88283020.653 7      3641.560          47.625    21559618.660    88283034.658 8      3641.560          48.000
G07  21772709.640   114416358.454 7      2606.991          46.812    21772708.760   114416358.457 7      2606.991          46.000    21772716.920    89155638.375 7      2031.421          46.187    21772717.580    89155643.381 7      2031.421          47.812
G19  23597346.560   124004897.275 6      -494.622          40.250    23597343.220   124004897.280 5      -494.622          31.375    23597360.340    96627191.509 5      -385.420          31.125
G13  23176550.520   121793598.934 7      5704.151          43.000    23176549.940   121793598.942 4      5704.151          27.375    23176565.160    94904158.014 4      4444.793          27.562
R22  23569588.320   125816056.803 7      6738.041          43.187    23569588.560   125816056.822 7      6738.041          43.062    23569600.480    97856987.463 7      5240.698          45.625    23569600.860    97856990.470 7      5240.698          45.875
> 2024 07 31 15 19 31.0000000  0 16
G06  20464398.480   107541136.926 8      1614.452          48.625    20464397.500   107541136.931 8      1614.452          50.000    20464407.440    83798419.176 8      1258.014          49.875    20464408.620    83798326.174 8      1258.014          51.125
R21  19927202.240   106634491.133 8      3894.061          49.125    19927202.820   106634491.151 8      3894.061          48.312    19927214.120    82937988.702 8      3028.714          50.000    19927213.840    82937987.703 8      3028.714          50.375
R07  22850334.280   122319634.231 7      4612.261          42.750    22850335.040   122319634.264 7      4612.261          42.312    22850353.620    95137563.331 7      3587.314          45.437    22850354.320    95137568.342 7      3587.314          46.687
R16  23003643.880   122881345.223 6      5897.310          40.750    23003645.920   122881345.230 6      5897.310          40.125    23003671.980    95574482.757 7      4586.797          45.250    23003672.020    95574487.762 7      4586.797          45.500
G11  21119230.780   110982309.847 7      4484.035          46.812    21119229.400   110982309.852 6      4484.035          39.562    21119235.440    86479737.200 6      3494.054          39.812    21119233.880    86479733.197 8      3494.054          52.250
G09  22398228.140   117703477.557 7        91.982          44.187    22398227.340   117703477.559 7        91.982          43.750    22398236.940    91717034.734 7        71.674          44.062    22398237.540    91717040.741 7        71.674          46.062
R06  20624827.820   110058013.167 6      2818.485          39.000    20624826.820   110058013.176 6      2818.485          37.812
R05  22272503.880   119059305.006 7       399.080          44.437    22272504.080   119059305.010 7       399.080          43.750    22272520.140    92601729.692 7       310.396          45.625    22272518.800    92601728.684 7       310.396          46.562
G05  24342314.200   127919721.883 7      5241.736          43.062    24342312.620   127919721.891 5      5241.736          35.875    24342320.800    99677742.227 6      4084.470          36.125    24342321.740    99677745.241 6      4084.470          39.812
G20  22306081.340   117219247.939 7      4947.396          44.500    22306080.180   117219247.944 5      4947.396          34.562    22306086.480    91339695.501 5      3855.114          34.812
R15  22949295.620   122634078.549 7      3579.328          44.687    22949294.580   122634078.553 7      3579.328          44.062    22949314.000    95382143.874 7      2783.922          43.875    22949313.120    95382138.873 7      2783.922          44.187
G30  21558716.220   113291823.916 7      4672.528          47.187    21558714.780   113291823.918 7      4672.528          47.125    21558728.180    88279379.374 7      3640.931          47.437    21558729.260    88279393.379 7      3640.931          47.437
G07  21772213.840   114413751.820 7      2606.262          47.562    21772212.700   114413751.825 7      2606.262          46.187    21772220.940    89153607.233 7      2030.853          46.125    21772221.540    89153612.241 7      2030.853          47.125
G19  23597440.400   124005391.924 6      -494.796          40.375    23597437.440   124005391.931 5      -494.796          31.375    23597454.580    96627576.943 5      -385.555          31.437
G13  23175465.160   121787895.019 7      5703.825          42.437    23175464.520   121787895.024 4      5703.825          27.375    23175479.960    94899713.411 4      4444.539          27.562
R22  23568326.280   125809319.048 7      6737.399          42.625    23568326.260   125809319.065 7      6737.399          42.875    23568337.680    97851746.998 7      5240.199          44.875    23568338.460    97851749.998 7      5240.199          44.562
> 2024 07 31 15 19 32.0000000  0 16
G06  20464091.140   107539522.884 8      1613.622          48.812    20464090.360   107539522.886 8      1613.622          50.187    20464100.240    83797161.470 8      1257.368          50.500    20464101.480    83797068.469 8      1257.368          51.750
R21  19926474.740   106630597.612 8      3892.980          49.437    19926475.240   106630597.627 8      3892.980          48.125    19926486.580    82934960.407 8      3027.873          50.562    19926486.200    82934959.407 8      3027.873          50.312
R07  22849473.020   122315022.192 7      4611.784          42.375    22849473.200   122315022.240 7      4611.784          42.312    22849490.920    95133976.209 7      3586.943          45.750    22849492.140    95133981.226 7      3586.943          45.000
R16  23002540.000   122875448.040 6      5897.051          40.937    23002541.820   122875448.044 6      5897.051          40.125    23002567.860    95569896.061 7      4586.595          45.187    23002568.320    95569901.068 7      4586.595          45.687
G11  21118377.320   110977826.191 7      4483.285          47.687    21118376.300   110977826.198 6      4483.285          40.125    21118382.080    86476243.441 6      3493.469          39.625    21118380.280    86476239.437 8      3493.469          51.937
G09  22398210.380   117703385.699 7        91.693          44.687    22398209.740   117703385.704 7        91.693          43.812    22398219.500    91716963.156 7        71.449          43.687    22398220.240    91716969.159 7        71.449          46.500
R06  20624299.540   110055194.839 6      2817.923          39.000    20624299.420   110055194.850 6      2817.923          37.812
R05  22272429.000   119058906.018 7       399.002          44.812    22272429.780   119058906.027 7       399.002          43.750    22272445.120    92601419.370 7       310.335          46.000    22272443.900    92601418.358 7       310.335          46.250
G05  24341316.520   127914480.198 7      5241.632          42.875    24341315.380   127914480.206 6      5241.632          36.500    24341323.180    99673657.799 6      4084.388          36.125    24341323.900    99673660.809 6      4084.388          39.812
G20  22305140.040   117214300.604 7      4947.211          44.937    22305138.620   117214300.609 5      4947.211          34.562    22305144.960    91335840.435 5      3854.970          34.687
R15  22948625.720   122630499.680 7      3578.370          44.750    22948624.520   122630499.689 7      3578.370          43.875    22948644.400    95379360.322 7      2783.176          43.625    22948643.480    95379355.323 7      2783.176          44.312
G30  21557827.160   113287151.627 7      4671.921          47.375    21557825.600   113287151.635 7      4671.921          47.875    21557839.080    88275738.638 7      3640.458          47.562    21557840.080    88275752.641 7      3640.458          47.562
G07  21771718.000   114411146.003 7      2605.436          47.687    21771716.900   114411146.005 7      2605.436          45.812    21771725.040    89151576.728 7      2030.210          45.875    21771725.760    89151581.731 7      2030.210          47.562
G19  23597534.740   124005886.835 6      -495.034          41.000    23597531.900   124005886.845 5      -495.034          31.937    23597548.840    96627962.586 5      -385.741          31.437
G13  23174379.820   121782191.705 6      5702.969          41.812    23174379.100   121782191.713 4      5702.969          27.625    23174394.660    94895269.279 4      4443.872          27.562
R22  23567063.860   125802581.841 7      6737.014          42.625    23567064.220   125802581.849 7      6737.014          42.625    23567075.360    97846506.939 7      5239.900          44.687    23567076.200    97846509.938 7      5239.900          43.937
> 2024 07 31 15 19 33.0000000  0 16
G06  20463784.160   107537909.417 8      1613.209          48.875    20463783.380   107537909.422 8      1613.209          50.437    20463793.320    83795904.221 8      1257.046          50.375    20463794.340    83795811.220 8      1257.046          51.750
R21  19925747.440   106626704.969 8      3892.282          48.750    19925747.780   106626704.983 8      3892.282          48.750    19925759.300    82931932.791 8      3027.330          50.937    19925758.880    82931931.793 8      3027.330          50.937
R07  22848610.980   122310410.398 7      4611.686          42.375    22848611.380   122310410.439 7      4611.686          42.000    22848628.600    95130389.257 7      3586.867          45.187    22848630.300    95130394.270 7      3586.867          44.687
R16  23001436.380   122869551.031 6      5897.011          40.937    23001437.480   122869551.053 6      5897.011          40.625    23001463.840    95565309.509 7      4586.564          45.000    23001464.400    95565314.516 7      4586.564          45.750
G11  21117524.420   110973343.002 7      4483.065          47.125    21117523.000   110973343.009 6      4483.065          40.312    21117529.080    86472750.045 6      3493.298          39.562    21117527.380    86472746.045 8      3493.298          52.000
G09  22398193.140   117703293.912 7        91.858          43.937    22398192.320   117703293.917 7        91.858          43.437    22398202.080    91716891.630 7        71.578          43.187    22398203.240    91716897.625 7        71.578          46.312
R06  20623771.100   110052376.705 6      2817.873          39.000    20623771.300   110052376.704 6      2817.873          37.812
R05  22272354.200   119058506.957 7       399.060          44.937    22272355.380   119058506.972 7       399.060          43.937    22272369.900    92601108.989 7       310.380          45.500    22272369.380    92601107.975 7       310.380          46.062
G05  24340318.960   127909238.453 7      5241.896          43.875    24340318.180   127909238.460 6      5241.896          36.500    24340325.620    99669573.318 6      4084.595          36.750    24340326.580    99669576.336 6      4084.595          39.250
G20  22304198.880   117209353.296 7      4947.303          44.625    22304197.320   117209353.303 5      4947.303          34.750    22304203.420    91331985.394 5      3855.041          34.375
R15  22947956.160   122626921.469 7      3577.971          44.750    22947954.740   122626921.483 7      3577.971          43.875    22947974.460    95376577.277 7      2782.867          43.500    22947974.000    95376572.278 7      2782.867          44.437
G30  21556938.120   113282479.788 7      4671.665          47.125    21556936.700   113282479.787 7      4671.665          47.687    21556950.120    88272098.242 7      3640.259          47.437    21556950.940    88272112.244 7      3640.259          47.812
G07  21771222.280   114408540.719 7      2605.086          46.750    21771221.060   114408540.722 7      2605.086          45.875    21771229.280    89149546.635 7      2029.937          45.687    21771229.960    89149551.643 7      2029.937          47.125
G19  23597628.800   124006381.718 6      -494.828          41.187    23597626.380   124006381.728 5      -494.828          31.937    23597643.100    96628348.203 5      -385.580          31.437
G13  23173294.660   121776488.636 7      5703.092          42.562    23173293.860   121776488.643 4      5703.092          27.625    23173309.480    94890825.333 4      4443.968          27.562
R22  23565801.920   125795844.940 7      6736.822          42.125    23565801.920   125795844.936 7      6736.822          42.625    23565813.160    97841267.115 7      5239.750          44.187    23565813.820    97841270.109 7      5239.750          43.812
> 2024 07 31 15 19 34.0000000  0 16
G06  20463477.260   107536296.515 8      1612.731          48.687    20463476.400   107536296.515 8      1612.731          49.750    20463486.380    83794647.402 8      1256.674          50.187    20463487.420    83794554.405 8      1256.674          51.125
R21  19925019.980   106622813.221 8      3891.306          49.312    19925020.600   106622813.244 8      3891.306          48.687    19925031.900    82928905.881 8      3026.571          50.625    19925031.680    82928904.882 8      3026.571          50.312
R07  22847749.360   122305798.793 7      4611.526          42.062    22847749.660   122305798.848 7      4611.526          42.000    22847766.080    95126802.468 7      3586.742          44.687    22847768.420    95126807.488 7      3586.742          44.000
R16  23000332.160   122863654.214 6      5896.822          41.000    23000333.520   122863654.210 6      5896.822          40.625    23000359.920    95560723.075 7      4586.417          45.187    23000360.720    95560728.084 7      4586.417          45.750
G11  21116671.280   110968860.322 7      4482.512          47.187    21116670.040   110968860.335 6      4482.512          39.812    21116675.820    86469257.049 6      3492.867          39.312    21116674.520    86469253.050 8      3492.867          51.625
G09  22398175.900   117703202.238 7        91.632          43.500    22398174.860   117703202.243 7        91.632          44.000    22398184.640    91716820.193 7        71.401          43.562    22398185.500    91716826.176 7        71.401          46.062
R06  20623243.220   110049558.756 6      2817.895          38.937    20623242.820   110049558.767 6      2817.895          37.812
R05  22272279.840   119058107.787 7       399.205          44.937    22272280.960   119058107.802 7       399.205          44.250    22272294.700    92600798.513 7       310.493          45.625    22272294.520    92600797.497 7       310.493          45.687
G05  24339321.460   127903996.641 7      5241.982          43.500    24339320.880   127903996.649 6      5241.982          36.187    24339327.980    99665488.790 5      4084.661          35.937    24339328.740    99665491.806 6      4084.661          39.250
G20  22303257.380   117204406.001 7      4947.365          45.250    22303255.960   117204406.013 5      4947.365          34.812    22303262.060    91328130.363 5      3855.089          34.375
R15  22947286.660   122623343.954 7      3577.107          44.375    22947285.840   122623343.964 7      3577.107          44.062    22947304.960    95373794.768 7      2782.194          43.625    22947304.440    95373789.767 7      2782.194          44.187
G30  21556049.140   113277808.400 7      4671.097          47.625    21556047.660   113277808.405 7      4671.097          47.687    21556061.140    88268458.210 7      3639.815          47.500    21556062.020    88268472.214 7      3639.815          47.500
G07  21770726.520   114405935.967 7      2604.539          46.750    21770725.400   114405935.974 7      2604.539          45.562    21770733.700    89147516.966 7      2029.511          45.500    21770734.120    89147521.972 7      2029.511          47.187
G19  23597722.900   124006876.590 6      -494.923          41.312    23597720.740   124006876.602 5      -494.923          32.250    23597737.200    96628733.815 5      -385.654          32.000
G13  23172209.320   121770785.866 7      5702.623          43.062    23172208.560   121770785.874 4      5702.623          27.625    23172224.460    94886381.626 4      4443.603          27.562
R22  23564539.860   125789108.285 6      6736.476          41.562    23564539.460   125789108.291 7      6736.476          42.562    23564550.880    97836027.507 7      5239.481          44.375    23564551.780    97836030.501 7      5239.481          43.687
> 2024 07 31 15 19 35.0000000  0 16
G06  20463170.560   107534684.223 8      1612.128          48.250    20463169.660   107534684.228 8      1612.128          49.875    20463179.500    83793391.069 8      1256.204          50.500    20463180.520    83793298.073 8      1256.204          51.250
R21  19924293.080   106618922.362 7      3890.581          47.937    19924293.360   106618922.383 8      3890.581          48.875    19924304.780    82925879.657 8      3026.008          50.562    19924304.400    82925878.659 8      3026.008          50.500
R07  22846888.120   122301187.435 7      4611.330          42.062    22846887.800   122301187.498 6      4611.330          41.437    22846904.100    95123215.867 7      3586.590          44.375    22846906.600    95123220.888 7      3586.590          43.062
R16  22999228.580   122857757.568 6      5896.580          41.000    22999229.440   122857757.574 6      5896.580          40.562    22999255.760    95556136.809 7      4586.229          45.000    22999256.660    95556141.814 7      4586.229          45.937
G11  21115818.100   110964378.134 7      4482.082          47.375    21115817.060   110964378.142 6      4482.082          40.562    21115822.940    86465764.435 6      3492.532          39.875    21115821.460    86465760.438 8      3492.532          51.875
G09  22398158.460   117703110.614 7        91.777          43.437    22398157.380   117703110.616 7        91.777          43.812    22398167.180    91716748.796 7        71.515          43.250    22398168.120    91716754.780 7        71.515          45.687
R06  20622714.260   110046741.017 6      2817.880          38.937    20622714.900   110046741.042 6      2817.880          38.000
R05  22272205.060   119057708.543 7       399.354          44.875    22272206.040   119057708.549 7       399.354          44.312    22272219.160    92600487.990 7       310.608          45.187    22272219.460    92600486.970 7       310.608          45.437
G05  24338324.020   127898754.770 7      5242.041          42.687    24338323.300   127898754.783 6      5242.041          36.375    24338330.540    99661404.219 6      4084.708          36.687    24338331.500    99661407.235 6      4084.708          39.250
G20  22302315.860   117199458.745 7      4947.379          45.250    22302314.620   117199458.755 5      4947.379          34.812    22302320.760    91324275.360 5      3855.101          34.812
R15  22946617.260   122619767.063 7      3576.706          44.312    22946616.360   122619767.083 7      3576.706          44.062    22946635.580    95371012.760 7      2781.883          43.625    22946634.920    95371007.763 7      2781.883          44.000
G30  21555160.400   113273137.433 7      4670.892          47.437    21555158.800   113273137.438 7      4670.892          47.687    21555172.320    88264818.503 7      3639.656          47.312    21555173.400    88264832.508 8      3639.656          48.000
G07  21770230.720   114403331.750 7      2604.111          46.625    21770229.960   114403331.754 7      2604.111          45.375    21770238.040    89145487.708 7      2029.178          45.687    21770238.620    89145492.712 7      2029.178          47.937
G19  23597817.380   124007371.427 6      -494.670          40.937    23597815.160   124007371.443 5      -494.670          32.250    23597831.380    96629119.401 5      -385.457          32.000
G13  23171123.900   121765083.396 7      5702.283          43.625    23171123.220   121765083.403 4      5702.283          27.625    23171139.220    94881938.149 4      4443.337          27.562
R22  23563277.860   125782371.934 6      6736.248          41.562    23563277.580   125782371.935 7      6736.248          42.437    23563289.060    97830788.123 7      5239.304          44.500    23563289.780    97830791.124 7      5239.304          43.875
> 2024 07 31 15 19 36.0000000  0 16
G06  20462863.920   107533072.530 8      1611.255          49.187    20462863.000   107533072.535 8      1611.255          50.500    20462872.820    83792135.200 8      1255.523          50.375    20462873.940    83792042.205 8      1255.523          51.250
R21  19923566.140   106615032.442 7      3889.365          47.812    19923566.740   106615032.463 8      3889.365          48.125    19923577.880    82922854.162 8      3025.062          50.937    19923577.460    82922853.163 8      3025.062          50.750
R07  22846027.060   122296576.371 7      4610.719          42.062    22846026.140   122296576.420 6      4610.719          41.437    22846042.120    95119629.481 7      3586.115          44.312    22846044.620    95119634.492 7      3586.115          43.000
R16  22998124.740   122851861.144 6      5896.198          41.687    22998126.020   122851861.153 6      5896.198          40.562    22998152.080    95551550.703 7      4585.932          44.687    22998152.740    95551555.704 7      4585.932          45.312
G11  21114965.300   110959896.464 7      4481.342          47.000    21114964.280   110959896.472 6      4481.342          40.250    21114970.180    86462272.226 6      3491.955          39.625    21114968.760    86462268.224 8      3491.955          51.687
G09  22398141.060   117703019.118 7        91.377          44.375    22398139.980   117703019.123 7        91.377          43.687    22398149.820    91716677.498 7        71.203          43.750    22398150.120    91716683.494 7        71.203          45.375
R06  20622186.500   110043923.578 6      2817.141          38.937    20622186.960   110043923.602 6      2817.141          38.000
R05  22272130.300   119057309.268 7       399.098          44.375    22272130.520   119057309.267 7       399.098          44.000    22272143.720    92600177.437 7       310.410          44.937    22272144.480    92600176.415 7       310.410          44.812
G05  24337326.380   127893512.872 7      5241.805          42.375    24337325.620   127893512.890 5      5241.805          35.937    24337333.200    99657319.629 6      4084.523          36.187    24337334.140    99657322.635 6      4084.523          39.312
G20  22301374.240   117194511.541 7      4947.077          46.125    22301373.180   117194511.546 5      4947.077          35.125    22301379.380    91320420.398 5      3854.865          35.062
R15  22945948.100   122616190.914 7      3575.678          44.437    22945947.000   122616190.931 7      3575.678          43.812    22945966.360    95368231.311 7      2781.083          43.812    22945965.680    95368226.316 7      2781.083          44.562
G30  21554271.580   113268466.960 7      4670.170          47.625    21554270.180   113268466.967 7      4670.170          47.812    21554283.440    88261179.181 7      3639.093          47.750    21554284.500    88261193.186 7      3639.093          47.812
G07  21769735.520   114400728.111 7      2603.270          47.812    21769734.440   114400728.116 7      2603.270          46.000    21769742.740    89143458.898 7      2028.522          46.125    21769743.000    89143463.903 7      2028.522          47.375
G19  23597911.700   124007866.315 7      -495.089          42.125    23597909.560   124007866.331 5      -495.089          32.250    23597925.460    96629505.028 5      -385.784          32.312
G13  23170038.740   121759381.217 6      5701.903          41.375    23170038.200   121759381.227 4      5701.903          27.937    23170054.160    94877494.901 4      4443.041          27.750
R22  23562015.520   125775635.874 7      6735.886          42.125    23562015.840   125775635.870 7      6735.886          42.437    23562027.500    97825548.963 7      5239.022          44.375    23562028.080    97825551.960 7      5239.022          44.437
> 2024 07 31 15 19 37.0000000  0 16
G06  20462557.380   107531461.523 8      1610.757          49.312    20462556.460   107531461.522 8      1610.757          50.250    20462566.300    83790879.861 8      1255.135          50.187    20462567.300    83790786.864 8      1255.135          51.500
R21  19922839.460   106611143.489 8      3888.622          48.625    19922839.960   106611143.506 7      3888.622          47.625    19922851.180    82919829.418 8      3024.484          50.750    19922850.800    82919828.419 8      3024.484          50.312
R07  22845165.660   122291965.620 6      4610.665          40.812    22845164.340   122291965.667 6      4610.665          41.375    22845180.260    95116043.340 7      3586.073          43.937    22845183.180    95116048.351 7      3586.073          42.500
R16  22997020.800   122845965.021 6      5895.982          41.687    22997022.440   122845965.030 6      5895.982          40.562    22997048.500    95546964.830 7      4585.764          44.750    22997049.020    95546969.835 7      4585.764          45.562
G11  21114112.500   110955415.388 7      4480.883          47.125    21114111.540   110955415.400 6      4480.883          39.875    21114117.420    86458780.482 6      3491.597          39.500    21114116.080    86458776.478 8      3491.597          51.562
G09  22398123.880   117702927.825 7        91.250          44.937    22398122.660   117702927.828 7        91.250          44.125    22398132.420    91716606.361 7        71.104          44.062    22398132.140    91716612.366 7        71.104          44.937
R06  20621658.840   110041106.391 6      2817.107          38.937    20621658.800   110041106.413 6      2817.107          38.000
R05  22272055.680   119056910.010 7       399.387          44.500    22272055.480   119056910.001 7       399.387          43.875    22272068.340    92599866.901 7       310.635          44.312    22272069.560    92599865.876 7       310.635          44.625
G05  24336329.080   127888271.035 7      5241.914          42.062    24336328.040   127888271.047 6      5241.914          36.562    24336335.780    99653235.079 6      4084.609          36.375    24336336.800    99653238.082 6      4084.609          39.312
G20  22300432.900   117189564.448 7      4947.144          45.125    22300431.540   117189564.453 5      4947.144          34.625    22300437.860    91316565.523 5      3854.917          35.062
R15  22945279.140   122612615.521 7      3575.197          44.875    22945278.380   122612615.520 7      3575.197          43.812    22945297.040    95365450.448 7      2780.709          44.687    22945296.500    95365445.449 7      2780.709          44.437
G30  21553382.980   113263797.033 7      4669.799          47.812    21553381.480   113263797.038 7      4669.799          47.937    21553394.920    88257540.280 7      3638.805          47.875    21553395.840    88257554.280 7      3638.805          47.812
G07  21769240.200   114398125.100 7      2602.825          47.187    21769239.120   114398125.102 7      2602.825          46.187    21769247.300    89141430.580 7      2028.175          46.125    21769247.700    89141435.584 7      2028.175          47.312
G19  23598005.860   124008361.248 6      -494.755          41.937    23598003.780   124008361.252 5      -494.755          32.562    23598019.600    96629890.683 5      -385.523          32.312
G13  23168953.760   121753679.433 7      5701.738          42.875    23168953.160   121753679.443 4      5701.738          27.937    23168969.180    94873051.962 4      4442.913          27.750
R22  23560753.560   125768900.233 6      6735.486          41.875    23560754.300   125768900.234 7      6735.486          42.500    23560765.840    97820310.138 7      5238.711          44.750    23560766.400    97820313.134 7      5238.711          44.312
> 2024 07 31 15 19 38.0000000  0 16
G06  20462250.900   107529851.238 8      1609.843          49.687    20462249.920   107529851.243 8      1609.843          50.250    20462259.920    83789625.092 8      1254.423          50.562    20462261.040    83789532.095 8      1254.423          51.625
R21  19922112.920   106607255.567 8      3887.282          49.250    19922113.360   106607255.580 8      3887.282          48.687    19922124.600    82916805.473 8      3023.441          50.625    19922124.380    82916804.479 8      3023.441          50.125
R07  22844303.720   122287355.233 6      4610.229          40.812    22844303.460   122287355.275 6      4610.229          41.375    22844318.600    95112457.487 7      3585.733          43.625    22844321.280    95112462.498 7      3585.733          42.187
R16  22995917.160   122840069.184 6      5895.600          41.687    22995917.860   122840069.193 6      5895.600          40.312    22995944.480    95542379.182 7      4585.467          44.812    22995945.100    95542384.185 7      4585.467          45.875
G11  21113259.940   110950934.952 7      4480.041          46.937    21113259.100   110950934.962 6      4480.041          39.812    21113264.800    86455289.230 6      3490.941          39.625    21113263.420    86455285.225 8      3490.941          52.187
G09  22398106.420   117702836.724 7        90.870          44.562    22398105.240   117702836.734 7        90.870          43.625    22398115.140    91716535.381 7        70.808          43.500    22398114.900    91716541.391 7        70.808          44.875
R06  20621131.260   110038289.554 6      2816.681          39.062    20621131.040   110038289.558 6      2816.681          38.000
R05  22271981.180   119056510.875 7       398.981          44.500    22271980.260   119056510.863 7       398.981          43.750    22271993.280    92599556.464 7       310.319          44.062    22271994.600    92599555.446 7       310.319          44.125
G05  24335331.480   127883029.265 6      5241.662          41.875    24335330.380   127883029.281 6      5241.662          36.187    24335338.420    99649150.587 6      4084.412          36.625    24335339.760    99649153.597 6      4084.412          39.687
G20  22299491.280   117184617.529 7      4946.815          45.187    22299490.120   117184617.531 5      4946.815          34.625    22299496.460    91312710.780 5      3854.661          34.562
R15  22944609.660   122609040.930 7      3574.139          45.187    22944609.260   122609040.945 7      3574.139          43.875    22944628.100    95362670.229 7      2779.886          43.687    22944627.620    95362665.232 7      2779.886          44.562
G30  21552494.320   113259127.690 8      4669.037          48.250    21552492.960   113259127.692 7      4669.037          47.812    21552506.320    88253901.834 7      3638.211          47.562    21552507.040    88253915.837 7      3638.211          47.375
G07  21768745.160   114395522.772 7      2601.887          47.500    21768743.860   114395522.777 7      2601.887          45.687    21768752.040    89139402.799 7      2027.444          45.812    21768752.600    89139407.801 7      2027.444          47.437
G19  23598100.100   124008856.340 6      -495.260          41.875    23598098.040   124008856.340 5      -495.260          32.562    23598113.380    96630276.466 5      -385.917          32.125
G13  23167868.980   121747978.074 7      5701.071          42.812    23167868.240   121747978.082 4      5701.071          27.937    23167884.420    94868609.353 4      4442.393          27.750
R22  23559491.860   125762165.012 6      6734.940          41.875    23559493.480   125762165.010 7      6734.940          42.750    23559504.600    97815071.619 7      5238.286          44.437    23559504.720    97815074.620 7      5238.286          44.562
> 2024 07 31 15 19 39.0000000  0 16
G06  20461944.660   107528241.613 8      1609.435          48.750    20461943.740   107528241.615 8      1609.435          50.250    20461953.660    83788370.832 8      1254.106          50.500    20461954.800    83788277.833 8      1254.106          51.500
R21  19921386.520   106603368.567 7      3886.745          47.562    19921387.020   106603368.584 7      3886.745          47.875    19921398.160    82913782.250 8      3023.024          51.062    19921398.000    82913781.254 8      3023.024          49.937
R07  22843442.960   122282745.183 6      4610.009          40.937    22843442.220   122282745.225 6      4610.009          41.375    22843456.780    95108871.897 7      3585.563          43.875    22843459.460    95108876.904 7      3585.563          42.375
R16  22994813.900   122834173.593 6      5895.628          41.125    22994813.980   122834173.597 6      5895.628          40.312    22994840.820    95537793.724 7      4585.488          44.625    22994841.320    95537798.729 7      4585.488          45.062
G11  21112407.660   110946455.066 7      4479.734          47.437    21112406.540   110946455.076 6      4479.734          39.750    21112412.260    86451798.409 6      3490.702          39.500    21112410.780    86451794.411 8      3490.702          51.875
G09  22398089.080   117702745.788 7        91.152          43.812    22398087.920   117702745.788 7        91.152          44.312    22398097.900    91716464.506 7        71.027          44.250    22398098.200    91716470.523 7        71.027          44.750
R06  20620603.280   110035472.966 6      2816.679          39.062    20620603.120   110035472.988 6      2816.679          38.000
R05  22271906.420   119056111.718 7       399.387          44.437    22271904.880   119056111.701 7       399.387          43.750    22271917.900    92599246.001 7       310.635          44.000    22271919.560    92599244.991 7       310.635          43.062
G05  24334334.120   127877787.520 6      5241.948          41.812    24334332.740   127877787.535 6      5241.948          36.250    24334341.240    99645066.112 6      4084.635          36.375    24334342.280    99645069.128 6      4084.635          39.687
G20  22298550.120   117179670.688 7      4947.048          45.437    22298548.900   117179670.690 5      4947.048          34.562    22298555.180    91308856.103 5      3854.842          34.625
R15  22943941.020   122605467.071 7      3573.752          44.750    22943940.620   122605467.078 7      3573.752          43.812    22943959.280    95359890.567 7      2779.585          44.250    22943958.840    95359885.564 7      2779.585          43.812
G30  21551605.880   113254458.851 8      4668.812          48.437    21551604.380   113254458.856 8      4668.812          48.062    21551617.940    88250263.788 7      3638.035          47.937    21551618.940    88250277.789 8      3638.035          48.312
G07  21768250.020   114392921.043 8      2601.686          48.000    21768248.780   114392921.051 7      2601.686          46.000    21768257.140    89137375.476 7      2027.288          45.625    21768257.780    89137380.482 7      2027.288          47.562
G19  23598194.240   124009351.449 6      -494.942          41.437    23598192.140   124009351.448 5      -494.942          32.125    23598207.340    96630662.263 5      -385.669          32.125
G13  23166784.360   121742277.060 7      5701.009          43.250    23166783.220   121742277.070 4      5701.009          27.937    23166799.420    94864167.017 4      4442.344          27.750
R22  23558230.100   125755430.145 7      6734.856          42.812    23558231.800   125755430.143 7      6734.856          42.750    23558242.820    97809833.392 7      5238.221          44.750    23558243.020    97809836.392 7      5238.221          44.750
> 2024 07 31 15 19 40.0000000  0 16
G06  20461638.420   107526632.600 8      1608.595          48.312    20461637.540   107526632.602 8      1608.595          50.562    20461647.400    83787117.052 8      1253.451          50.812    20461648.400    83787024.052 8      1253.451          51.125
R21  19920660.380   106599482.502 8      3885.497          48.187    19920660.900   106599482.525 8      3885.497          48.937    19920671.960    82910759.758 8      3022.053          50.625    19920671.620    82910758.761 8      3022.053          50.000
R07  22842581.660   122278135.340 6      4609.657          40.937    22842580.460   122278135.381 6      4609.657          41.250    22842595.240    95105286.474 7      3585.289          43.375    22842597.920    95105291.475 6      3585.289          41.812
R16  22993710.360   122828278.192 6      5895.212          41.125    22993710.300   122828278.201 6      5895.212          40.250    22993737.140    95533208.422 7      4585.165          45.125    22993737.800    95533213.425 7      4585.165          44.875
G11  21111555.080   110941975.711 7      4479.035          47.125    21111554.040   110941975.721 6      4479.035          39.750    21111559.880    86448308.005 6      3490.157          39.250    21111558.520    86448304.002 8      3490.157          51.937
G09  22398071.780   117702654.968 7        90.799          43.812    22398070.860   117702654.968 7        90.799          44.062    22398080.600    91716393.735 7        70.752          43.750    22398081.140    91716399.754 7        70.752          46.000
R06  20620075.180   110032656.655 6      2816.246          39.062    20620075.460   110032656.661 6      2816.246          38.000
R05  22271831.820   119055712.492 7       399.093          44.062    22271829.860   119055712.480 7       399.093          43.812    22271843.020    92598935.506 7       310.406          44.250    22271845.020    92598934.498 7       310.406          43.062
G05  24333336.380   127872545.738 7      5241.794          42.187    24333335.260   127872545.753 6      5241.794          37.000    24333343.800    99640981.617 6      4084.515          36.750    24333344.400    99640984.635 6      4084.515          40.375
G20  22297608.700   117174723.918 7      4946.712          46.687    22297607.580   117174723.926 5      4946.712          34.750    22297613.920    91305001.481 5      3854.581          34.625
R15  22943272.380   122601893.952 7      3572.715          44.687    22943271.860   122601893.961 7      3572.715          43.375    22943290.680    95357111.479 7      2778.778          43.625    22943289.860    95357106.479 7      2778.778          43.625
G30  21550717.400   113249790.514 8      4668.052          48.562    21550716.140   113249790.519 8      4668.052          48.000    21550729.600    88246626.127 7      3637.443          47.812    21550730.400    88246640.132 8      3637.443          48.062
G07  21767754.860   114390319.890 7      2600.914          46.437    21767753.880   114390319.893 7      2600.914          45.937    21767762.180    89135348.607 7      2026.687          46.125    21767762.800    89135353.611 7      2026.687          47.687
G19  23598288.360   124009846.599 6      -495.199          41.625    23598286.420   124009846.601 5      -495.199          32.125    23598301.280    96631048.100 5      -385.869          32.125
G13  23165699.500   121736576.394 6      5700.431          41.687    23165698.280   121736576.405 4      5700.431          27.937    23165714.620    94859724.948 4      4441.895          27.750
R22  23556969.160   125748695.593 7      6734.245          42.812    23556969.740   125748695.602 7      6734.245          43.187    23556981.520    97804595.411 7      5237.746          45.062    23556981.320    97804598.408 7      5237.746          44.437
> 2024 07 31 15 19 41.0000000  0 16
G06  20461332.340   107525024.372 7      1607.839          47.812    20461331.560   107525024.372 8      1607.839          49.500    20461341.400    83785863.878 8      1252.862          50.062    20461342.260    83785770.882 8      1252.862          51.187
R21  19919934.020   106595597.546 8      3884.450          48.937    19919935.080   106595597.561 8      3884.450          48.187    19919946.160    82907738.117 8      3021.239          50.937    19919945.920    82907737.118 8      3021.239          49.875
R07  22841720.560   122273525.941 6      4609.204          40.937    22841718.600   122273525.982 6      4609.204          41.250    22841734.360    95101701.390 7      3584.937          42.937    22841736.380    95101706.378 6      3584.937          41.187
R16  22992607.080   122822383.218 6      5894.812          41.000    22992606.600   122822383.208 6      5894.812          40.250    22992633.640    95528623.430 7      4584.854          43.687    22992634.060    95528628.435 7      4584.854          44.750
G11  21110702.940   110937497.049 7      4478.343          47.187    21110701.900   110937497.064 6      4478.343          40.000    21110707.680    86444818.140 6      3489.618          39.625    21110706.140    86444814.138 8      3489.618          51.812
G09  22398054.320   117702564.440 7        90.496          43.687    22398053.680   117702564.437 7        90.496          44.375    22398063.380    91716323.195 7        70.516          43.812    22398064.360    91716329.205 7        70.516          45.875
R06  20619547.160   110029840.789 6      2815.505          39.375    20619547.520   110029840.792 6      2815.505          38.000
R05  22271757.300   119055313.365 7       399.078          43.062    22271755.020   119055313.353 7       399.078          43.312    22271768.700    92598625.076 7       310.394          43.562    22271770.200    92598624.083 7       310.394          42.500
G05  24332338.860   127867304.116 6      5241.575          41.750    24332337.640   127867304.131 6      5241.575          36.812    24332346.580    99636897.244 6      4084.344          37.000    24332347.380    99636900.256 6      4084.344          40.375
G20  22296667.460   117169777.390 7      4946.439          45.500    22296666.120   117169777.395 5      4946.439          34.750    22296672.700    91301147.046 5      3854.368          34.687
R15  22942603.400   122598321.742 7      3571.660          45.062    22942603.580   122598321.745 7      3571.660          43.625    22942621.940    95354333.095 7      2777.957          43.062    22942621.620    95354328.095 7      2777.957          43.750
G30  21549829.320   113245122.810 8      4667.443          48.562    21549827.820   113245122.815 7      4667.443          47.875    21549841.300    88242988.959 7      3636.969          47.375    21549842.500    88243002.962 8      3636.969          48.375
G07  21767259.980   114387719.486 7      2600.099          46.625    21767259.080   114387719.491 7      2600.099          45.812    21767267.300    89133322.324 7      2026.051          45.625    21767267.840    89133327.328 7      2026.051          47.500
G19  23598382.580   124010341.941 6      -495.382          40.187    23598380.560   124010341.944 5      -495.382          32.125    23598395.380    96631434.081 5      -386.012          31.250
G13  23164614.480   121730876.215 7      5699.871          42.437    23164613.420   121730876.220 4      5699.871          28.000    23164629.900    94855283.263 4      4441.458          28.000
R22  23555707.700   125741961.522 7      6733.879          42.437    23555707.900   125741961.528 7      6733.879          42.687    23555719.920    97799357.802 7      5237.461          44.500    23555719.720    97799360.801 7      5237.461          44.625
> 2024 07 31 15 19 42.0000000  0 16
G06  20461026.320   107523416.686 8      1607.284          49.062    20461025.660   107523416.688 8      1607.284          50.625    20461035.480    83784611.133 8      1252.429          50.500    20461036.520    83784518.133 8      1252.429          51.250
R21  19919208.220   106591713.451 8      3883.486          48.812    19919209.280   106591713.466 8      3883.486          48.437    19919220.260    82904717.154 8      3020.489          50.312    19919220.000    82904716.155 8      3020.489          49.812
R07  22840858.880   122268916.769 6      4608.912          40.937    22840857.160   122268916.811 6      4608.912          41.250    22840874.340    95098116.476 7      3584.709          43.625    22840875.640    95098121.465 7      3584.709          42.687
R16  22991503.920   122816488.372 6      5894.491          41.000    22991502.560   122816488.376 6      5894.491          40.250    22991529.900    95524038.562 7      4584.604          43.250    22991530.460    95524043.567 7      4584.604          44.375
G11  21109850.820   110933018.855 7      4477.823          47.437    21109849.580   110933018.868 6      4477.823          39.812    21109855.460    86441328.636 6      3489.212          39.750    21109854.120    86441324.636 8      3489.212          51.937
G09  22398037.320   117702473.966 7        90.327          44.250    22398036.380   117702473.966 7        90.327          43.375    22398046.220    91716252.696 7        70.384          43.750    22398047.360    91716258.694 7        70.384          46.562
R06  20619019.900   110027025.038 6      2815.447          39.375    20619019.900   110027025.052 6      2815.447          38.000
R05  22271682.660   119054914.115 7       399.094          43.062    22271680.900   119054914.103 7       399.094          43.062    22271694.780    92598314.552 7       310.407          44.187    22271695.820    92598313.561 7       310.407          43.937
G05  24331341.320   127862062.391 6      5241.668          41.937    24331340.180   127862062.399 6      5241.668          37.000    24331349.280    99632812.784 6      4084.416          36.875    24331350.360    99632815.792 6      4084.416          41.125
G20  22295726.160   117164830.833 7      4946.455          45.437    22295724.720   117164830.840 5      4946.455          34.750    22295731.260    91297292.590 5      3854.380          34.500
R15  22941935.280   122594750.143 7      3571.145          44.875    22941935.240   122594750.141 7      3571.145          43.625    22941953.320    95351555.191 7      2777.557          43.625    22941953.120    95351550.194 7      2777.557          43.437
G30  21548941.040   113240455.519 8      4666.978          48.250    21548939.640   113240455.531 8      4666.978          48.125    21548953.180    88239352.121 8      3636.607          48.000    21548954.400    88239366.122 8      3636.607          48.250
G07  21766765.200   114385119.589 7      2599.497          47.687    21766764.180   114385119.591 7      2599.497          46.125    21766772.500    89131296.428 7      2025.582          46.500    21766773.060    89131301.434 7      2025.582          47.312
G19  23598476.420   124010837.210 6      -495.371          40.375    23598474.580   124010837.207 5      -495.371          31.187    23598489.560    96631820.003 5      -386.004          31.250
G13  23163530.080   121725176.262 7      5699.684          42.125    23163528.840   121725176.267 4      5699.684          28.000    23163545.320    94850841.753 4      4441.312          28.000
R22  23554445.940   125735227.749 7      6733.382          42.437    23554446.660   125735227.750 7      6733.382          42.687    23554458.400    97794120.434 7      5237.075          44.375    23554458.500    97794123.434 7      5237.075          44.437
> 2024 07 31 15 19 43.0000000  0 16
G06  20460720.640   107521809.764 8      1606.649          48.875    20460719.860   107521809.767 8      1606.649          50.250    20460729.780    83783358.978 8      1251.934          50.375    20460730.720    83783265.981 8      1251.934          51.812
R21  19918482.680   106587830.396 8      3882.689          49.812    19918483.580   106587830.409 8      3882.689          49.375    19918494.480    82901696.994 8      3019.869          51.000    19918494.060    82901695.996 8      3019.869          48.937
R07  22839997.920   122264307.983 6      4608.760          40.062    22839996.200   122264308.030 6      4608.760          39.937    22840014.380    95094531.877 7      3584.591          44.250    22840015.200    95094536.872 7      3584.591          43.625
R16  22990400.640   122810593.900 6      5894.436          41.000    22990399.400   122810593.888 6      5894.436          39.437    22990426.220    95519453.952 7      4584.561          43.875    22990426.980    95519458.962 7      4584.561          44.500
G11  21108998.740   110928541.310 7      4477.357          46.812    21108997.580   110928541.317 6      4477.357          39.812    21109003.460    86437839.634 6      3488.849          39.437    21109001.880    86437835.638 8      3488.849          51.937
G09  22398020.160   117702383.724 7        90.334          45.500    22398019.160   117702383.732 7        90.334          44.187    22398028.960    91716182.376 7        70.390          44.062    22398030.120    91716188.363 7        70.390          46.500
R06  20618491.980   110024209.701 6      2815.160          39.375    20618492.260   110024209.709 6      2815.160          38.000
R05  22271607.820   119054514.923 7       399.313          43.812    22271606.300   119054514.925 7       399.313          43.125    22271620.900    92598004.074 7       310.577          44.062    22271621.320    92598003.085 7       310.577          44.062
G05  24330344.000   127856820.759 7      5241.747          42.437    24330342.820   127856820.764 6      5241.747          37.437    24330351.940    99628728.393 6      4084.478          37.187    24330353.100    99628731.401 6      4084.478          41.125
G20  22294784.820   117159884.486 7      4946.385          45.500    22294783.180   117159884.491 5      4946.385          34.312    22294789.980    91293438.290 5      3854.326          34.500
R15  22941267.140   122591179.378 7      3570.482          44.937    22941267.040   122591179.387 7      3570.482          44.125    22941285.220    95348777.946 7      2777.042          42.812    22941284.640    95348772.949 7      2777.042          43.500
G30  21548053.140   113235788.845 8      4666.502          48.562    21548051.640   113235788.855 7      4666.502          47.812    21548065.060    88235715.754 7      3636.235          47.875    21548066.200    88235729.757 8      3636.235          48.125
G07  21766270.640   114382520.372 7      2599.029          47.250    21766269.720   114382520.377 7      2599.029          45.562    21766277.940    89129271.066 7      2025.218          45.687    21766278.260    89129276.070 7      2025.218          47.437
G19  23598570.880   124011332.629 6      -495.376          40.125    23598568.720   124011332.623 5      -495.376          31.187    23598583.720    96632206.045 5      -386.007          31.250
G13  23162445.360   121719476.801 7      5699.313          42.125    23162444.220   121719476.808 4      5699.313          28.000    23162460.960    94846400.624 4      4441.023          28.000
R22  23553184.680   125728494.377 7      6733.311          42.750    23553185.580   125728494.375 7      6733.311          42.500    23553196.620    97788883.365 7      5237.020          44.437    23553197.220    97788886.367 7      5237.020          44.250
> 2024 07 31 15 19 44.0000000  0 16
G06  20460415.020   107520203.497 8      1605.901          49.000    20460414.220   107520203.502 8      1605.901          49.687    20460424.100    83782107.335 8      1251.351          50.000    20460424.920    83782014.338 8      1251.351          51.187
R21  19917757.140   106583948.287 8      3881.652          48.062    19917758.100   106583948.299 8      3881.652          48.687    19917769.180    82898677.578 8      3019.062          50.562    19917768.780    82898676.579 8      3019.062          49.562
R07  22839137.140   122259699.520 6      4608.364          40.062    22839136.180   122259699.565 6      4608.364          39.937    22839154.420    95090947.524 7      3584.283          44.687    22839154.660    95090952.520 7      3584.283          45.312
R16  22989297.340   122804699.717 6      5893.863          40.250    22989295.360   122804699.705 6      5893.863          39.437    22989322.580    95514869.592 7      4584.116          43.562    22989323.360    95514874.601 7      4584.116          43.937
G11  21108146.920   110924064.358 7      4476.568          47.250    21108145.600   110924064.366 6      4476.568          39.687    21108151.380    86434351.103 6      3488.235          39.437    21108150.020    86434347.104 8      3488.235          51.750
G09  22398003.040   117702293.674 7        89.934          45.937    22398001.940   117702293.689 7        89.934          43.250    22398011.940    91716112.207 7        70.078          43.625    22398012.900    91716118.192 7        70.078          46.187
R06  20617964.500   110021394.630 6      2815.029          39.375    20617965.260   110021394.634 6      2815.029          38.000
R05  22271533.600   119054115.780 7       399.106          43.812    22271532.000   119054115.784 7       399.106          43.125    22271547.380    92597693.629 7       310.416          44.437    22271547.240    92597692.640 7       310.416          44.687
G05  24329346.740   127851579.166 7      5241.638          42.000    24329345.520   127851579.173 6      5241.638          36.875    24329354.680    99624644.034 6      4084.393          37.375    24329355.180    99624647.044 6      4084.393          41.125
G20  22293843.440   117154938.226 7      4946.157          45.125    22293842.080   117154938.234 5      4946.157          34.187    22293848.640    91289584.067 5      3854.148          34.625
R15  22940599.060   122587609.396 7      3569.611          44.812    22940598.800   122587609.407 7      3569.611          43.562    22940617.080    95346001.285 7      2776.364          43.062    22940616.400    95345996.292 7      2776.364          42.937
G30  21547165.180   113231122.702 8      4665.855          48.125    21547163.620   113231122.712 7      4665.855          47.500    21547177.120    88232079.801 7      3635.731          47.625    21547178.100    88232093.803 7      3635.731          47.750
G07  21765776.140   114379921.786 7      2598.323          46.875    21765775.260   114379921.788 7      2598.323          45.625    21765783.380    89127246.198 7      2024.667          45.500    21765783.460    89127251.202 7      2024.667          47.187
G19  23598665.020   124011828.139 6      -495.634          40.375    23598662.740   124011828.131 5      -495.634          31.187    23598677.880    96632592.155 5      -386.208          31.250
G13  23161360.840   121713777.670 6      5699.029          41.625    23161359.640   121713777.678 4      5699.029          28.000    23161376.380    94841959.751 4      4440.802          28.000
R22  23551923.340   125721761.403 7      6732.763          42.562    23551924.340   125721761.406 7      6732.763          42.437    23551934.960    97783646.615 7      5236.593          44.625    23551935.800    97783649.620 7      5236.593          44.000
> 2024 07 31 15 19 45.0000000  0 16
G06  20460109.540   107518597.900 8      1605.223          48.625    20460108.660   107518597.900 8      1605.223          50.250    20460118.600    83780856.214 8      1250.823          50.750    20460119.440    83780763.217 8      1250.823          51.437
R21  19917031.900   106580067.127 8      3880.686          48.625    19917032.920   106580067.144 8      3880.686          48.000    19917043.800    82895658.902 8      3018.312          50.500    19917043.500    82895657.901 8      3018.312          49.187
R07  22838276.020   122255091.390 6      4607.983          41.125    22838275.700   122255091.431 6      4607.983          41.250    22838294.020    95087363.427 7      3583.987          45.125    22838294.100    95087368.425 7      3583.987          45.125
R16  22988193.560   122798805.712 6      5893.853          40.250    22988192.140   122798805.703 6      5893.853          39.437    22988218.900    95510285.380 7      4584.108          43.437    22988220.100    95510290.392 7      4584.108          43.625
G11  21107295.100   110919587.948 7      4476.141          47.312    21107293.740   110919587.956 6      4476.141          39.937    21107299.560    86430862.993 6      3487.902          39.500    21107298.140    86430858.991 8      3487.902          51.562
G09  22397986.100   117702203.766 7        89.859          45.375    22397984.780   117702203.778 7        89.859          44.125    22397994.760    91716042.142 7        70.020          44.125    22397995.440    91716048.129 7        70.020          45.562
R06  20617437.300   110018579.888 6      2814.407          39.437    20617437.780   110018579.910 6      2814.407          38.000
R05  22271458.580   119053716.613 7       399.285          43.625    22271458.160   119053716.619 7       399.285          43.375    22271473.720    92597383.162 7       310.555          45.500    22271472.760    92597382.171 7       310.555          46.000
G05  24328349.160   127846337.575 7      5241.620          43.187    24328348.160   127846337.583 6      5241.620          37.125    24328357.380    99620559.684 6      4084.379          37.312    24328357.920    99620562.694 6      4084.379          41.125
G20  22292902.240   117149992.045 7      4946.265          45.500    22292900.840   117149992.052 5      4946.265          34.187    22292907.460    91285729.902 5      3854.233          34.625
R15  22939931.080   122584040.137 7      3568.993          45.187    22939930.820   122584040.139 7      3568.993          44.250    22939949.420    95343225.197 7      2775.883          43.375    22939948.400    95343220.202 7      2775.883          43.562
G30  21546277.340   113226457.068 8      4665.465          48.437    21546275.820   113226457.073 8      4665.465          48.125    21546289.340    88228444.246 7      3635.427          47.812    21546290.380    88228458.247 8      3635.427          48.250
G07  21765281.740   114377323.809 7      2597.790          47.312    21765280.780   114377323.811 7      2597.790          46.000    21765288.900    89125221.805 7      2024.252          45.687    21765289.140    89125226.811 7      2024.252          47.875
G19  23598759.780   124012323.668 6      -495.565          39.875    23598756.820   124012323.667 5      -495.565          30.187    23598772.140    96632978.282 5      -386.154          30.250
G13  23160276.680   121708078.926 7      5698.619          42.375    23160275.260   121708078.936 4      5698.619          28.000    23160291.840    94837519.180 4      4440.482          28.000
R22  23550662.460   125715028.791 7      6732.422          42.625    23550663.060   125715028.797 7      6732.422          42.875    23550673.500    97778410.135 7      5236.328          44.375    23550674.180    97778413.138 7      5236.328          44.312
> 2024 07 31 15 19 46.0000000  0 16
G06  20459804.200   107516992.936 8      1604.693          49.562    20459803.280   107516992.938 8      1604.693          50.312    20459813.200    83779605.587 8      1250.410          50.500    20459814.060    83779512.587 8      1250.410          51.250
R21  19916307.100   106576186.906 8      3879.895          48.875    19916307.580   106576186.924 8      3879.895          48.750    19916318.840    82892640.950 8      3017.696          50.875    19916318.320    82892639.952 8      3017.696          49.875
R07  22837415.440   122250483.495 6      4607.902          41.125    22837414.680   122250483.523 6      4607.902          41.250    22837433.540    95083779.510 7      3583.923          45.062    22837433.380    95083784.509 7      3583.923          45.062
R16  22987089.500   122792911.967 6      5893.753          40.500    22987088.620   122792911.960 6      5893.753          39.687    22987115.280    95505701.358 7      4584.030          42.937    22987116.680    95505706.365 7      4584.030          43.312
G11  21106443.320   110915112.109 7      4475.721          47.750    21106442.080   110915112.116 6      4475.721          39.937    21106447.980    86427375.324 6      3487.574          39.562    21106446.360    86427371.319 8      3487.574          51.750
G09  22397968.940   117702114.010 7        89.804          45.000    22397967.840   117702114.017 7        89.804          43.750    22397977.840    91715972.198 7        69.977          43.312    22397977.340    91715978.191 7        69.977          45.187
R06  20616910.340   110015765.383 6      2814.409          39.437    20616910.340   110015765.397 6      2814.409          38.000
R05  22271383.700   119053317.496 7       399.296          44.500    22271384.060   119053317.492 7       399.296          43.687    22271399.800    92597072.723 7       310.563          45.812    22271398.300    92597071.726 7       310.563          46.750
G05  24327351.620   127841095.993 7      5241.738          42.812    24327350.840   127841096.008 6      5241.738          37.500    24327360.240    99616475.347 6      4084.471          37.187    24327360.100    99616478.352 6      4084.471          41.062
G20  22291961.000   117145045.992 7      4946.204          45.250    22291959.580   117145045.997 5      4946.204          34.250    22291966.360    91281875.837 5      3854.185          34.125
R15  22939263.240   122580471.641 7      3568.319          45.562    22939262.980   122580471.645 7      3568.319          44.375    22939281.360    95340449.702 7      2775.360          43.687    22939280.700    95340444.700 7      2775.360          43.250
G30  21545389.660   113221791.958 8      4665.075          49.000    21545388.140   113221791.963 8      4665.075          48.312    21545401.560    88224809.099 8      3635.123          48.125    21545402.480    88224823.098 7      3635.123          47.875
G07  21764787.440   114374726.453 8      2597.183          48.250    21764786.580   114374726.452 7      2597.183          46.437    21764794.720    89123197.891 7      2023.779          46.562    21764795.080    89123202.899 7      2023.779          47.437
G19  23598853.720   124012819.289 6      -495.653          40.250    23598851.020   124012819.288 5      -495.653          30.187    23598866.660    96633364.482 5      -386.223          30.250
G13  23159192.240   121702380.536 7      5698.364          42.500    23159190.920   121702380.543 4      5698.364          27.875    23159207.440    94833078.880 4      4440.284          27.875
R22  23549401.240   125708296.543 7      6732.197          42.625    23549401.040   125708296.541 7      6732.197          42.875    23549412.460    97773173.936 7      5236.153          44.062    23549413.060    97773176.934 7      5236.153          43.625
> 2024 07 31 15 19 47.0000000  0 16
G06  20459498.840   107515388.681 8      1603.846          48.687    20459498.000   107515388.683 8      1603.846          50.000    20459507.940    83778355.512 8      1249.750          50.687    20459508.960    83778262.515 8      1249.750          51.750
R21  19915581.900   106572307.718 8      3878.582          48.812    19915582.660   106572307.738 8      3878.582          48.562    19915593.800    82889623.808 8      3016.675          50.687    19915593.260    82889622.808 8      3016.675          49.375
R07  22836554.840   122245875.934 7      4607.318          42.250    22836554.440   122245875.965 6      4607.318          41.812    22836573.440    95080195.861 7      3583.470          45.687    22836573.100    95080200.859 7      3583.470          45.625
R16  22985986.540   122787018.521 6      5893.251          40.500    22985985.620   122787018.514 6      5893.251          39.687    22986011.920    95501117.569 7      4583.640          42.375    22986013.320    95501122.578 7      4583.640          43.375
G11  21105591.600   110910636.897 7      4474.829          46.812    21105590.440   110910636.904 6      4474.829          40.125    21105596.380    86423888.148 6      3486.880          39.500    21105594.920    86423884.145 8      3486.880          52.062
G09  22397951.900   117702024.477 7        89.289          44.062    22397950.940   117702024.484 7        89.289          44.062    22397960.720    91715902.424 7        69.576          44.187    22397960.380    91715908.430 7        69.576          45.000
R06  20616382.940   110012951.233 6      2813.935          39.437    20616382.760   110012951.236 6      2813.935          38.250
R05  22271308.740   119052918.409 7       398.968          44.500    22271309.800   119052918.418 7       398.968          44.062    22271325.800    92596762.324 7       310.309          46.187    22271324.020    92596761.327 7       310.309          46.687
G05  24326354.080   127835854.494 7      5241.435          42.437    24326353.360   127835854.512 6      5241.435          37.375    24326362.940    99612391.068 6      4084.235          37.250    24326363.460    99612394.076 6      4084.235          41.625
G20  22291019.800   117140100.082 7      4945.825          45.812    22291018.360   117140100.084 5      4945.825          34.250    22291025.020    91278021.883 5      3853.890          34.437
R15  22938596.020   122576903.951 7      3567.235          45.437    22938595.500   122576903.965 7      3567.235          44.312    22938613.620    95337674.846 7      2774.516          43.312    22938612.720    95337669.849 7      2774.516          43.625
G30  21544501.940   113217127.433 8      4664.185          48.437    21544500.400   113217127.436 7      4664.185          47.562    21544513.880    88221174.409 7      3634.430          47.437    21544514.820    88221188.409 8      3634.430          48.250
G07  21764293.280   114372129.756 7      2596.235          47.937    21764292.320   114372129.755 7      2596.235          46.000    21764300.560    89121174.497 7      2023.040          45.812    21764300.940    89121179.505 7      2023.040          47.250
G19  23598948.200   124013314.988 6      -495.793          40.562    23598945.280   124013314.990 5      -495.793          30.187    23598961.020    96633750.737 5      -386.332          30.250
G13  23158107.900   121696682.543 7      5697.787          42.312    23158106.500   121696682.548 4      5697.787          27.875    23158123.120    94828638.894 4      4439.834          27.875
R22  23548139.680   125701564.660 7      6731.588          42.687    23548139.620   125701564.666 7      6731.588          42.000    23548151.340    97767938.044 7      5235.680          44.562    23548151.440    97767941.042 7      5235.680          44.000
> 2024 07 31 15 19 48.0000000  0 16
G06  20459193.740   107513785.068 8      1603.410          48.937    20459192.900   107513785.070 8      1603.410          49.937    20459202.820    83777105.939 8      1249.411          50.687    20459203.760    83777012.938 8      1249.411          51.750
R21  19914857.320   106568429.480 8      3877.882          49.500    19914857.940   106568429.500 8      3877.882          48.625    19914869.100    82886607.397 8      3016.131          50.687    19914868.640    82886606.400 8      3016.131          49.562
R07  22835694.360   122241268.660 7      4607.242          42.250    22835694.040   122241268.699 6      4607.242          41.812    22835713.200    95076612.442 7      3583.411          46.187    22835712.560    95076617.438 7      3583.411          46.062
R16  22984883.540   122781125.347 6      5893.102          40.500    22984882.380   122781125.332 6      5893.102          39.687    22984908.240    95496533.981 7      4583.524          42.687    22984909.860    95496538.994 7      4583.524          42.687
G11  21104740.160   110906162.218 7      4474.499          47.062    21104738.880   110906162.228 6      4474.499          40.062    21104744.820    86420401.383 6      3486.623          39.625    21104743.420    86420397.381 8      3486.623          52.000
G09  22397934.780   117701935.057 7        89.414          44.312    22397933.960   117701935.062 7        89.414          44.250    22397943.820    91715832.743 7        69.673          44.187    22397943.540    91715838.752 7        69.673          44.937
R06  20615855.820   110010137.342 6      2813.885          39.562    20615855.840   110010137.345 6      2813.885          38.250
R05  22271234.380   119052519.303 7       399.166          44.812    22271235.640   119052519.315 7       399.166          44.125    22271251.240    92596451.902 7       310.462          45.625    22271249.380    92596450.903 7       310.462          47.125
G05  24325356.920   127830612.985 7      5241.562          42.437    24325355.780   127830613.003 6      5241.562          36.437    24325365.640    99608306.780 6      4084.334          37.000    24325366.000    99608309.798 6      4084.334          41.625
G20  22290078.720   117135154.239 7      4945.852          45.125    22290077.200   117135154.247 5      4945.852          34.375    22290083.840    91274167.988 5      3853.911          34.437
R15  22937928.460   122573336.999 7      3566.578          45.625    22937928.000   122573337.010 7      3566.578          43.875    22937945.960    95334900.556 7      2774.005          43.312    22937945.360    95334895.553 7      2774.005          43.625
G30  21543614.240   113212463.387 7      4663.856          47.937    21543612.900   113212463.400 7      4663.856          47.875    21543626.400    88217540.100 7      3634.173          47.875    21543627.100    88217554.102 8      3634.173          48.250
G07  21763799.240   114369533.640 7      2595.868          47.500    21763798.380   114369533.642 7      2595.868          46.437    21763806.600    89119151.553 7      2022.754          46.500    21763806.940    89119156.557 7      2022.754          47.187
G19  23599042.720   124013810.738 6      -495.743          39.812    23599039.620   124013810.737 5      -495.743          30.437    23599055.360    96634137.037 5      -386.293          30.250
G13  23157023.500   121690984.910 6      5697.489          41.625    23157022.320   121690984.918 4      5697.489          27.875    23157038.920    94824199.186 4      4439.602          27.875
R22  23546878.780   125694833.169 7      6731.362          42.687    23546879.280   125694833.170 7      6731.362          42.000    23546891.160    97762702.444 7      5235.503          44.625    23546890.860    97762705.434 7      5235.503          44.187
> 2024 07 31 15 19 49.0000000  0 16
G06  20458888.560   107512182.019 8      1602.572          49.187    20458887.880   107512182.019 8      1602.572          50.625    20458897.800    83775856.800 8      1248.757          50.937    20458898.720    83775763.801 8      1248.757          51.750
R21  19914132.680   106564552.133 8      3876.737          49.000    19914133.240   106564552.156 8      3876.737          48.375    19914144.560    82883591.686 8      3015.240          51.000    19914144.280    82883590.686 8      3015.240          49.875
R07  22834833.580   122236661.632 6      4606.672          41.812    22834833.200   122236661.679 7      4606.672          42.375    22834853.120    95073029.211 7      3582.967          46.375    22834852.380    95073034.211 7      3582.967          46.375
R16  22983780.200   122775232.309 6      5892.616          39.375    22983779.160   122775232.302 6      5892.616          38.937    22983804.980    95491950.509 7      4583.146          42.437    22983806.420    95491955.525 7      4583.146          43.000
G11  21103888.920   110901688.008 7      4473.841          47.625    21103887.500   110901688.015 6      4473.841          40.000    21103893.440    86416914.985 6      3486.110          39.687    21103891.920    86416910.983 8      3486.110          52.187
G09  22397917.720   117701845.695 7        89.203          44.750    22397916.900   117701845.700 7        89.203          44.187    22397926.720    91715763.106 7        69.509          44.000    22397927.080    91715769.124 7        69.509          45.562
R06  20615328.700   110007323.626 6      2813.500          39.562    20615328.580   110007323.617 6      2813.500          38.250
R05  22271159.580   119052120.069 7       399.121          45.625    22271161.220   119052120.076 7       399.121          44.750    22271176.720    92596141.381 7       310.427          46.250    22271174.740    92596140.371 7       310.427          47.437
G05  24324359.180   127825371.360 7      5241.523          42.187    24324358.180   127825371.373 6      5241.523          36.812    24324368.040    99604222.399 6      4084.304          36.750    24324368.640    99604225.411 6      4084.304          41.812
G20  22289137.640   117130208.392 7      4945.681          45.562    22289135.940   117130208.397 5      4945.681          34.500    22289142.680    91270314.083 5      3853.777          34.687
R15  22937260.940   122569770.639 7      3565.869          45.250    22937260.800   122569770.651 7      3565.869          43.937    22937278.640    95332126.728 7      2773.454          43.125    22937278.260    95332121.724 7      2773.454          43.750
G30  21542726.840   113207799.769 7      4663.211          47.812    21542725.400   113207799.777 7      4663.211          47.687    21542738.940    88213906.114 7      3633.671          47.437    21542739.860    88213920.114 8      3633.671          48.250
G07  21763305.240   114366938.025 7      2595.216          47.500    21763304.440   114366938.025 7      2595.216          46.125    21763312.660    89117128.996 7      2022.246          46.187    21763313.120    89117134.005 7      2022.246          47.625
G19  23599136.720   124014306.435 6      -495.911          40.437    23599134.080   124014306.440 5      -495.911          30.437    23599149.820    96634523.293 5      -386.424          30.250
G13  23155939.560   121685287.498 7      5697.096          42.937    23155938.120   121685287.508 4      5697.096          27.875    23155954.720    94819759.654 4      4439.295          27.875
R22  23545617.660   125688101.914 6      6731.064          41.312    23545619.240   125688101.915 7      6731.064          42.250    23545630.420    97757467.025 7      5235.272          44.875    23545630.040    97757470.017 7      5235.272          44.812
> 2024 07 31 15 19 50.0000000  0 16
G06  20458583.660   107510579.709 8      1601.904          49.312    20458582.960   107510579.711 8      1601.904          50.562    20458592.880    83774608.245 8      1248.237          50.312    20458593.840    83774515.245 8      1248.237          51.750
R21  19913408.180   106560675.840 8      3875.740          49.437    19913408.600   106560675.863 8      3875.740          48.937    19913420.160    82880576.792 8      3014.464          50.812    19913419.800    82880575.791 8      3014.464          49.375
R07  22833973.060   122232055.006 7      4606.366          42.687    22833973.700   122232055.042 7      4606.366          42.375    22833993.040    95069446.285 7      3582.729          46.812    22833992.120    95069451.282 7      3582.729          46.750
R16  22982677.380   122769339.645 6      5892.461          39.375    22982676.140   122769339.612 6      5892.461          38.937    22982701.980    95487367.320 7      4583.025          42.062    22982703.080    95487372.329 7      4583.025          43.000
G11  21103037.360   110897214.475 7      4473.130          47.437    21103036.140   110897214.482 6      4473.130          39.875    21103042.180    86413429.115 6      3485.556          39.562    21103040.680    86413425.115 8      3485.556          52.062
G09  22397900.660   117701756.580 7        89.013          44.812    22397899.940   117701756.588 7        89.013          44.187    22397909.920    91715693.670 7        69.361          44.437    22397910.460    91715699.679 7        69.361          46.312
R06  20614800.980   110004510.285 6      2813.033          39.562    20614801.340   110004510.286 6      2813.033          38.250
R05  22271084.980   119051720.915 7       399.056          45.937    22271086.200   119051720.919 7       399.056          44.062    22271101.660    92595830.921 7       310.377          46.125    22271100.280    92595829.914 7       310.377          47.437
G05  24323361.560   127820129.859 6      5241.439          41.562    24323360.520   127820129.875 6      5241.439          37.187    24323370.400    99600138.116 6      4084.238          37.000    24323371.140    99600141.139 6      4084.238          41.812
G20  22288196.400   117125262.746 7      4945.493          45.562    22288194.880   117125262.751 5      4945.493          34.500    22288201.400    91266460.335 5      3853.631          34.687
R15  22936593.760   122566205.154 7      3565.071          45.375    22936593.960   122566205.160 7      3565.071          44.375    22936611.380    95329353.581 7      2772.833          42.625    22936610.800    95329348.575 7      2772.833          43.625
G30  21541839.420   113203136.771 7      4662.617          47.875    21541837.960   113203136.774 7      4662.617          47.562    21541851.740    88210272.615 7      3633.208          47.375    21541852.620    88210286.617 7      3633.208          47.937
G07  21762811.500   114364343.123 8      2594.545          48.312    21762810.680   114364343.128 7      2594.545          45.812    21762818.860    89115106.999 7      2021.723          46.000    21762819.220    89115112.005 7      2021.723          47.312
G19  23599231.220   124014802.292 6      -496.052          41.625    23599228.640   124014802.299 5      -496.052          30.437    23599244.340    96634909.673 5      -386.534          30.250
G13  23154855.220   121679590.561 7      5696.700          42.687    23154854.060   121679590.571 4      5696.700          27.875    23154870.480    94815320.493 4      4438.987          27.875
R22  23544356.800   125681371.107 7      6730.717          42.375    23544358.760   125681371.123 7      6730.717          42.437    23544369.980    97752231.971 7      5235.002          45.312    23544369.220    97752234.968 7      5235.002          45.250
> 2024 07 31 15 19 51.0000000  0 16
G06  20458278.900   107508978.085 8      1601.203          48.875    20458278.240   107508978.084 8      1601.203          50.500    20458288.100    83773360.220 8      1247.691          50.437    20458289.080    83773267.218 8      1247.691          51.000
R21  19912683.880   106556800.502 8      3874.725          48.437    19912684.360   106556800.530 8      3874.725          49.000    19912695.980    82877562.640 8      3013.675          50.500    19912695.380    82877561.642 8      3013.675          49.500
R07  22833113.200   122227448.749 7      4605.890          42.687    22833113.320   122227448.791 7      4605.890          42.500    22833133.180    95065863.658 7      3582.359          46.937    22833131.640    95065868.660 7      3582.359          47.875
R16  22981573.620   122763447.252 6      5892.104          39.375    22981572.520   122763447.221 6      5892.104          38.937    22981598.560    95482784.339 7      4582.748          42.312    22981599.640    95482789.350 7      4582.748          42.500
G11  21102186.100   110892741.520 7      4472.515          47.562    21102185.080   110892741.525 6      4472.515          39.562    21102191.020    86409943.692 6      3485.077          39.562    21102189.440    86409939.691 8      3485.077          52.125
G09  22397883.600   117701667.655 7        88.710          45.437    22397883.100   117701667.667 7        88.710          44.000    22397892.880    91715624.377 7        69.125          44.312    22397894.180    91715630.378 7        69.125          46.312
R06  20614274.180   110001697.234 6      2812.781          39.437    20614274.000   110001697.219 6      2812.781          38.062
R05  22271010.380   119051321.775 7       398.964          45.375    22271011.160   119051321.765 7       398.964          44.187    22271026.660    92595520.464 7       310.305          46.062    22271025.440    92595519.450 7       310.305          47.125
G05  24322364.000   127814888.398 6      5241.318          41.875    24322362.980   127814888.410 6      5241.318          36.500    24322372.780    99596053.867 6      4084.144          36.437    24322373.680    99596056.895 6      4084.144          41.625
G20  22287255.560   117120317.206 7      4945.348          45.625    22287253.760   117120317.216 5      4945.348          34.500    22287260.500    91262606.672 5      3853.518          34.312
R15  22935926.700   122562640.475 7      3564.111          45.250    22935926.720   122562640.474 7      3564.111          44.937    22935943.860    95326581.049 7      2772.087          43.312    22935943.740    95326576.047 7      2772.087          43.437
G30  21540952.320   113198474.296 7      4662.056          47.750    21540950.780   113198474.306 7      4662.056          47.750    21540964.440    88206639.521 7      3632.771          47.437    21540965.480    88206653.526 7      3632.771          47.875
G07  21762317.920   114361748.875 7      2593.689          47.187    21762316.880   114361748.882 7      2593.689          45.875    21762325.180    89113085.511 7      2021.056          46.125    21762325.520    89113090.519 7      2021.056          47.125
G19  23599325.780   124015298.191 6      -496.023          41.125    23599323.140   124015298.201 5      -496.023          30.437    23599338.820    96635296.086 5      -386.511          30.500
G13  23153771.100   121673894.006 7      5696.264          42.125    23153770.040   121673894.010 4      5696.264          27.937    23153786.220    94810881.627 4      4438.647          27.812
R22  23543095.740   125674640.710 6      6730.160          41.812    23543097.260   125674640.741 7      6730.160          42.437    23543108.660    97746997.229 7      5234.569          44.937    23543108.620    97747000.230 7      5234.569          45.375
> 2024 07 31 15 19 52.0000000  0 16
G06  20457974.240   107507377.099 8      1600.712          48.750    20457973.600   107507377.098 8      1600.712          50.875    20457983.420    83772112.690 8      1247.308          50.687    20457984.300    83772019.688 8      1247.308          51.125
R21  19911959.740   106552926.114 8      3873.904          48.875    19911960.520   106552926.137 8      3873.904          48.937    19911971.940    82874549.223 8      3013.036          50.625    19911971.580    82874548.222 8      3013.036          49.312
R07  22832252.820   122222842.824 7      4605.682          43.187    22832252.840   122222842.850 7      4605.682          42.500    22832273.040    95062281.271 7      3582.197          47.000    22832271.560    95062286.274 7      3582.197          47.375
R16  22980470.680   122757555.045 6      5892.051          39.375    22980469.420   122757555.022 6      5892.051          38.937    22980495.320    95478201.519 7      4582.707          42.312    22980496.820    95478206.531 7      4582.707          42.687
G11  21101335.140   110888269.114 7      4472.073          47.312    21101334.000   110888269.124 6      4472.073          40.187    21101339.840    86406458.707 6      3484.732          39.437    21101338.500    86406454.702 8      3484.732          52.187
G09  22397866.760   117701578.871 7        88.720          45.000    22397866.140   117701578.878 7        88.720          43.937    22397876.020    91715555.189 7        69.132          44.000    22397876.960    91715561.188 7        69.132          46.562
R06  20613746.540   109998884.407 6      2812.711          39.437    20613746.260   109998884.427 6      2812.711          38.062
R05  22270935.540   119050922.613 7       399.109          45.312    22270935.880   119050922.606 7       399.109          43.875    22270951.180    92595210.005 7       310.418          45.875    22270950.580    92595208.987 7       310.418          46.562
G05  24321366.840   127809646.944 6      5241.344          40.937    24321365.540   127809646.951 5      5241.344          35.875    24321374.920    99591969.619 6      4084.164          36.062    24321376.240    99591972.645 6      4084.164          41.625
G20  22286314.500   117115371.758 7      4945.410          45.687    22286312.600   117115371.766 5      4945.410          34.125    22286319.380    91258753.078 5      3853.566          34.062
R15  22935259.920   122559076.499 7      3563.531          46.062    22935259.720   122559076.508 7      3563.531          44.625    22935276.620    95323809.084 7      2771.635          43.062    22935276.820    95323804.081 7      2771.635          43.562
G30  21540065.000   113193812.341 7      4661.667          47.687    21540063.700   113193812.349 7      4661.667          47.875    21540077.280    88203006.834 7      3632.468          47.687    21540078.220    88203020.836 8      3632.468          48.250
G07  21761824.360   114359155.189 7      2593.414          47.750    21761823.340   114359155.191 7      2593.414          45.812    21761831.680    89111064.455 7      2020.842          45.875    21761832.020    89111069.461 7      2020.842          47.375
G19  23599420.160   124015794.164 6      -496.071          41.375    23599417.600   124015794.177 5      -496.071          30.750    23599433.280    96635682.554 5      -386.549          30.500
G13  23152687.300   121668197.802 7      5696.073          42.250    23152686.160   121668197.815 4      5696.073          27.937    23152702.360    94806443.041 4      4438.499          27.812
R22  23541834.660   125667910.672 6      6729.962          41.812    23541835.840   125667910.681 6      6729.962          41.875    23541847.400    97741762.753 7      5234.415          44.625    23541848.080    97741765.751 7      5234.415          45.125
> 2024 07 31 15 19 53.0000000  0 16
G06  20457669.560   107505776.909 8      1600.007          49.250    20457669.040   107505776.911 8      1600.007          50.437    20457678.980    83770865.787 8      1246.759          50.812    20457679.860    83770772.789 8      1246.759          51.750
R21  19911236.140   106549052.823 8      3872.986          48.875    19911236.460   106549052.843 8      3872.986          49.062    19911248.140    82871536.659 8      3012.323          50.625    19911247.840    82871535.663 8      3012.323          49.187
R07  22831392.660   122218237.282 7      4605.562          43.187    22831392.540   122218237.321 7      4605.562          42.750    22831413.020    95058699.200 7      3582.104          47.437    22831411.440    95058704.202 7      3582.104          47.687
R16  22979368.260   122751663.254 6      5891.791          39.000    22979366.860   122751663.239 6      5891.791          38.500    22979392.540    95473619.024 7      4582.504          42.187    22979393.480    95473624.037 7      4582.504          42.312
G11  21100484.240   110883797.407 7      4471.605          46.937    21100483.140   110883797.415 6      4471.605          39.687    21100488.860    86402974.258 6      3484.367          39.625    21100487.480    86402970.255 8      3484.367          52.312
G09  22397850.020   117701490.347 7        88.738          44.750    22397849.240   117701490.355 7        88.738          44.500    22397859.180    91715486.205 7        69.146          44.500    22397859.740    91715492.200 7        69.146          46.375
R06  20613219.600   109996072.034 6      2812.646          39.437    20613219.940   109996072.032 6      2812.646          38.062
R05  22270861.080   119050523.568 7       399.254          44.437    22270860.120   119050523.559 7       399.254          43.875    22270876.020    92594899.639 7       310.531          45.562    22270876.000    92594898.619 7       310.531          46.187
G05  24320369.720   127804405.587 6      5241.557          41.687    24320367.980   127804405.592 6      5241.557          36.250    24320377.080    99587885.449 6      4084.330          36.062    24320378.280    99587888.475 6      4084.330          40.812
G20  22285373.160   117110426.539 7      4945.373          45.562    22285371.580   117110426.543 5      4945.373          34.125    22285378.380    91254899.660 5      3853.538          34.062
R15  22934593.220   122555513.402 7      3562.929          45.687    22934592.800   122555513.409 7      3562.929          44.187    22934609.920    95321037.791 7      2771.167          42.937    22934609.900    95321032.787 7      2771.167          43.562
G30  21539178.020   113189151.025 8      4661.242          48.375    21539176.540   113189151.030 8      4661.242          48.375    21539190.220    88199374.645 8      3632.136          48.125    21539191.080    88199388.644 7      3632.136          47.937
G07  21761331.120   114356562.254 7      2592.949          47.875    21761329.960   114356562.251 7      2592.949          46.187    21761338.260    89109043.984 7      2020.479          46.125    21761338.720    89109048.986 7      2020.479          47.125
G19  23599514.600   124016290.295 7      -495.878          42.000    23599512.160   124016290.310 5      -495.878          30.750    23599527.800    96636069.149 5      -386.398          30.500
G13  23151603.700   121662502.098 7      5695.765          42.250    23151602.300   121662502.105 4      5695.765          27.937    23151618.520    94802004.836 4      4438.258          27.812
R22  23540574.100   125661181.100 6      6729.566          41.125    23540574.540   125661181.112 6      6729.566          41.875    23540586.220    97736528.652 7      5234.107          44.125    23540587.280    97736531.653 7      5234.107          44.125
> 2024 07 31 15 19 54.0000000  0 16
G06  20457365.180   107504177.202 7      1599.376          47.875    20457364.660   107504177.205 8      1599.376          50.125    20457374.580    83769619.258 8      1246.267          50.375    20457375.560    83769526.258 8      1246.267          51.625
R21  19910512.680   106545180.335 8      3872.083          48.500    19910512.920   106545180.352 8      3872.083          48.500    19910524.560    82868524.720 8      3011.620          50.375    19910524.080    82868523.721 8      3011.620          49.000
R07  22830532.000   122213631.881 7      4605.265          42.750    22830531.680   122213631.918 7      4605.265          42.750    22830552.580    95055117.234 7      3581.873          47.187    22830551.420    95055122.237 7      3581.873          47.875
R16  22978265.480   122745771.568 6      5891.647          39.000    22978264.640   122745771.540 6      5891.647          38.500    22978289.920    95469036.597 7      4582.392          42.437    22978290.600    95469041.607 7      4582.392          42.750
G11  21099633.520   110879326.095 7      4471.085          47.250    21099632.320   110879326.102 6      4471.085          40.062    21099638.020    86399490.118 6      3483.963          39.625    21099636.780    86399486.118 8      3483.963          51.750
G09  22397833.120   117701401.855 7        88.496          44.562    22397832.520   117701401.855 7        88.496          43.937    22397842.420    91715417.246 7        68.958          43.375    22397843.140    91715423.237 7        68.958          46.062
R06  20612692.000   109993259.787 6      2812.273          39.437    20612692.640   109993259.787 6      2812.273          38.062
R05  22270786.320   119050124.342 7       399.405          44.437    22270784.700   119050124.322 7       399.405          44.000    22270800.660    92594589.115 7       310.648          45.062    22270800.860    92594588.101 7       310.648          45.375
G05  24319372.140   127799164.120 6      5241.515          41.750    24319370.720   127799164.128 5      5241.515          35.937    24319379.460    99583801.195 5      4084.298          35.812    24319380.420    99583804.201 6      4084.298          40.812
G20  22284432.180   117105481.248 7      4945.263          45.312    22284430.520   117105481.250 5      4945.263          34.562    22284437.340    91251046.189 5      3853.451          34.437
R15  22933926.480   122551950.861 7      3562.258          45.812    22933926.340   122551950.873 7      3562.258          44.187    22933943.220    95318266.942 7      2770.645          43.312    22933943.280    95318261.936 7      2770.645          43.187
G30  21538291.080   113184490.061 8      4660.797          48.125    21538289.620   113184490.066 7      4660.797          47.937    21538303.180    88195742.729 7      3631.790          47.687    21538304.160    88195756.727 7      3631.790          47.750
G07  21760837.800   114353969.775 7      2592.253          47.625    21760836.760   114353969.777 7      2592.253          45.875    21760845.000    89107023.879 7      2019.937          46.000    21760845.400    89107028.885 7      2019.937          47.562
G19  23599608.640   124016786.352 7      -496.010          42.500    23599606.720   124016786.364 5      -496.010          31.437    23599622.200    96636455.683 5      -386.501          31.187
G13  23150519.800   121656806.575 7      5695.394          42.875    23150518.360   121656806.577 4      5695.394          27.937    23150534.700    94797566.772 4      4437.970          27.812
R22  23539312.800   125654451.745 6      6729.093          41.125    23539314.540   125654451.751 6      6729.093          41.500    23539325.260    97731294.711 7      5233.739          43.875    23539326.500    97731297.710 7      5233.739          44.250
> 2024 07 31 15 19 55.0000000  0 16
G06  20457060.940   107502578.266 8      1598.481          49.562    20457060.460   107502578.268 8      1598.481          49.937    20457070.300    83768373.325 8      1245.570          50.437    20457071.360    83768280.326 8      1245.570          51.687
R21  19909789.120   106541308.938 8      3870.802          49.000    19909789.520   106541308.950 8      3870.802          48.750    19909801.020    82865513.629 8      3010.624          50.687    19909800.440    82865512.629 8      3010.624          49.437
R07  22829671.800   122209026.866 7      4604.702          42.750    22829670.760   122209026.902 7      4604.702          42.125    22829692.480    95051535.568 7      3581.435          47.375    22829691.280    95051540.571 8      3581.435          48.000
R16  22977162.420   122739880.283 6      5890.808          39.000    22977161.340   122739880.278 6      5890.808          38.500    22977187.000    95464454.497 7      4581.740          42.187    22977187.860    95464459.506 7      4581.740          42.750
G11  21098782.760   110874855.486 7      4470.229          47.750    21098781.560   110874855.491 6      4470.229          39.562    21098787.340    86396006.523 6      3483.295          39.812    21098786.160    86396002.523 8      3483.295          52.375
G09  22397816.560   117701313.618 7        88.114          44.250    22397815.740   117701313.620 7        88.114          44.187    22397825.640    91715348.484 7        68.660          44.187    22397826.180    91715354.477 7        68.660          45.625
R06  20612165.100   109990447.969 6      2811.478          39.375    20612166.000   109990447.969 6      2811.478          38.187
R05  22270711.780   119049725.277 7       398.912          42.562    22270708.960   119049725.251 7       398.912          43.062    22270725.040    92594278.725 7       310.265          45.250    22270725.700    92594277.711 7       310.265          45.312
G05  24318375.000   127793922.774 7      5241.243          42.750    24318373.760   127793922.779 5      5241.243          35.875    24318381.980    99579717.031 6      4084.085          36.250    24318383.140    99579720.037 6      4084.085          40.187
G20  22283491.380   117100536.173 7      4944.921          45.875    22283489.540   117100536.178 5      4944.921          34.500    22283496.340    91247192.888 5      3853.185          34.625
R15  22933259.580   122548389.223 7      3561.127          45.562    22933259.840   122548389.235 7      3561.127          44.187    22933276.900    95315496.781 7      2769.765          43.125    22933276.660    95315491.780 7      2769.765          43.625
G30  21537404.240   113179829.759 7      4659.902          47.937    21537402.720   113179829.764 8      4659.902          48.000    21537416.420    88192111.331 7      3631.092          47.562    21537417.420    88192125.327 8      3631.092          48.312
G07  21760344.640   114351378.025 7      2591.366          47.625    21760343.520   114351378.028 7      2591.366          45.937    21760351.740    89105004.334 7      2019.246          46.312    21760352.220    89105009.344 7      2019.246          47.875
G19  23599702.860   124017282.550 6      -496.280          41.687    23599701.260   124017282.561 5      -496.280          31.437    23599716.740    96636842.328 5      -386.711          31.187
G13  23149436.040   121651111.538 7      5694.702          42.375    23149434.560   121651111.543 4      5694.702          27.937    23149451.040    94793129.091 4      4437.430          27.812
R22  23538052.920   125647722.844 6      6728.629          41.375    23538054.120   125647722.847 6      6728.629          41.500    23538064.840    97726061.109 7      5233.378          43.625    23538065.620    97726064.101 7      5233.378          43.937
> 2024 07 31 15 19 56.0000000  0 16
G06  20456757.080   107500980.091 8      1597.588          48.500    20456756.280   107500980.094 8      1597.588          50.625    20456766.180    83767127.990 8      1244.874          50.875    20456767.380    83767034.991 8      1244.874          51.937
R21  19909065.940   106537438.585 8      3869.609          49.187    19909066.120   106537438.602 8      3869.609          48.812    19909077.720    82862503.359 8      3009.696          50.812    19909077.320    82862502.356 8      3009.696          49.750
R07  22828811.280   122204422.215 7      4604.289          42.375    22828810.380   122204422.246 7      4604.289          42.125    22828831.960    95047954.185 7      3581.113          47.500    22828831.140    95047959.190 7      3581.113          47.562
R16  22976059.240   122733989.318 6      5890.600          39.625    22976058.940   122733989.313 6      5890.600          39.250    22976084.320    95459872.633 7      4581.578          42.375    22976085.360    95459877.638 7      4581.578          42.875
G11  21097932.060   110870385.535 7      4469.393          47.250    21097930.860   110870385.542 6      4469.393          40.000    21097936.740    86392523.448 6      3482.644          39.500    21097935.460    86392519.447 8      3482.644          52.125
G09  22397799.620   117701225.638 7        87.639          44.500    22397799.040   117701225.648 7        87.639          44.250    22397808.900    91715279.934 7        68.290          44.437    22397809.280    91715285.929 7        68.290          45.625
R06  20611638.700   109987636.473 6      2810.986          39.375    20611638.680   109987636.490 6      2810.986          38.187
R05  22270637.000   119049326.280 7       398.665          42.562    22270634.080   119049326.255 7       398.665          43.125    22270649.800    92593968.388 7       310.073          44.812    22270651.060    92593967.380 7       310.073          45.437
G05  24317377.260   127788681.552 7      5240.949          42.125    24317376.800   127788681.554 6      5240.949          36.562    24317384.680    99575632.964 6      4083.856          36.250    24317386.240    99575635.959 6      4083.856          40.187
G20  22282550.580   117095591.298 7      4944.596          45.812    22282548.660   117095591.305 5      4944.596          34.500    22282555.340    91243339.744 5      3852.932          34.625
R15  22932593.300   122544828.408 7      3560.158          44.625    22932593.300   122544828.436 7      3560.158          44.562    22932610.960    95312727.275 7      2769.012          43.312    22932610.340    95312722.273 7      2769.012          43.562
G30  21536517.680   113175170.064 7      4659.137          47.875    21536515.980   113175170.074 7      4659.137          47.750    21536529.800    88188480.410 7      3630.496          47.375    21536530.820    88188494.408 8      3630.496          48.312
G07  21759851.460   114348786.978 7      2590.514          47.750    21759850.460   114348786.980 7      2590.514          45.812    21759858.620    89102985.339 7      2018.582          45.500    21759858.900    89102990.346 7      2018.582          47.625
G19  23599797.160   124017778.931 7      -496.660          42.187    23599795.820   124017778.938 5      -496.660          31.437    23599811.140    96637229.111 5      -387.008          31.187
G13  23148352.180   121645416.947 7      5694.181          42.375    23148350.900   121645416.952 4      5694.181          27.750    23148367.280    94788691.754 4      4437.024          27.875
R22  23536792.560   125640994.417 7      6728.040          42.437    23536794.060   125640994.423 7      6728.040          42.187    23536804.620    97720827.886 7      5232.920          43.375    23536805.060    97720830.876 7      5232.920          44.062
> 2024 07 31 15 19 57.0000000  0 16
G06  20456453.020   107499382.645 8      1597.059          49.437    20456452.340   107499382.644 8      1597.059          50.625    20456462.300    83765883.217 8      1244.461          50.875    20456463.460    83765790.215 8      1244.461          51.812
R21  19908342.820   106533569.272 8      3868.817          49.000    19908343.040   106533569.293 8      3868.817          48.312    19908354.860    82859493.894 8      3009.080          50.375    19908354.320    82859492.891 8      3009.080          49.500
R07  22827951.440   122199817.963 7      4604.066          42.375    22827950.080   122199818.005 7      4604.066          42.250    22827971.560    95044373.119 7      3580.940          47.125    22827971.000    95044378.126 7      3580.940          47.187
R16  22974956.740   122728098.708 6      5890.524          39.625    22974956.340   122728098.696 6      5890.524          39.250    22974981.980    95455291.041 7      4581.519          42.562    22974982.360    95455296.047 7      4581.519          43.187
G11  21097081.520   110865916.217 7      4469.004          47.625    21097080.480   110865916.221 6      4469.004          40.312    21097086.280    86389040.860 6      3482.341          39.812    21097084.800    86389036.858 8      3482.341          51.875
G09  22397783.180   117701137.887 7        87.604          45.375    22397782.400   117701137.897 7        87.604          44.062    22397792.140    91715211.552 7        68.263          44.312    22397792.200    91715217.552 7        68.263          45.125
R06  20611112.080   109984825.325 6      2811.028          39.375    20611112.340   109984825.328 6      2811.028          38.187
R05  22270562.460   119048927.319 7       398.977          42.312    22270560.000   119048927.307 7       398.977          43.125    22270574.940    92593658.093 7       310.316          44.750    22270576.300    92593657.091 7       310.316          45.000
G05  24316379.880   127783440.389 7      5241.206          42.625    24316379.640   127783440.394 6      5241.206          36.625    24316387.480    99571548.943 6      4084.057          36.937    24316389.020    99571551.947 6      4084.057          40.250
G20  22281609.460   117090646.596 7      4944.628          45.687    22281607.720   117090646.600 5      4944.628          34.437    22281614.360    91239486.730 5      3852.957          34.437
R15  22931926.680   122541268.419 7      3559.587          45.250    22931927.140   122541268.436 7      3559.587          44.375    22931944.620    95309958.394 7      2768.568          42.875    22931944.000    95309953.393 7      2768.568          43.187
G30  21535630.980   113170510.939 8      4658.864          48.125    21535629.340   113170510.946 7      4658.864          47.500    21535643.160    88184849.925 7      3630.283          47.250    21535644.440    88184863.921 8      3630.283          48.562
G07  21759358.600   114346196.605 7      2590.082          47.562    21759357.500   114346196.610 7      2590.082          46.437    21759365.740    89100966.869 7      2018.246          46.125    21759365.820    89100971.878 7      2018.246          47.437
G19  23599892.000   124018275.403 6      -496.484          41.875    23599890.380   124018275.408 5      -496.484          31.562    23599905.700    96637615.966 5      -386.871          31.500
G13  23147268.700   121639722.796 7      5693.974          42.187    23147267.260   121639722.803 4      5693.974          27.750    23147283.760    94784254.759 4      4436.863          27.875
R22  23535532.420   125634266.426 7      6727.782          42.437    23535533.620   125634266.429 7      6727.782          42.312    23535544.540    97715595.006 7      5232.719          44.250    23535544.560    97715598.000 7      5232.719          44.562
> 2024 07 31 15 19 58.0000000  0 16
G06  20456149.260   107497785.815 8      1596.537          49.437    20456148.440   107497785.820 8      1596.537          50.562    20456158.400    83764638.932 8      1244.055          50.687    20456159.240    83764545.930 8      1244.055          51.375
R21  19907620.160   106529700.910 8      3867.861          49.250    19907620.160   106529700.922 8      3867.861          48.937    19907631.860    82856485.159 8      3008.336          50.437    19907631.400    82856484.158 8      3008.336          49.500
R07  22827091.880   122195214.021 7      4603.807          42.562    22827090.740   122195214.044 7      4603.807          42.250    22827111.320    95040792.275 7      3580.739          47.125    22827110.880    95040797.278 7      3580.739          46.375
R16  22973853.900   122722208.328 6      5890.344          40.250    22973854.300   122722208.297 6      5890.344          39.250    22973879.680    95450709.622 7      4581.379          42.500    22973879.820    95450714.623 7      4581.379          43.250
G11  21096231.120   110861447.453 7      4468.427          47.687    21096230.120   110861447.457 6      4468.427          39.562    21096235.960    86385558.708 6      3481.891          39.500    21096234.600    86385554.706 8      3481.891          52.125
G09  22397766.360   117701050.267 7        87.560          45.687    22397765.780   117701050.277 7        87.560          44.375    22397775.440    91715143.271 7        68.229          44.062    22397775.300    91715149.278 7        68.229          45.312
R06  20610585.280   109982014.454 6      2810.715          39.500    20610585.200   109982014.460 6      2810.715          38.187
R05  22270487.500   119048528.333 7       398.955          42.687    22270486.780   119048528.345 7       398.955          43.125    22270500.260    92593347.785 7       310.298          44.750    22270501.760    92593346.794 7       310.298          44.750
G05  24315382.720   127778199.256 7      5241.065          42.625    24315382.540   127778199.266 6      5241.065          36.750    24315390.420    99567464.946 6      4083.947          37.375    24315391.660    99567467.951 6      4083.947          40.250
G20  22280668.460   117085701.957 7      4944.641          44.937    22280666.580   117085701.964 5      4944.641          34.250    22280673.480    91235633.766 5      3852.967          34.437
R15  22931260.880   122537709.167 7      3558.890          45.000    22931260.540   122537709.176 7      3558.890          44.437    22931278.600    95307190.093 7      2768.025          43.312    22931277.880    95307185.085 7      2768.025          43.937
G30  21534744.660   113165852.337 8      4658.304          48.000    21534742.780   113165852.344 8      4658.304          48.312    21534756.620    88181219.850 7      3629.847          47.937    21534757.840    88181233.852 8      3629.847          48.500
G07  21758865.500   114343606.837 7      2589.483          47.500    21758864.700   114343606.839 7      2589.483          46.437    21758872.900    89098948.870 7      2017.779          46.312    21758873.440    89098953.874 7      2017.779          47.750
G19  23599986.880   124018771.912 6      -496.386          41.437    23599984.740   124018771.916 5      -496.386          31.562    23600000.320    96638002.854 5      -386.795          31.500
G13  23146185.080   121634028.991 6      5693.588          41.562    23146183.860   121634028.999 4      5693.588          27.750    23146200.140    94779818.038 4      4436.562          27.875
R22  23534271.640   125627538.776 7      6727.464          42.562    23534272.920   125627538.785 7      6727.464          42.312    23534284.440    97710362.402 7      5232.472          44.000    23534284.560    97710365.394 7      5232.472          44.500
> 2024 07 31 15 19 59.0000000  0 16
G06  20455845.400   107496189.675 8      1595.843          48.687    20455844.760   107496189.679 8      1595.843          50.437    20455854.740    83763395.184 8      1243.514          50.312    20455855.340    83763302.184 8      1243.514          51.125
R21  19906897.380   106525833.500 8      3866.948          49.187    19906897.440   106525833.515 8      3866.948          48.062    19906909.220    82853477.173 8      3007.626          50.875    19906908.720    82853476.175 8      3007.626          49.812
R07  22826231.500   122190610.390 7      4603.455          43.250    22826230.720   122190610.413 7      4603.455          42.062    22826251.200    95037211.690 7      3580.465          47.625    22826250.620    95037216.695 7      3580.465          46.500
R16  22972750.460   122716318.193 6      5889.969          40.250    22972751.600   122716318.186 6      5889.969          39.812    22972777.080    95446128.427 7      4581.087          42.750    22972777.400    95446133.433 7      4581.087          43.687
G11  21095380.880   110856979.261 7      4467.870          47.437    21095379.880   110856979.266 6      4467.870          39.312    21095385.680    86382076.999 6      3481.458          39.312    21095384.340    86382073.005 8      3481.458          51.937
G09  22397749.760   117700962.813 7        87.319          45.312    22397749.140   117700962.825 7        87.319          44.312    22397758.880    91715075.129 7        68.041          44.187    22397758.720    91715081.142 7        68.041          45.000
R06  20610058.980   109979203.874 6      2810.422          39.500    20610058.240   109979203.877 6      2810.422          38.250
R05  22270413.320   119048129.342 7       399.037          43.625    22270413.500   119048129.360 7       399.037          43.375    22270426.280    92593037.470 7       310.362          45.125    22270427.160    92593036.476 7       310.362          45.000
G05  24314385.640   127772958.139 7      5241.036          42.937    24314385.260   127772958.149 6      5241.036          37.250    24314393.320    99563380.956 6      4083.925          37.000    24314394.620    99563383.964 6      4083.925          40.875
G20  22279727.280   117080757.454 7      4944.360          45.375    22279725.840   117080757.464 5      4944.360          34.250    22279732.600    91231780.914 5      3852.748          34.187
R15  22930594.980   122534150.697 7      3558.186          45.125    22930595.040   122534150.706 7      3558.186          44.437    22930612.600    95304422.399 7      2767.478          43.125    22930612.240    95304417.398 7      2767.478          43.062
G30  21533858.100   113161194.260 8      4657.792          48.062    21533856.420   113161194.270 7      4657.792          47.875    21533870.300    88177590.190 7      3629.448          47.562    21533871.460    88177604.194 8      3629.448          48.312
G07  21758372.960   114341017.691 7      2588.713          47.125    21758372.080   114341017.694 7      2588.713          45.750    21758380.220    89096931.360 7      2017.179          46.125    21758380.480    89096936.365 7      2017.179          47.375
G19  23600081.260   124019268.520 6      -496.520          40.875    23600079.100   124019268.525 5      -496.520          31.562    23600094.980    96638389.822 5      -386.899          31.500
G13  23145101.460   121628335.531 7      5693.339          42.375    23145100.420   121628335.538 4      5693.339          27.750    23145116.740    94775381.586 4      4436.368          27.875
R22  23533011.400   125620811.519 7      6727.097          42.562    23533012.720   125620811.525 7      6727.097          42.187    23533023.980    97705130.099 7      5232.187          44.062    23533024.600    97705133.093 7      5232.187          44.687
> 2024 07 31 15 20  0.0000000  0 16
G06  20455541.660   107494594.343 8      1595.032          48.375    20455541.160   107494594.343 8      1595.032          50.312    20455551.160    83762152.058 8      1242.882          50.875    20455551.940    83762059.058 8      1242.882          51.437
R21  19906174.580   106521967.230 8      3865.756          48.562    19906175.000   106521967.247 8      3865.756          48.187    19906186.580    82850470.076 8      3006.699          50.437    19906186.300    82850469.076 8      3006.699          50.312
R07  22825371.240   122186007.270 7      4602.915          43.250    22825370.620   122186007.285 7      4602.915          42.062    22825390.740    95033631.494 7      3580.045          47.062    22825390.660    95033636.494 7      3580.045          46.250
R16  22971648.060   122710428.535 6      5889.393          40.250    22971648.940   122710428.520 6      5889.393          39.812    22971674.760    95441547.577 7      4580.639          43.187    22971674.840    95441552.578 7      4580.639          43.375
G11  21094530.900   110852511.809 7      4467.096          47.312    21094529.760   110852511.814 6      4467.096          39.875    21094535.480    86378595.869 6      3480.854          39.312    21094534.140    86378591.869 8      3480.854          52.125
G09  22397733.200   117700875.697 7        86.911          45.250    22397732.600   117700875.699 7        86.911          44.750    22397742.240    91715007.241 7        67.723          44.312    22397742.300    91715013.252 7        67.723          46.062
R06  20609531.600   109976393.750 6      2809.905          39.500    20609531.740   109976393.761 6      2809.905          38.250
R05  22270338.580   119047730.517 7       398.773          43.625    22270340.300   119047730.529 7       398.773          44.312    22270352.280    92592727.264 7       310.157          45.125    22270352.820    92592726.281 7       310.157          45.000
G05  24313388.360   127767717.194 7      5240.830          42.937    24313388.060   127767717.202 6      5240.830          36.937    24313396.180    99559297.103 6      4083.764          37.125    24313397.500    99559300.113 6      4083.764          40.875
G20  22278786.700   117075813.189 7      4944.187          45.312    22278785.000   117075813.196 5      4944.187          34.312    22278791.640    91227928.239 5      3852.613          34.187
R15  22929929.380   122530593.161 7      3557.092          45.812    22929929.540   122530593.162 7      3557.092          44.187    22929946.840    95301655.428 7      2766.627          43.687    22929946.500    95301650.429 7      2766.627          43.875
G30  21532971.900   113156536.859 8      4657.150          48.187    21532970.180   113156536.866 7      4657.150          47.562    21532983.960    88173961.048 7      3628.948          47.625    21532984.960    88173975.055 7      3628.948          47.562
G07  21757880.380   114338429.284 7      2588.089          47.125    21757879.440   114338429.289 7      2588.089          45.812    21757887.660    89094914.426 7      2016.693          46.125    21757888.160    89094919.432 7      2016.693          47.375
G19  23600175.960   124019765.342 6      -496.845          40.250    23600173.520   124019765.339 5      -496.845          30.937    23600189.260    96638776.944 5      -387.152          30.875
G13  23144018.280   121622642.643 6      5692.627          41.250    23144017.040   121622642.653 4      5692.627          27.750    23144033.280    94770945.578 4      4435.813          27.875
R22  23531751.300   125614084.787 6      6726.387          41.937    23531752.980   125614084.788 7      6726.387          42.375    23531763.680    97699898.190 7      5231.635          44.125    23531764.180    97699901.187 7      5231.635          44.562
> 2024 07 31 15 20  1.0000000  0 16
G06  20455238.300   107492999.705 8      1594.489          48.375    20455237.720   107492999.707 8      1594.489          50.000    20455247.700    83760909.477 8      1242.459          50.625    20455248.380    83760816.477 8      1242.459          51.687
R21  19905452.240   106518101.915 8      3865.018          48.750    19905452.600   106518101.938 8      3865.018          48.437    19905464.400    82847463.720 8      3006.125          51.062    19905463.920    82847462.720 8      3006.125          50.062
R07  22824511.740   122181404.471 7      4602.799          43.625    22824510.560   122181404.491 7      4602.799          42.250    22824530.400    95030051.554 7      3579.954          46.500    22824530.660    95030056.565 7      3579.954          46.187
R16  22970545.620   122704539.124 6      5889.393          40.687    22970547.060   122704539.101 6      5889.393          39.812    22970572.880    95436966.914 7      4580.639          43.250    22970572.400    95436971.920 7      4580.639          43.937
G11  21093680.680   110848044.942 7      4466.642          46.625    21093679.640   110848044.952 6      4466.642          40.375    21093685.560    86375115.196 6      3480.500          39.312    21093684.080    86375111.197 8      3480.500          52.125
G09  22397716.500   117700788.724 7        86.995          44.500    22397715.940   117700788.731 7        86.995          44.437    22397725.700    91714939.465 7        67.788          44.500    22397726.280    91714945.472 7        67.788          46.125
R06  20609005.480   109973583.951 6      2809.709          39.625    20609005.060   109973583.952 6      2809.709          38.250
R05  22270264.100   119047331.689 7       398.992          44.875    22270266.460   119047331.709 7       398.992          44.312    22270278.840    92592417.077 7       310.327          46.000    22270278.300    92592416.088 7       310.327          45.687
G05  24312391.020   127762476.277 7      5240.972          43.750    24312390.620   127762476.284 6      5240.972          37.375    24312399.100    99555213.275 6      4083.874          37.500    24312400.500    99555216.291 6      4083.874          41.250
G20  22277845.720   117070869.054 7      4944.218          45.375    22277844.080   117070869.059 5      4944.218          34.312    22277850.820    91224075.673 5      3852.637          34.187
R15  22929263.860   122527036.327 7      3556.656          45.375    22929263.460   122527036.336 7      3556.656          44.375    22929281.240    95298889.012 7      2766.288          43.125    22929280.840    95298884.015 7      2766.288          43.625
G30  21532085.800   113151880.012 7      4656.733          47.375    21532083.960   113151880.022 7      4656.733          47.500    21532097.840    88170332.344 7      3628.623          47.375    21532098.660    88170346.351 8      3628.623          48.000
G07  21757387.900   114335841.555 7      2587.540          47.062    21757387.000   114335841.560 7      2587.540          46.125    21757395.240    89092898.016 7      2016.265          45.875    21757395.480    89092903.020 7      2016.265          47.000
G19  23600270.160   124020262.213 6      -496.682          40.875    23600267.920   124020262.210 5      -496.682          30.937    23600283.680    96639164.116 5      -387.025          30.875
G13  23142935.260   121616950.110 6      5692.535          41.312    23142933.840   121616950.112 4      5692.535          27.812    23142950.040    94766509.842 4      4435.741          27.687
R22  23530491.560   125607358.427 7      6726.309          42.625    23530493.320   125607358.425 7      6726.309          42.375    23530503.260    97694666.570 7      5231.574          44.125    23530504.060    97694669.565 7      5231.574          43.937
> 2024 07 31 15 20  2.0000000  0 16
G06  20454935.040   107491405.774 8      1593.347          49.375    20454934.420   107491405.774 8      1593.347          50.250    20454944.360    83759667.447 8      1241.569          50.375    20454945.280    83759574.449 8      1241.569          51.625
R21  19904730.060   106514237.595 8      3863.588          49.125    19904730.280   106514237.621 8      3863.588          48.375    19904742.280    82844458.143 8      3005.013          50.437    19904741.720    82844457.140 8      3005.013          50.625
R07  22823652.060   122176802.025 7      4602.055          43.437    22823651.300   122176802.056 7      4602.055          42.250    22823670.420    95026471.895 7      3579.376          46.500    22823670.820    95026476.897 7      3579.376          45.937
R16  22969443.560   122698650.031 6      5888.749          40.687    22969444.400   122698650.014 6      5888.749          40.125    22969470.720    95432386.513 7      4580.138          43.500    22969470.180    95432391.516 7      4580.138          44.187
G11  21092830.820   110843578.682 7      4465.776          47.750    21092829.840   110843578.692 6      4465.776          39.687    21092835.700    86371634.995 6      3479.826          39.500    21092834.160    86371630.993 8      3479.826          52.187
G09  22397700.360   117700701.979 7        86.420          43.687    22397699.600   117700701.984 7        86.420          44.000    22397709.140    91714871.870 7        67.341          43.937    22397709.820    91714877.867 7        67.341          46.187
R06  20608478.660   109970774.436 6      2809.105          39.625    20608478.580   109970774.447 6      2809.105          38.250
R05  22270189.220   119046932.939 7       398.573          45.937    22270192.240   119046932.946 7       398.573          44.500    22270204.740    92592106.927 7       310.001          45.875    22270204.020    92592105.938 7       310.001          46.687
G05  24311393.880   127757235.430 7      5240.522          43.437    24311393.260   127757235.440 6      5240.522          37.187    24311402.000    99551129.503 6      4083.524          37.437    24311402.580    99551132.521 6      4083.524          41.625
G20  22276904.960   117065925.056 7      4943.788          45.000    22276903.280   117065925.064 5      4943.788          34.250    22276910.020    91220223.207 5      3852.302          34.000
R15  22928598.420   122523480.310 7      3555.482          45.250    22928598.240   122523480.314 7      3555.482          44.125    22928615.820    95296123.230 7      2765.375          43.125    22928615.580    95296118.230 7      2765.375          43.750
G30  21531199.840   113147223.738 7      4655.819          47.750    21531197.900   113147223.748 7      4655.819          47.687    21531211.700    88166704.083 7      3627.911          47.687    21531212.640    88166718.087 7      3627.911          47.562
G07  21756895.620   114333254.464 7      2586.533          47.750    21756894.660   114333254.469 7      2586.533          46.250    21756902.940    89090882.099 7      2015.480          46.250    21756902.900    89090887.107 7      2015.480          47.437
G19  23600365.260   124020759.221 6      -497.346          40.875    23600362.460   124020759.221 5      -497.346          30.937    23600378.140    96639551.395 5      -387.543          30.875
G13  23141852.080   121611257.977 7      5691.904          42.562    23141850.760   121611257.981 4      5691.904          27.812    23141866.880    94762074.423 4      4435.250          27.687
R22  23529231.180   125600632.485 7      6725.583          42.937    23529233.080   125600632.489 7      6725.583          42.687    23529243.620    97689435.287 7      5231.009          44.062    23529244.000    97689438.281 7      5231.009          44.250
> 2024 07 31 15 20  3.0000000  0 16
G06  20454631.780   107489812.505 8      1593.031          48.625    20454631.220   107489812.505 8      1593.031          51.000    20454641.120    83758425.930 8      1241.323          50.750    20454642.340    83758332.931 8      1241.323          51.750
R21  19904007.860   106510374.249 8      3862.988          48.500    19904008.500   106510374.275 8      3862.988          48.750    19904020.280    82841453.312 8      3004.546          50.625    19904019.560    82841452.313 8      3004.546          50.750
R07  22822792.080   122172199.885 7      4602.122          43.437    22822791.700   122172199.903 7      4602.122          42.750    22822810.280    95022892.446 7      3579.428          46.312    22822811.040    95022897.455 7      3579.428          45.187
R16  22968341.400   122692761.235 6      5888.695          41.000    22968342.240   122692761.228 6      5888.695          40.125    22968368.360    95427806.347 7      4580.096          43.687    22968367.740    95427811.350 7      4580.096          44.562
G11  21091981.120   110839113.018 7      4465.538          46.687    21091979.900   110839113.026 6      4465.538          39.750    21091985.980    86368155.253 6      3479.640          39.750    21091984.440    86368151.255 8      3479.640          52.312
G09  22397683.800   117700615.394 7        86.607          45.000    22397683.100   117700615.402 7        86.607          44.437    22397692.700    91714804.399 7        67.486          44.125    22397693.500    91714810.386 7        67.486          46.750
R06  20607952.320   109967965.259 6      2809.104          39.625    20607952.320   109967965.260 6      2809.104          38.437
R05  22270114.940   119046534.202 7       398.805          46.437    22270117.260   119046534.211 7       398.805          45.125    22270131.000    92591796.801 7       310.182          46.750    22270129.560    92591795.812 7       310.182          46.687
G05  24310396.440   127751994.591 7      5240.993          42.437    24310395.720   127751994.601 6      5240.993          37.312    24310404.840    99547045.734 6      4083.891          37.687    24310405.220    99547048.746 6      4083.891          41.625
G20  22275964.020   117060981.195 7      4943.875          46.000    22275962.420   117060981.205 5      4943.875          34.187    22275969.220    91216370.854 5      3852.370          34.000
R15  22927932.760   122519925.066 7      3555.041          46.125    22927933.180   122519925.072 7      3555.041          44.062    22927950.600    95293358.048 7      2765.032          43.375    22927950.320    95293353.047 7      2765.032          43.187
G30  21530313.680   113142567.994 7      4655.638          47.875    21530311.940   113142568.002 7      4655.638          47.562    21530325.760    88163076.233 7      3627.770          47.687    21530326.460    88163090.235 8      3627.770          48.000
G07  21756403.420   114330668.004 7      2586.281          47.875    21756402.460   114330668.009 7      2586.281          46.375    21756410.720    89088866.679 7      2015.284          46.125    21756410.960    89088871.685 7      2015.284          47.250
G19  23600459.560   124021256.261 6      -496.945          41.312    23600456.860   124021256.263 5      -496.945          30.937    23600472.540    96639938.697 5      -387.230          30.875
G13  23140768.880   121605566.256 7      5691.644          42.000    23140767.720   121605566.260 4      5691.644          27.812    23140783.840    94757639.326 4      4435.048          27.687
R22  23527971.120   125593906.909 7      6725.532          42.937    23527973.200   125593906.923 7      6725.532          42.937    23527983.780    97684204.289 7      5230.969          43.875    23527984.200    97684207.282 7      5230.969          44.125
> 2024 07 31 15 20  4.0000000  0 16
G06  20454328.780   107488219.959 8      1592.253          49.250    20454328.220   107488219.958 8      1592.253          50.062    20454338.120    83757184.977 8      1240.717          50.562    20454339.460    83757091.977 8      1240.717          51.125
R21  19903286.080   106506512.000 8      3861.778          48.875    19903286.740   106506512.023 8      3861.778          48.500    19903298.480    82838449.341 8      3003.605          50.437    19903298.040    82838448.338 8      3003.605          50.687
R07  22821932.100   122167598.087 7      4601.770          43.625    22821932.020   122167598.115 7      4601.770          42.750    22821950.000    95019313.282 7      3579.154          45.625    22821951.160    95019318.297 7      3579.154          44.937
R16  22967239.020   122686872.751 6      5888.434          41.000    22967239.680   122686872.752 6      5888.434          40.812    22967266.040    95423226.419 7      4579.893          43.812    22967265.600    95423231.426 7      4579.893          44.500
G11  21091131.560   110834648.001 7      4464.730          47.562    21091130.280   110834648.009 6      4464.730          39.812    21091136.140    86364676.021 6      3479.011          39.375    21091134.720    86364672.023 8      3479.011          51.625
G09  22397667.340   117700529.028 7        86.363          45.187    22397666.580   117700529.035 7        86.363          44.000    22397676.240    91714737.098 7        67.296          44.187    22397677.100    91714743.083 7        67.296          45.750
R06  20607426.080   109965156.432 6      2808.662          39.625    20607426.260   109965156.427 6      2808.662          38.437
R05  22270040.240   119046135.548 7       398.673          46.062    22270042.320   119046135.552 7       398.673          44.437    22270057.120    92591486.732 7       310.079          46.562    22270055.460    92591485.735 7       310.079          46.937
G05  24309399.280   127746753.857 7      5240.789          42.687    24309398.440   127746753.875 6      5240.789          37.312    24309407.760    99542962.054 6      4083.732          37.250    24309408.560    99542965.070 6      4083.732          41.750
G20  22275023.280   117056037.497 7      4943.598          45.687    22275021.700   117056037.504 5      4943.598          34.187    22275028.480    91212518.619 5      3852.154          33.937
R15  22927267.820   122516370.671 7      3554.063          45.812    22927267.620   122516370.688 7      3554.063          44.250    22927285.400    95290593.535 7      2764.271          42.875    22927285.320    95290588.534 7      2764.271          43.625
G30  21529427.940   113137912.845 7      4654.953          47.937    21529426.120   113137912.852 7      4654.953          47.312    21529439.920    88159448.850 7      3627.236          47.187    21529440.580    88159462.850 7      3627.236          47.062
G07  21755911.520   114328082.232 8      2585.514          48.125    21755910.560   114328082.235 7      2585.514          46.062    21755918.680    89086851.792 7      2014.686          46.000    21755918.840    89086856.802 7      2014.686          47.250
G19  23600554.420   124021753.424 6      -496.951          40.437    23600551.520   124021753.427 4      -496.951          29.750    23600566.940    96640326.095 4      -387.235          29.500
G13  23139686.000   121599874.955 7      5691.118          42.062    23139684.700   121599874.957 4      5691.118          27.812    23139700.840    94753204.553 4      4434.637          27.687
R22  23526711.740   125587181.787 7      6724.983          42.062    23526712.740   125587181.807 7      6724.983          42.937    23526723.820    97678973.647 7      5230.542          44.062    23526724.380    97678976.639 7      5230.542          44.250
> 2024 07 31 15 20  5.0000000  0 16
G06  20454025.600   107486628.004 8      1591.617          48.937    20454025.300   107486628.008 8      1591.617          50.437    20454035.220    83755944.492 8      1240.221          50.625    20454036.440    83755851.493 8      1240.221          51.750
R21  19902564.680   106502650.632 8      3860.938          49.125    19902565.100   106502650.649 8      3860.938          48.625    19902576.920    82835446.044 8      3002.951          50.875    19902576.540    82835445.043 8      3002.951          50.750
R07  22821072.940   122162996.570 7      4601.362          42.875    22821072.820   122162996.588 7      4601.362          42.687    22821089.700    95015734.320 7      3578.837          45.375    22821091.500    95015739.334 7      3578.837          43.687
R16  22966136.620   122680984.473 6      5888.180          41.562    22966137.400   122680984.472 6      5888.180          40.812    22966163.840    95418646.649 7      4579.695          44.312    22966163.200    95418651.650 7      4579.695          44.562
G11  21090282.080   110830183.465 7      4464.287          47.687    21090280.760   110830183.473 6      4464.287          40.000    21090286.680    86361197.162 6      3478.666          39.375    21090285.280    86361193.166 8      3478.666          51.812
G09  22397650.880   117700442.756 7        86.293          44.937    22397650.220   117700442.761 7        86.293          44.500    22397659.700    91714669.870 7        67.241          44.125    22397659.900    91714675.856 7        67.241          45.312
R06  20606899.360   109962347.789 6      2808.509          39.687    20606899.820   109962347.774 6      2808.509          38.437
R05  22269965.680   119045736.805 7       398.777          45.687    22269966.560   119045736.801 7       398.777          44.062    22269982.780    92591176.587 7       310.160          46.687    22269980.840    92591175.589 7       310.160          46.875
G05  24308401.800   127741513.070 7      5240.884          42.187    24308400.780   127741513.078 6      5240.884          37.250    24308410.540    99538878.322 6      4083.805          37.375    24308411.320    99538881.332 7      4083.805          42.125
G20  22274082.760   117051093.817 7      4943.638          44.500    22274080.940   117051093.827 5      4943.638          34.062    22274087.820    91208666.405 5      3852.185          34.437
R15  22926602.820   122512816.966 7      3553.352          45.750    22926602.540   122512816.975 7      3553.352          44.437    22926620.240    95287829.540 7      2763.718          43.062    22926619.760    95287824.543 7      2763.718          43.750
G30  21528542.020   113133258.153 7      4654.475          47.437    21528540.360   113133258.160 7      4654.475          47.812    21528554.220    88155821.821 7      3626.864          47.687    21528554.880    88155835.819 8      3626.864          48.375
G07  21755419.600   114325496.984 7      2585.090          47.500    21755418.520   114325496.988 7      2585.090          45.812    21755426.700    89084837.317 7      2014.356          45.750    21755426.940    89084842.323 7      2014.356          47.312
G19  23600649.240   124022250.619 6      -497.156          40.312    23600645.900   124022250.621 4      -497.156          29.750    23600661.300    96640713.517 4      -387.394          29.500
G13  23138603.180   121594183.933 7      5690.847          42.687    23138601.720   121594183.932 4      5690.847          27.687    23138617.880    94748769.998 4      4434.426          27.687
R22  23525451.940   125580456.961 7      6724.670          42.062    23525453.540   125580456.970 7      6724.670          42.687    23525464.200    97673743.225 7      5230.299          43.562    23525464.620    97673746.219 7      5230.299          44.125
> 2024 07 31 15 20  6.0000000  0 16
G06  20453723.080   107485036.668 8      1591.264          49.375    20453722.380   107485036.671 8      1591.264          50.437    20453732.380    83754704.485 8      1239.946          50.625    20453733.260    83754611.487 8      1239.946          51.562
R21  19901843.440   106498790.146 8      3860.267          48.937    19901843.640   106498790.164 8      3860.267          49.000    19901855.620    82832443.446 8      3002.430          50.937    19901855.020    82832442.443 8      3002.430          50.625
R07  22820213.120   122158395.308 7      4601.362          42.875    22820213.440   122158395.325 7      4601.362          42.875    22820230.000    95012155.565 7      3578.837          45.062    22820231.480    95012160.570 7      3578.837          43.437
R16  22965034.560   122675096.380 6      5888.161          41.562    22965035.300   122675096.383 6      5888.161          41.250    22965061.620    95414067.039 7      4579.681          44.437    22965061.640    95414072.045 7      4579.681          45.250
G11  21089432.680   110825719.475 7      4463.943          47.187    21089431.400   110825719.488 6      4463.943          39.375    21089437.080    86357718.734 6      3478.397          39.625    21089435.580    86357714.734 8      3478.397          52.250
G09  22397634.540   117700356.613 7        86.356          46.937    22397633.820   117700356.620 7        86.356          44.375    22397643.360    91714602.745 7        67.291          44.000    22397643.500    91714608.738 7        67.291          45.062
R06  20606373.100   109959539.383 6      2808.651          39.687    20606373.620   109959539.376 6      2808.651          38.375
R05  22269891.160   119045338.036 7       399.032          45.000    22269890.600   119045338.022 7       399.032          44.062    22269908.300    92590866.418 7       310.358          46.750    22269906.340    92590865.411 7       310.358          47.750
G05  24307404.480   127736272.281 7      5240.988          42.187    24307403.320   127736272.286 6      5240.988          37.875    24307413.400    99534794.592 6      4083.886          38.125    24307414.120    99534797.610 7      4083.886          42.500
G20  22273142.060   117046150.216 7      4943.814          45.125    22273140.180   117046150.221 5      4943.814          34.125    22273147.120    91204814.249 5      3852.323          34.437
R15  22925937.760   122509263.960 7      3552.901          45.062    22925938.060   122509263.978 7      3552.901          43.937    22925955.440    95285066.106 7      2763.367          42.937    22925955.080    95285061.103 7      2763.367          43.250
G30  21527656.420   113128603.946 8      4654.214          48.187    21527654.700   113128603.956 8      4654.214          48.000    21527668.560    88152195.173 8      3626.660          48.187    21527669.700    88152209.173 8      3626.660          48.687
G07  21754927.600   114322912.344 7      2584.629          47.375    21754926.680   114322912.347 7      2584.629          46.500    21754934.900    89082823.316 7      2013.996          46.437    21754935.120    89082828.318 7      2013.996          47.437
G19  23600743.320   124022747.822 6      -496.989          40.812    23600740.580   124022747.826 4      -496.989          29.750    23600755.880    96641100.944 4      -387.264          29.500
G13  23137519.980   121588493.237 7      5690.802          42.187    23137518.820   121588493.239 4      5690.802          27.687    23137534.980    94744335.698 4      4434.391          27.812
R22  23524192.460   125573732.485 6      6724.477          41.937    23524194.100   125573732.494 7      6724.477          42.500    23524204.480    97668513.083 7      5230.149          44.125    23524204.480    97668516.075 7      5230.149          44.500
> 2024 07 31 15 20  7.0000000  0 16
G06  20453420.380   107483445.896 8      1590.407          48.750    20453419.700   107483445.898 8      1590.407          50.000    20453429.620    83753464.913 8      1239.278          50.312    20453430.500    83753371.914 8      1239.278          51.437
R21  19901121.920   106494930.501 8      3859.112          49.000    19901122.240   106494930.521 8      3859.112          48.250    19901134.360    82829441.499 8      3001.532          50.625    19901133.860    82829440.501 8      3001.532          50.750
R07  22819353.720   122153794.286 7      4600.733          44.312    22819354.180   122153794.304 7      4600.733          42.875    22819370.380    95008576.988 7      3578.348          44.500    22819371.740    95008581.987 7      3578.348          44.437
R16  22963932.040   122669208.438 6      5887.791          41.937    22963933.140   122669208.442 6      5887.791          41.250    22963959.600    95409487.525 7      4579.393          44.375    22963959.360    95409492.528 7      4579.393          45.625
G11  21088583.060   110821255.972 7      4463.068          47.312    21088581.840   110821255.982 6      4463.068          39.937    21088587.700    86354240.678 6      3477.715          39.375    21088586.400    86354236.679 8      3477.715          51.875
G09  22397618.140   117700270.538 7        85.868          46.375    22397617.400   117700270.548 7        85.868          44.625    22397626.980    91714535.674 7        66.910          44.437    22397626.820    91714541.679 7        66.910          44.750
R06  20605847.600   109956731.175 6      2808.032          39.687    20605847.100   109956731.171 6      2808.032          38.375
R05  22269816.320   119044939.158 7       398.789          43.562    22269814.740   119044939.140 7       398.789          43.750    22269833.440    92590556.169 7       310.169          47.125    22269831.940    92590555.159 7       310.169          47.875
G05  24306407.300   127731031.395 7      5240.736          42.312    24306405.880   127731031.400 6      5240.736          38.125    24306416.260    99530710.789 6      4083.690          37.625    24306416.980    99530713.805 7      4083.690          42.500
G20  22272201.400   117041206.610 7      4943.466          44.937    22272199.480   117041206.612 5      4943.466          34.125    22272206.460    91200962.092 5      3852.052          33.937
R15  22925272.960   122505711.628 7      3551.886          45.187    22925272.820   122505711.643 7      3551.886          44.250    22925290.340    95282303.190 7      2762.578          42.812    22925290.360    95282298.184 7      2762.578          43.250
G30  21526770.820   113123950.171 7      4653.391          47.062    21526769.040   113123950.181 7      4653.391          47.625    21526782.920    88148568.863 7      3626.019          47.250    21526784.000    88148582.863 8      3626.019          48.375
G07  21754435.800   114320328.212 7      2583.792          47.312    21754434.980   114320328.209 7      2583.792          46.187    21754443.140    89080809.705 7      2013.344          46.125    21754443.620    89080814.711 7      2013.344          47.625
G19  23600838.120   124023244.940 6      -497.137          41.187    23600835.380   124023244.947 4      -497.137          29.750    23600850.240    96641488.309 4      -387.380          29.500
G13  23136437.340   121582802.813 7      5690.256          42.625    23136436.020   121582802.818 4      5690.256          27.687    23136452.020    94739901.614 4      4433.966          27.812
R22  23522932.660   125567008.260 7      6724.009          43.437    23522934.720   125567008.266 7      6724.009          43.125    23522944.800    97663283.117 7      5229.785          44.187    23522944.900    97663286.112 7      5229.785          44.125
> 2024 07 31 15 20  8.0000000  0 16
G06  20453117.680   107481855.830 8      1589.660          48.875    20453117.100   107481855.827 8      1589.660          50.625    20453127.160    83752225.893 8      1238.696          51.062    20453127.840    83752132.895 8      1238.696          51.437
R21  19900401.120   106491071.856 8      3858.095          49.125    19900401.100   106491071.879 8      3858.095          48.750    19900413.140    82826440.333 8      3000.741          50.500    19900412.640    82826439.333 8      3000.741          50.250
R07  22818494.600   122149193.578 7      4600.440          44.000    22818494.700   122149193.601 7      4600.440          43.125    22818510.820    95004998.664 7      3578.120          44.812    22818512.100    95005003.664 7      3578.120          44.875
R16  22962830.300   122663320.804 6      5887.422          41.937    22962830.580   122663320.813 6      5887.422          40.875    22962857.380    95404908.264 7      4579.106          44.312    22962857.040    95404913.267 7      4579.106          45.250
G11  21087733.700   110816793.049 7      4462.587          46.875    21087732.620   110816793.059 6      4462.587          40.000    21087738.460    86350763.071 6      3477.340          39.375    21087737.060    86350759.073 8      3477.340          52.062
G09  22397601.880   117700184.639 7        85.759          45.125    22397601.180   117700184.639 7        85.759          44.062    22397610.680    91714468.735 7        66.825          44.687    22397610.420    91714474.753 7        66.825          44.687
R06  20605321.720   109953923.303 6      2807.605          39.500    20605321.040   109953923.283 6      2807.605          38.375
R05  22269741.960   119044540.292 6       398.888          41.812    22269738.780   119044540.264 7       398.888          43.125    22269758.320    92590245.922 7       310.246          46.312    22269757.140    92590244.906 7       310.246          47.375
G05  24305410.020   127725790.546 7      5240.686          43.312    24305408.480   127725790.556 6      5240.686          37.687    24305418.660    99526627.024 6      4083.652          37.687    24305419.600    99526630.038 7      4083.652          42.437
G20  22271260.500   117036263.145 7      4943.259          44.812    22271258.660   117036263.153 5      4943.259          34.187    22271265.620    91197110.046 5      3851.890          33.937
R15  22924608.280   122502160.085 7      3551.090          44.562    22924608.520   122502160.099 7      3551.090          44.250    22924625.840    95279540.890 7      2761.959          42.500    22924625.500    95279535.885 7      2761.959          43.125
G30  21525885.360   113119296.940 8      4652.908          48.000    21525883.580   113119296.950 8      4652.908          48.000    21525897.420    88144942.976 7      3625.642          47.562    21525898.660    88144956.977 8      3625.642          48.312
G07  21753944.160   114317744.708 7      2583.096          47.625    21753943.320   114317744.710 7      2583.096          45.562    21753951.600    89078796.591 7      2012.802          45.562    21753952.080    89078801.595 7      2012.802          47.250
G19  23600932.580   124023742.179 6      -497.341          41.250    23600930.260   124023742.187 4      -497.341          29.062    23600944.540    96641875.770 4      -387.538          29.250
G13  23135354.420   121577112.787 7      5689.778          42.375    23135353.200   121577112.792 4      5689.778          27.687    23135369.360    94735467.838 4      4433.593          27.812
R22  23521673.320   125560284.413 7      6723.647          43.437    23521674.520   125560284.414 7      6723.647          43.125    23521684.900    97658053.459 7      5229.503          43.875    23521685.220    97658056.454 7      5229.503          43.875
> 2024 07 31 15 20  9.0000000  0 16
G06  20452815.300   107480266.544 8      1588.958          49.125    20452814.680   107480266.546 8      1588.958          50.062    20452824.640    83750987.488 8      1238.149          50.375    20452825.420    83750894.491 8      1238.149          51.812
R21  19899679.960   106487214.365 8      3857.026          48.312    19899680.280   106487214.385 8      3857.026          48.375    19899692.320    82823440.060 8      2999.909          51.187    19899691.920    82823439.061 8      2999.909          50.625
R07  22817634.980   122144593.300 7      4600.170          44.062    22817635.840   122144593.326 7      4600.170          43.125    22817652.360    95001420.678 7      3577.910          45.312    22817652.660    95001425.679 7      3577.910          45.062
R16  22961727.960   122657433.599 6      5887.081          41.750    22961728.400   122657433.608 6      5887.081          40.875    22961755.400    95400329.330 7      4578.841          44.750    22961755.060    95400334.335 7      4578.841          45.562
G11  21086884.620   110812330.846 7      4461.983          46.937    21086883.700   110812330.853 6      4461.983          39.562    21086889.320    86347286.034 6      3476.870          39.312    21086887.920    86347282.038 8      3476.870          52.187
G09  22397585.460   117700099.042 7        85.620          45.000    22397584.820   117700099.042 7        85.620          44.500    22397594.340    91714402.035 7        66.717          44.437    22397594.960    91714408.050 7        66.717          45.250
R06  20604795.320   109951115.818 6      2807.377          39.500    20604794.660   109951115.800 6      2807.377          38.375
R05  22269667.380   119044141.612 6       398.613          41.812    22269663.540   119044141.594 7       398.613          43.125    22269683.200    92589935.830 7       310.032          46.625    22269682.500    92589934.812 7       310.032          47.437
G05  24304412.640   127720549.867 7      5240.816          42.687    24304411.240   127720549.869 6      5240.816          38.000    24304421.340    99522543.383 6      4083.753          37.812    24304421.880    99522546.388 7      4083.753          42.312
G20  22270320.120   117031319.907 7      4943.269          44.687    22270318.040   117031319.914 5      4943.269          34.187    22270324.780    91193258.176 5      3851.898          34.375
R15  22923943.780   122498609.425 7      3550.461          44.562    22923944.020   122498609.429 7      3550.461          43.812    22923961.080    95276779.266 7      2761.469          42.187    22923960.760    95276774.267 7      2761.469          42.500
G30  21524999.900   113114644.378 8      4652.434          48.062    21524998.220   113114644.386 8      4652.434          48.187    21525012.000    88141317.606 7      3625.274          47.812    21525013.060    88141331.608 8      3625.274          48.187
G07  21753452.780   114315161.966 7      2582.487          46.625    21753451.880   114315161.965 7      2582.487          45.562    21753460.080    89076784.064 7      2012.328          46.062    21753460.480    89076789.074 7      2012.328          47.687
G19  23601027.320   124024239.605 6      -497.369          40.937    23601025.060   124024239.613 4      -497.369          29.062    23601038.980    96642263.385 4      -387.561          29.250
G13  23134272.020   121571423.273 7      5689.287          42.312    23134270.580   121571423.278 4      5689.287          27.687    23134286.620    94731034.458 4      4433.211          27.812
R22  23520413.660   125553561.093 7      6723.197          43.250    23520414.500   125553561.104 7      6723.197          42.812    23520426.060    97652824.226 7      5229.153          44.250    23520425.720    97652827.219 7      5229.153          43.875
> 2024 07 31 15 20 10.0000000  0 16
G06  20452513.200   107478677.868 8      1588.213          49.250    20452512.360   107478677.870 8      1588.213          50.937    20452522.320    83749749.549 8      1237.569          50.812    20452523.100    83749656.549 8      1237.569          51.500
R21  19898959.320   106483357.788 8      3856.019          48.312    19898959.720   106483357.808 8      3856.019          48.625    19898971.600    82820440.500 8      2999.126          50.937    19898971.300    82820439.498 8      2999.126          50.875
R07  22816775.640   122139993.303 7      4599.672          44.062    22816776.820   122139993.334 7      4599.672          42.937    22816793.400    94997842.909 7      3577.522          46.000    22816793.660    94997847.910 7      3577.522          45.625
R16  22960626.080   122651546.627 6      5886.673          41.750    22960626.480   122651546.626 6      5886.673          40.750    22960653.280    95395750.563 7      4578.524          44.937    22960653.100    95395755.564 7      4578.524          45.437
G11  21086035.580   110807869.158 7      4461.345          47.437    21086034.640   110807869.165 6      4461.345          40.000    21086040.380    86343809.394 6      3476.372          39.437    21086038.760    86343805.394 8      3476.372          51.437
G09  22397569.520   117700013.561 7        85.397          45.000    22397568.640   117700013.556 7        85.397          44.625    22397578.160    91714335.416 7        66.543          44.062    22397578.740    91714341.425 7        66.543          45.250
R06  20604269.620   109948308.552 6      2807.088          39.500    20604268.740   109948308.550 6      2807.088          38.375
R05  22269593.040   119043742.813 6       398.789          41.312    22269589.580   119043742.801 7       398.789          42.812    22269607.620    92589625.637 7       310.169          46.062    22269607.540    92589624.619 7       310.169          46.562
G05  24303415.400   127715309.151 7      5240.589          43.125    24303414.100   127715309.156 6      5240.589          37.875    24303423.860    99518459.714 6      4083.576          38.000    24303424.480    99518462.730 7      4083.576          42.312
G20  22269379.320   117026376.729 7      4942.991          44.187    22269377.340   117026376.736 5      4942.991          34.437    22269384.200    91189406.351 5      3851.681          34.437
R15  22923279.220   122495059.471 7      3549.509          44.687    22923279.560   122495059.480 7      3549.509          43.937    22923296.840    95274018.195 7      2760.730          42.750    22923296.540    95274013.194 7      2760.730          42.750
G30  21524114.760   113109992.295 7      4651.785          47.812    21524112.980   113109992.300 8      4651.785          48.062    21524126.840    88137692.608 7      3624.767          47.812    21524127.820    88137706.612 7      3624.767          47.687
G07  21752961.520   114312579.775 8      2581.779          48.187    21752960.500   114312579.780 7      2581.779          45.937    21752968.620    89074771.974 7      2011.776          46.062    21752968.960    89074776.982 7      2011.776          47.500
G19  23601122.140   124024737.047 6      -497.655          41.937    23601119.920   124024737.060 4      -497.655          29.062    23601133.660    96642651.006 4      -387.783          29.250
G13  23133189.300   121565734.067 7      5688.873          42.125    23133187.960   121565734.074 4      5688.873          28.000    23133203.980    94726601.321 4      4432.888          27.812
R22  23519154.080   125546838.036 7      6722.884          42.562    23519154.320   125546838.059 7      6722.884          42.437    23519166.680    97647595.201 7      5228.910          44.375    23519166.440    97647598.198 7      5228.910          43.687
> 2024 07 31 15 20 11.0000000  0 16
G06  20452211.040   107477089.914 8      1587.731          49.187    20452210.220   107477089.919 8      1587.731          50.687    20452220.180    83748512.180 8      1237.193          51.375    20452221.060    83748419.179 8      1237.193          51.375
R21  19898238.940   106479502.250 8      3855.182          48.562    19898239.080   106479502.273 8      3855.182          48.500    19898251.200    82817441.746 8      2998.475          50.687    19898250.600    82817440.748 8      2998.475          50.375
R07  22815916.640   122135393.703 7      4599.434          44.187    22815917.460   122135393.731 7      4599.434          43.125    22815934.380    94994265.447 7      3577.338          45.937    22815934.440    94994270.449 7      3577.338          45.625
R16  22959524.160   122645659.949 6      5886.645          41.687    22959524.680   122645659.958 6      5886.645          40.750    22959551.200    95391172.046 7      4578.502          45.000    22959551.120    95391177.047 7      4578.502          45.000
G11  21085186.500   110803408.124 7      4460.827          47.937    21085185.820   110803408.134 6      4460.827          39.750    21085191.480    86340333.262 6      3475.969          39.375    21085190.020    86340329.263 8      3475.969          51.937
G09  22397553.240   117699928.290 7        85.328          45.562    22397552.440   117699928.295 7        85.328          44.187    22397561.800    91714268.975 7        66.489          44.062    22397562.400    91714274.985 7        66.489          45.812
R06  20603742.760   109945501.659 6      2806.825          39.625    20603743.180   109945501.670 6      2806.825          38.375
R05  22269518.360   119043344.114 6       398.798          41.312    22269515.860   119043344.118 7       398.798          42.500    22269532.540    92589315.542 7       310.177          46.000    22269532.820    92589314.526 7       310.177          46.000
G05  24302418.280   127710068.512 7      5240.702          43.375    24302416.960   127710068.514 6      5240.702          37.812    24302426.280    99514376.103 6      4083.664          37.812    24302427.060    99514379.115 6      4083.664          41.625
G20  22268438.560   117021433.711 7      4943.133          44.375    22268436.580   117021433.719 5      4943.133          34.500    22268443.600    91185554.653 5      3851.792          34.437
R15  22922615.080   122491510.361 7      3548.834          45.312    22922615.500   122491510.360 7      3548.834          44.187    22922632.860    95271257.778 7      2760.204          42.937    22922632.760    95271252.781 7      2760.204          42.875
G30  21523229.640   113105340.806 7      4651.338          47.687    21523227.940   113105340.808 7      4651.338          47.625    21523241.700    88134068.075 7      3624.419          47.375    21523242.800    88134082.077 8      3624.419          48.500
G07  21752470.160   114309998.273 7      2581.319          47.437    21752469.140   114309998.276 7      2581.319          45.937    21752477.460    89072760.416 7      2011.417          46.062    21752477.880    89072765.424 7      2011.417          47.500
G19  23601216.920   124025234.583 6      -497.393          41.812    23601214.540   124025234.591 4      -497.393          29.812    23601228.380    96643038.700 4      -387.579          29.250
G13  23132106.360   121560045.296 7      5688.655          42.937    23132105.420   121560045.301 4      5688.655          28.000    23132121.440    94722168.521 4      4432.718          27.750
R22  23517894.460   125540115.500 7      6722.465          42.562    23517894.720   125540115.504 7      6722.465          42.437    23517907.640    97642366.560 7      5228.584          44.437    23517907.260    97642369.561 7      5228.584          44.437
> 2024 07 31 15 20 12.0000000  0 16
G06  20451908.900   107475502.649 8      1586.790          49.812    20451908.180   107475502.652 8      1586.790          49.437    20451918.180    83747275.342 8      1236.460          49.937    20451919.120    83747182.342 8      1236.460          51.375
R21  19897518.340   106475647.677 8      3853.956          48.812    19897518.900   106475647.700 8      3853.956          48.062    19897530.840    82814443.748 8      2997.522          50.625    19897530.480    82814442.747 8      2997.522          50.625
R07  22815057.480   122130794.408 7      4598.885          43.375    22815058.000   122130794.447 7      4598.885          43.125    22815075.420    94990688.234 7      3576.911          46.562    22815075.560    94990693.236 7      3576.911          45.687
R16  22958422.060   122639773.581 6      5885.890          41.687    22958423.000   122639773.584 6      5885.890          40.750    22958449.280    95386593.760 7      4577.915          44.500    22958449.220    95386598.761 7      4577.915          45.312
G11  21084337.900   110798947.666 7      4460.038          47.937    21084337.020   110798947.676 6      4460.038          40.125    21084342.620    86336857.580 6      3475.354          39.562    21084341.200    86336853.584 8      3475.354          52.375
G09  22397537.200   117699843.193 7        84.941          45.625    22397536.200   117699843.198 7        84.941          44.500    22397545.780    91714202.665 7        66.188          44.062    22397546.060    91714208.667 7        66.188          45.812
R06  20603216.900   109942695.070 6      2806.437          39.625    20603216.940   109942695.066 6      2806.437          38.375
R05  22269443.940   119042945.430 7       398.518          42.250    22269442.740   119042945.439 7       398.518          43.500    22269457.140    92589005.457 7       309.958          45.062    22269457.800    92589004.436 7       309.958          45.812
G05  24301421.020   127704827.920 7      5240.441          43.000    24301419.860   127704827.925 6      5240.441          37.125    24301428.700    99510292.531 6      4083.461          37.625    24301429.740    99510295.541 6      4083.461          41.625
G20  22267497.680   117016490.838 7      4942.641          44.125    22267495.920   117016490.845 5      4942.641          34.500    22267503.040    91181703.061 5      3851.409          34.375
R15  22921951.320   122487962.010 7      3547.815          44.500    22921951.440   122487962.012 7      3547.815          43.562    22921969.040    95268497.956 7      2759.412          42.625    22921968.660    95268492.957 7      2759.412          42.750
G30  21522344.620   113100689.863 7      4650.465          47.687    21522342.840   113100689.865 7      4650.465          47.625    21522356.600    88130443.970 7      3623.739          47.562    21522357.400    88130457.968 8      3623.739          48.062
G07  21751979.040   114307417.407 7      2580.373          47.750    21751978.140   114307417.412 7      2580.373          45.937    21751986.320    89070749.356 7      2010.681          46.000    21751986.600    89070754.362 7      2010.681          47.875
G19  23601311.460   124025732.219 7      -497.870          42.750    23601309.380   124025732.232 4      -497.870          29.812    23601323.220    96643426.469 4      -387.951          29.750
G13  23131024.140   121554356.904 7      5688.009          43.250    23131023.000   121554356.909 4      5688.009          28.000    23131038.840    94717736.016 4      4432.215          27.750
R22  23516635.140   125533393.336 7      6721.741          42.625    23516636.080   125533393.334 7      6721.741          42.687    23516648.200    97637138.208 7      5228.020          44.375    23516648.060    97637141.212 7      5228.020          44.312
> 2024 07 31 15 20 13.0000000  0 16
G06  20451606.880   107473916.246 8      1586.008          48.937    20451606.340   107473916.248 8      1586.008          50.625    20451616.260    83746039.180 8      1235.851          50.312    20451617.140    83745946.176 8      1235.851          51.125
R21  19896798.200   106471794.263 8      3852.832          48.187    19896798.740   106471794.286 8      3852.832          48.125    19896810.740    82811446.644 8      2996.647          50.750    19896810.320    82811445.643 8      2996.647          50.687
R07  22814198.420   122126195.626 7      4598.661          43.375    22814198.600   122126195.657 7      4598.661          42.875    22814216.800    94987111.404 7      3576.737          46.437    22814216.680    94987116.408 7      3576.737          46.187
R16  22957320.200   122633887.589 6      5885.782          40.937    22957320.760   122633887.601 6      5885.782          40.375    22957347.080    95382015.779 7      4577.831          45.000    22957347.600    95382020.780 7      4577.831          45.000
G11  21083489.360   110794487.998 7      4459.319          47.812    21083488.300   110794488.006 6      4459.319          39.875    21083493.940    86333382.512 6      3474.794          39.125    21083492.600    86333378.514 8      3474.794          52.000
G09  22397521.240   117699758.474 7        84.576          46.000    22397519.980   117699758.484 7        84.576          43.937    22397529.640    91714136.651 7        65.904          44.062    22397530.300    91714142.646 7        65.904          45.937
R06  20602691.000   109939888.994 6      2805.828          39.625    20602691.520   109939889.021 6      2805.828          38.375
R05  22269369.680   119042546.966 7       398.460          43.437    22269370.260   119042546.980 7       398.460          43.500    22269381.860    92588695.536 7       309.913          45.000    22269382.980    92588694.526 7       309.913          45.125
G05  24300423.540   127699587.551 7      5240.306          42.375    24300422.660   127699587.559 6      5240.306          37.562    24300431.200    99506209.127 6      4083.355          37.250    24300432.740    99506212.141 6      4083.355          41.500
G20  22266557.400   117011548.256 7      4942.449          44.437    22266555.540   117011548.266 5      4942.449          34.062    22266562.300    91177851.703 5      3851.259          34.375
R15  22921287.720   122484414.637 7      3546.800          45.000    22921287.580   122484414.644 7      3546.800          43.375    22921305.420    95265738.901 7      2758.622          43.187    22921304.440    95265733.903 7      2758.622          43.375
G30  21521459.640   113096039.640 7      4649.832          47.375    21521457.900   113096039.647 8      4649.832          48.187    21521471.700    88126820.425 8      3623.246          48.000    21521472.580    88126834.428 8      3623.246          48.750
G07  21751487.940   114304837.356 7      2579.690          47.562    21751487.060   114304837.363 7      2579.690          45.875    21751495.380    89068738.928 7      2010.148          45.812    21751495.800    89068743.932 7      2010.148          47.187
G19  23601406.400   124026230.110 7      -497.997          42.937    23601404.200   124026230.118 4      -497.997          29.812    23601418.140    96643814.434 4      -388.050          29.750
G13  23129941.580   121548669.070 7      5687.660          42.687    23129940.740   121548669.072 4      5687.660          28.000    23129956.560    94713303.945 4      4431.943          27.750
R22  23515375.680   125526671.761 7      6721.075          43.187    23515377.360   125526671.756 7      6721.075          43.750    23515388.820    97631910.322 7      5227.503          44.375    23515389.000    97631913.327 7      5227.503          44.000
