     3.05           OBSERVATION DATA    MIXED               RINEX VERSION / TYPE
TPS2RIN 1.0.29.3920 TPS-USER            20240801 093646 UTC PGM / RUN BY / DATE
Win64 build Feb 23, 2024 (c) Topcon Positioning Systems     COMMENT
SRC: 20240731_CARA.tps                                      COMMENT
OPT: -S -v 3.05                                             COMMENT
Observer            Agency                                  OBSERVER / AGENCY
O0M3X53SBGM         TPS HIPER_SR        4.8 HSR Jul,08,2022 REC # / TYPE / VERS
FW: 4.8 HSR Jul,08,2022 p3                                  COMMENT
SN: HiPer SR 1212-12575                                     COMMENT
000                 TPSHIPER_SR     NONE                    ANT # / TYPE
        1.8000        0.0000        0.0000                  ANTENNA: DELTA H/E/N
CARA                                                        MARKER NAME
  5389160.7406 -1600049.0766  3007564.9870                  APPROX POSITION XYZ
  2024     7    31    11    15   45.0000000     GPS         TIME OF FIRST OBS
  2024     7    31    11    30   45.0000000     GPS         TIME OF LAST OBS
     1.000                                                  INTERVAL
   901 EPOCHS                                               COMMENT
G   16 C1C L1C D1C S1C C1W L1W D1W S1W C2W L2W D2W S2W C2X  SYS / # / OBS TYPES
       L2X D2X S2X                                          SYS / # / OBS TYPES
R   16 C1C L1C D1C S1C C1P L1P D1P S1P C2P L2P D2P S2P C2C  SYS / # / OBS TYPES
       L2C D2C S2C                                          SYS / # / OBS TYPES
    17                                                      # OF SATELLITES
   G02   901   901   901   901   901   901   901   901   901PRN / # OF OBS
         901   901   901     0     0     0     0            PRN / # OF OBS
   G03   901   901   901   901   901   901   901   901   901PRN / # OF OBS
         901   901   901   901   901   901   901            PRN / # OF OBS
   G04   901   901   901   901   901   901   901   901   901PRN / # OF OBS
         901   901   901   901   901   901   901            PRN / # OF OBS
   G06   901   901   901   901   901   901   901   901   901PRN / # OF OBS
         901   901   901   901   901   901   901            PRN / # OF OBS
   G08   901   901   901   901   901   901   901   901   901PRN / # OF OBS
         901   901   901   901   901   901   901            PRN / # OF OBS
   G09   901   901   901   901   901   901   901   901   901PRN / # OF OBS
         901   901   901   901   901   901   901            PRN / # OF OBS
   G14   901   901   901   901   901   901   901   901   901PRN / # OF OBS
         901   901   901   901   901   901   901            PRN / # OF OBS
   G17   901   901   901   901   901   901   901   901   901PRN / # OF OBS
         901   901   901   901   901   901   901            PRN / # OF OBS
   G19   901   901   901   901   901   901   901   901   901PRN / # OF OBS
         901   901   901     0     0     0     0            PRN / # OF OBS
   G21   901   901   901   901   901   901   901   901   901PRN / # OF OBS
         901   901   901     0     0     0     0            PRN / # OF OBS
   G22   901   901   901   901   901   901   901   901   901PRN / # OF OBS
         901   901   901     0     0     0     0            PRN / # OF OBS
   R03   901   901   901   901   901   901   901   901   901PRN / # OF OBS
         901   901   901   901   901   901   901            PRN / # OF OBS
   R04   901   901   901   901   901   901   901   901   901PRN / # OF OBS
         901   901   901   901   901   901   901            PRN / # OF OBS
   R05   901   901   901   901   901   901   901   901   901PRN / # OF OBS
         901   901   901   901   901   901   901            PRN / # OF OBS
   R09    89    89    89    89    89    89    89    89    89PRN / # OF OBS
          89    89    89    89    89    89    89            PRN / # OF OBS
   R17   901   901   901   901   901   901   901   901   901PRN / # OF OBS
         901   901   901   901   901   901   901            PRN / # OF OBS
   R18   901   901   901   901   901   901   901   901   901PRN / # OF OBS
         901   901   901   901   901   901   901            PRN / # OF OBS
G L1C                                                       SYS / PHASE SHIFT
G L1W -0.25000                                              SYS / PHASE SHIFT
G L2W  0.00000                                              SYS / PHASE SHIFT
G L2X  0.25000                                              SYS / PHASE SHIFT
R L1C                                                       SYS / PHASE SHIFT
R L1P -0.25000                                              SYS / PHASE SHIFT
R L2P -0.25000                                              SYS / PHASE SHIFT
R L2C                                                       SYS / PHASE SHIFT
  6 R03  5 R04  6 R05  1 R09 -2 R17  4 R18 -3               GLONASS SLOT / FRQ #
                                                            GLONASS COD/PHS/BIS
    18    18  1929     7GPS                                 LEAP SECONDS
                                                            END OF HEADER
> 2024 07 31 11 15 45.0000000  0 17
G04  21473583.480   112844446.598 7      5013.154          46.062    21473582.540   112844446.608 6      5013.154          37.812    21473587.720    87930737.236 6      3906.354          37.937    21473589.400    87930759.242 8      3906.354          50.437
G08  24635796.420   129461982.820 6      -494.030          38.437    24635795.980   129461982.827 5      -494.030          33.937    24635812.180   100879528.682 5      -384.959          34.000    24635812.980   100879532.674 6      -384.959          41.375
G06  24858040.800   130629869.038 6      5144.762          38.187    24858039.780   130629869.038 5      5144.762          35.625    24858050.040   101789560.532 5      4008.906          35.312    24858050.720   101789560.543 7      4008.906          43.375
G02  22334817.080   117370261.599 7      2097.608          45.500    22334815.340   117370261.604 6      2097.608          38.500    22334818.700    91457341.942 6      1634.499          38.437
G09  23110241.160   121445134.224 7      6388.579          44.562    23110240.860   121445134.232 7      6388.579          44.000    23110249.560    94632611.144 7      4978.113          44.250    23110250.380    94632614.144 7      4978.113          46.250
R05  21838322.120   116738348.430 7      6918.813          45.062    21838322.240   116738348.425 7      6918.813          44.562    21838335.200    90796542.709 8      5381.299          48.187    21838334.840    90796543.710 8      5381.299          48.312
R17  23552726.520   126035370.103 6       488.870          41.687    23552725.380   126035370.115 6       488.870          41.250    23552746.720    98027605.768 7       380.232          45.000    23552745.880    98027604.767 7       380.232          44.875
R04  19284255.160   103266313.620 8      3768.320          48.375    19284255.920   103266313.654 7      3768.320          46.937    19284264.760    80318279.235 8      2930.916          50.687    19284264.700    80318278.242 8      2930.916          51.125
R09  24121967.080   128809954.910 6       725.370          41.187    24121967.400   128809954.903 6       725.370          41.687    24121978.920   100185570.815 7       564.176          42.875    24121978.940   100185571.810 7       564.176          43.437
G19  23375003.600   122836478.540 7      6404.098          43.062    23375001.640   122836478.545 5      6404.098          30.937    23375005.680    95716758.338 5      4990.206          30.937
G22  23388959.300   122909810.421 7      2478.767          44.125    23388958.340   122909810.426 5      2478.767          30.875    23388962.500    95773892.324 5      1931.507          31.125
G03  20528215.520   107876494.973 8      1524.926          48.125    20528214.660   107876494.972 8      1524.926          48.437    20528219.660    84059655.909 8      1188.254          48.625    20528220.400    84059629.907 8      1188.254          49.875
G14  22848294.680   120068589.935 7      1180.687          44.000    22848293.660   120068589.953 5      1180.687          33.625    22848299.980    93559966.308 5       920.016          33.250    22848300.220    93559966.308 7       920.016          47.500
R03  21021148.620   112527852.698 7        -6.061          46.687    21021149.480   112527852.726 7        -6.061          44.687    21021158.980    87521702.625 8        -4.714          49.000    21021158.380    87521703.623 8        -4.714          49.625
G21  23421513.860   123080892.431 7      1490.392          44.687    23421512.380   123080892.441 5      1490.392          32.625    23421518.360    95907182.878 5      1161.344          32.687
G17  21758899.280   114343805.911 7      5197.240          47.562    21758898.520   114343805.910 7      5197.240          46.375    21758901.260    89099076.062 7      4049.797          46.437    21758901.860    89099082.059 8      4049.797          48.500
R18  20610289.880   110019139.685 7      2436.965          46.875    20610290.000   110019139.688 7      2436.965          47.187    20610298.520    85570469.553 8      1895.417          49.812    20610298.840    85570471.557 8      1895.417          49.937
> 2024 07 31 11 15 46.0000000  0 17
G04  21472629.720   112839433.512 7      5013.085          45.687    21472628.420   112839433.522 6      5013.085          37.875    21472633.740    87926830.942 6      3906.300          37.937    21472635.480    87926852.945 8      3906.300          50.375
G08  24635890.700   129462476.541 6      -493.459          39.500    24635890.000   129462476.551 5      -493.459          34.812    24635906.220   100879913.395 5      -384.514          34.000    24635907.040   100879917.402 6      -384.514          41.625
G06  24857061.420   130624723.825 6      5145.495          38.187    24857060.660   130624723.828 5      5145.495          35.062    24857070.940   101785551.284 5      4009.477          34.687    24857071.820   101785551.286 7      4009.477          43.062
G02  22334417.940   117368163.884 7      2097.855          45.625    22334416.160   117368163.891 6      2097.855          37.937    22334419.400    91455707.363 6      1634.692          38.000
G09  23109025.320   121438745.515 7      6388.812          44.125    23109025.000   121438745.525 7      6388.812          43.812    23109033.940    94627632.941 7      4978.295          43.562    23109034.700    94627635.943 7      4978.295          45.937
R05  21837027.680   116731429.598 7      6918.959          45.500    21837028.420   116731429.597 7      6918.959          43.750    21837040.740    90791161.408 8      5381.413          48.562    21837040.340    90791162.402 8      5381.413          48.312
R17  23552635.120   126034881.193 6       489.075          41.437    23552633.960   126034881.211 6       489.075          41.375    23552655.160    98027225.481 7       380.391          44.625    23552654.720    98027224.474 7       380.391          45.062
R04  19283551.380   103262545.553 7      3767.827          47.875    19283552.240   103262545.589 7      3767.827          47.187    19283561.120    80315348.526 8      2930.532          50.562    19283560.860    80315347.533 8      2930.532          50.812
R09  24121831.020   128809229.329 6       725.550          41.625    24121831.320   128809229.322 6       725.550          41.562    24121843.180   100185006.488 7       564.317          43.125    24121843.080   100185007.486 7       564.317          43.062
G19  23373784.740   122830074.223 7      6404.483          43.000    23373783.060   122830074.228 5      6404.483          30.937    23373787.060    95711767.967 5      4990.506          30.937
G22  23388487.700   122907331.592 7      2478.902          44.500    23388486.920   122907331.594 5      2478.902          30.875    23388490.920    95771960.771 5      1931.612          31.125
G03  20527925.300   107874970.011 8      1525.000          48.000    20527924.600   107874970.011 8      1525.000          49.000    20527929.420    84058467.638 8      1188.312          49.187    20527930.320    84058441.640 8      1188.312          50.000
G14  22848069.900   120067409.194 7      1180.871          44.312    22848069.000   120067409.212 5      1180.871          33.562    22848075.320    93559046.254 5       920.159          33.625    22848075.620    93559046.254 7       920.159          47.937
R03  21021149.860   112527858.875 7        -6.303          46.562    21021150.600   112527858.912 7        -6.303          46.062    21021159.940    87521707.440 8        -4.902          49.312    21021159.600    87521708.440 8        -4.902          48.937
G21  23421230.480   123079401.777 7      1490.839          44.562    23421228.860   123079401.785 5      1490.839          32.812    23421234.640    95906021.327 5      1161.693          32.562
G17  21757910.180   114338608.578 7      5197.436          47.562    21757909.580   114338608.578 7      5197.436          46.500    21757912.340    89095026.201 7      4049.950          46.375    21757912.800    89095032.202 8      4049.950          48.187
R18  20609833.240   110016702.755 7      2436.947          47.812    20609833.480   110016702.754 7      2436.947          47.562    20609841.920    85568574.165 8      1895.403          49.937    20609842.200    85568576.167 8      1895.403          49.937
> 2024 07 31 11 15 47.0000000  0 17
G04  21471675.720   112834420.397 7      5013.144          46.437    21471674.660   112834420.405 6      5013.144          38.062    21471679.760    87922924.629 6      3906.346          37.937    21471681.240    87922946.633 8      3906.346          51.187
G08  24635984.760   129462969.899 6      -492.925          38.750    24635983.960   129462969.907 5      -492.925          34.812    24635999.940   100880297.830 5      -384.097          34.500    24636000.860   100880301.854 6      -384.097          41.625
G06  24856082.460   130619578.068 6      5146.181          38.125    24856081.460   130619578.073 5      5146.181          35.062    24856091.560   101781541.611 5      4010.012          35.187    24856092.820   101781541.615 7      4010.012          43.437
G02  22334018.840   117366065.832 7      2098.251          46.312    22334016.860   117366065.837 6      2098.251          37.812    22334020.140    91454072.521 6      1635.000          37.812
G09  23107809.340   121432356.461 7      6389.213          44.250    23107809.060   121432356.471 7      6389.213          44.187    23107818.080    94622654.472 7      4978.607          43.687    23107819.040    94622657.468 7      4978.607          45.750
R05  21835733.320   116724510.689 7      6918.981          45.500    21835733.900   116724510.690 7      6918.981          44.750    21835746.520    90785780.049 7      5381.430          47.687    21835746.040    90785781.043 8      5381.430          48.562
R17  23552543.260   126034392.112 6       489.229          41.437    23552542.980   126034392.127 6       489.229          41.375    23552563.680    98026845.075 7       380.511          44.375    23552563.320    98026844.072 7       380.511          44.875
R04  19282847.940   103258777.895 8      3767.489          48.562    19282849.020   103258777.924 7      3767.489          46.937    19282857.560    80312418.124 8      2930.269          50.375    19282857.440    80312417.129 8      2930.269          51.250
R09  24121695.600   128808503.559 6       725.774          41.750    24121695.240   128808503.549 6       725.774          41.875    24121707.000   100184441.994 7       564.491          42.937    24121707.500   100184442.996 7       564.491          43.625
G19  23372565.960   122823669.586 7      6404.925          43.187    23372564.360   122823669.593 5      6404.925          30.937    23372568.140    95706777.355 5      4990.851          31.000
G22  23388016.120   122904852.792 7      2478.779          44.500    23388015.360   122904852.794 5      2478.779          30.875    23388019.220    95770029.243 5      1931.516          31.125
G03  20527635.180   107873444.929 8      1525.097          48.312    20527634.420   107873444.931 8      1525.097          49.125    20527639.180    84057279.266 8      1188.387          49.062    20527640.200    84057253.268 8      1188.387          49.687
G14  22847844.960   120066228.330 7      1181.098          43.125    22847844.180   120066228.351 5      1181.098          33.562    22847850.520    93558126.100 5       920.336          33.625    22847850.740    93558126.106 7       920.336          47.250
R03  21021151.220   112527865.088 7        -6.214          47.062    21021152.140   112527865.119 7        -6.214          46.187    21021161.120    87521712.270 8        -4.833          49.062    21021160.860    87521713.269 8        -4.833          49.000
G21  23420946.860   123077910.740 7      1491.262          43.812    23420945.100   123077910.745 5      1491.262          32.812    23420950.980    95904859.484 5      1162.022          32.562
G17  21756921.280   114333411.109 7      5197.579          47.500    21756920.440   114333411.114 7      5197.579          46.875    21756923.400    89090976.231 7      4050.062          46.625    21756923.660    89090982.232 8      4050.062          48.437
R18  20609376.900   110014265.727 7      2437.070          47.625    20609377.080   110014265.731 7      2437.070          46.750    20609385.280    85566678.705 8      1895.499          49.875    20609385.920    85566680.709 8      1895.499          49.625
> 2024 07 31 11 15 48.0000000  0 17
G04  21470721.600   112829407.122 7      5013.208          46.312    21470720.660   112829407.127 6      5013.208          37.937    21470725.800    87919018.185 6      3906.396          37.750    21470727.280    87919040.189 8      3906.396          50.375
G08  24636078.540   129463462.806 6      -492.748          39.625    24636077.820   129463462.805 5      -492.748          34.562    24636093.760   100880681.909 5      -383.959          34.500    24636094.580   100880685.910 6      -383.959          41.750
G06  24855102.960   130614431.668 6      5146.580          38.125    24855102.240   130614431.678 5      5146.580          35.312    24855112.140   101777531.433 5      4010.322          35.000    24855113.860   101777531.437 7      4010.322          43.437
G02  22333619.540   117363967.296 7      2098.606          46.062    22333617.540   117363967.299 6      2098.606          37.625    22333620.760    91452437.303 6      1635.278          38.000
G09  23106593.680   121425966.924 7      6389.522          44.562    23106593.100   121425966.931 7      6389.522          43.687    23106602.180    94617675.625 7      4978.849          44.062    23106602.860    94617678.624 7      4978.849          46.437
R05  21834438.920   116717591.524 7      6919.104          45.375    21834439.740   116717591.520 7      6919.104          44.375    21834452.360    90780398.486 8      5381.526          48.500    21834451.420    90780399.479 8      5381.526          48.500
R17  23552451.560   126033902.718 6       489.449          41.562    23552451.560   126033902.736 6       489.449          41.687    23552472.420    98026464.410 7       380.682          44.750    23552472.220    98026463.401 7       380.682          45.187
R04  19282144.620   103255010.444 8      3767.147          48.375    19282145.360   103255010.475 7      3767.147          47.562    19282154.080    80309487.892 8      2930.003          50.750    19282153.480    80309486.899 8      2930.003          50.875
R09  24121559.900   128807777.409 6       726.124          41.750    24121559.380   128807777.402 6       726.124          41.875    24121571.220   100183877.219 7       564.763          43.000    24121571.560   100183878.215 7       564.763          43.687
G19  23371347.160   122817264.499 6      6405.244          41.937    23371345.560   122817264.504 5      6405.244          31.187    23371349.280    95701786.388 5      4991.099          31.000
G22  23387544.420   122902373.813 7      2478.871          44.687    23387543.560   122902373.813 5      2478.871          30.625    23387547.580    95768097.575 5      1931.588          30.812
G03  20527345.100   107871919.569 8      1525.248          48.562    20527344.080   107871919.573 8      1525.248          48.875    20527348.960    84056090.680 8      1188.505          48.937    20527349.900    84056064.684 8      1188.505          50.187
G14  22847620.380   120065047.235 7      1181.131          44.062    22847619.760   120065047.255 5      1181.131          33.312    22847625.740    93557205.766 5       920.362          33.437    22847626.040    93557205.756 7       920.362          47.500
R03  21021152.340   112527871.209 7        -6.251          46.125    21021153.440   112527871.248 7        -6.251          46.000    21021162.240    87521717.043 8        -4.862          49.000    21021161.940    87521718.043 8        -4.862          49.312
G21  23420663.240   123076419.164 7      1491.751          43.500    23420661.120   123076419.174 5      1491.751          32.625    23420667.160    95903697.215 5      1162.403          32.625
G17  21755932.140   114328213.348 7      5197.741          47.437    21755931.460   114328213.348 7      5197.741          46.312    21755934.180    89086926.034 7      4050.187          46.250    21755934.680    89086932.035 8      4050.187          48.437
R18  20608920.240   110011828.467 7      2437.214          47.812    20608920.460   110011828.470 7      2437.214          47.625    20608928.920    85564783.060 8      1895.611          49.562    20608929.260    85564785.060 8      1895.611          50.000
> 2024 07 31 11 15 49.0000000  0 17
G04  21469767.700   112824394.152 7      5012.737          46.062    21469766.760   112824394.157 6      5012.737          38.250    21469771.980    87915111.985 6      3906.029          38.125    21469773.220    87915133.986 8      3906.029          50.562
G08  24636172.480   129463955.615 6      -492.919          40.187    24636171.640   129463955.623 5      -492.919          35.250    24636187.600   100881065.910 5      -384.093          34.812    24636188.360   100881069.918 6      -384.093          41.875
G06  24854124.100   130609284.994 6      5146.671          37.750    24854122.780   130609285.001 5      5146.671          35.187    24854133.000   101773521.048 5      4010.393          35.000    24854134.160   101773521.056 7      4010.393          43.500
G02  22333220.200   117361868.722 7      2098.546          46.312    22333218.180   117361868.729 6      2098.546          37.625    22333221.520    91450802.056 6      1635.231          37.562
G09  23105377.880   121419577.347 7      6389.552          43.937    23105376.960   121419577.357 7      6389.552          43.937    23105386.400    94612696.744 7      4978.871          43.562    23105387.020    94612699.739 7      4978.871          46.062
R05  21833144.420   116710672.583 7      6918.855          44.812    21833145.000   116710672.579 7      6918.855          44.500    21833158.240    90775017.102 7      5381.332          47.562    21833157.200    90775018.093 8      5381.332          48.437
R17  23552360.360   126033413.434 6       489.239          41.562    23552360.160   126033413.446 6       489.239          41.687    23552380.760    98026083.843 7       380.519          44.625    23552380.340    98026082.838 7       380.519          44.937
R04  19281441.040   103251243.693 8      3766.341          48.500    19281442.020   103251243.727 7      3766.341          47.250    19281450.700    80306558.202 8      2929.376          50.375    19281450.280    80306557.207 8      2929.376          51.000
R09  24121424.100   128807051.369 7       725.907          42.437    24121423.460   128807051.367 6       725.907          41.625    24121435.040   100183312.523 7       564.594          42.312    24121435.400   100183313.525 7       564.594          43.562
G19  23370128.540   122810859.396 7      6405.039          42.812    23370126.740   122810859.401 5      6405.039          31.187    23370130.220    95696795.405 5      4990.939          31.000
G22  23387072.740   122899895.144 7      2478.480          44.125    23387072.040   122899895.144 5      2478.480          30.625    23387075.760    95766166.151 5      1931.283          30.812
G03  20527054.540   107870394.381 8      1525.123          48.375    20527053.920   107870394.381 8      1525.123          49.000    20527058.720    84054902.220 8      1188.408          49.125    20527059.740    84054876.224 8      1188.408          49.687
G14  22847395.800   120063866.302 7      1180.784          44.125    22847395.100   120063866.325 5      1180.784          33.562    22847400.960    93556285.563 5       920.091          33.437    22847401.060    93556285.559 7       920.091          47.125
R03  21021153.480   112527877.745 7        -6.831          46.250    21021154.480   112527877.776 7        -6.831          45.937    21021163.320    87521722.127 8        -5.313          48.750    21021163.320    87521723.122 8        -5.313          49.687
G21  23420379.340   123074927.511 7      1491.667          44.375    23420377.260   123074927.519 5      1491.667          32.625    23420383.200    95902534.886 5      1162.338          32.625
G17  21754942.900   114323015.742 7      5197.444          47.125    21754942.340   114323015.745 7      5197.444          46.562    21754945.100    89082875.955 7      4049.957          46.312    21754945.560    89082881.956 8      4049.957          48.375
R18  20608463.620   110009391.431 7      2436.877          46.000    20608463.900   110009391.437 7      2436.877          47.000    20608472.260    85562887.590 8      1895.349          49.687    20608472.620    85562889.592 8      1895.349          49.750
> 2024 07 31 11 15 50.0000000  0 17
G04  21468813.680   112819381.232 7      5012.782          45.437    21468812.720   112819381.242 6      5012.782          38.125    21468818.020    87911205.821 6      3906.064          37.625    21468819.560    87911227.821 8      3906.064          49.312
G08  24636266.320   129464448.133 6      -492.600          39.500    24636265.480   129464448.135 5      -492.600          35.812    24636281.500   100881449.682 5      -383.844          35.437    24636282.040   100881453.671 6      -383.844          41.875
G06  24853143.900   130604137.857 6      5147.291          38.187    24853143.500   130604137.865 5      5147.291          35.187    24853153.400   101769510.294 5      4010.876          35.125    24853154.360   101769510.294 7      4010.876          43.375
G02  22332820.860   117359769.900 7      2098.833          46.562    22332818.800   117359769.902 6      2098.833          37.750    22332822.240    91449166.611 6      1635.454          37.875
G09  23104161.800   121413187.502 7      6389.951          44.250    23104160.900   121413187.505 7      6389.951          42.687    23104170.500    94607717.652 7      4979.182          42.625    23104170.820    94607720.652 7      4979.182          45.312
R05  21831850.040   116703753.660 7      6918.637          44.812    21831850.580   116703753.664 7      6918.637          44.125    21831863.820    90769635.741 7      5381.162          46.562    21831862.940    90769636.733 7      5381.162          46.937
R17  23552269.040   126032924.071 7       489.104          42.187    23552268.300   126032924.094 6       489.104          41.625    23552289.320    98025703.228 7       380.414          44.375    23552288.840    98025702.225 7       380.414          44.750
R04  19280737.620   103247477.425 8      3765.913          48.437    19280738.980   103247477.459 7      3765.913          46.812    19280747.360    80303628.889 8      2929.043          48.375    19280746.860    80303627.893 8      2929.043          48.437
R09  24121287.960   128806325.193 7       726.032          42.250    24121287.640   128806325.194 6       726.032          41.625    24121299.340   100182747.728 7       564.692          42.250    24121299.260   100182748.728 7       564.692          43.187
G19  23368909.740   122804454.004 7      6405.396          43.250    23368907.920   122804454.007 5      6405.396          31.187    23368911.560    95691804.201 5      4991.218          30.937
G22  23386601.320   122897416.525 7      2478.503          44.500    23386600.420   122897416.527 5      2478.503          30.625    23386604.200    95764234.761 5      1931.301          30.812
G03  20526764.280   107868869.160 8      1525.131          48.625    20526763.820   107868869.159 7      1525.131          47.312    20526768.480    84053713.740 7      1188.414          47.250    20526769.320    84053687.744 8      1188.414          49.125
G14  22847171.100   120062685.333 7      1180.777          44.187    22847170.220   120062685.353 5      1180.777          33.562    22847176.320    93555365.327 5       920.086          33.375    22847176.620    93555365.325 7       920.086          47.062
R03  21021154.460   112527884.423 7        -6.899          46.750    21021155.800   112527884.449 7        -6.899          45.500    21021164.500    87521727.319 7        -5.366          47.937    21021164.460    87521728.316 7        -5.366          47.437
G21  23420095.300   123073435.541 7      1492.031          43.875    23420093.340   123073435.546 5      1492.031          32.625    23420099.220    95901372.312 5      1162.622          32.625
G17  21753954.060   114317818.063 7      5197.550          47.812    21753953.280   114317818.063 7      5197.550          45.125    21753956.000    89078825.817 7      4050.039          45.312    21753956.400    89078831.819 7      4050.039          47.187
R18  20608007.420   110006954.405 7      2436.936          47.125    20608007.220   110006954.401 7      2436.936          46.625    20608015.720    85560992.121 8      1895.395          48.000    20608016.180    85560994.123 8      1895.395          48.500
> 2024 07 31 11 15 51.0000000  0 17
G04  21467859.900   112814368.406 7      5012.715          46.500    21467858.740   112814368.414 6      5012.715          38.062    21467864.220    87907299.727 6      3906.011          38.125    21467865.560    87907321.733 8      3906.011          50.625
G08  24636359.740   129464940.335 6      -492.079          39.625    24636359.060   129464940.335 5      -492.079          35.812    24636375.200   100881833.211 6      -383.438          36.000    24636375.840   100881837.222 7      -383.438          42.812
G06  24852164.720   130598990.292 6      5147.749          38.375    24852164.000   130598990.303 5      5147.749          35.750    24852173.900   101765499.213 5      4011.233          35.000    24852174.960   101765499.215 7      4011.233          43.375
G02  22332421.500   117357670.826 7      2099.164          46.250    22332419.360   117357670.831 6      2099.164          37.812    22332422.660    91447530.973 6      1635.712          37.875
G09  23102946.020   121406797.445 7      6390.176          44.000    23102944.920   121406797.450 7      6390.176          43.937    23102954.540    94602738.397 7      4979.358          43.375    23102955.220    94602741.397 7      4979.358          45.812
R05  21830555.820   116696834.706 7      6918.942          45.187    21830556.120   116696834.710 7      6918.942          44.375    21830569.420    90764254.347 7      5381.400          47.437    21830568.640    90764255.345 8      5381.400          48.187
R17  23552177.700   126032434.608 7       489.501          42.187    23552177.440   126032434.625 6       489.501          41.625    23552197.740    98025322.511 7       380.723          43.687    23552197.480    98025321.510 7       380.723          44.312
R04  19280034.360   103243711.671 8      3765.443          48.937    19280035.700   103243711.711 7      3765.443          47.437    19280044.060    80300699.979 8      2928.678          49.687    19280043.560    80300698.982 8      2928.678          50.875
R09  24121151.860   128805598.880 7       726.362          42.250    24121151.280   128805598.886 6       726.362          41.875    24121163.260   100182182.826 7       564.948          42.250    24121163.260   100182183.832 7       564.948          42.687
G19  23367690.620   122798048.410 7      6405.710          42.625    23367688.940   122798048.415 5      6405.710          31.125    23367692.700    95686812.840 5      4991.462          30.937
G22  23386129.600   122894938.027 7      2478.404          45.062    23386128.860   122894938.029 5      2478.404          31.000    23386132.560    95762303.468 5      1931.224          31.000
G03  20526474.060   107867343.888 8      1525.302          48.312    20526473.520   107867343.890 8      1525.302          48.812    20526478.200    84052525.225 8      1188.547          48.562    20526478.940    84052499.227 8      1188.547          49.562
G14  22846946.340   120061504.324 7      1181.031          44.562    22846945.400   120061504.345 5      1181.031          33.375    22846951.500    93554445.058 5       920.284          33.375    22846952.100    93554445.050 7       920.284          47.687
R03  21021155.800   112527891.251 7        -6.942          47.062    21021156.880   112527891.282 7        -6.942          45.875    21021165.800    87521732.638 8        -5.400          49.062    21021165.840    87521733.635 8        -5.400          48.812
G21  23419811.240   123071943.292 7      1492.329          43.437    23419809.340   123071943.297 5      1492.329          32.625    23419815.340    95900209.519 5      1162.853          32.687
G17  21752965.020   114312620.328 7      5197.789          47.375    21752964.220   114312620.328 7      5197.789          46.562    21752966.880    89074775.643 7      4050.226          46.250    21752967.500    89074781.648 7      4050.226          47.750
R18  20607550.800   110004517.374 7      2436.994          47.187    20607550.760   110004517.375 7      2436.994          46.937    20607559.260    85559096.661 8      1895.440          49.562    20607559.560    85559098.663 8      1895.440          49.937
> 2024 07 31 11 15 52.0000000  0 17
G04  21466905.920   112809355.644 7      5012.692          46.562    21466904.780   112809355.657 6      5012.692          38.000    21466910.420    87903393.689 6      3905.994          37.875    21466911.760    87903415.695 8      3905.994          51.062
G08  24636453.840   129465432.304 6      -491.886          39.250    24636452.740   129465432.309 6      -491.886          36.187    24636468.940   100882216.556 6      -383.287          36.187    24636469.520   100882220.553 7      -383.287          42.937
G06  24851185.300   130593842.268 6      5148.175          38.250    24851184.360   130593842.273 5      5148.175          35.750    24851194.220   101761487.769 5      4011.565          35.625    24851195.440   101761487.765 7      4011.565          43.750
G02  22332021.820   117355571.494 7      2099.494          45.937    22332019.980   117355571.502 6      2099.494          38.250    22332023.120    91445895.132 6      1635.969          37.875
G09  23101729.740   121400407.114 7      6390.483          44.125    23101728.860   121400407.119 7      6390.483          43.562    23101738.520    94597758.933 7      4979.597          43.312    23101739.420    94597761.931 7      4979.597          46.125
R05  21829261.680   116689915.795 7      6918.832          45.312    21829261.920   116689915.790 7      6918.832          44.187    21829275.160    90758872.982 8      5381.314          48.125    21829274.480    90758873.976 8      5381.314          48.312
R17  23552085.840   126031945.080 7       489.576          42.187    23552086.000   126031945.103 6       489.576          41.812    23552105.800    98024941.788 7       380.781          44.187    23552105.640    98024940.785 7       380.781          44.250
R04  19279331.300   103239946.399 8      3765.017          48.937    19279332.800   103239946.436 7      3765.017          46.875    19279341.020    80297771.434 8      2928.346          50.937    19279340.620    80297770.437 8      2928.346          50.750
R09  24121015.860   128804872.480 7       726.423          42.875    24121015.500   128804872.483 6       726.423          41.875    24121027.340   100181617.850 7       564.996          42.625    24121027.360   100181618.850 7       564.996          43.687
G19  23366471.720   122791642.562 6      6405.970          41.750    23366469.960   122791642.567 5      6405.970          31.125    23366473.600    95681821.279 5      4991.665          30.937
G22  23385658.060   122892459.571 7      2478.532          44.625    23385657.120   122892459.573 5      2478.532          31.000    23385660.960    95760372.208 5      1931.324          31.000
G03  20526183.800   107865818.577 8      1525.401          48.437    20526183.220   107865818.580 8      1525.401          49.312    20526187.900    84051336.671 8      1188.625          49.250    20526188.820    84051310.677 8      1188.625          49.625
G14  22846721.640   120060323.273 7      1181.065          44.812    22846720.640   120060323.291 5      1181.065          33.375    22846726.620    93553524.759 5       920.310          33.250    22846727.360    93553524.753 7       920.310          47.437
R03  21021157.200   112527898.223 7        -7.033          47.062    21021157.840   112527898.254 7        -7.033          46.312    21021167.200    87521738.061 8        -5.470          49.250    21021167.220    87521739.060 8        -5.470          49.750
G21  23419527.320   123070450.702 7      1492.823          43.562    23419525.260   123070450.709 5      1492.823          32.500    23419531.380    95899046.463 5      1163.239          32.687
G17  21751975.840   114307422.536 7      5197.877          47.125    21751975.040   114307422.536 7      5197.877          47.187    21751977.780    89070725.421 7      4050.294          47.000    21751978.480    89070731.422 8      4050.294          48.125
R18  20607094.520   110002080.338 7      2437.007          47.062    20607094.440   110002080.339 7      2437.007          47.312    20607102.780    85557201.190 8      1895.450          49.500    20607103.040    85557203.197 8      1895.450          49.812
> 2024 07 31 11 15 53.0000000  0 17
G04  21465952.060   112804342.873 7      5012.682          46.250    21465950.940   112804342.886 6      5012.682          37.750    21465956.480    87899487.644 6      3905.986          37.750    21465957.860    87899509.652 8      3905.986          50.687
G08  24636547.600   129465923.878 6      -491.495          40.062    24636546.260   129465923.886 6      -491.495          36.437    24636562.520   100882599.597 6      -382.983          36.500    24636563.620   100882603.604 7      -382.983          42.937
G06  24850205.420   130588693.715 6      5148.508          38.250    24850204.520   130588693.723 5      5148.508          35.812    24850214.500   101757475.918 5      4011.824          35.625    24850215.520   101757475.920 7      4011.824          43.625
G02  22331622.240   117353471.861 7      2099.663          46.062    22331620.460   117353471.866 6      2099.663          38.812    22331623.560    91444259.056 6      1636.101          38.375
G09  23100513.700   121394016.463 7      6390.778          43.937    23100512.680   121394016.471 7      6390.778          43.875    23100522.400    94592779.219 7      4979.827          43.562    23100523.020    94592782.219 7      4979.827          46.187
R05  21827967.120   116682996.755 7      6918.996          45.750    21827967.900   116682996.751 7      6918.996          44.562    21827980.800    90753491.512 7      5381.441          47.937    21827979.880    90753492.509 8      5381.441          48.375
R17  23551994.380   126031455.423 7       489.569          42.187    23551994.620   126031455.446 6       489.569          41.812    23552014.140    98024560.931 7       380.776          43.937    23552014.100    98024559.924 7       380.776          43.375
R04  19278628.020   103236181.513 8      3764.475          48.625    19278629.600   103236181.555 7      3764.475          47.562    19278638.020    80294843.202 8      2927.925          50.750    19278637.420    80294842.206 8      2927.925          51.062
R09  24120880.200   128804145.863 6       726.656          41.812    24120879.060   128804145.866 6       726.656          41.875    24120890.760   100181052.706 7       565.177          42.687    24120891.000   100181053.708 7       565.177          43.500
G19  23365252.860   122785236.419 7      6406.188          42.937    23365250.940   122785236.421 5      6406.188          31.437    23365254.720    95676829.484 5      4991.835          31.375
G22  23385186.340   122889981.168 7      2478.306          44.875    23385185.360   122889981.170 5      2478.306          31.000    23385189.280    95758440.986 5      1931.148          31.000
G03  20525893.560   107864293.172 8      1525.359          48.312    20525893.020   107864293.177 8      1525.359          49.062    20525897.760    84050148.049 8      1188.592          49.437    20525898.620    84050122.054 8      1188.592          49.875
G14  22846496.860   120059142.128 7      1181.081          44.125    22846495.900   120059142.146 5      1181.081          33.500    22846501.920    93552604.388 5       920.323          33.250    22846502.300    93552604.382 7       920.323          47.937
R03  21021158.600   112527905.279 7        -7.202          46.750    21021159.100   112527905.307 7        -7.202          45.875    21021168.640    87521743.550 8        -5.602          49.625    21021168.540    87521744.550 8        -5.602          49.625
G21  23419242.940   123068957.757 7      1493.079          43.812    23419241.140   123068957.767 5      1493.079          32.500    23419247.340    95897883.131 5      1163.439          32.562
G17  21750986.880   114302224.641 7      5197.776          47.125    21750986.020   114302224.643 7      5197.776          46.625    21750988.700    89066675.122 7      4050.215          46.187    21750989.140    89066681.119 8      4050.215          48.437
R18  20606637.880   109999643.267 8      2436.944          48.437    20606637.640   109999643.265 7      2436.944          47.500    20606646.380    85555305.691 8      1895.401          49.562    20606646.340    85555307.699 8      1895.401          50.250
> 2024 07 31 11 15 54.0000000  0 17
G04  21464997.980   112799330.156 7      5012.645          46.687    21464997.100   112799330.168 6      5012.645          38.062    21465002.500    87895581.636 6      3905.957          38.062    21465003.800    87895603.642 8      3905.957          51.062
G08  24636641.340   129466415.150 6      -491.057          41.312    24636639.820   129466415.158 6      -491.057          36.750    24636656.080   100882982.399 6      -382.642          36.562    24636657.180   100882986.398 7      -382.642          42.937
G06  24849225.420   130583544.642 6      5149.136          38.062    24849224.760   130583544.650 5      5149.136          35.562    24849234.620   101753463.658 5      4012.313          35.187    24849235.600   101753463.656 7      4012.313          43.750
G02  22331222.720   117351371.909 7      2100.095          46.125    22331220.880   117351371.911 6      2100.095          37.937    22331224.020    91442622.734 6      1636.438          38.250
G09  23099297.720   121387625.525 7      6391.004          43.750    23099296.420   121387625.538 7      6391.004          43.562    23099306.360    94587799.284 7      4980.003          43.625    23099306.740    94587802.288 7      4980.003          46.562
R05  21826672.760   116676077.648 7      6919.106          45.750    21826673.260   116676077.641 7      6919.106          44.875    21826686.220    90748109.995 8      5381.527          48.062    21826685.780    90748110.992 8      5381.527          48.625
R17  23551903.160   126030965.596 7       489.901          42.250    23551903.140   126030965.613 6       489.901          41.437    23551922.740    98024179.940 7       381.034          43.375    23551922.680    98024178.941 7       381.034          43.500
R04  19277925.060   103232417.031 8      3764.196          48.500    19277926.380   103232417.072 7      3764.196          46.687    19277934.900    80291915.277 8      2927.708          50.625    19277934.520    80291914.280 8      2927.708          51.000
R09  24120744.120   128803419.102 6       726.729          41.812    24120742.960   128803419.103 6       726.729          41.812    24120755.060   100180487.453 7       565.233          42.750    24120754.880   100180488.449 7       565.233          43.625
G19  23364033.620   122778829.973 7      6406.602          42.875    23364031.820   122778829.976 5      6406.602          31.437    23364035.620    95671837.457 5      4992.157          31.375
G22  23384714.700   122887502.782 7      2478.251          44.625    23384713.760   122887502.785 5      2478.251          31.000    23384717.780    95756509.777 5      1931.104          31.312
G03  20525603.400   107862767.667 8      1525.556          48.625    20525602.720   107862767.666 8      1525.556          48.812    20525607.360    84048959.346 8      1188.745          49.062    20525608.400    84048933.350 8      1188.745          49.625
G14  22846272.360   120057960.901 7      1181.187          44.375    22846271.240   120057960.921 5      1181.187          33.500    22846277.140    93551683.955 5       920.406          33.562    22846277.380    93551683.950 7       920.406          47.625
R03  21021159.760   112527912.430 7        -7.250          47.125    21021160.420   112527912.461 7        -7.250          45.875    21021170.000    87521749.119 8        -5.639          49.562    21021169.700    87521750.119 8        -5.639          49.812
G21  23418958.800   123067464.467 7      1493.449          43.500    23418957.060   123067464.470 5      1493.449          32.625    23418963.100    95896719.525 5      1163.727          32.562
G17  21749997.780   114297026.612 7      5198.067          47.062    21749996.740   114297026.607 7      5198.067          46.312    21749999.480    89062624.712 7      4050.442          46.500    21749999.860    89062630.713 8      4050.442          48.687
R18  20606181.400   109997206.167 7      2437.119          47.000    20606181.260   109997206.165 7      2437.119          47.875    20606189.900    85553410.175 8      1895.537          49.875    20606189.860    85553412.185 8      1895.537          50.125
> 2024 07 31 11 15 55.0000000  0 17
G04  21464043.980   112794317.348 7      5012.821          46.062    21464043.120   112794317.356 6      5012.821          38.125    21464048.700    87891675.557 6      3906.094          38.062    21464049.700    87891697.563 8      3906.094          50.250
G08  24636734.280   129466905.989 6      -490.762          40.437    24636733.360   129466905.994 6      -490.762          37.000    24636749.480   100883364.868 6      -382.412          36.875    24636750.580   100883368.880 7      -382.412          42.625
G06  24848245.500   130578394.983 6      5149.783          38.250    24848244.760   130578394.993 5      5149.783          35.687    24848254.740   101749450.938 5      4012.818          35.562    24848255.960   101749450.945 7      4012.818          43.625
G02  22330823.320   117349271.571 7      2100.560          46.437    22330821.260   117349271.576 6      2100.560          38.125    22330824.340    91440986.107 6      1636.800          38.125
G09  23098081.340   121381234.204 7      6391.447          43.250    23098080.380   121381234.212 7      6391.447          43.250    23098090.040    94582819.044 7      4980.348          43.000    23098090.200    94582822.046 7      4980.348          46.000
R05  21825378.740   116669158.352 7      6919.430          45.312    21825378.860   116669158.342 7      6919.430          44.875    21825391.680    90742728.329 7      5381.779          47.937    21825391.280    90742729.327 8      5381.779          48.312
R17  23551811.160   126030475.527 7       490.160          42.187    23551811.800   126030475.558 6       490.160          41.437    23551830.900    98023798.779 7       381.236          43.250    23551831.000    98023797.777 7       381.236          43.250
R04  19277222.140   103228652.888 7      3763.964          47.937    19277223.720   103228652.930 7      3763.964          47.875    19277232.060    80288987.617 8      2927.527          50.437    19277231.600    80288986.620 8      2927.527          51.062
R09  24120608.120   128802692.055 7       727.184          42.125    24120607.040   128802692.050 6       727.184          41.812    24120619.000   100179921.968 7       565.588          42.875    24120618.740   100179922.964 7       565.588          43.750
G19  23362814.700   122772423.142 7      6407.023          42.187    23362812.680   122772423.139 5      6407.023          31.437    23362816.440    95666845.131 5      4992.486          31.375
G22  23384243.120   122885024.292 7      2478.582          44.687    23384242.260   122885024.297 5      2478.582          31.000    23384246.180    95754578.490 5      1931.363          31.312
G03  20525312.940   107861241.972 8      1525.779          48.562    20525312.340   107861241.972 8      1525.779          48.937    20525317.040    84047770.497 8      1188.919          49.312    20525317.700    84047744.501 8      1188.919          50.062
G14  22846047.420   120056779.485 7      1181.481          44.187    22846046.500   120056779.500 5      1181.481          33.875    22846052.360    93550763.367 5       920.635          33.562    22846052.560    93550763.366 7       920.635          47.312
R03  21021161.260   112527919.579 7        -7.217          46.687    21021161.920   112527919.608 7        -7.217          45.625    21021171.340    87521754.679 8        -5.613          49.187    21021171.000    87521755.679 8        -5.613          49.937
G21  23418674.800   123065970.711 7      1493.947          42.437    23418672.800   123065970.723 5      1493.947          32.625    23418678.760    95895555.565 5      1164.114          32.937
G17  21749008.480   114291828.384 7      5198.265          46.812    21749007.540   114291828.383 7      5198.265          46.250    21749010.360    89058574.152 7      4050.596          45.937    21749010.780    89058580.155 7      4050.596          47.937
R18  20605724.780   109994768.896 7      2437.344          47.437    20605724.580   109994768.902 7      2437.344          46.625    20605733.380    85551514.526 8      1895.712          49.750    20605733.520    85551516.538 8      1895.712          50.437
> 2024 07 31 11 15 56.0000000  0 17
G04  21463090.200   112789304.481 7      5012.610          45.812    21463089.300   112789304.488 6      5012.610          38.125    21463094.800    87887769.437 6      3905.930          37.750    21463095.920    87887791.449 8      3905.930          50.937
G08  24636827.620   129467396.381 6      -490.367          41.312    24636826.740   129467396.383 6      -490.367          38.062    24636842.840   100883746.982 6      -382.104          37.312    24636843.780   100883750.983 7      -382.104          42.875
G06  24847264.860   130573244.702 6      5150.389          38.437    24847264.780   130573244.704 5      5150.389          35.500    24847274.480   101745437.738 5      4013.290          35.062    24847276.080   101745437.734 7      4013.290          43.625
G02  22330423.480   117347170.831 7      2100.680          46.062    22330421.520   117347170.844 6      2100.680          37.937    22330424.520    91439349.177 6      1636.893          37.875
G09  23096864.840   121374842.468 7      6391.704          44.062    23096863.980   121374842.473 7      6391.704          43.625    23096873.880    94577838.474 7      4980.549          43.250    23096874.180    94577841.478 7      4980.549          46.250
R05  21824084.080   116662238.929 7      6919.174          46.000    21824084.240   116662238.920 7      6919.174          45.500    21824097.100    90737346.575 7      5381.580          47.875    21824096.580    90737347.569 8      5381.580          48.625
R17  23551719.320   126029985.253 7       490.098          42.187    23551720.220   126029985.284 7       490.098          42.000    23551739.440    98023417.453 7       381.187          43.312    23551739.320    98023416.454 7       381.187          42.812
R04  19276519.140   103224889.108 8      3763.372          48.312    19276520.940   103224889.152 7      3763.372          47.250    19276529.320    80286060.241 8      2927.067          50.812    19276528.500    80286059.243 8      2927.067          50.875
R09  24120471.620   128801964.736 6       727.280          41.437    24120470.820   128801964.726 6       727.280          41.875    24120482.580   100179356.280 7       565.662          42.937    24120482.780   100179357.278 7       565.662          43.625
G19  23361595.300   122766015.932 7      6407.104          43.062    23361593.420   122766015.934 5      6407.104          31.437    23361597.240    95661852.510 5      4992.549          31.437
G22  23383771.560   122882545.781 7      2478.267          44.812    23383770.480   122882545.783 5      2478.267          31.062    23383774.280    95752647.185 5      1931.117          31.312
G03  20525022.520   107859716.099 7      1525.727          47.625    20525022.000   107859716.099 8      1525.727          48.625    20525026.760    84046581.507 8      1188.878          48.687    20525027.740    84046555.509 8      1188.878          50.062
G14  22845822.500   120055597.898 7      1181.446          44.375    22845821.720   120055597.913 5      1181.446          33.562    22845827.320    93549842.648 5       920.607          33.437    22845828.000    93549842.645 7       920.607          47.687
R03  21021162.580   112527926.710 7        -7.372          47.312    21021163.140   112527926.738 7        -7.372          45.812    21021172.640    87521760.229 8        -5.734          49.062    21021172.300    87521761.229 8        -5.734          48.500
G21  23418390.300   123064476.528 7      1494.244          42.000    23418388.480   123064476.538 5      1494.244          32.875    23418394.480    95894391.265 5      1164.346          32.937
G17  21748019.120   114286629.958 7      5198.237          46.500    21748018.380   114286629.960 7      5198.237          46.687    21748021.100    89054523.439 7      4050.574          46.500    21748021.680    89054529.440 8      4050.574          48.562
R18  20605267.980   109992331.465 7      2437.270          47.875    20605268.080   109992331.471 7      2437.270          47.500    20605276.860    85549618.752 8      1895.655          49.625    20605277.040    85549620.760 8      1895.655          50.250
> 2024 07 31 11 15 57.0000000  0 17
G04  21462136.240   112784291.629 7      5013.090          46.250    21462135.320   112784291.639 6      5013.090          38.125    21462140.760    87883863.328 6      3906.304          38.000    21462142.100    87883885.332 8      3906.304          50.187
G08  24636920.920   129467886.458 6      -489.709          41.812    24636920.040   129467886.465 6      -489.709          37.562    24636936.140   100884128.858 6      -381.591          37.875    24636937.160   100884132.867 7      -381.591          43.312
G06  24846284.960   130568093.947 6      5151.208          38.437    24846284.680   130568093.947 5      5151.208          35.500    24846294.420   101741424.169 5      4013.929          35.125    24846295.400   101741424.169 7      4013.929          43.687
G02  22330023.740   117345069.792 7      2101.494          45.937    22330021.640   117345069.799 6      2101.494          37.937    22330024.800    91437712.002 6      1637.528          37.875
G09  23095648.480   121368450.450 7      6392.374          44.000    23095647.680   121368450.455 7      6392.374          43.875    23095657.480    94572857.696 7      4981.071          43.562    23095658.100    94572860.699 7      4981.071          46.312
R05  21822789.880   116655319.425 7      6919.720          45.625    21822789.760   116655319.423 7      6919.720          44.750    21822802.620    90731964.758 7      5382.005          47.500    21822802.160    90731965.755 8      5382.005          48.000
R17  23551628.180   126029494.874 7       490.690          42.250    23551628.340   126029494.900 7       490.690          42.000    23551647.740    98023036.035 7       381.648          43.062    23551647.580    98023035.042 7       381.648          42.937
R04  19275816.540   103221125.761 8      3763.455          48.062    19275818.080   103221125.797 7      3763.455          47.187    19275826.540    80283133.191 8      2927.132          50.500    19275825.980    80283132.194 8      2927.132          51.062
R09  24120334.920   128801237.267 6       727.801          41.437    24120334.680   128801237.260 6       727.801          41.875    24120346.040   100178790.477 7       566.067          42.875    24120346.660   100178791.477 7       566.067          43.000
G19  23360375.920   122759608.430 7      6407.907          42.062    23360373.980   122759608.435 5      6407.907          31.437    23360377.960    95656859.656 5      4993.174          31.437
G22  23383299.820   122880067.291 7      2478.666          45.187    23383298.820   122880067.293 5      2478.666          31.062    23383302.660    95750715.900 5      1931.428          30.937
G03  20524732.220   107858190.137 7      1526.202          47.937    20524731.660   107858190.136 8      1526.202          48.937    20524736.320    84045392.450 8      1189.248          48.625    20524737.180    84045366.452 8      1189.248          50.437
G14  22845597.660   120054416.224 7      1181.910          43.812    22845596.840   120054416.240 5      1181.910          33.562    22845602.360    93548921.868 5       920.969          33.437    22845603.140    93548921.868 8       920.969          48.062
R03  21021163.920   112527933.974 7        -7.059          47.562    21021164.340   112527934.005 7        -7.059          45.812    21021174.000    87521765.881 8        -5.490          49.187    21021173.560    87521766.881 8        -5.490          49.125
G21  23418106.260   123062981.985 7      1494.998          44.625    23418104.240   123062981.993 5      1494.998          32.875    23418110.300    95893226.686 5      1164.933          32.562
G17  21747029.820   114281431.422 7      5198.827          47.250    21747029.080   114281431.427 7      5198.827          46.375    21747031.820    89050472.640 7      4051.034          46.250    21747032.300    89050478.643 7      4051.034          47.875
R18  20604811.460   109989893.985 7      2437.776          46.500    20604811.300   109989893.992 7      2437.776          47.062    20604820.340    85547722.937 8      1896.048          50.312    20604820.460    85547724.943 8      1896.048          49.812
> 2024 07 31 11 15 58.0000000  0 17
G04  21461182.400   112779278.582 7      5013.115          46.062    21461181.460   112779278.590 6      5013.115          37.750    21461186.720    87879957.061 6      3906.323          37.812    21461187.980    87879979.064 8      3906.323          50.500
G08  24637013.980   129468375.999 6      -489.376          41.937    24637013.260   129468376.003 6      -489.376          38.062    24637029.240   100884510.312 6      -381.332          38.375    24637030.300   100884514.307 7      -381.332          43.437
G06  24845305.020   130562942.420 6      5151.940          39.250    24845304.320   130562942.428 5      5151.940          35.625    24845314.220   101737409.999 5      4014.499          35.125    24845315.120   101737410.001 7      4014.499          43.562
G02  22329623.760   117342968.253 7      2101.649          45.625    22329621.700   117342968.264 6      2101.649          38.250    22329624.880    91436074.447 6      1637.648          38.062
G09  23094432.360   121362057.904 7      6392.657          43.437    23094431.340   121362057.912 7      6392.657          43.500    23094441.080    94567876.505 7      4981.291          43.562    23094441.480    94567879.507 7      4981.291          45.875
R05  21821495.500   116648399.644 7      6919.789          46.125    21821495.040   116648399.646 7      6919.789          45.000    21821508.220    90726582.724 7      5382.058          47.812    21821507.620    90726583.718 7      5382.058          47.812
R17  23551536.560   126029004.147 7       490.818          42.250    23551536.740   126029004.176 7       490.818          42.312    23551556.220    98022654.354 7       381.747          42.625    23551556.000    98022653.362 7       381.747          43.125
R04  19275113.440   103217362.628 8      3762.831          48.375    19275115.220   103217362.670 7      3762.831          46.937    19275123.680    80280206.318 8      2926.646          50.187    19275123.160    80280205.323 8      2926.646          51.125
R09  24120198.960   128800509.385 6       727.873          41.562    24120198.400   128800509.378 6       727.873          41.937    24120210.140   100178224.351 7       566.123          42.437    24120210.300   100178225.342 7       566.123          44.000
G19  23359156.260   122753200.435 7      6408.115          42.687    23359154.740   122753200.440 5      6408.115          31.437    23359158.700    95651866.414 5      4993.336          31.250
G22  23382827.940   122877588.596 7      2478.718          44.812    23382827.020   122877588.598 5      2478.718          31.062    23382831.080    95748784.455 5      1931.468          30.937
G03  20524441.900   107856663.859 7      1526.283          47.937    20524441.200   107856663.861 8      1526.283          48.687    20524445.920    84044203.149 8      1189.312          48.812    20524446.800    84044177.149 8      1189.312          49.812
G14  22845372.780   120053234.233 7      1181.941          44.375    22845371.780   120053234.254 5      1181.941          33.750    22845377.420    93548000.838 5       920.993          33.687    22845378.320    93548000.844 7       920.993          47.187
R03  21021165.420   112527941.152 7        -7.282          46.937    21021165.640   112527941.183 7        -7.282          45.437    21021175.280    87521771.467 8        -5.663          49.375    21021175.100    87521772.464 8        -5.663          49.250
G21  23417821.640   123061486.867 7      1495.292          43.875    23417819.680   123061486.880 5      1495.292          32.812    23417825.880    95892061.661 5      1165.163          32.562
G17  21746040.520   114276232.576 7      5198.840          46.812    21746039.760   114276232.581 7      5198.840          46.062    21746042.600    89046421.597 7      4051.044          46.562    21746043.020    89046427.599 8      4051.044          48.187
R18  20604354.540   109987456.261 7      2437.720          46.812    20604354.560   109987456.267 7      2437.720          47.437    20604363.420    85545826.935 8      1896.005          49.562    20604363.800    85545828.939 8      1896.005          50.125
> 2024 07 31 11 15 59.0000000  0 17
G04  21460228.420   112774265.465 7      5013.132          45.437    21460227.480   112774265.470 6      5013.132          37.937    21460232.680    87876050.744 6      3906.336          37.875    21460234.100    87876072.745 8      3906.336          50.562
G08  24637107.380   129468865.085 6      -489.043          40.937    24637106.300   129468865.082 6      -489.043          38.375    24637122.220   100884891.408 6      -381.073          38.375    24637123.100   100884895.407 7      -381.073          43.437
G06  24844325.160   130557790.357 6      5152.125          38.562    24844323.880   130557790.365 5      5152.125          35.375    24844333.900   101733395.408 5      4014.643          34.937    24844334.960   101733395.410 7      4014.643          43.437
G02  22329223.680   117340866.292 7      2102.096          45.937    22329221.640   117340866.302 6      2102.096          38.062    22329224.840    91434436.555 6      1637.997          37.812
G09  23093215.600   121355664.962 7      6393.063          43.687    23093214.880   121355664.964 7      6393.063          43.625    23093224.560    94562895.000 7      4981.607          43.500    23093224.920    94562897.998 7      4981.607          45.687
R05  21820200.880   116641479.690 7      6920.024          45.375    21820200.700   116641479.697 7      6920.024          44.812    21820213.540    90721200.550 7      5382.241          47.875    21820213.020    90721201.546 7      5382.241          47.937
R17  23551444.700   126028513.143 7       491.159          42.625    23551445.120   126028513.168 7       491.159          42.250    23551464.760    98022272.451 7       382.013          43.062    23551464.240    98022271.459 7       382.013          43.187
R04  19274410.760   103213599.809 8      3762.577          48.125    19274412.640   103213599.842 7      3762.577          46.875    19274421.080    80277279.681 8      2926.449          50.812    19274420.480    80277278.686 8      2926.449          51.312
R09  24120062.260   128799781.219 6       728.232          41.312    24120062.140   128799781.212 6       728.232          41.937    24120073.820   100177658.000 7       566.402          42.937    24120074.160   100177658.991 7       566.402          43.625
G19  23357936.760   122746792.040 7      6408.474          42.437    23357935.280   122746792.042 5      6408.474          31.125    23357939.160    95646872.864 5      4993.616          31.250
G22  23382356.380   122875109.856 7      2478.626          44.750    23382355.380   122875109.858 5      2478.626          30.750    23382359.300    95746852.972 5      1931.397          30.937
G03  20524151.260   107855137.374 8      1526.527          48.062    20524150.740   107855137.376 8      1526.527          49.062    20524155.460    84043013.679 8      1189.501          49.375    20524156.260    84042987.682 8      1189.501          49.625
G14  22845147.680   120052052.060 7      1182.248          44.375    22845146.880   120052052.078 5      1182.248          33.750    22845152.480    93547079.666 5       921.232          33.687    22845153.360    93547079.664 7       921.232          47.312
R03  21021166.800   112527948.336 7        -7.263          46.750    21021167.140   112527948.362 7        -7.263          45.875    21021176.660    87521777.052 8        -5.649          49.375    21021176.540    87521778.052 8        -5.649          50.000
G21  23417537.000   123059991.282 7      1495.837          44.000    23417535.000   123059991.286 5      1495.837          32.812    23417541.320    95890896.266 5      1165.587          33.187
G17  21745051.080   114271033.507 7      5199.051          47.312    21745050.420   114271033.514 7      5199.051          46.687    21745053.220    89042370.379 7      4051.208          46.625    21745053.540    89042376.384 8      4051.208          48.000
R18  20603897.980   109985018.389 7      2437.860          46.750    20603898.080   109985018.401 7      2437.860          47.375    20603906.860    85543930.815 8      1896.113          50.250    20603907.200    85543932.819 8      1896.113          50.187
> 2024 07 31 11 16  0.0000000  0 17
G04  21459274.500   112769252.668 7      5012.743          45.625    21459273.560   112769252.676 6      5012.743          37.812    21459278.820    87872144.676 6      3906.034          37.625    21459280.060    87872166.682 8      3906.034          50.562
G08  24637200.440   129469354.105 6      -488.859          41.437    24637199.300   129469354.107 6      -488.859          38.125    24637215.360   100885272.459 6      -380.929          38.312    24637216.660   100885276.468 7      -380.929          43.562
G06  24843344.240   130552638.016 6      5152.614          38.312    24843343.340   130552638.018 5      5152.614          35.687    24843353.400   101729380.601 5      4015.024          35.312    24843354.280   101729380.593 7      4015.024          43.500
G02  22328823.720   117338764.333 7      2102.119          46.250    22328821.780   117338764.338 6      2102.119          37.687    22328824.980    91432798.667 6      1638.015          37.500
G09  23091999.080   121349271.980 7      6393.171          43.250    23091998.400   121349271.988 7      6393.171          43.625    23092007.980    94557913.468 7      4981.692          43.500    23092008.380    94557916.468 7      4981.692          46.125
R05  21818906.500   116634559.993 7      6919.705          46.250    21818906.260   116634560.002 7      6919.705          45.125    21818919.220    90715818.582 7      5381.993          47.812    21818918.820    90715819.574 8      5381.993          48.312
R17  23551353.200   126028022.304 7       490.838          43.187    23551353.660   126028022.332 7       490.838          42.250    23551373.120    98021890.679 7       381.763          43.000    23551372.640    98021889.689 7       381.763          43.312
R04  19273708.680   103209837.736 8      3761.783          48.375    19273709.900   103209837.775 7      3761.783          46.562    19273718.640    80274353.633 8      2925.831          50.750    19273718.220    80274352.638 8      2925.831          51.250
R09  24119926.140   128799053.163 6       728.175          41.312    24119925.860   128799053.151 6       728.175          41.750    24119937.460   100177091.736 7       566.358          42.812    24119937.520   100177092.732 7       566.358          43.687
G19  23356717.300   122740383.629 7      6408.493          42.750    23356715.820   122740383.634 5      6408.493          31.125    23356719.800    95641879.307 5      4993.631          31.250
G22  23381884.580   122872631.424 7      2478.309          45.125    23381883.800   122872631.423 5      2478.309          30.750    23381887.700    95744921.726 5      1931.150          30.937
G03  20523860.700   107853611.106 7      1526.277          47.937    20523860.280   107853611.109 8      1526.277          48.812    20523864.960    84041824.384 8      1189.307          48.750    20523865.820    84041798.382 8      1189.307          49.812
G14  22844922.780   120050870.100 7      1181.916          44.500    22844921.980   120050870.113 5      1181.916          33.687    22844927.740    93546158.654 5       920.974          33.375    22844928.360    93546158.652 7       920.974          47.562
R03  21021167.980   112527955.921 7        -7.698          47.125    21021168.440   112527955.950 7        -7.698          45.625    21021178.100    87521782.956 8        -5.987          49.312    21021177.820    87521783.955 8        -5.987          49.937
G21  23417252.100   123058495.641 7      1495.739          44.437    23417250.280   123058495.651 5      1495.739          33.000    23417256.720    95889730.839 5      1165.511          33.187
G17  21744061.820   114265834.611 7      5198.934          47.250    21744061.120   114265834.616 7      5198.934          46.125    21744063.880    89038319.295 7      4051.118          46.312    21744064.400    89038325.298 7      4051.118          47.937
R18  20603441.360   109982580.771 7      2437.626          47.187    20603441.380   109982580.780 7      2437.626          47.062    20603450.340    85542034.890 8      1895.931          50.000    20603450.480    85542036.892 8      1895.931          50.437
> 2024 07 31 11 16  1.0000000  0 17
G04  21458320.380   112764239.788 7      5012.823          45.375    21458319.740   112764239.795 6      5012.823          38.187    21458324.900    87868238.544 6      3906.096          38.375    21458326.020    87868260.552 8      3906.096          50.062
G08  24637293.660   129469842.721 7      -488.425          42.125    24637292.320   129469842.723 6      -488.425          38.750    24637308.240   100885653.194 6      -380.591          38.625    24637309.680   100885657.199 7      -380.591          43.250
G06  24842363.440   130547485.109 6      5153.057          38.312    24842362.740   130547485.114 5      5153.057          35.687    24842372.860   101725365.359 5      4015.369          35.375    24842373.360   101725365.355 7      4015.369          43.625
G02  22328423.640   117336661.972 7      2102.508          46.187    22328421.640   117336661.982 6      2102.508          38.312    22328425.020    91431160.470 6      1638.318          37.812
G09  23090782.640   121342878.636 7      6393.479          43.937    23090781.800   121342878.643 7      6393.479          44.000    23090791.360    94552931.655 7      4981.932          44.062    23090791.800    94552934.651 7      4981.932          46.375
R05  21817611.700   116627640.119 7      6919.880          45.437    21817612.320   116627640.126 7      6919.880          45.187    21817624.560    90710436.468 7      5382.129          47.750    21817624.020    90710437.462 8      5382.129          48.062
R17  23551261.420   126027531.202 7       491.046          43.187    23551261.560   126027531.239 7       491.046          42.000    23551281.440    98021508.714 7       381.925          43.250    23551281.000    98021507.715 7       381.925          43.375
R04  19273006.060   103206076.004 7      3761.493          47.687    19273007.460   103206076.045 7      3761.493          47.000    19273015.980    80271427.851 8      2925.605          51.062    19273015.520    80271426.854 8      2925.605          50.375
R09  24119789.960   128798324.824 6       728.474          41.625    24119789.620   128798324.817 6       728.474          41.500    24119801.260   100176525.256 7       566.591          42.750    24119801.080   100176526.250 7       566.591          43.562
G19  23355497.940   122733974.838 7      6408.952          42.125    23355496.180   122733974.843 5      6408.952          31.125    23355500.120    95636885.454 5      4993.989          31.125
G22  23381412.920   122870152.905 7      2478.549          44.750    23381412.200   122870152.902 5      2478.549          30.750    23381415.900    95742990.414 5      1931.337          30.875
G03  20523570.500   107852084.647 7      1526.492          47.375    20523569.780   107852084.647 8      1526.492          48.687    20523574.500    84040634.940 8      1189.474          48.500    20523575.160    84040608.940 8      1189.474          49.625
G14  22844697.660   120049687.938 7      1182.192          44.312    22844697.020   120049687.953 5      1182.192          33.687    22844702.760    93545237.493 5       921.188          33.375    22844703.780    93545237.487 7       921.188          47.750
R03  21021169.740   112527963.504 7        -7.622          47.500    21021169.920   112527963.522 7        -7.622          45.625    21021179.480    87521788.847 8        -5.928          48.812    21021179.500    87521789.845 8        -5.928          49.687
G21  23416967.320   123056999.550 7      1496.297          43.875    23416965.720   123056999.558 5      1496.297          33.000    23416971.960    95888565.051 5      1165.946          32.812
G17  21743072.540   114260635.529 7      5199.147          47.250    21743071.740   114260635.528 7      5199.147          46.187    21743074.480    89034268.068 7      4051.284          46.187    21743075.040    89034274.067 7      4051.284          47.750
R18  20602985.000   109980143.001 7      2437.819          46.250    20602984.720   109980143.007 7      2437.819          46.875    20602993.640    85540138.852 8      1896.082          49.875    20602993.820    85540140.852 8      1896.082          50.250
> 2024 07 31 11 16  2.0000000  0 17
G04  21457366.580   112759226.941 7      5012.925          46.375    21457365.860   112759226.948 6      5012.925          37.437    21457370.940    87864332.436 6      3906.175          37.375    21457372.340    87864354.439 8      3906.175          48.500
G08  24637386.240   129470331.019 7      -488.107          42.312    24637385.280   129470331.016 6      -488.107          38.062    24637401.340   100886033.684 6      -380.343          37.687    24637402.200   100886037.681 7      -380.343          43.250
G06  24841383.040   130542331.664 6      5153.846          38.687    24841382.060   130542331.677 5      5153.846          35.437    24841392.320   101721349.698 5      4015.984          35.375    24841393.100   101721349.694 7      4015.984          43.250
G02  22328023.560   117334559.348 7      2102.754          46.250    22328021.440   117334559.358 6      2102.754          37.687    22328024.920    91429522.064 6      1638.510          37.875
G09  23089565.860   121336485.010 7      6393.756          43.937    23089565.260   121336485.012 7      6393.756          43.500    23089574.760    94547949.620 7      4982.148          43.187    23089575.260    94547952.611 7      4982.148          45.625
R05  21816317.120   116620720.205 7      6920.044          45.687    21816317.920   116620720.207 7      6920.044          44.812    21816330.160    90705054.319 7      5382.257          46.125    21816329.500    90705055.317 7      5382.257          46.250
R17  23551169.960   126027040.008 7       491.264          42.812    23551169.720   126027040.041 7       491.264          42.000    23551189.680    98021126.661 7       382.094          42.750    23551189.040    98021125.666 7       382.094          43.062
R04  19272303.500   103202314.705 8      3761.119          48.437    19272305.220   103202314.744 7      3761.119          47.187    19272313.580    80268502.401 8      2925.315          48.125    19272313.160    80268501.404 8      2925.315          48.562
R09  24119653.580   128797596.354 7       728.620          42.312    24119652.840   128797596.347 6       728.620          41.500    24119665.000   100175958.671 7       566.705          42.750    24119664.780   100175959.670 7       566.705          43.562
G19  23354278.360   122727565.773 7      6409.285          42.812    23354276.620   122727565.778 5      6409.285          31.125    23354280.540    95631891.388 5      4994.248          31.125
G22  23380941.260   122867674.441 7      2478.520          44.562    23380940.540   122867674.438 5      2478.520          30.750    23380944.380    95741059.144 5      1931.314          30.875
G03  20523280.220   107850558.104 7      1526.721          47.750    20523279.140   107850558.104 7      1526.721          47.187    20523283.960    84039445.428 7      1189.653          47.187    20523284.940    84039419.432 8      1189.653          48.812
G14  22844472.680   120048505.726 7      1182.301          44.375    22844472.120   120048505.738 5      1182.301          33.750    22844477.800    93544316.285 5       921.274          33.562    22844478.500    93544316.283 7       921.274          46.687
R03  21021171.260   112527971.167 7        -7.705          47.562    21021171.300   112527971.193 7        -7.705          45.687    21021180.860    87521794.818 7        -5.993          47.312    21021180.980    87521795.817 7        -5.993          47.250
G21  23416682.620   123055503.116 7      1496.702          44.312    23416680.820   123055503.118 5      1496.702          32.562    23416687.260    95887398.998 5      1166.261          32.812
G17  21742083.080   114255436.349 7      5199.276          46.812    21742082.320   114255436.351 7      5199.276          45.125    21742085.100    89030216.765 7      4051.384          45.062    21742085.520    89030222.771 7      4051.384          47.750
R18  20602528.340   109977705.172 7      2437.952          46.312    20602527.880   109977705.175 7      2437.952          46.937    20602537.040    85538242.763 8      1896.185          48.062    20602537.120    85538244.767 7      1896.185          47.625
> 2024 07 31 11 16  3.0000000  0 17
G04  21456412.720   112754214.192 7      5012.571          46.125    21456411.980   112754214.202 6      5012.571          37.875    21456417.120    87860426.407 6      3905.899          37.750    21456418.580    87860448.409 8      3905.899          50.312
G08  24637478.780   129470819.017 6      -488.058          41.812    24637478.180   129470819.019 6      -488.058          38.687    24637494.300   100886413.942 6      -380.305          38.625    24637495.060   100886417.949 7      -380.305          43.562
G06  24840402.000   130537177.819 6      5154.073          38.500    24840401.280   130537177.827 5      5154.073          35.625    24840411.560   101717333.715 5      4016.161          35.062    24840412.240   101717333.711 7      4016.161          43.437
G02  22327623.320   117332456.446 7      2102.927          46.687    22327621.260   117332456.453 6      2102.927          38.062    22327624.540    91427883.441 6      1638.644          37.812
G09  23088349.200   121330091.116 7      6393.861          44.562    23088348.680   121330091.121 7      6393.861          43.937    23088358.000    94542967.377 7      4982.229          43.750    23088358.460    94542970.373 7      4982.229          46.500
R05  21815022.500   116613800.297 7      6919.757          47.125    21815023.520   116613800.295 7      6919.757          45.500    21815035.660    90699672.178 7      5382.033          47.625    21815035.040    90699673.175 7      5382.033          47.375
R17  23551077.540   126026548.751 7       491.067          42.812    23551077.800   126026548.782 6       491.067          41.750    23551097.740    98020744.566 7       381.941          43.062    23551097.560    98020743.565 7       381.941          43.562
R04  19271601.360   103198553.859 8      3760.476          48.500    19271602.900   103198553.898 7      3760.476          47.250    19271611.420    80265577.305 8      2924.815          49.875    19271610.700    80265576.307 8      2924.815          49.875
R09  24119517.360   128796867.770 6       728.502          41.937    24119516.360   128796867.771 7       728.502          42.312    24119528.120   100175392.002 6       566.613          41.937    24119528.160   100175393.004 7       566.613          42.750
G19  23353058.560   122721156.487 7      6409.383          43.187    23353056.980   122721156.489 5      6409.383          31.125    23353060.860    95626897.147 5      4994.325          31.125
G22  23380469.640   122865196.050 7      2478.275          43.875    23380468.820   122865196.050 5      2478.275          30.625    23380472.800    95739127.935 5      1931.124          30.875
G03  20522989.680   107849031.543 7      1526.489          47.562    20522988.720   107849031.545 8      1526.489          48.500    20522993.520    84038255.905 8      1189.472          48.437    20522994.640    84038229.906 8      1189.472          50.062
G14  22844247.800   120047323.474 7      1182.054          44.687    22844247.100   120047323.489 5      1182.054          33.437    22844252.880    93543395.054 5       921.081          33.562    22844253.280    93543395.056 7       921.081          47.125
R03  21021172.500   112527978.985 7        -8.047          47.187    21021172.540   112527979.008 7        -8.047          45.375    21021182.140    87521800.899 8        -6.259          49.250    21021182.320    87521801.900 8        -6.259          49.000
G21  23416397.660   123054006.374 7      1496.783          43.750    23416396.100   123054006.384 5      1496.783          32.562    23416402.360    95886232.712 5      1166.325          32.812
G17  21741093.720   114250237.119 7      5199.060          47.875    21741092.920   114250237.119 7      5199.060          46.125    21741095.680    89026165.422 7      4051.216          45.750    21741096.060    89026171.423 8      4051.216          48.312
R18  20602071.500   109975267.367 7      2437.714          46.000    20602071.180   109975267.368 7      2437.714          47.125    20602080.300    85536346.693 8      1896.000          50.250    20602080.400    85536348.699 8      1896.000          50.125
> 2024 07 31 11 16  4.0000000  0 17
G04  21455458.860   112749201.718 7      5012.294          45.375    21455458.260   112749201.723 6      5012.294          38.062    21455463.360    87856520.588 6      3905.684          38.125    21455464.560    87856542.590 8      3905.684          50.750
G08  24637571.780   129471306.963 6      -488.004          40.812    24637571.200   129471306.968 6      -488.004          38.750    24637587.260   100886794.156 6      -380.263          38.375    24637588.200   100886798.153 7      -380.263          43.750
G06  24839421.020   130532023.720 6      5154.193          38.687    24839420.600   130532023.722 5      5154.193          35.562    24839430.700   101713317.534 5      4016.254          35.375    24839431.420   101713317.532 7      4016.254          43.437
G02  22327222.800   117330353.525 7      2102.890          46.750    22327221.280   117330353.532 6      2102.890          38.312    22327224.540    91426244.801 6      1638.615          38.000
G09  23087132.600   121323697.202 7      6393.832          44.437    23087132.000   121323697.207 7      6393.832          44.000    23087141.240    94537985.118 7      4982.207          43.562    23087141.680    94537988.112 7      4982.207          46.187
R05  21813727.880   116606880.589 7      6919.471          46.500    21813728.900   116606880.582 7      6919.471          45.437    21813740.960    90694290.196 7      5381.811          47.375    21813740.400    90694291.192 8      5381.811          48.500
R17  23550985.420   126026057.575 7       491.050          42.562    23550985.920   126026057.603 6       491.050          41.750    23551005.900    98020362.532 7       381.928          43.250    23551006.020    98020361.529 7       381.928          43.250
R04  19270899.500   103194793.711 8      3759.698          48.437    19270900.760   103194793.751 7      3759.698          47.375    19270909.220    80262652.752 8      2924.210          50.812    19270908.320    80262651.752 8      2924.210          51.250
R09  24119380.240   128796139.260 6       728.416          41.937    24119380.280   128796139.258 7       728.416          42.312    24119391.580   100174825.390 7       566.546          42.500    24119391.560   100174826.391 7       566.546          43.375
G19  23351839.200   122714747.165 7      6409.293          43.375    23351837.140   122714747.167 5      6409.293          31.125    23351841.180    95621902.880 5      4994.254          30.812
G22  23379998.160   122862717.965 7      2477.939          44.312    23379997.320   122862717.964 5      2477.939          30.625    23380001.320    95737196.963 5      1930.862          30.750
G03  20522699.240   107847505.149 7      1526.184          47.812    20522698.260   107847505.149 8      1526.184          48.750    20522703.060    84037066.508 8      1189.235          48.437    20522703.660    84037040.510 8      1189.235          49.875
G14  22844022.780   120046141.393 7      1181.850          44.937    22844022.120   120046141.406 5      1181.850          33.437    22844027.620    93542473.952 5       920.922          33.562    22844028.520    93542473.954 7       920.922          46.937
R03  21021174.040   112527987.194 7        -8.440          47.312    21021174.180   112527987.222 7        -8.440          45.312    21021183.580    87521807.292 8        -6.564          49.375    21021183.880    87521808.293 8        -6.564          49.250
G21  23416112.700   123052509.548 7      1496.888          43.687    23416111.220   123052509.553 5      1496.888          33.000    23416117.500    95885066.352 5      1166.406          32.687
G17  21740104.200   114245038.034 7      5198.929          47.312    21740103.540   114245038.034 7      5198.929          46.375    21740106.380    89022114.189 7      4051.113          46.250    21740106.820    89022120.190 8      4051.113          48.250
R18  20601615.120   109972829.786 7      2437.488          46.750    20601614.540   109972829.777 7      2437.488          47.250    20601623.720    85534450.797 8      1895.824          50.500    20601624.260    85534452.801 8      1895.824          50.500
> 2024 07 31 11 16  5.0000000  0 17
G04  21454505.100   112744189.759 7      5011.663          46.437    21454504.580   112744189.770 6      5011.663          38.062    21454509.440    87852615.172 6      3905.192          37.937    21454510.740    87852637.176 8      3905.192          49.937
G08  24637664.400   129471795.064 7      -488.276          42.562    24637663.960   129471795.063 6      -488.276          38.625    24637680.140   100887174.488 6      -380.474          38.812    24637680.920   100887178.491 7      -380.474          43.875
G06  24838440.100   130526869.587 6      5154.060          38.812    24838439.980   130526869.591 6      5154.060          36.312    24838449.940   101709301.338 5      4016.151          35.687    24838451.020   101709301.340 7      4016.151          43.437
G02  22326822.880   117328250.796 7      2102.467          46.437    22326821.180   117328250.804 6      2102.467          37.812    22326824.320    91424606.313 6      1638.286          37.750
G09  23085915.860   121317303.474 7      6393.598          44.000    23085915.360   121317303.471 7      6393.598          43.812    23085924.460    94533002.997 7      4982.025          43.750    23085925.400    94533005.992 7      4982.025          46.312
R05  21812433.720   116599961.322 7      6918.980          46.312    21812434.500   116599961.326 7      6918.980          45.437    21812446.360    90688908.556 7      5381.429          47.812    21812446.080    90688909.552 7      5381.429          47.750
R17  23550893.580   126025566.781 7       490.537          42.562    23550894.220   126025566.807 6       490.537          41.687    23550914.280    98019980.793 7       381.529          43.500    23550914.280    98019979.792 7       381.529          43.625
R04  19270197.200   103191034.515 8      3758.719          48.000    19270198.880   103191034.548 7      3758.719          46.875    19270207.120    80259728.934 8      2923.448          50.937    19270206.520    80259727.939 8      2923.448          51.375
R09  24119244.520   128795411.076 7       728.015          42.062    24119243.800   128795411.071 7       728.015          42.562    24119255.300   100174259.024 7       566.234          42.500    24119255.300   100174260.026 7       566.234          43.562
G19  23350619.220   122708338.039 7      6409.053          42.187    23350617.480   122708338.042 5      6409.053          30.937    23350621.580    95616908.765 5      4994.067          30.812
G22  23379526.640   122860240.402 7      2477.259          44.250    23379525.880   122860240.404 5      2477.259          30.625    23379529.840    95735266.403 5      1930.331          30.750
G03  20522408.840   107845979.142 7      1525.718          47.500    20522407.780   107845979.142 8      1525.718          48.500    20522412.640    84035877.418 8      1188.871          49.000    20522413.400    84035851.420 8      1188.871          49.937
G14  22843797.960   120044959.707 7      1181.394          44.625    22843797.360   120044959.725 5      1181.394          33.500    22843802.840    93541553.163 5       920.566          33.562    22843803.720    93541553.167 7       920.566          47.437
R03  21021175.640   112527996.064 7        -9.284          47.500    21021175.960   112527996.095 7        -9.284          45.437    21021185.280    87521814.186 8        -7.221          49.312    21021185.620    87521815.190 8        -7.221          49.125
G21  23415828.060   123051012.862 7      1496.546          43.625    23415826.500   123051012.867 5      1496.546          33.000    23415832.640    95883900.102 5      1166.140          32.687
G17  21739114.860   114239839.338 7      5198.395          47.312    21739114.240   114239839.337 7      5198.395          46.500    21739117.180    89018063.267 7      4050.697          46.062    21739117.780    89018069.266 8      4050.697          48.125
R18  20601158.520   109970392.665 7      2436.825          46.812    20601158.000   109970392.671 7      2436.825          47.125    20601167.120    85532555.268 8      1895.308          49.937    20601167.220    85532557.281 8      1895.308          50.687
> 2024 07 31 11 16  6.0000000  0 17
G04  21453551.580   112739178.135 7      5011.595          46.625    21453550.920   112739178.142 6      5011.595          38.062    21453555.840    87848710.018 6      3905.139          37.500    21453557.300    87848732.017 8      3905.139          50.375
G08  24637757.780   129472283.123 6      -487.906          41.625    24637756.800   129472283.120 6      -487.906          38.375    24637773.040   100887554.787 6      -380.186          38.187    24637773.760   100887558.786 7      -380.186          43.625
G06  24837459.340   130521715.266 6      5154.534          38.812    24837459.200   130521715.266 6      5154.534          36.312    24837469.100   101705284.991 5      4016.520          35.187    24837470.020   101705284.997 7      4016.520          43.500
G02  22326422.840   117326148.049 7      2102.857          46.062    22326420.920   117326148.056 6      2102.857          38.687    22326424.240    91422967.813 6      1638.590          38.000
G09  23084699.140   121310909.738 7      6393.913          44.375    23084698.740   121310909.743 7      6393.913          43.625    23084707.800    94528020.879 7      4982.270          43.250    23084708.740    94528023.877 7      4982.270          46.125
R05  21811139.440   116593042.327 7      6919.010          46.000    21811140.360   116593042.328 7      6919.010          45.687    21811151.860    90683527.124 7      5381.452          47.437    21811151.640    90683528.122 7      5381.452          47.562
R17  23550801.880   126025076.178 7       490.647          42.125    23550802.580   126025076.209 6       490.647          41.687    23550822.920    98019599.208 7       381.615          43.437    23550822.440    98019598.204 7       381.615          43.562
R04  19269495.580   103187276.070 8      3758.212          48.937    19269497.060   103187276.101 7      3758.212          46.750    19269505.400    80256805.706 8      2923.054          50.875    19269504.960    80256804.711 8      2923.054          51.125
R09  24119108.320   128794682.980 7       728.148          42.125    24119107.060   128794682.975 7       728.148          42.625    24119118.620   100173692.729 7       566.337          42.687    24119119.000   100173693.731 7       566.337          43.750
G19  23349399.840   122701928.951 7      6409.145          42.562    23349397.860   122701928.953 5      6409.145          30.937    23349401.860    95611914.680 5      4994.139          30.812
G22  23379055.360   122857763.176 7      2477.148          44.062    23379054.440   122857763.181 5      2477.148          30.937    23379058.460    95733336.103 5      1930.245          30.750
G03  20522118.280   107844453.335 8      1525.871          48.250    20522117.480   107844453.337 8      1525.871          48.625    20522122.360    84034688.485 8      1188.990          49.000    20522123.100    84034662.487 8      1188.990          49.875
G14  22843573.380   120043778.241 7      1181.536          44.125    22843572.460   120043778.261 5      1181.536          33.500    22843578.020    93540632.538 5       920.678          33.312    22843579.040    93540632.538 7       920.678          47.187
R03  21021177.240   112528005.346 7        -9.439          47.437    21021177.440   112528005.372 7        -9.439          45.312    21021186.960    87521821.412 8        -7.341          49.000    21021187.280    87521822.414 8        -7.341          49.625
G21  23415543.440   123049516.122 7      1496.870          44.062    23415541.760   123049516.133 5      1496.870          32.687    23415547.740    95882733.812 5      1166.392          33.000
G17  21738125.720   114234640.831 7      5198.523          47.062    21738125.000   114234640.833 7      5198.523          46.125    21738127.980    89014012.486 7      4050.797          46.125    21738128.580    89014018.487 8      4050.797          48.062
R18  20600702.040   109967955.813 7      2436.830          47.312    20600701.480   109967955.816 7      2436.830          47.437    20600710.440    85530659.943 8      1895.312          49.937    20600710.860    85530661.949 8      1895.312          50.312
> 2024 07 31 11 16  7.0000000  0 17
G04  21452598.000   112734166.691 7      5011.168          45.437    21452597.220   112734166.699 6      5011.168          38.437    21452602.220    87844805.007 6      3904.806          37.500    21452603.760    87844827.009 8      3904.806          50.250
G08  24637851.040   129472770.982 7      -487.833          42.687    24637849.740   129472770.989 6      -487.833          38.812    24637865.780   100887934.939 6      -380.130          38.687    24637866.780   100887938.944 7      -380.130          43.812
G06  24836478.640   130516560.573 6      5154.779          39.250    24836478.380   130516560.578 5      5154.779          35.625    24836488.140   101701268.357 5      4016.711          35.187    24836488.920   101701268.367 7      4016.711          43.500
G02  22326022.660   117324045.160 7      2102.834          45.812    22326020.780   117324045.167 6      2102.834          37.562    22326024.100    91421329.204 6      1638.572          37.750
G09  23083482.500   121304515.870 7      6393.826          45.125    23083482.180   121304515.878 7      6393.826          44.125    23083491.080    94523038.659 7      4982.202          43.625    23083491.600    94523041.661 7      4982.202          46.250
R05  21809845.420   116586123.424 7      6918.774          46.187    21809846.380   116586123.428 7      6918.774          45.875    21809857.360    90678145.767 7      5381.269          47.437    21809857.320    90678146.761 7      5381.269          47.625
R17  23550709.860   126024585.593 7       490.398          42.125    23550711.300   126024585.627 6       490.398          41.937    23550731.200    98019217.638 7       381.420          43.875    23550730.920    98019216.636 7       381.420          43.687
R04  19268793.640   103183518.180 8      3757.507          48.437    19268795.120   103183518.211 7      3757.507          47.062    19268803.520    80253882.904 8      2922.506          51.250    19268803.200    80253881.911 8      2922.506          51.375
R09  24118971.700   128793954.892 7       727.997          42.125    24118971.200   128793954.879 7       727.997          42.625    24118982.720   100173126.441 7       566.220          43.000    24118982.680   100173127.438 7       566.220          44.062
G19  23348180.200   122695519.694 7      6409.275          42.625    23348178.220   122695519.696 5      6409.275          31.312    23348182.380    95606920.462 5      4994.240          31.250
G22  23378584.140   122855286.120 7      2476.862          43.625    23378583.040   122855286.125 5      2476.862          30.937    23378587.160    95731405.934 5      1930.022          30.750
G03  20521827.900   107842927.619 8      1525.577          48.500    20521827.180   107842927.614 8      1525.577          49.000    20521832.000    84033499.614 8      1188.761          49.125    20521832.920    84033473.614 8      1188.761          49.937
G14  22843348.600   120042596.859 7      1181.213          44.187    22843347.460   120042596.879 5      1181.213          33.625    22843353.280    93539711.985 5       920.426          33.312    22843353.820    93539711.987 7       920.426          47.187
R03  21021178.900   112528014.869 7        -9.738          46.875    21021179.500   112528014.890 7        -9.738          45.312    21021188.800    87521828.815 8        -7.574          49.375    21021188.820    87521829.818 8        -7.574          49.437
G21  23415258.780   123048019.170 7      1497.032          44.187    23415256.840   123048019.181 5      1497.032          32.687    23415263.120    95881567.360 5      1166.518          33.000
G17  21737136.660   114229442.368 7      5198.330          47.187    21737135.700   114229442.371 7      5198.330          46.187    21737138.740    89009961.746 7      4050.647          46.312    21737139.120    89009967.746 8      4050.647          48.062
R18  20600245.060   109965519.054 7      2436.623          47.875    20600245.000   109965519.052 7      2436.623          47.187    20600254.180    85528764.684 8      1895.151          49.812    20600254.200    85528766.690 8      1895.151          50.437
> 2024 07 31 11 16  8.0000000  0 17
G04  21451644.220   112729155.297 7      5011.414          45.937    21451643.640   112729155.308 6      5011.414          37.875    21451648.720    87840900.033 6      3904.998          37.875    21451650.100    87840922.039 8      3904.998          50.687
G08  24637943.600   129473258.602 6      -487.546          41.937    24637942.580   129473258.615 6      -487.546          38.500    24637958.480   100888314.901 6      -379.906          38.000    24637959.360   100888318.904 7      -379.906          43.812
G06  24835497.440   130511405.441 6      5155.422          39.187    24835497.420   130511405.451 5      5155.422          35.437    24835507.120   101697251.381 5      4017.212          35.562    24835507.720   101697251.386 7      4017.212          43.500
G02  22325622.500   117321942.016 7      2103.374          46.625    22325620.640   117321942.021 6      2103.374          38.125    22325623.960    91419690.391 6      1638.992          37.937
G09  23082265.560   121298121.761 7      6394.273          44.875    23082265.340   121298121.764 7      6394.273          43.812    23082274.360    94518056.245 7      4982.551          43.500    23082274.940    94518059.240 7      4982.551          46.312
R05  21808551.100   116579204.509 7      6918.961          47.000    21808552.000   116579204.516 7      6918.961          46.062    21808563.080    90672764.400 7      5381.414          47.375    21808563.120    90672765.396 7      5381.414          47.437
R17  23550618.520   126024094.925 6       490.727          41.937    23550619.320   126024094.959 6       490.727          41.937    23550640.020    98018835.997 7       381.677          44.187    23550639.180    98018834.999 7       381.677          43.812
R04  19268092.240   103179760.777 8      3757.078          48.812    19268093.400   103179760.813 7      3757.078          46.562    19268101.880    80250960.490 8      2922.172          51.000    19268101.680    80250959.497 8      2922.172          51.187
R09  24118835.320   128793226.673 6       728.253          41.875    24118834.740   128793226.679 7       728.253          42.125    24118846.560   100172560.065 7       566.419          42.812    24118846.160   100172561.062 7       566.419          43.375
G19  23346960.660   122689110.206 7      6409.656          42.187    23346958.500   122689110.208 5      6409.656          31.312    23346962.660    95601926.067 5      4994.537          31.250
G22  23378112.700   122852809.151 7      2476.869          44.000    23378111.480   122852809.156 5      2476.869          30.937    23378115.860    95729475.834 5      1930.028          30.812
G03  20521537.320   107841401.838 7      1525.836          47.812    20521536.880   107841401.835 8      1525.836          49.187    20521541.720    84032310.695 8      1188.963          48.875    20521542.700    84032284.696 8      1188.963          49.812
G14  22843123.760   120041415.419 7      1181.506          43.625    22843122.740   120041415.440 5      1181.506          33.625    22843128.480    93538791.380 5       920.654          33.500    22843129.060    93538791.381 7       920.654          47.187
R03  21021180.980   112528024.537 7        -9.688          47.375    21021181.360   112528024.563 7        -9.688          45.750    21021190.640    87521836.340 8        -7.535          49.250    21021190.760    87521837.344 8        -7.535          49.625
G21  23414974.020   123046521.929 7      1497.383          44.812    23414972.000   123046521.939 5      1497.383          33.000    23414978.160    95880400.681 5      1166.792          32.937
G17  21736147.280   114224243.848 7      5198.573          47.250    21736146.600   114224243.850 7      5198.573          46.312    21736149.440    89005910.956 7      4050.836          46.062    21736150.140    89005916.959 8      4050.836          48.312
R18  20599788.500   109963082.304 7      2436.791          47.000    20599788.420   109963082.307 7      2436.791          47.187    20599797.600    85526869.440 8      1895.282          50.187    20599797.820    85526871.446 8      1895.282          50.250
> 2024 07 31 11 16  9.0000000  0 17
G04  21450690.580   112724144.009 7      5011.384          46.625    21450690.160   112724144.019 6      5011.384          38.000    21450694.980    87836995.139 6      3904.975          37.875    21450696.480    87837017.143 8      3904.975          50.875
G08  24638035.880   129473745.912 7      -487.010          42.375    24638035.280   129473745.919 6      -487.010          38.687    24638051.080   100888694.617 6      -379.489          38.687    24638052.180   100888698.616 7      -379.489          43.625
G06  24834516.460   130506249.857 6      5155.970          38.875    24834516.340   130506249.865 5      5155.970          35.875    24834526.000   101693234.049 5      4017.639          35.437    24834527.000   101693234.043 7      4017.639          43.187
G02  22325222.400   117319838.640 7      2103.652          46.125    22325220.140   117319838.645 6      2103.652          38.125    22325223.600    91418051.399 6      1639.209          38.062
G09  23081048.700   121291727.400 7      6394.540          44.687    23081048.520   121291727.410 7      6394.540          43.750    23081057.520    94513073.636 7      4982.758          43.687    23081057.880    94513076.637 7      4982.758          46.312
R05  21807256.580   116572285.603 7      6919.018          46.312    21807257.820   116572285.607 7      6919.018          46.250    21807268.960    90667383.032 7      5381.458          47.812    21807268.600    90667384.027 7      5381.458          47.562
R17  23550526.860   126023604.183 7       490.848          42.375    23550527.400   126023604.222 6       490.848          41.750    23550548.240    98018454.305 7       381.770          44.312    23550547.860    98018453.304 7       381.770          44.750
R04  19267390.440   103176003.840 8      3756.831          48.500    19267391.800   103176003.879 7      3756.831          47.187    19267400.280    80248038.439 8      2921.980          50.812    19267399.860    80248037.443 8      2921.980          51.375
R09  24118698.960   128792498.339 7       728.544          42.437    24118698.580   128792498.343 7       728.544          42.125    24118709.940   100171993.581 7       566.645          43.125    24118709.900   100171994.574 7       566.645          43.500
G19  23345740.880   122682700.503 7      6409.924          42.625    23345738.740   122682700.505 5      6409.924          31.312    23345742.940    95596931.507 5      4994.746          31.250
G22  23377641.440   122850332.261 7      2476.979          43.625    23377640.260   122850332.261 5      2476.979          30.562    23377644.520    95727545.792 5      1930.114          30.812
G03  20521247.180   107839876.028 7      1525.919          47.687    20521246.500   107839876.022 8      1525.919          48.500    20521251.240    84031121.755 8      1189.028          48.625    20521252.280    84031095.753 8      1189.028          49.687
G14  22842898.900   120040233.953 7      1181.640          43.750    22842897.860   120040233.974 5      1181.640          33.250    22842903.720    93537870.762 5       920.758          33.500    22842904.400    93537870.762 7       920.758          47.125
R03  21021182.800   112528034.355 7        -9.712          46.437    21021183.320   112528034.378 7        -9.712          45.750    21021192.340    87521843.974 8        -7.554          48.937    21021192.380    87521844.978 8        -7.554          49.125
G21  23414689.020   123045024.378 7      1497.865          44.625    23414687.180   123045024.386 5      1497.865          33.000    23414693.080    95879233.758 5      1167.168          32.937
G17  21735158.180   114219045.283 7      5198.686          46.250    21735157.260   114219045.283 7      5198.686          46.062    21735160.120    89001860.130 7      4050.924          46.187    21735160.900    89001866.131 8      4050.924          48.187
R18  20599331.840   109960645.574 7      2436.894          47.312    20599332.140   109960645.572 7      2436.894          47.187    20599341.200    85524974.204 8      1895.362          50.125    20599341.100    85524976.208 8      1895.362          50.750
> 2024 07 31 11 16 10.0000000  0 17
G04  21449737.100   112719132.618 7      5011.328          46.500    21449736.600   112719132.623 6      5011.328          38.125    21449741.420    87833090.165 6      3904.931          38.062    21449742.680    87833112.165 8      3904.931          50.687
G08  24638128.860   129474232.767 6      -486.704          41.875    24638127.900   129474232.772 6      -486.704          38.312    24638143.860   100889073.976 6      -379.250          37.875    24638144.640   100889077.977 7      -379.250          43.375
G06  24833535.520   130501093.643 6      5156.542          38.875    24833535.100   130501093.645 6      5156.542          36.125    24833544.680   101689216.220 5      4018.085          35.500    24833545.940   101689216.222 7      4018.085          43.250
G02  22324822.020   117317734.837 7      2103.861          45.750    22324819.920   117317734.842 6      2103.861          37.625    22324823.280    91416412.076 6      1639.372          37.687
G09  23079831.820   121285332.605 7      6394.973          44.562    23079831.520   121285332.613 7      6394.973          43.500    23079840.600    94508090.691 7      4983.096          43.687    23079840.980    94508093.691 7      4983.096          46.312
R05  21805962.360   116565366.512 7      6919.045          47.312    21805963.620   116565366.508 7      6919.045          46.000    21805974.640    90662001.528 7      5381.480          47.625    21805974.340    90662002.522 7      5381.480          47.625
R17  23550435.160   126023113.148 7       491.092          42.375    23550436.000   126023113.179 6       491.092          41.750    23550456.740    98018072.370 7       381.960          44.937    23550456.200    98018071.367 7       381.960          44.625
R04  19266689.060   103172247.240 8      3756.336          48.625    19266690.460   103172247.279 7      3756.336          46.875    19266698.560    80245116.645 8      2921.595          50.937    19266698.340    80245115.650 8      2921.595          50.750
R09  24118562.420   128791769.685 7       728.804          42.437    24118561.560   128791769.681 6       728.804          41.875    24118573.540   100171426.852 7       566.848          42.687    24118573.780   100171427.846 7       566.848          43.437
G19  23344521.060   122676290.361 7      6410.256          42.250    23344518.920   122676290.365 5      6410.256          31.375    23344523.220    95591936.599 5      4995.005          31.375
G22  23377169.860   122847855.261 7      2477.002          43.937    23377168.860   122847855.261 5      2477.002          30.562    23377173.140    95725615.664 5      1930.131          30.812
G03  20520956.760   107838349.979 7      1526.069          47.750    20520956.060   107838349.979 8      1526.069          48.187    20520960.840    84029932.636 8      1189.145          48.875    20520961.880    84029906.636 8      1189.145          49.562
G14  22842673.980   120039052.274 7      1181.777          43.875    22842673.040   120039052.290 5      1181.777          33.312    22842678.920    93536949.971 5       920.865          33.312    22842679.480    93536949.973 7       920.865          47.125
R03  21021185.080   112528044.121 7        -9.811          47.062    21021184.880   112528044.147 7        -9.811          45.625    21021194.340    87521851.579 8        -7.631          49.062    21021194.340    87521852.582 8        -7.631          49.312
G21  23414403.980   123043526.338 7      1498.268          44.937    23414402.140   123043526.346 5      1498.268          33.187    23414408.120    95878066.456 5      1167.482          33.250
G17  21734168.700   114213846.464 7      5198.879          46.875    21734167.940   114213846.463 7      5198.879          45.937    21734170.820    88997809.108 7      4051.074          45.937    21734171.340    88997815.107 8      4051.074          48.500
R18  20598875.360   109958208.640 7      2436.992          47.250    20598875.520   109958208.643 7      2436.992          46.250    20598884.760    85523078.819 8      1895.438          50.062    20598884.820    85523080.823 8      1895.438          50.375
> 2024 07 31 11 16 11.0000000  0 17
G04  21448783.480   112714121.429 7      5010.986          46.937    21448782.920   112714121.437 6      5010.986          38.437    21448787.860    87829185.349 6      3904.665          38.000    21448788.840    87829207.353 8      3904.665          50.687
G08  24638221.900   129474719.475 6      -486.717          41.187    24638220.560   129474719.488 6      -486.717          38.250    24638236.400   100889453.230 6      -379.260          38.250    24638237.320   100889457.228 7      -379.260          43.437
G06  24832554.340   130495937.089 6      5156.708          39.000    24832553.880   130495937.094 6      5156.708          36.312    24832563.580   101685198.136 5      4018.214          35.875    24832564.480   101685198.139 7      4018.214          43.500
G02  22324421.600   117315630.902 7      2103.937          46.375    22324419.480   117315630.910 6      2103.937          38.062    22324423.000    91414772.654 6      1639.431          38.375
G09  23078614.900   121278937.703 7      6394.953          44.750    23078614.500   121278937.718 7      6394.953          43.750    23078623.740    94503107.666 7      4983.081          43.750    23078623.860    94503110.666 7      4983.081          45.812
R05  21804668.220   116558447.545 7      6918.924          47.250    21804669.120   116558447.543 7      6918.924          46.812    21804680.600    90656620.115 7      5381.386          47.687    21804679.800    90656621.113 8      5381.386          48.000
R17  23550343.080   126022622.133 6       491.067          41.000    23550344.080   126022622.161 6       491.067          41.625    23550365.040    98017690.450 7       381.941          44.687    23550364.660    98017689.450 7       381.941          45.125
R04  19265987.500   103168491.245 8      3755.608          48.000    19265989.020   103168491.287 7      3755.608          46.937    19265997.260    80242195.324 8      2921.028          50.937    19265996.700    80242194.325 8      2921.028          51.125
R09  24118426.120   128791041.028 7       728.568          42.437    24118425.300   128791041.034 6       728.568          41.875    24118436.700   100170860.125 7       566.664          42.625    24118437.100   100170861.115 7       566.664          43.437
G19  23343301.220   122669880.132 7      6410.243          42.312    23343299.140   122669880.137 5      6410.243          31.375    23343303.360    95586941.620 5      4994.994          31.375
G22  23376698.620   122845378.476 7      2476.771          44.562    23376697.500   122845378.473 5      2476.771          30.562    23376701.840    95723685.702 5      1929.952          30.687
G03  20520666.320   107836824.045 8      1525.804          48.187    20520665.720   107836824.048 8      1525.804          48.937    20520670.520    84028743.601 8      1188.938          49.000    20520671.500    84028717.601 8      1188.938          49.750
G14  22842449.200   120037870.703 7      1181.431          44.375    22842448.260   120037870.719 5      1181.431          33.312    22842454.120    93536029.268 5       920.596          33.312    22842454.460    93536029.271 7       920.596          47.187
R03  21021186.680   112528054.182 7       -10.239          47.187    21021186.920   112528054.211 7       -10.239          45.937    21021196.260    87521859.404 8        -7.964          49.562    21021196.260    87521860.408 8        -7.964          49.625
G21  23414118.680   123042028.146 7      1498.217          44.687    23414116.920   123042028.156 5      1498.217          33.437    23414123.100    95876899.036 5      1167.442          33.250
G17  21733179.620   114208647.733 7      5198.632          47.125    21733178.660   114208647.736 7      5198.632          46.312    21733181.600    88993758.157 7      4050.882          45.750    21733182.120    88993764.156 8      4050.882          48.187
R18  20598419.200   109955771.873 7      2436.639          46.937    20598419.020   109955771.868 7      2436.639          47.125    20598428.100    85521183.558 8      1895.164          49.937    20598428.140    85521185.560 8      1895.164          50.375
> 2024 07 31 11 16 12.0000000  0 17
G04  21447829.980   112709110.343 7      5010.986          47.250    21447829.320   112709110.353 6      5010.986          37.875    21447834.200    87825280.617 6      3904.664          37.500    21447835.520    87825302.621 8      3904.664          50.562
G08  24638314.400   129475205.944 7      -486.357          42.250    24638313.080   129475205.949 6      -486.357          38.250    24638329.120   100889832.286 6      -378.979          38.250    24638329.580   100889836.289 7      -378.979          43.437
G06  24831573.000   130490780.147 6      5157.129          38.812    24831572.500   130490780.149 6      5157.129          36.312    24831582.280   101681179.738 5      4018.542          35.250    24831582.940   101681179.746 7      4018.542          43.625
G02  22324021.180   117313526.786 7      2104.157          46.437    22324019.080   117313526.791 6      2104.157          37.812    22324022.600    91413133.083 6      1639.603          37.812
G09  23077397.840   121272542.606 7      6395.179          43.750    23077397.560   121272542.616 7      6395.179          43.625    23077406.600    94498124.482 7      4983.256          43.250    23077407.280    94498127.480 7      4983.256          45.750
R05  21803373.960   116551528.623 7      6918.862          47.062    21803374.620   116551528.624 7      6918.862          46.875    21803386.160    90651238.747 7      5381.337          47.687    21803385.660    90651239.744 7      5381.337          47.750
R17  23550251.320   126022131.139 6       490.931          41.000    23550252.440   126022131.156 6       490.931          41.625    23550273.340    98017308.547 7       381.835          44.875    23550272.820    98017307.542 7       381.835          45.375
R04  19265286.280   103164735.749 8      3755.260          48.375    19265287.920   103164735.791 7      3755.260          47.437    19265295.960    80239274.387 8      2920.758          50.375    19265295.580    80239273.391 8      2920.758          50.937
R09  24118289.620   128790312.310 7       728.727          42.937    24118288.820   128790312.306 6       728.727          41.687    24118300.520   100170293.342 7       566.788          42.875    24118300.440   100170294.334 7       566.788          43.312
G19  23342081.320   122663469.708 7      6410.455          43.125    23342079.180   122663469.711 5      6410.455          31.375    23342083.540    95581946.493 5      4995.160          31.375
G22  23376227.560   122842901.841 7      2476.486          44.687    23376226.320   122842901.838 5      2476.486          30.687    23376230.500    95721755.858 5      1929.729          30.687
G03  20520376.060   107835298.091 8      1525.987          48.250    20520375.300   107835298.090 8      1525.987          48.562    20520380.100    84027554.547 8      1189.081          48.750    20520380.840    84027528.547 8      1189.081          49.750
G14  22842224.220   120036689.127 7      1181.534          44.187    22842223.240   120036689.145 5      1181.534          33.437    22842229.140    93535108.559 5       920.676          33.312    22842229.340    93535108.558 7       920.676          46.875
R03  21021188.420   112528064.442 7       -10.403          47.250    21021189.100   112528064.462 7       -10.403          45.812    21021198.120    87521867.381 8        -8.091          49.437    21021198.300    87521868.385 8        -8.091          49.812
G21  23413833.560   123040529.675 7      1498.644          44.437    23413831.940   123040529.680 5      1498.644          33.437    23413838.100    95875731.398 5      1167.774          33.437
G17  21732190.400   114203448.990 7      5198.672          46.687    21732189.280   114203448.992 7      5198.672          45.812    21732192.420    88989707.194 7      4050.913          46.062    21732192.960    88989713.195 8      4050.913          48.062
R18  20597962.600   109953335.154 7      2436.629          46.250    20597962.520   109953335.147 7      2436.629          47.187    20597971.640    85519288.332 8      1895.156          49.937    20597971.640    85519290.334 8      1895.156          50.125
> 2024 07 31 11 16 13.0000000  0 17
G04  21446876.440   112704099.396 7      5010.985          46.687    21446875.720   112704099.404 6      5010.985          38.125    21446880.760    87821375.985 6      3904.663          38.062    21446882.320    87821397.991 8      3904.663          50.312
G08  24638406.860   129475692.182 7      -486.166          42.062    24638405.680   129475692.185 6      -486.166          38.250    24638421.680   100890211.165 6      -378.830          37.687    24638422.200   100890215.166 7      -378.830          43.375
G06  24830591.560   130485622.779 6      5157.714          38.812    24830591.060   130485622.787 5      5157.714          35.562    24830600.840   101677161.018 5      4018.998          35.250    24830602.060   101677161.016 7      4018.998          43.937
G02  22323620.840   117311422.467 7      2104.367          45.937    22323618.580   117311422.470 6      2104.367          37.875    22323622.140    91411493.354 6      1639.766          37.687
G09  23076180.760   121266147.283 7      6395.497          43.562    23076180.360   121266147.295 7      6395.497          43.750    23076189.760    94493141.126 7      4983.504          43.500    23076190.260    94493144.128 7      4983.504          45.812
R05  21802079.320   116544609.722 7      6918.907          47.375    21802080.060   116544609.726 7      6918.907          46.187    21802091.720    90645857.392 7      5381.372          47.437    21802091.340    90645858.393 7      5381.372          47.437
R17  23550159.060   126021640.120 6       491.023          41.312    23550160.080   126021640.138 6       491.023          41.312    23550181.940    98016926.640 7       381.907          44.875    23550181.120    98016925.635 7       381.907          44.812
R04  19264585.060   103160980.809 8      3754.710          48.187    19264586.480   103160980.848 7      3754.710          47.312    19264594.720    80236353.880 8      2920.330          50.312    19264594.360    80236352.883 8      2920.330          51.125
R09  24118152.860   128789583.472 7       728.867          42.750    24118152.300   128789583.478 6       728.867          41.875    24118164.080   100169726.479 7       566.897          42.875    24118164.060   100169727.470 7       566.897          43.000
G19  23340861.380   122657059.075 7      6410.800          42.250    23340859.140   122657059.080 5      6410.800          31.562    23340863.660    95576951.202 5      4995.429          31.437
G22  23375756.280   122840425.303 7      2476.570          43.875    23375755.040   122840425.300 5      2476.570          30.687    23375759.180    95719826.094 5      1929.795          30.687
G03  20520085.620   107833772.165 8      1526.009          48.062    20520084.900   107833772.162 8      1526.009          48.812    20520089.760    84026365.516 8      1189.098          48.375    20520090.560    84026339.514 8      1189.098          49.625
G14  22841999.420   120035507.574 7      1181.457          43.875    22841998.420   120035507.590 5      1181.457          33.437    22842004.260    93534187.869 5       920.615          33.312    22842004.680    93534187.873 7       920.615          46.875
R03  21021190.280   112528074.896 7       -10.526          47.562    21021190.900   112528074.925 7       -10.526          45.875    21021200.140    87521875.521 8        -8.187          49.000    21021200.220    87521876.520 8        -8.187          49.312
G21  23413548.600   123039030.955 7      1498.922          43.375    23413546.880   123039030.960 5      1498.922          32.750    23413552.860    95874563.564 5      1167.991          33.437
G17  21731201.240   114198250.233 7      5198.805          47.062    21731200.040   114198250.233 7      5198.805          45.875    21731203.040    88985656.221 7      4051.017          45.750    21731203.540    88985662.218 8      4051.017          48.000
R18  20597506.200   109950898.486 7      2436.614          47.000    20597506.040   109950898.487 7      2436.614          46.937    20597515.240    85517393.150 8      1895.144          49.625    20597515.360    85517395.154 8      1895.144          49.875
> 2024 07 31 11 16 14.0000000  0 17
G04  21445922.960   112699088.630 7      5010.762          46.562    21445922.160   112699088.640 6      5010.762          37.687    21445927.160    87817471.502 6      3904.490          38.062    21445928.720    87817493.506 8      3904.490          49.250
G08  24638499.200   129476178.213 7      -485.858          42.375    24638498.160   129476178.215 6      -485.858          37.937    24638514.120   100890589.884 6      -378.591          38.062    24638515.300   100890593.886 7      -378.591          43.312
G06  24829610.040   130480465.067 6      5157.913          38.500    24829609.520   130480465.072 5      5157.913          35.812    24829619.440   101673142.027 5      4019.153          35.562    24829620.380   101673142.038 7      4019.153          43.500
G02  22323220.460   117309317.986 7      2104.564          45.187    22323218.100   117309317.993 6      2104.564          37.375    22323221.720    91409853.505 6      1639.920          37.000
G09  23074963.960   121259751.841 7      6395.582          44.375    23074963.220   121259751.851 7      6395.582          42.875    23074972.720    94488157.673 7      4983.571          42.625    23074973.040    94488160.679 7      4983.571          45.500
R05  21800785.400   116537690.909 7      6918.835          46.125    21800785.800   116537690.921 7      6918.835          46.062    21800797.500    90640476.108 7      5381.316          46.812    21800797.160    90640477.109 7      5381.316          46.687
R17  23550067.300   126021149.156 6       490.944          41.312    23550068.200   126021149.170 6       490.944          41.312    23550089.780    98016544.760 7       381.845          44.062    23550089.480    98016543.761 7       381.845          44.312
R04  19263884.080   103157226.450 8      3754.068          48.312    19263885.400   103157226.490 7      3754.068          46.750    19263893.600    80233433.827 8      2919.830          48.625    19263893.140    80233432.832 8      2919.830          48.812
R09  24118016.640   128788854.657 7       728.830          42.750    24118016.040   128788854.656 6       728.830          41.875    24118027.640   100169159.625 7       566.868          42.812    24118027.560   100169160.612 7       566.868          42.687
G19  23339641.540   122650648.334 7      6410.742          42.687    23339639.260   122650648.346 5      6410.742          31.562    23339643.740    95571955.829 5      4995.383          31.437
G22  23375284.680   122837948.946 7      2476.400          43.375    23375283.720   122837948.948 5      2476.400          30.687    23375288.100    95717896.472 5      1929.662          30.437
G03  20519795.300   107832246.302 8      1525.824          48.500    20519794.540   107832246.305 7      1525.824          47.500    20519799.500    84025176.536 7      1188.954          47.500    20519800.200    84025150.537 8      1188.954          48.750
G14  22841774.660   120034326.069 7      1181.476          44.312    22841773.520   120034326.087 5      1181.476          33.125    22841779.520    93533267.216 5       920.631          33.062    22841779.900    93533267.220 7       920.631          46.375
R03  21021192.120   112528085.640 7       -10.816          47.125    21021193.160   112528085.663 7       -10.816          45.687    21021202.160    87521883.871 8        -8.412          48.187    21021202.080    87521884.872 7        -8.412          47.687
G21  23413263.180   123037532.035 7      1498.999          44.312    23413261.580   123037532.048 5      1498.999          32.750    23413267.680    95873395.579 5      1168.051          32.937
G17  21730211.920   114193051.524 7      5198.675          46.750    21730210.820   114193051.531 7      5198.675          45.500    21730213.780    88981605.287 7      4050.916          45.562    21730214.160    88981611.284 7      4050.916          47.250
R18  20597050.040   109948461.931 7      2436.552          47.312    20597049.600   109948461.929 7      2436.552          47.562    20597058.780    85515498.051 8      1895.096          48.187    20597059.000    85515500.053 8      1895.096          48.500
> 2024 07 31 11 16 15.0000000  0 17
G04  21444969.340   112694077.849 7      5010.718          46.375    21444968.700   112694077.859 6      5010.718          37.812    21444973.780    87813567.004 6      3904.456          37.937    21444975.220    87813589.009 8      3904.456          50.937
G08  24638591.560   129476663.902 7      -485.622          42.062    24638590.520   129476663.901 6      -485.622          38.000    24638606.620   100890968.336 6      -378.406          37.812    24638607.720   100890972.331 7      -378.406          43.312
G06  24828628.680   130475306.829 6      5158.276          39.125    24828628.000   130475306.834 5      5158.276          35.812    24828637.900   101669122.627 5      4019.436          35.562    24828638.900   101669122.625 7      4019.436          43.500
G02  22322819.760   117307213.181 7      2104.848          45.812    22322817.560   117307213.189 6      2104.848          38.062    22322821.120    91408213.399 6      1640.141          37.687
G09  23073746.580   121253356.061 7      6395.801          42.937    23073745.820   121253356.071 7      6395.801          43.312    23073755.740    94483173.961 7      4983.741          43.187    23073756.140    94483176.963 7      4983.741          45.875
R05  21799490.980   116530772.008 7      6918.823          46.687    21799490.880   116530772.020 7      6918.823          46.062    21799502.880    90635094.753 7      5381.307          47.312    21799503.040    90635095.750 7      5381.307          47.687
R17  23549976.100   126020657.966 6       491.136          41.312    23549975.820   126020657.981 6       491.136          40.562    23549998.140    98016162.713 7       381.995          45.000    23549997.560    98016161.715 7       381.995          45.125
R04  19263183.220   103153472.491 7      3753.656          47.937    19263184.160   103153472.527 7      3753.656          47.500    19263192.680    80230514.085 8      2919.510          50.562    19263192.120    80230513.090 8      2919.510          50.875
R09  24117880.480   128788125.614 7       729.037          42.375    24117879.380   128788125.612 6       729.037          41.812    24117891.180   100168592.597 7       567.029          42.250    24117891.080   100168593.586 7       567.029          43.000
G19  23338421.480   122644237.259 7      6411.014          42.375    23338419.280   122644237.269 5      6411.014          31.562    23338423.740    95566960.197 5      4995.595          31.437
G22  23374813.600   122835472.613 7      2476.181          43.437    23374812.640   122835472.618 5      2476.181          30.562    23374816.800    95715966.864 5      1929.491          30.437
G03  20519504.880   107830720.287 7      1525.966          47.250    20519504.240   107830720.290 8      1525.966          48.562    20519509.100    84023987.436 8      1189.064          48.937    20519509.920    84023961.438 8      1189.064          49.625
G14  22841550.000   120033144.432 7      1181.601          44.437    22841548.720   120033144.450 5      1181.601          33.125    22841554.640    93532346.462 5       920.728          33.062    22841555.360    93532346.458 7       920.728          47.187
R03  21021194.600   112528096.464 7       -11.079          46.937    21021195.120   112528096.484 7       -11.079          45.562    21021204.120    87521892.296 8        -8.617          49.250    21021204.400    87521893.297 8        -8.617          48.875
G21  23412977.960   123036032.726 7      1499.409          44.562    23412976.400   123036032.736 5      1499.409          33.375    23412982.520    95872227.282 5      1168.371          32.937
G17  21729222.560   114187852.670 7      5198.803          46.125    21729221.460   114187852.672 7      5198.803          46.000    21729224.500    88977554.234 7      4051.015          46.062    21729224.720    88977560.235 7      4051.015          47.750
R18  20596593.400   109946025.287 7      2436.569          47.687    20596593.180   109946025.290 7      2436.569          46.875    20596602.340    85513602.890 8      1895.110          49.875    20596602.340    85513604.892 8      1895.110          50.250
> 2024 07 31 11 16 16.0000000  0 17
G04  21444015.920   112689067.378 7      5010.259          45.750    21444015.280   112689067.390 6      5010.259          38.687    21444020.320    87809662.746 6      3904.098          38.437    21444021.680    87809684.748 8      3904.098          50.812
G08  24638683.960   129477149.506 6      -485.619          41.687    24638682.860   129477149.506 6      -485.619          37.750    24638698.960   100891346.719 6      -378.404          38.000    24638699.960   100891350.718 7      -378.404          43.437
G06  24827647.020   130470148.347 6      5158.376          38.875    24827646.340   130470148.347 5      5158.376          35.562    24827656.300   101665103.031 5      4019.514          35.250    24827657.300   101665103.035 7      4019.514          43.812
G02  22322419.320   117305108.340 7      2104.891          45.312    22322416.960   117305108.347 6      2104.891          37.937    22322420.540    91406573.265 6      1640.175          38.062
G09  23072529.440   121246960.234 7      6395.876          43.250    23072528.700   121246960.249 7      6395.876          43.375    23072538.700    94478190.216 7      4983.799          43.062    23072539.660    94478193.213 7      4983.799          46.187
R05  21798196.520   116523853.332 7      6918.560          45.187    21798196.820   116523853.341 7      6918.560          45.812    21798208.340    90629713.565 7      5381.102          47.250    21798208.420    90629714.561 7      5381.102          47.437
R17  23549883.840   126020166.897 6       490.832          40.875    23549883.960   126020166.931 6       490.832          40.562    23549905.960    98015780.766 7       381.758          44.375    23549905.800    98015779.768 7       381.758          44.437
R04  19262482.440   103149719.262 8      3752.827          48.812    19262483.240   103149719.296 7      3752.827          47.187    19262491.680    80227594.911 8      2918.865          50.687    19262491.280    80227593.914 8      2918.865          50.875
R09  24117743.640   128787396.682 7       728.886          42.562    24117742.700   128787396.677 6       728.886          41.812    24117754.720   100168025.644 7       566.911          43.000    24117754.460   100168026.637 7       566.911          42.750
G19  23337201.460   122637826.150 7      6411.102          42.625    23337199.280   122637826.157 5      6411.102          30.875    23337203.600    95561964.534 5      4995.664          30.625
G22  23374342.560   122832996.561 7      2475.848          44.437    23374341.420   122832996.569 5      2475.848          30.562    23374345.600    95714037.477 5      1929.232          30.437
G03  20519214.740   107829194.459 7      1525.709          46.750    20519213.860   107829194.461 8      1525.709          48.687    20519218.620    84022798.485 8      1188.864          48.812    20519219.300    84022772.485 8      1188.864          50.062
G14  22841325.140   120031962.987 7      1181.435          44.500    22841323.900   120031963.005 5      1181.435          33.062    22841329.660    93531425.853 5       920.599          32.937    22841330.340    93531425.853 7       920.599          47.250
R03  21021196.380   112528107.668 7       -11.478          46.250    21021197.340   112528107.691 7       -11.478          45.812    21021206.040    87521901.010 8        -8.928          49.250    21021206.140    87521902.012 8        -8.928          49.750
G21  23412692.400   123034533.317 7      1499.473          44.437    23412691.040   123034533.325 5      1499.473          33.375    23412697.160    95871058.909 5      1168.420          33.187
G17  21728233.360   114182653.976 7      5198.589          46.250    21728232.280   114182653.984 7      5198.589          46.250    21728235.160    88973503.312 7      4050.849          46.187    21728235.700    88973509.315 8      4050.849          48.312
R18  20596136.900   109943588.878 7      2436.210          47.625    20596136.580   109943588.879 7      2436.210          47.375    20596145.760    85511707.903 8      1894.830          50.312    20596145.960    85511709.907 8      1894.830          50.625
> 2024 07 31 11 16 17.0000000  0 17
G04  21443062.380   112684056.675 7      5010.509          45.812    21443061.720   112684056.685 6      5010.509          38.562    21443066.820    87805758.307 6      3904.292          38.250    21443068.240    87805780.311 8      3904.292          50.875
G08  24638775.960   129477634.517 6      -484.961          41.625    24638775.180   129477634.519 6      -484.961          38.125    24638791.220   100891724.648 6      -377.892          37.937    24638792.480   100891728.649 7      -377.892          43.312
G06  24826665.320   130464989.087 6      5159.215          38.687    24826664.540   130464989.092 5      5159.215          35.812    24826674.580   101661082.841 5      4020.167          35.812    24826675.840   101661082.843 7      4020.167          43.937
G02  22322018.640   117303002.989 7      2105.287          45.250    22322016.360   117303002.996 6      2105.287          37.875    22322020.040    91404932.736 6      1640.483          37.687
G09  23071312.400   121240563.915 7      6396.224          43.437    23071311.360   121240563.920 7      6396.224          43.250    23071321.500    94473206.075 7      4984.071          43.187    23071322.500    94473209.071 7      4984.071          46.312
R05  21796902.300   116516934.372 7      6918.826          47.312    21796902.300   116516934.379 7      6918.826          45.937    21796914.220    90624332.162 7      5381.309          47.750    21796913.960    90624333.158 7      5381.309          47.125
R17  23549792.160   126019675.426 6       491.438          40.875    23549792.360   126019675.449 6       491.438          40.562    23549814.060    98015398.493 7       382.230          45.312    23549813.800    98015397.498 7       382.230          44.937
R04  19261781.140   103145966.205 7      3752.645          47.937    19261782.080   103145966.246 7      3752.645          46.875    19261790.900    80224675.877 8      2918.724          50.937    19261790.360    80224674.882 8      2918.724          51.125
R09  24117607.280   128786667.293 7       729.259          42.562    24117606.220   128786667.305 6       729.259          41.625    24117617.940   100167458.357 7       567.201          42.750    24117617.900   100167459.352 7       567.201          43.312
G19  23335981.420   122631414.544 7      6411.546          42.875    23335979.260   122631414.549 5      6411.546          30.875    23335983.640    95556968.485 5      4996.010          30.625
G22  23373871.300   122830520.276 7      2476.165          44.187    23373870.120   122830520.283 5      2476.165          30.562    23373874.460    95712107.904 5      1929.479          30.437
G03  20518924.240   107827668.294 7      1526.069          47.062    20518923.400   107827668.294 8      1526.069          49.062    20518928.260    84021609.265 8      1189.145          49.250    20518928.880    84021583.266 8      1189.145          49.625
G14  22841100.340   120030781.229 7      1181.572          44.750    22841098.860   120030781.245 5      1181.572          33.062    22841104.860    93530505.003 5       920.706          32.937    22841105.380    93530505.007 7       920.706          47.000
R03  21021198.480   112528118.727 7       -11.256          47.000    21021199.420   112528118.753 7       -11.256          45.375    21021208.040    87521909.616 8        -8.755          49.750    21021208.160    87521910.615 8        -8.755          48.875
G21  23412407.060   123033033.325 7      1500.040          44.187    23412405.720   123033033.335 5      1500.040          33.062    23412411.720    95869890.086 5      1168.862          33.187
G17  21727243.980   114177454.949 7      5198.848          46.687    21727242.860   114177454.949 7      5198.848          46.250    21727245.840    88969452.124 7      4051.050          45.937    21727246.260    88969458.123 8      4051.050          48.312
R18  20595680.540   109941152.162 7      2436.598          46.750    20595680.120   109941152.168 7      2436.598          47.562    20595689.200    85509812.688 8      1895.132          50.187    20595689.620    85509814.688 8      1895.132          50.062
> 2024 07 31 11 16 18.0000000  0 17
G04  21442108.940   112679046.020 7      5010.697          46.687    21442108.240   112679046.030 6      5010.697          38.125    21442113.420    87801853.910 6      3904.439          38.125    21442114.640    87801875.914 8      3904.439          50.562
G08  24638868.540   129478119.247 7      -484.448          42.062    24638867.520   129478119.249 6      -484.448          37.812    24638883.500   100892102.355 6      -377.492          37.875    24638884.160   100892106.350 7      -377.492          43.750
G06  24825683.520   130459829.375 6      5159.857          38.750    24825682.780   130459829.378 5      5159.857          35.812    24825692.520   101657062.292 5      4020.668          35.812    24825693.880   101657062.305 7      4020.668          43.812
G02  22321618.020   117300897.338 7      2105.807          45.687    22321615.820   117300897.346 6      2105.807          37.812    22321619.300    91403291.971 6      1640.888          38.000
G09  23070094.860   121234167.270 7      6396.791          43.250    23070094.060   121234167.272 7      6396.791          42.937    23070104.240    94468221.689 7      4984.512          42.687    23070105.080    94468224.691 7      4984.512          45.812
R05  21795607.760   116510015.396 7      6919.031          46.500    21795607.960   116510015.406 7      6919.031          46.250    21795619.980    90618950.751 7      5381.468          47.500    21795619.720    90618951.743 7      5381.468          47.437
R17  23549700.380   126019183.884 6       491.555          40.875    23549700.240   126019183.920 6       491.555          40.562    23549722.480    98015016.182 7       382.320          44.312    23549721.800    98015015.192 7       382.320          45.187
R04  19261080.500   103142213.618 7      3752.437          47.812    19261081.280   103142213.655 7      3752.437          47.125    19261090.240    80221757.201 8      2918.562          50.500    19261089.740    80221756.204 8      2918.562          50.687
R09  24117470.460   128785937.750 6       729.760          41.812    24117469.540   128785937.757 6       729.760          41.625    24117481.220   100166890.936 7       567.591          43.125    24117481.300   100166891.936 7       567.591          43.312
G19  23334761.260   122625002.662 7      6412.070          42.500    23334759.100   122625002.664 5      6412.070          30.875    23334763.420    95551972.220 5      4996.418          30.625
G22  23373400.000   122828044.071 7      2476.268          43.500    23373398.900   122828044.076 5      2476.268          30.312    23373403.260    95710178.398 5      1929.560          30.562
G03  20518633.880   107826142.072 7      1526.311          46.687    20518632.980   107826142.071 8      1526.311          48.937    20518637.880    84020420.005 8      1189.334          49.250    20518638.540    84020394.005 8      1189.334          49.437
G14  22840875.280   120029599.380 7      1181.969          44.625    22840873.940   120029599.395 5      1181.969          33.312    22840880.000    93529584.079 5       921.015          33.187    22840880.480    93529584.084 7       921.015          47.437
R03  21021200.600   112528129.902 7       -11.100          47.437    21021201.120   112528129.930 7       -11.100          45.500    21021210.220    87521918.314 8        -8.633          49.312    21021210.380    87521919.315 8        -8.633          48.625
G21  23412121.640   123031533.018 7      1500.501          44.250    23412120.220   123031533.023 5      1500.501          33.062    23412126.120    95868721.018 5      1169.221          32.750
G17  21726254.600   114172255.814 7      5199.286          46.437    21726253.440   114172255.814 7      5199.286          46.187    21726256.460    88965400.856 7      4051.392          46.312    21726256.740    88965406.853 8      4051.392          48.187
R18  20595223.940   109938715.438 7      2436.844          47.500    20595223.860   109938715.444 7      2436.844          47.500    20595232.700    85507917.462 8      1895.323          50.062    20595232.860    85507919.460 8      1895.323          50.312
> 2024 07 31 11 16 19.0000000  0 17
G04  21441155.380   112674035.493 7      5010.391          46.187    21441154.720   112674035.503 6      5010.391          38.187    21441159.980    87797949.612 6      3904.201          38.125    21441161.080    87797971.612 8      3904.201          51.062
G08  24638960.840   129478603.724 7      -484.348          42.125    24638959.740   129478603.721 6      -484.348          37.812    24638975.620   100892479.862 6      -377.414          37.875    24638976.540   100892483.863 7      -377.414          43.312
G06  24824701.660   130454669.199 6      5160.501          38.750    24824700.760   130454669.196 5      5160.501          35.687    24824710.600   101653041.379 5      4021.169          35.687    24824712.120   101653041.380 7      4021.169          43.687
G02  22321217.200   117298791.490 7      2105.867          46.125    22321214.940   117298791.495 6      2105.867          37.562    22321218.520    91401651.053 6      1640.935          37.625
G09  23068877.680   121227770.429 7      6396.914          43.812    23068876.900   121227770.431 7      6396.914          43.250    23068886.920    94463237.147 7      4984.608          42.812    23068887.600    94463240.145 7      4984.608          45.875
R05  21794313.560   116503096.437 7      6918.994          46.625    21794313.660   116503096.443 7      6918.994          45.875    21794325.920    90613569.346 7      5381.440          47.250    21794324.940    90613570.341 7      5381.440          47.312
R17  23549608.560   126018692.304 6       491.460          40.000    23549609.800   126018692.335 6       491.460          39.562    23549630.760    98014633.825 7       382.247          44.812    23549630.500    98014632.831 7       382.247          44.312
R04  19260379.920   103138461.522 8      3751.822          48.062    19260380.500   103138461.569 7      3751.822          47.062    19260389.460    80218838.919 8      2918.084          50.312    19260389.160    80218837.917 8      2918.084          51.250
R09  24117333.660   128785208.127 6       729.772          41.375    24117332.900   128785208.120 6       729.772          41.500    24117344.760   100166323.445 7       567.600          43.125    24117344.720   100166324.445 7       567.600          43.750
G19  23333541.460   122618590.581 6      6412.030          41.562    23333538.880   122618590.581 5      6412.030          30.750    23333543.400    95546975.799 5      4996.387          30.625
G22  23372928.600   122825567.983 7      2475.959          44.562    23372927.800   122825567.988 5      2475.959          30.312    23372932.140    95708248.978 5      1929.318          30.562
G03  20518343.380   107824615.823 8      1526.279          48.125    20518342.560   107824615.825 8      1526.279          48.562    20518347.420    84019230.725 8      1189.308          48.500    20518347.940    84019204.727 8      1189.308          49.312
G14  22840650.180   120028417.543 7      1181.882          44.312    22840649.020   120028417.559 5      1181.882          33.312    22840655.260    93528663.168 5       920.947          33.187    22840655.700    93528663.172 7       920.947          47.437
R03  21021202.800   112528141.272 7       -11.497          47.187    21021203.520   112528141.300 7       -11.497          45.937    21021212.280    87521927.159 8        -8.942          49.187    21021212.560    87521928.156 8        -8.942          49.125
G21  23411835.720   123030032.403 7      1500.769          44.500    23411834.740   123030032.411 5      1500.769          32.937    23411840.620    95867551.710 5      1169.431          32.750
G17  21725265.140   114167056.671 7      5199.184          46.125    21725264.240   114167056.671 7      5199.184          46.750    21725267.060    88961349.584 7      4051.312          46.250    21725267.400    88961355.583 8      4051.312          48.312
R18  20594767.460   109936278.762 7      2436.663          47.062    20594767.240   109936278.763 7      2436.663          47.000    20594776.200    85506022.272 8      1895.182          50.000    20594776.500    85506024.272 8      1895.182          49.812
> 2024 07 31 11 16 20.0000000  0 17
G04  21440202.000   112669025.114 7      5010.303          45.875    21440201.320   112669025.121 6      5010.303          38.562    21440206.480    87794045.424 6      3904.132          38.250    21440207.640    87794067.422 8      3904.132          51.062
G08  24639052.920   129479087.992 6      -484.165          41.750    24639051.960   129479087.994 6      -484.165          37.562    24639067.780   100892857.211 6      -377.271          37.500    24639069.000   100892861.204 7      -377.271          43.437
G06  24823719.520   130449508.699 6      5160.819          38.750    24823718.820   130449508.688 5      5160.819          35.750    24823728.740   101649020.210 5      4021.418          35.375    24823729.720   101649020.207 7      4021.418          43.625
G02  22320816.480   117296685.456 7      2106.151          45.875    22320814.260   117296685.461 6      2106.151          37.625    22320817.940    91400009.989 6      1641.156          37.812
G09  23067660.600   121221373.421 7      6397.119          43.062    23067659.680   121221373.429 7      6397.119          43.500    23067669.720    94458252.481 7      4984.768          43.312    23067670.420    94458255.484 7      4984.768          46.000
R05  21793019.180   116496177.584 7      6918.802          46.312    21793019.560   116496177.590 7      6918.802          46.187    21793031.760    90608188.029 7      5381.291          47.750    21793030.760    90608189.019 7      5381.291          47.625
R17  23549516.780   126018200.718 6       491.499          40.000    23549517.760   126018200.754 6       491.499          39.562    23549538.500    98014251.470 7       382.277          44.375    23549538.440    98014250.474 7       382.277          44.562
R04  19259679.240   103134709.991 7      3751.299          47.375    19259679.820   103134710.033 7      3751.299          47.437    19259688.780    80215921.063 8      2917.677          50.812    19259688.600    80215920.068 8      2917.677          51.062
R09  24117197.240   128784478.448 6       729.822          41.375    24117196.280   128784478.449 6       729.822          41.500    24117208.220   100165755.925 7       567.639          42.937    24117208.180   100165756.916 7       567.639          43.937
G19  23332320.840   122612178.321 7      6412.366          42.062    23332318.660   122612178.321 5      6412.366          30.750    23332323.120    95541979.241 5      4996.649          30.937
G22  23372457.360   122823092.026 7      2475.965          44.312    23372456.600   122823092.028 5      2475.965          30.312    23372461.040    95706319.665 5      1929.323          30.562
G03  20518052.840   107823089.621 8      1526.313          48.312    20518052.140   107823089.624 8      1526.313          48.375    20518057.020    84018041.479 8      1189.335          48.812    20518057.780    84018015.483 8      1189.335          49.625
G14  22840425.300   120027235.757 7      1181.793          44.500    22840424.180   120027235.772 5      1181.793          33.062    22840430.160    93527742.295 5       920.878          32.937    22840430.600    93527742.297 7       920.878          46.875
R03  21021204.680   112528152.845 7       -11.695          47.437    21021205.620   112528152.868 7       -11.695          46.500    21021214.360    87521936.158 8        -9.096          49.125    21021214.500    87521937.160 8        -9.096          49.250
G21  23411550.200   123028531.591 7      1501.018          43.812    23411549.200   123028531.599 5      1501.018          32.937    23411554.980    95866382.248 5      1169.624          33.187
G17  21724275.700   114161857.560 7      5199.104          46.750    21724274.800   114161857.557 7      5199.104          46.500    21724277.660    88957298.331 7      4051.250          46.375    21724277.960    88957304.332 8      4051.250          48.250
R18  20594311.240   109933842.188 7      2436.555          47.750    20594310.580   109933842.189 8      2436.555          48.250    20594319.660    85504127.161 8      1895.098          50.062    20594319.960    85504129.163 8      1895.098          50.000
> 2024 07 31 11 16 21.0000000  0 17
G04  21439248.540   112664014.742 7      5010.321          46.625    21439247.960   112664014.747 6      5010.321          38.312    21439253.060    87790141.245 6      3904.146          37.687    21439254.400    87790163.247 8      3904.146          50.937
G08  24639144.780   129479571.920 6      -483.891          41.687    24639143.900   129479571.925 6      -483.891          37.562    24639159.740   100893234.296 6      -377.058          37.625    24639160.940   100893238.291 7      -377.058          43.437
G06  24822737.620   130444347.670 6      5161.097          38.500    24822736.700   130444347.667 5      5161.097          35.812    24822746.580   101644998.640 5      4021.634          35.375    24822747.460   101644998.645 7      4021.634          43.687
G02  22320415.480   117294579.117 7      2106.409          45.750    22320413.440   117294579.122 6      2106.409          37.625    22320417.120    91398368.692 6      1641.358          37.500
G09  23066443.440   121214976.104 7      6397.369          43.312    23066442.320   121214976.117 7      6397.369          43.375    23066452.400    94453267.576 7      4984.963          43.187    23066452.940    94453270.580 7      4984.963          45.750
R05  21791724.800   116489258.627 7      6918.965          46.562    21791725.080   116489258.631 7      6918.965          46.687    21791737.400    90602806.626 7      5381.417          47.750    21791736.520    90602807.618 7      5381.417          47.812
R17  23549424.880   126017708.972 6       491.625          40.000    23549425.820   126017709.016 6       491.625          39.562    23549446.540    98013869.001 7       382.375          44.625    23549446.540    98013868.001 7       382.375          44.500
R04  19258978.940   103130958.869 8      3750.867          48.875    19258979.360   103130958.906 7      3750.867          47.500    19258988.520    80213003.526 8      2917.341          50.687    19258988.260    80213002.531 8      2917.341          51.062
R09  24117060.660   128783748.576 7       729.875          42.625    24117059.760   128783748.574 6       729.875          41.812    24117071.180   100165188.255 7       567.681          42.625    24117071.260   100165189.257 7       567.681          43.062
G19  23331100.800   122605765.788 7      6412.532          42.312    23331098.340   122605765.793 5      6412.532          30.750    23331102.760    95536982.474 5      4996.778          30.937
G22  23371986.500   122820616.108 7      2475.826          44.500    23371985.300   122820616.110 5      2475.826          30.562    23371989.800    95704390.389 5      1929.215          30.625
G03  20517762.360   107821563.336 8      1526.230          48.562    20517761.600   107821563.338 8      1526.230          48.687    20517766.560    84016852.169 8      1189.270          48.562    20517767.460    84016826.171 8      1189.270          49.000
G14  22840200.360   120026053.868 7      1181.853          43.937    22840199.460   120026053.878 5      1181.853          33.062    22840205.200    93526821.339 5       920.925          32.937    22840205.260    93526821.341 7       920.925          46.750
R03  21021206.840   112528164.475 7       -11.710          47.500    21021207.740   112528164.506 7       -11.710          46.125    21021216.600    87521945.212 8        -9.108          48.937    21021216.640    87521946.213 8        -9.108          48.875
G21  23411264.500   123027030.401 7      1501.352          44.687    23411263.500   123027030.414 5      1501.352          33.125    23411269.160    95865212.497 5      1169.885          33.187
G17  21723285.880   114156658.304 7      5199.249          46.312    21723285.400   114156658.306 7      5199.249          46.187    21723288.420    88953246.971 7      4051.363          45.875    21723288.740    88953252.970 8      4051.363          48.187
R18  20593854.760   109931405.552 7      2436.597          47.187    20593854.240   109931405.556 7      2436.597          47.750    20593863.300    85502232.004 8      1895.131          49.625    20593863.320    85502234.008 8      1895.131          49.562
> 2024 07 31 11 16 22.0000000  0 17
G04  21438295.220   112659004.578 7      5010.093          46.187    21438294.500   112659004.591 6      5010.093          38.437    21438299.760    87786237.233 6      3903.968          38.437    21438301.020    87786259.233 8      3903.968          50.937
G08  24639236.940   129480055.688 6      -483.722          41.625    24639236.000   129480055.688 6      -483.722          37.937    24639251.740   100893611.248 6      -376.926          37.750    24639253.140   100893615.245 7      -376.926          43.312
G06  24821755.220   130439186.303 6      5161.426          39.062    24821754.480   130439186.300 5      5161.426          35.687    24821764.520   101640976.804 5      4021.890          35.250    24821765.460   101640976.810 7      4021.890          43.750
G02  22320015.040   117292472.657 7      2106.508          46.375    22320012.540   117292472.667 6      2106.508          38.125    22320016.240    91396727.299 6      1641.435          38.000
G09  23065226.020   121208578.692 7      6397.405          44.062    23065225.100   121208578.700 7      6397.405          43.562    23065235.020    94448282.588 7      4984.991          43.062    23065235.520    94448285.588 7      4984.991          45.812
R05  21790430.580   116482339.814 8      6918.752          48.312    21790431.060   116482339.815 7      6918.752          47.500    21790443.260    90597425.336 7      5381.252          47.625    21790442.320    90597426.330 7      5381.252          47.625
R17  23549332.720   126017217.272 6       491.645          40.625    23549334.300   126017217.313 6       491.645          39.875    23549354.940    98013486.551 7       382.391          44.687    23549354.500    98013485.550 7       382.391          44.562
R04  19258278.480   103127208.377 8      3750.114          48.562    19258278.920   103127208.416 8      3750.114          48.250    19258288.000    80210086.483 8      2916.756          50.687    19258287.900    80210085.492 8      2916.756          51.062
R09  24116924.060   128783018.694 7       729.984          43.625    24116923.040   128783018.689 7       729.984          42.625    24116934.820   100164620.569 7       567.765          42.625    24116934.760   100164621.563 7       567.765          43.625
G19  23329880.500   122599353.128 7      6412.723          42.750    23329878.220   122599353.133 5      6412.723          30.812    23329882.380    95531985.603 5      4996.927          30.937
G22  23371515.380   122818140.384 7      2475.685          43.875    23371514.200   122818140.389 5      2475.685          30.562    23371518.640    95702461.254 5      1929.105          30.625
G03  20517472.060   107820037.108 8      1526.171          48.750    20517471.340   107820037.113 8      1526.171          49.437    20517476.080    84015662.907 8      1189.224          49.187    20517477.060    84015636.907 8      1189.224          49.750
G14  22839975.480   120024872.052 7      1181.826          44.125    22839974.680   120024872.062 5      1181.826          33.000    22839980.240    93525900.450 5       920.903          33.187    22839980.260    93525900.452 7       920.903          46.375
R03  21021209.100   112528176.447 8       -12.197          48.437    21021210.060   112528176.475 7       -12.197          46.687    21021218.760    87521954.528 8        -9.486          49.562    21021218.860    87521955.527 8        -9.486          49.000
G21  23410978.940   123025529.069 7      1501.432          44.750    23410977.660   123025529.087 5      1501.432          33.125    23410983.500    95864042.630 5      1169.947          33.250
G17  21722296.780   114151459.142 7      5199.152          47.125    21722296.080   114151459.137 7      5199.152          46.625    21722299.060    88949195.678 7      4051.287          46.000    21722299.520    88949201.677 7      4051.287          47.937
R18  20593398.400   109928969.047 8      2436.423          48.875    20593397.780   109928969.045 8      2436.423          48.250    20593406.820    85500336.942 8      1894.996          49.625    20593406.860    85500338.948 8      1894.996          49.812
> 2024 07 31 11 16 23.0000000  0 17
G04  21437341.780   112653994.496 7      5010.151          45.312    21437341.040   112653994.506 6      5010.151          39.000    21437346.280    87782333.281 6      3904.014          38.437    21437347.680    87782355.279 8      3904.014          50.937
G08  24639328.620   129480539.143 7      -483.184          42.000    24639328.120   129480539.143 6      -483.184          37.875    24639343.700   100893987.960 6      -376.507          37.750    24639345.060   100893991.951 7      -376.507          43.250
G06  24820772.820   130434024.453 6      5162.141          38.875    24820772.240   130434024.452 5      5162.141          35.687    24820782.220   101636954.591 5      4022.448          35.250    24820782.940   101636954.597 7      4022.448          43.812
G02  22319614.100   117290365.953 7      2106.919          46.250    22319611.680   117290365.963 6      2106.919          37.937    22319615.280    91395085.717 6      1641.755          37.875
G09  23064008.520   121202180.994 7      6397.906          43.687    23064007.600   121202181.004 7      6397.906          43.937    23064017.560    94443297.385 7      4985.381          43.437    23064018.000    94443300.385 7      4985.381          45.812
R05  21789136.580   116475420.975 8      6918.919          48.500    21789136.840   116475420.979 7      6918.919          47.125    21789148.920    90592044.029 7      5381.381          47.562    21789148.280    90592045.025 8      5381.381          48.062
R17  23549240.940   126016725.472 6       491.721          40.625    23549242.060   126016725.508 6       491.721          39.875    23549263.060    98013104.036 7       382.449          44.562    23549262.540    98013103.031 7       382.449          44.875
R04  19257577.860   103123458.340 8      3749.925          48.687    19257578.640   103123458.376 8      3749.925          48.187    19257587.720    80207169.793 8      2916.608          50.562    19257587.520    80207168.802 8      2916.608          51.187
R09  24116787.180   128782288.726 7       730.034          43.625    24116786.140   128782288.724 7       730.034          42.625    24116798.100   100164052.821 7       567.804          42.625    24116797.740   100164053.814 7       567.804          43.437
G19  23328659.680   122592940.219 7      6413.257          43.312    23328657.820   122592940.224 5      6413.257          30.812    23328662.120    95526988.537 5      4997.343          30.875
G22  23371044.180   122815664.745 7      2475.678          44.187    23371043.100   122815664.753 5      2475.678          30.562    23371047.560    95700532.188 5      1929.100          30.625
G03  20517181.580   107818510.838 8      1526.380          48.500    20517180.820   107818510.840 8      1526.380          50.062    20517185.640    84014473.606 8      1189.387          49.750    20517186.360    84014447.606 8      1189.387          50.062
G14  22839750.480   120023690.211 7      1181.933          44.437    22839749.760   120023690.223 5      1181.933          33.062    22839755.400    93524979.534 5       920.987          33.187    22839755.880    93524979.538 7       920.987          47.125
R03  21021211.960   112528188.558 8       -12.090          48.000    21021212.260   112528188.581 7       -12.090          47.125    21021221.240    87521963.946 8        -9.403          49.125    21021221.480    87521964.945 8        -9.403          49.437
G21  23410693.180   123024027.419 7      1501.869          43.750    23410691.800   123024027.426 5      1501.869          33.187    23410697.580    95862872.513 5      1170.287          33.250
G17  21721307.480   114146259.894 7      5199.391          46.750    21721306.660   114146259.897 7      5199.391          46.750    21721309.580    88945144.324 7      4051.473          46.625    21721309.880    88945150.325 7      4051.473          47.875
R18  20592941.980   109926532.515 8      2436.683          48.750    20592941.320   109926532.516 7      2436.683          47.937    20592950.320    85498441.868 8      1895.198          49.937    20592950.500    85498443.874 8      1895.198          50.000
> 2024 07 31 11 16 24.0000000  0 17
G04  21436388.320   112648984.298 7      5010.240          45.500    21436387.560   112648984.308 6      5010.240          38.562    21436392.900    87778429.237 6      3904.083          37.937    21436394.360    87778451.232 8      3904.083          51.187
G08  24639420.600   129481022.157 7      -482.905          42.125    24639420.020   129481022.160 6      -482.905          37.437    24639435.520   100894364.331 6      -376.290          37.375    24639436.980   100894368.327 7      -376.290          43.125
G06  24819789.980   130428862.001 6      5162.702          38.312    24819789.740   130428861.995 5      5162.702          35.250    24819799.880   101632931.901 5      4022.884          35.000    24819800.260   101632931.907 7      4022.884          43.437
G02  22319213.040   117288258.810 7      2107.287          45.687    22319210.620   117288258.817 6      2107.287          37.875    22319214.320    91393443.786 6      1642.042          37.562
G09  23062791.080   121195782.878 7      6398.267          44.187    23062790.360   121195782.885 7      6398.267          43.312    23062799.900    94438311.847 7      4985.663          43.250    23062800.580    94438314.852 7      4985.663          45.625
R05  21787842.160   116468501.940 7      6919.010          46.250    21787842.080   116468501.941 7      6919.010          46.250    21787854.520    90586662.561 7      5381.452          47.437    21787853.740    90586663.560 7      5381.452          47.812
R17  23549149.020   126016233.402 6       492.210          40.625    23549150.020   126016233.425 6       492.210          39.875    23549170.940    98012721.288 7       382.830          44.500    23549170.620    98012720.285 7       382.830          44.625
R04  19256877.300   103119708.629 7      3749.544          47.062    19256878.240   103119708.668 7      3749.544          46.437    19256887.560    80204253.358 8      2916.312          50.562    19256887.160    80204252.365 8      2916.312          51.375
R09  24116650.560   128781558.379 7       730.425          42.687    24116649.380   128781558.372 7       730.425          42.437    24116661.340   100163484.771 7       568.108          42.750    24116661.180   100163485.773 7       568.108          43.562
G19  23327439.400   122586526.911 7      6413.529          43.000    23327437.320   122586526.919 5      6413.529          30.812    23327441.740    95521991.164 5      4997.555          30.875
G22  23370573.080   122813189.016 7      2475.596          44.500    23370572.080   122813189.024 5      2475.596          30.312    23370576.600    95698603.051 5      1929.036          30.625
G03  20516891.080   107816984.347 7      1526.595          47.312    20516890.360   107816984.347 8      1526.595          48.750    20516895.240    84013284.135 8      1189.554          49.125    20516896.060    84013258.133 8      1189.554          50.000
G14  22839525.360   120022508.132 7      1182.145          45.000    22839524.720   120022508.143 5      1182.145          33.062    22839530.580    93524058.436 5       921.152          32.937    22839530.900    93524058.436 7       921.152          46.937
R03  21021213.900   112528200.672 7       -12.171          46.875    21021214.360   112528200.701 7       -12.171          46.000    21021223.540    87521973.366 8        -9.466          49.312    21021223.640    87521974.373 8        -9.466          49.250
G21  23410407.440   123022525.264 7      1502.402          44.187    23410405.860   123022525.269 5      1502.402          33.187    23410411.900    95861701.999 5      1170.703          33.125
G17  21720317.900   114141060.431 7      5199.461          46.687    21720317.240   114141060.436 7      5199.461          46.375    21720320.260    88941092.804 7      4051.528          46.062    21720320.740    88941098.804 8      4051.528          48.250
R18  20592485.860   109924095.829 7      2436.681          46.937    20592484.800   109924095.840 7      2436.681          47.187    20592493.960    85496546.680 8      1895.196          49.375    20592494.420    85496548.686 8      1895.196          50.312
> 2024 07 31 11 16 25.0000000  0 17
G04  21435434.840   112643974.218 7      5009.937          46.000    21435434.160   112643974.228 6      5009.937          38.312    21435439.400    87774525.283 6      3903.847          38.125    21435440.740    87774547.286 8      3903.847          51.000
G08  24639512.660   129481504.887 6      -482.703          41.687    24639511.840   129481504.890 6      -482.703          37.562    24639527.520   100894740.480 6      -376.132          37.562    24639528.860   100894744.487 7      -376.132          43.375
G06  24818807.820   130423699.099 6      5163.061          38.312    24818807.260   130423699.096 5      5163.061          35.312    24818817.340   101628908.869 5      4023.165          34.937    24818817.760   101628908.881 7      4023.165          43.437
G02  22318811.740   117286151.462 7      2107.323          44.937    22318809.660   117286151.472 6      2107.323          37.687    22318813.300    91391801.698 6      1642.070          37.500
G09  23061573.540   121189384.578 7      6398.281          43.625    23061572.860   121189384.583 7      6398.281          43.000    23061582.340    94433326.164 7      4985.673          42.812    23061582.940    94433329.168 7      4985.673          45.562
R05  21786547.600   116461582.916 7      6918.944          47.250    21786548.160   116461582.918 7      6918.944          46.125    21786559.580    90581281.115 8      5381.401          48.000    21786559.360    90581282.109 7      5381.401          47.250
R17  23549057.020   126015741.322 6       492.118          39.125    23549057.580   126015741.334 6       492.118          39.625    23549079.000    98012338.540 7       382.758          44.562    23549078.660    98012337.537 7       382.758          44.000
R04  19256177.340   103115959.435 7      3748.832          47.062    19256177.920   103115959.475 7      3748.832          46.875    19256187.280    80201337.327 8      2915.758          50.687    19256187.100    80201336.331 8      2915.758          50.500
R09  24116514.020   128780827.947 7       730.346          42.250    24116512.360   128780827.937 7       730.346          42.437    24116524.900   100162916.668 7       568.047          42.625    24116524.320   100162917.665 7       568.047          42.875
G19  23326218.880   122580113.393 6      6413.650          41.937    23326216.800   122580113.397 5      6413.650          30.750    23326221.180    95516993.626 5      4997.649          30.875
G22  23370102.080   122810713.374 7      2475.511          43.500    23370101.140   122810713.379 5      2475.511          30.312    23370105.660    95696673.975 5      1928.969          30.437
G03  20516600.620   107815457.849 7      1526.506          47.437    20516599.760   107815457.848 8      1526.506          49.187    20516604.680    84012094.657 8      1189.485          49.062    20516605.580    84012068.655 8      1189.485          49.875
G14  22839300.900   120021326.057 7      1182.069          44.750    22839299.740   120021326.067 5      1182.069          33.187    22839305.660    93523137.334 5       921.093          32.937    22839305.940    93523137.336 7       921.093          46.750
R03  21021216.480   112528212.971 7       -12.492          45.437    21021216.840   112528212.997 7       -12.492          45.250    21021225.760    87521982.929 8        -9.716          48.875    21021226.000    87521983.933 8        -9.716          49.125
G21  23410121.300   123021022.858 7      1502.423          43.687    23410119.900   123021022.865 5      1502.423          33.187    23410126.080    95860531.291 5      1170.719          33.125
G17  21719328.540   114135860.928 7      5199.422          46.500    21719327.900   114135860.930 7      5199.422          45.875    21719330.660    88937041.248 7      4051.498          45.937    21719331.180    88937047.247 7      4051.498          47.875
R18  20592029.020   109921659.198 7      2436.499          47.875    20592028.680   109921659.207 7      2436.499          46.875    20592037.680    85494651.527 8      1895.055          49.750    20592037.600    85494653.531 8      1895.055          49.875
> 2024 07 31 11 16 26.0000000  0 17
G04  21434481.620   112638964.479 7      5009.657          45.750    21434480.720   112638964.490 6      5009.657          37.750    21434486.140    87770621.599 6      3903.629          37.937    21434487.320    87770643.600 8      3903.629          49.437
G08  24639604.580   129481987.649 6      -482.539          41.875    24639603.820   129481987.646 6      -482.539          37.750    24639619.560   100895116.646 6      -376.004          37.437    24639620.920   100895120.634 7      -376.004          43.437
G06  24817825.720   130418536.048 6      5163.202          38.687    24817824.720   130418536.047 5      5163.202          35.125    24817834.760   101624885.720 5      4023.274          34.937    24817835.460   101624885.716 7      4023.274          43.312
G02  22318410.740   117284044.119 7      2107.415          46.000    22318408.540   117284044.126 6      2107.415          37.625    22318412.340    91390159.613 6      1642.142          37.312
G09  23060355.920   121182986.246 7      6398.566          43.875    23060355.340   121182986.251 7      6398.566          42.500    23060364.720    94428340.462 7      4985.896          42.500    23060365.120    94428343.466 7      4985.896          44.875
R05  21785253.300   116454664.154 7      6918.754          47.312    21785253.920   116454664.158 7      6918.754          45.812    21785265.200    90575899.862 7      5381.253          46.250    21785264.920    90575900.858 7      5381.253          46.187
R17  23548965.160   126015249.423 6       491.816          39.125    23548964.020   126015249.454 6       491.816          39.625    23548987.100    98011955.967 7       382.524          44.375    23548987.020    98011954.968 7       382.524          44.062
R04  19255477.280   103112210.997 7      3748.098          47.687    19255477.960   103112211.036 7      3748.098          46.625    19255487.360    80198421.876 8      2915.187          49.000    19255487.000    80198420.885 8      2915.187          49.625
R09  24116377.220   128780097.656 7       730.365          42.250    24116375.760   128780097.663 6       730.365          41.500    24116387.640   100162348.678 7       568.062          42.812    24116387.400   100162349.682 7       568.062          42.562
G19  23324998.640   122573699.913 6      6413.659          41.875    23324996.500   122573699.921 5      6413.659          30.750    23325000.780    95511996.120 5      4997.656          30.562
G22  23369631.000   122808238.090 7      2475.244          43.437    23369630.140   122808238.092 5      2475.244          30.312    23369634.440    95694745.184 5      1928.762          30.437
G03  20516310.120   107813931.576 7      1526.260          47.500    20516309.440   107813931.579 7      1526.260          47.875    20516314.260    84010905.358 8      1189.293          48.000    20516314.940    84010879.358 8      1189.293          48.375
G14  22839075.980   120020144.215 7      1181.851          44.125    22839074.860   120020144.228 5      1181.851          33.187    22839080.740    93522216.418 5       920.923          33.125    22839081.180    93522216.419 7       920.923          46.312
R03  21021218.600   112528225.684 7       -12.870          45.812    21021219.420   112528225.715 7       -12.870          45.625    21021228.100    87521992.822 7       -10.010          47.375    21021228.120    87521993.825 8       -10.010          48.437
G21  23409835.380   123019520.393 7      1502.556          43.812    23409834.100   123019520.401 5      1502.556          33.187    23409840.020    95859360.543 5      1170.822          33.000
G17  21718338.980   114130661.630 7      5199.350          46.687    21718338.480   114130661.630 7      5199.350          45.437    21718341.380    88932989.847 7      4051.442          45.500    21718341.940    88932995.842 7      4051.442          47.250
R18  20591572.460   109919222.827 7      2436.379          47.000    20591571.880   109919222.825 7      2436.379          46.875    20591581.240    85492756.569 8      1894.961          48.187    20591581.220    85492758.574 8      1894.961          48.125
> 2024 07 31 11 16 27.0000000  0 17
G04  21433528.300   112633954.970 7      5009.436          45.937    21433527.440   112633954.983 6      5009.436          38.125    21433532.800    87766718.093 6      3903.457          37.500    21433534.260    87766740.099 8      3903.457          50.937
G08  24639696.440   129482470.238 6      -482.466          41.937    24639695.780   129482470.240 6      -482.466          37.937    24639711.300   100895492.686 6      -375.947          37.687    24639712.080   100895496.689 7      -375.947          43.500
G06  24816843.140   130413372.644 6      5163.645          38.437    24816842.240   130413372.644 5      5163.645          35.125    24816852.180   101620862.293 5      4023.619          34.562    24816852.820   101620862.304 7      4023.619          43.125
G02  22318009.580   117281936.679 7      2107.571          45.750    22318007.520   117281936.686 6      2107.571          37.812    22318011.240    91388517.456 6      1642.263          37.375
G09  23059138.320   121176587.870 7      6398.514          43.750    23059137.720   121176587.878 7      6398.514          43.437    23059147.220    94423354.726 7      4985.855          43.437    23059147.660    94423357.734 7      4985.855          45.875
R05  21783959.300   116447745.550 7      6918.622          47.125    21783959.420   116447745.559 7      6918.622          46.500    21783970.800    90570518.742 7      5381.150          46.875    21783970.720    90570519.734 7      5381.150          46.750
R17  23548873.500   126014757.551 6       491.901          39.125    23548872.040   126014757.582 6       491.901          39.625    23548895.020    98011573.400 7       382.590          44.812    23548895.160    98011572.405 7       382.590          44.250
R04  19254777.480   103108463.168 7      3747.600          47.812    19254777.820   103108463.205 7      3747.600          46.375    19254787.420    80195506.907 8      2914.800          50.312    19254787.200    80195505.910 8      2914.800          50.437
R09  24116240.480   128779367.438 7       730.360          42.000    24116239.160   128779367.438 6       730.360          41.500    24116250.940   100161780.737 7       568.058          42.250    24116251.220   100161781.736 7       568.058          43.000
G19  23323778.180   122567286.355 7      6413.739          42.000    23323775.980   122567286.358 5      6413.739          30.750    23323780.460    95506998.546 5      4997.719          30.562
G22  23369159.960   122805763.021 7      2475.076          44.312    23369159.040   122805763.020 5      2475.076          30.312    23369163.340    95692816.559 5      1928.630          30.437
G03  20516019.800   107812405.401 8      1526.200          48.250    20516018.980   107812405.403 8      1526.200          48.937    20516023.880    84009716.135 8      1189.247          48.687    20516024.900    84009690.131 8      1189.247          49.625
G14  22838850.920   120018962.468 7      1181.851          43.875    22838849.880   120018962.481 5      1181.851          33.187    22838855.960    93521295.575 5       920.923          33.125    22838856.220    93521295.579 7       920.923          47.125
R03  21021221.020   112528238.700 7       -13.125          46.562    21021221.840   112528238.734 7       -13.125          45.375    21021230.620    87522002.951 8       -10.208          49.125    21021230.600    87522003.955 8       -10.208          49.125
G21  23409549.600   123018017.784 7      1502.759          44.250    23409548.240   123018017.789 5      1502.759          32.937    23409554.140    95858189.679 5      1170.981          33.000
G17  21717349.640   114125462.450 7      5199.229          46.500    21717349.100   114125462.450 7      5199.229          46.187    21717352.080    88928938.542 7      4051.348          46.062    21717352.580    88928944.543 8      4051.348          48.062
R18  20591116.040   109916786.615 7      2436.221          46.000    20591115.340   109916786.616 7      2436.221          47.250    20591124.800    85490861.740 8      1894.839          49.687    20591124.760    85490863.744 8      1894.839          49.125
> 2024 07 31 11 16 28.0000000  0 17
G04  21432574.640   112628945.176 7      5009.834          46.000    21432574.240   112628945.186 6      5009.834          37.937    21432579.460    87762814.362 6      3903.767          37.437    21432580.720    87762836.370 8      3903.767          51.250
G08  24639788.260   129482952.190 6      -481.685          41.500    24639787.460   129482952.190 6      -481.685          37.687    24639803.060   100895868.228 6      -375.339          38.062    24639804.100   100895872.230 7      -375.339          43.500
G06  24815860.340   130408208.442 6      5164.675          38.312    24815859.560   130408208.436 5      5164.675          34.750    24815869.540   101616838.242 5      4024.422          34.750    24815870.480   101616838.240 7      4024.422          43.437
G02  22317608.380   117279828.624 7      2108.366          44.937    22317606.380   117279828.629 6      2108.366          38.062    22317610.160    91386874.816 6      1642.882          37.875
G09  23057920.560   121170188.858 7      6399.212          43.625    23057919.900   121170188.868 7      6399.212          42.875    23057929.360    94418368.494 7      4986.399          42.625    23057929.720    94418371.499 7      4986.399          45.562
R05  21782664.720   116440826.596 7      6919.111          46.875    21782664.860   116440826.597 7      6919.111          46.000    21782676.640    90565137.335 7      5381.531          47.687    21782676.360    90565138.329 7      5381.531          47.125
R17  23548780.860   126014265.201 6       492.477          39.125    23548779.820   126014265.232 6       492.477          39.625    23548803.220    98011190.467 7       383.037          43.937    23548803.180    98011189.476 7       383.037          44.375
R04  19254077.600   103104715.474 7      3747.536          47.812    19254078.080   103104715.513 7      3747.536          46.750    19254087.600    80192592.038 8      2914.750          50.500    19254087.100    80192591.043 8      2914.750          51.125
R09  24116103.220   128778636.690 7       730.931          42.250    24116102.940   128778636.696 6       730.931          41.625    24116114.320   100161212.386 7       568.502          42.812    24116114.300   100161213.383 7       568.502          43.437
G19  23322557.600   122560872.206 7      6414.236          42.062    23322555.420   122560872.206 5      6414.236          30.562    23322559.780    95502000.514 5      4998.106          30.562
G22  23368688.740   122803287.681 7      2475.441          43.375    23368687.880   122803287.683 5      2475.441          30.187    23368692.320    95690887.725 5      1928.915          30.312
G03  20515729.320   107810878.826 7      1526.645          47.437    20515728.560   107810878.834 8      1526.645          48.875    20515733.320    84008526.604 8      1189.594          48.937    20515734.300    84008500.600 8      1189.594          49.500
G14  22838626.080   120017780.329 7      1182.348          43.562    22838625.080   120017780.347 5      1182.348          33.187    22838630.940    93520374.426 5       921.310          33.250    22838631.300    93520374.430 7       921.310          47.062
R03  21021223.620   112528251.497 7       -12.737          46.375    21021224.300   112528251.528 7       -12.737          45.312    21021233.100    87522012.902 8        -9.907          49.250    21021233.260    87522013.906 8        -9.907          49.250
G21  23409263.540   123016514.518 7      1503.510          43.937    23409262.160   123016514.526 5      1503.510          32.937    23409268.020    95857018.305 5      1171.567          33.312
G17  21716360.400   114120262.840 7      5199.743          46.062    21716359.600   114120262.837 7      5199.743          46.437    21716362.620    88924886.904 7      4051.747          46.562    21716363.320    88924892.903 8      4051.747          48.375
R18  20590659.680   109914350.062 7      2436.616          46.437    20590659.040   109914350.058 7      2436.616          46.500    20590668.520    85488966.643 8      1895.145          50.000    20590668.460    85488968.650 8      1895.145          50.500
> 2024 07 31 11 16 29.0000000  0 17
G04  21431621.640   112623935.567 7      5009.570          45.125    21431620.980   112623935.577 6      5009.570          38.562    21431626.280    87758910.776 6      3903.561          38.187    21431627.520    87758932.780 8      3903.561          51.000
G08  24639880.120   129483433.972 6      -481.766          41.750    24639879.040   129483433.974 6      -481.766          37.687    24639894.660   100896243.642 6      -375.402          37.562    24639895.340   100896247.639 7      -375.402          43.750
G06  24814877.760   130403043.935 6      5164.663          38.312    24814876.780   130403043.924 5      5164.663          34.562    24814886.620   101612813.952 5      4024.413          34.625    24814887.480   101612813.951 7      4024.413          43.250
G02  22317207.440   117277720.446 7      2108.301          45.062    22317205.240   117277720.453 6      2108.301          38.062    22317209.100    91385232.086 6      1642.832          38.000
G09  23056702.840   121163789.712 7      6399.299          43.687    23056702.240   121163789.720 7      6399.299          43.187    23056711.540    94413382.156 7      4986.467          42.875    23056712.040    94413385.160 7      4986.467          45.437
R05  21781370.640   116433907.772 7      6918.754          46.125    21781370.460   116433907.784 7      6918.754          45.687    21781382.480    90559756.047 7      5381.253          47.125    21781381.760    90559757.037 7      5381.253          47.312
R17  23548688.580   126013772.912 6       492.429          39.125    23548689.040   126013772.937 6       492.429          39.625    23548711.840    98010807.536 7       383.000          44.562    23548711.440    98010806.541 7       383.000          44.500
R04  19253378.160   103100968.374 7      3746.874          47.375    19253378.560   103100968.410 7      3746.874          46.250    19253387.900    80189677.627 8      2914.235          50.875    19253387.600    80189676.632 8      2914.235          50.937
R09  24115966.380   128777905.908 7       730.945          42.250    24115965.960   128777905.914 6       730.945          41.625    24115977.060   100160643.996 7       568.513          43.000    24115977.460   100160644.991 7       568.513          43.375
G19  23321336.940   122554457.884 7      6414.426          43.062    23321335.040   122554457.889 5      6414.426          30.562    23321339.060    95497002.351 5      4998.254          30.562
G22  23368217.700   122800812.546 7      2474.969          42.625    23368216.920   122800812.551 5      2474.969          30.187    23368221.140    95688959.050 5      1928.548          30.312
G03  20515439.040   107809352.315 7      1526.511          47.437    20515438.140   107809352.320 8      1526.511          48.500    20515442.900    84007337.115 8      1189.489          48.562    20515443.740    84007311.109 8      1189.489          49.812
G14  22838401.040   120016598.267 7      1182.168          44.062    22838400.100   120016598.285 5      1182.168          33.312    22838406.040    93519453.342 5       921.170          33.250    22838406.620    93519453.346 7       921.170          47.250
R03  21021225.820   112528264.537 7       -13.070          46.687    21021226.780   112528264.579 7       -13.070          45.375    21021235.520    87522023.055 8       -10.166          49.500    21021235.520    87522024.056 8       -10.166          49.812
G21  23408977.480   123015011.050 7      1503.673          44.625    23408976.080   123015011.052 5      1503.673          33.375    23408982.000    95855846.769 5      1171.693          33.312
G17  21715371.000   114115063.276 7      5199.611          46.187    21715370.180   114115063.276 7      5199.611          46.562    21715373.240    88920835.304 7      4051.645          46.250    21715373.600    88920841.303 8      4051.645          48.375
R18  20590203.360   109911913.632 7      2436.436          46.750    20590202.520   109911913.630 7      2436.436          46.125    20590211.880    85487071.644 8      1895.006          50.187    20590212.200    85487073.650 8      1895.006          50.250
> 2024 07 31 11 16 30.0000000  0 17
G04  21430667.940   112618926.175 7      5009.555          46.000    21430667.700   112618926.185 6      5009.555          38.437    21430672.880    87755007.364 6      3903.549          37.687    21430673.920    87755029.368 8      3903.549          51.187
G08  24639971.960   129483915.601 6      -481.365          41.500    24639970.900   129483915.600 6      -481.365          37.375    24639986.340   100896618.927 6      -375.090          37.500    24639987.140   100896622.924 7      -375.090          43.375
G06  24813895.220   130397879.052 6      5165.246          38.312    24813893.840   130397879.047 5      5165.246          34.562    24813903.780   101608789.379 5      4024.867          34.625    24813904.660   101608789.391 7      4024.867          43.250
G02  22316806.480   117275612.152 7      2108.596          45.500    22316803.920   117275612.159 6      2108.596          37.937    22316807.980    91383589.261 6      1643.061          37.875
G09  23055484.960   121157390.472 7      6399.535          42.937    23055484.360   121157390.479 7      6399.535          42.625    23055493.740    94408395.747 7      4986.651          42.375    23055494.220    94408398.751 7      4986.651          45.250
R05  21780076.520   116426989.096 7      6918.799          47.312    21780075.880   116426989.105 7      6918.799          46.187    21780088.140    90554374.865 7      5381.288          47.312    21780087.940    90554375.857 7      5381.288          47.375
R17  23548595.640   126013280.721 6       492.599          37.062    23548596.940   126013280.731 6       492.599          37.437    23548620.120    98010424.694 7       383.132          45.250    23548619.300    98010423.697 7       383.132          45.750
R04  19252678.280   103097221.890 7      3746.452          47.875    19252678.680   103097221.931 7      3746.452          46.562    19252688.260    80186763.709 8      2913.907          50.687    19252688.060    80186762.710 8      2913.907          50.937
R09  24115829.360   128777175.131 7       731.098          42.062    24115828.720   128777175.140 6       731.098          41.312    24115840.400   100160075.628 7       568.632          42.687    24115840.280   100160076.622 7       568.632          43.625
G19  23320116.240   122548043.503 7      6414.603          42.250    23320114.320   122548043.511 5      6414.603          30.562    23320118.500    95492004.141 5      4998.392          30.687
G22  23367746.980   122798337.592 7      2475.081          43.687    23367745.940   122798337.592 5      2475.081          30.187    23367750.040    95687030.517 5      1928.635          30.312
G03  20515148.340   107807825.898 8      1526.581          48.000    20515147.660   107807825.903 8      1526.581          48.625    20515152.440    84006147.705 8      1189.544          48.812    20515153.140    84006121.703 8      1189.544          49.750
G14  22838176.340   120015416.323 7      1182.054          44.500    22838175.300   120015416.338 5      1182.054          33.312    22838181.160    93518532.349 5       921.081          33.437    22838181.480    93518532.351 7       921.081          47.125
R03  21021228.400   112528277.885 7       -13.236          45.812    21021229.860   112528277.924 7       -13.236          45.875    21021238.000    87522033.439 8       -10.295          49.312    21021238.200    87522034.438 8       -10.295          48.812
G21  23408691.280   123013507.416 7      1503.944          45.625    23408689.680   123013507.421 5      1503.944          33.000    23408695.840    95854675.111 5      1171.904          32.937
G17  21714381.740   114109863.813 7      5199.692          46.250    21714380.820   114109863.813 7      5199.692          46.375    21714383.780    88916783.780 7      4051.708          46.187    21714384.460    88916789.781 8      4051.708          48.000
R18  20589747.340   109909477.345 7      2436.462          46.812    20589745.880   109909477.338 7      2436.462          46.375    20589755.620    85485176.757 8      1895.026          50.437    20589755.520    85485178.761 8      1895.026          50.437
> 2024 07 31 11 16 31.0000000  0 17
G04  21429715.120   112613916.813 7      5009.448          45.937    21429714.400   112613916.818 6      5009.448          38.312    21429719.660    87751103.967 6      3903.466          37.750    21429720.960    87751125.973 8      3903.466          51.000
G08  24640063.340   129484396.896 6      -481.193          41.312    24640062.500   129484396.904 6      -481.193          37.562    24640077.900   100896993.965 6      -374.956          37.687    24640078.660   100896997.959 7      -374.956          42.812
G06  24812911.960   130392713.684 6      5165.796          38.312    24812910.860   130392713.681 5      5165.796          34.812    24812920.740   101604764.424 5      4025.296          34.562    24812921.460   101604764.422 7      4025.296          43.125
G02  22316405.160   117273503.561 7      2108.817          45.125    22316402.560   117273503.571 6      2108.817          37.625    22316406.640    91381946.208 6      1643.234          37.500
G09  23054267.300   121150990.926 7      6399.669          42.937    23054266.500   121150990.942 7      6399.669          42.437    23054275.780    94403409.101 7      4986.755          42.437    23054276.240    94403412.111 7      4986.755          45.312
R05  21778781.920   116420070.340 7      6918.841          46.125    21778781.620   116420070.343 7      6918.841          45.625    21778794.000    90548993.622 7      5381.321          47.250    21778793.320    90548994.618 7      5381.321          47.125
R17  23548504.260   126012788.373 6       492.432          37.062    23548503.660   126012788.380 6       492.432          37.437    23548528.240    98010041.757 7       383.003          44.875    23548527.480    98010040.758 7       383.003          44.687
R04  19251978.480   103093475.823 7      3745.956          47.187    19251979.160   103093475.862 7      3745.956          46.625    19251988.740    80183850.104 8      2913.521          50.562    19251988.180    80183849.107 8      2913.521          50.687
R09  24115692.500   128776444.205 7       731.023          42.062    24115692.020   128776444.214 6       731.023          41.312    24115703.460   100159507.124 7       568.574          42.625    24115704.020   100159508.117 7       568.574          42.937
G19  23318895.480   122541628.839 7      6414.724          42.500    23318893.600   122541628.847 5      6414.724          30.625    23318897.680    95487005.707 5      4998.487          30.687
G22  23367276.060   122795862.686 7      2474.980          44.000    23367275.040   122795862.688 4      2474.980          29.937    23367279.120    95685102.021 5      1928.556          30.312
G03  20514858.020   107806299.391 8      1526.633          48.125    20514857.200   107806299.396 8      1526.633          48.875    20514862.000    84004958.219 8      1189.584          49.187    20514862.420    84004932.215 8      1189.584          49.875
G14  22837951.300   120014234.271 7      1182.154          43.812    22837950.560   120014234.284 5      1182.154          33.437    22837956.080    93517611.265 5       921.159          33.437    22837956.780    93517611.261 7       921.159          47.437
R03  21021231.080   112528291.310 7       -13.442          46.875    21021232.280   112528291.344 7       -13.442          45.437    21021240.500    87522043.874 8       -10.455          49.500    21021240.780    87522044.874 8       -10.455          48.312
G21  23408405.480   123012003.438 7      1504.223          44.562    23408403.520   123012003.443 5      1504.223          33.000    23408409.540    95853503.178 5      1172.122          32.937
G17  21713392.580   114104664.250 7      5199.614          46.625    21713391.380   114104664.252 7      5199.614          46.875    21713394.320    88912732.177 7      4051.647          46.500    21713394.760    88912738.178 7      4051.647          47.937
R18  20589290.220   109907040.979 7      2436.490          46.750    20589289.560   109907040.980 7      2436.490          46.750    20589299.260    85483281.812 8      1895.048          50.187    20589299.180    85483283.818 8      1895.048          50.562
> 2024 07 31 11 16 32.0000000  0 17
G04  21428761.880   112608907.681 7      5009.012          45.812    21428761.160   112608907.691 6      5009.012          37.875    21428766.480    87747200.760 6      3903.126          37.812    21428767.720    87747222.764 8      3903.126          50.687
G08  24640154.820   129484878.040 7      -480.936          42.000    24640154.080   129484878.037 6      -480.936          37.750    24640169.440   100897368.865 6      -374.755          37.750    24640170.160   100897372.866 7      -374.755          43.187
G06  24811928.920   130387548.005 6      5165.950          38.187    24811927.960   130387548.007 5      5165.950          34.750    24811937.760   101600739.230 5      4025.415          34.562    24811938.620   101600739.230 7      4025.415          43.500
G02  22316003.980   117271394.883 7      2108.695          46.187    22316001.420   117271394.891 6      2108.695          37.875    22316005.240    91380303.080 6      1643.139          37.500
G09  23053049.240   121144591.286 7      6399.719          42.875    23053048.540   121144591.296 7      6399.719          42.500    23053057.760    94398422.372 7      4986.794          42.125    23053058.900    94398425.380 7      4986.794          45.250
R05  21777487.680   116413151.730 7      6918.530          46.625    21777487.440   116413151.731 7      6918.530          45.875    21777499.980    90543612.489 7      5381.079          46.937    21777499.040    90543613.484 8      5381.079          48.000
R17  23548412.480   126012296.089 6       492.402          37.062    23548410.840   126012296.091 6       492.402          37.437    23548436.500    98009658.836 7       382.979          45.187    23548435.840    98009657.835 7       382.979          45.250
R04  19251279.280   103089730.394 8      3745.111          48.187    19251279.600   103089730.438 7      3745.111          47.375    19251289.420    80180936.999 8      2912.864          50.750    19251288.880    80180936.003 8      2912.864          51.375
R09  24115555.620   128775713.290 6       731.018          40.625    24115555.280   128775713.291 6       731.018          41.375    24115566.640   100158938.632 7       568.570          42.687    24115566.980   100158939.627 7       568.570          43.437
G19  23317674.700   122535214.054 7      6414.889          42.625    23317672.980   122535214.059 5      6414.889          30.625    23317677.120    95482007.177 5      4998.615          30.687
G22  23366805.200   122793388.009 7      2474.526          43.125    23366803.940   122793388.013 4      2474.526          29.937    23366808.140    95683173.702 4      1928.202          29.875
G03  20514567.220   107804773.006 7      1526.307          47.875    20514566.720   107804773.013 8      1526.307          48.750    20514571.520    84003768.830 8      1189.330          48.812    20514572.160    84003742.830 8      1189.330          49.500
G14  22837726.620   120013052.335 7      1181.870          44.312    22837725.640   120013052.350 5      1181.870          33.562    22837731.320    93516690.274 5       920.938          33.437    22837732.060    93516690.270 7       920.938          47.125
R03  21021233.660   112528305.046 7       -13.881          47.812    21021234.720   112528305.075 7       -13.881          45.937    21021242.840    87522054.558 8       -10.796          49.187    21021243.200    87522055.553 8       -10.796          49.062
G21  23408118.980   123010499.292 7      1504.250          45.062    23408117.180   123010499.294 5      1504.250          32.562    23408123.420    95852331.114 5      1172.143          32.750
G17  21712402.960   114099464.789 7      5199.247          47.000    21712401.960   114099464.796 7      5199.247          46.375    21712404.980    88908680.655 7      4051.361          45.937    21712405.340    88908686.652 8      4051.361          48.187
R18  20588834.040   109904604.802 7      2436.075          46.437    20588833.240   109904604.803 7      2436.075          46.625    20588843.040    85481387.010 8      1894.725          49.687    20588842.740    85481389.018 8      1894.725          50.125
> 2024 07 31 11 16 33.0000000  0 17
G04  21427808.900   112603898.892 7      5008.900          46.125    21427808.000   112603898.899 6      5008.900          38.125    21427813.240    87743297.811 6      3903.039          38.000    21427814.600    87743319.817 8      3903.039          50.437
G08  24640246.400   129485359.191 6      -480.758          41.625    24640245.660   129485359.182 6      -480.758          38.000    24640260.920   100897743.778 6      -374.617          38.000    24640261.940   100897747.772 7      -374.617          43.625
G06  24810946.260   130382382.163 6      5166.137          38.187    24810944.960   130382382.171 5      5166.137          34.687    24810954.660   101596713.909 5      4025.561          34.562    24810955.700   101596713.918 7      4025.561          43.375
G02  22315602.440   117269286.219 7      2108.904          46.062    22315600.120   117269286.226 6      2108.904          38.000    22315604.100    91378659.969 6      1643.302          37.625
G09  23051831.380   121138191.662 7      6399.917          43.062    23051830.700   121138191.669 7      6399.917          42.187    23051839.780    94393435.664 7      4986.948          42.062    23051840.760    94393438.672 7      4986.948          45.125
R05  21776193.340   116406233.356 7      6918.642          45.500    21776193.240   116406233.354 7      6918.642          45.625    21776205.640    90538231.540 7      5381.166          47.250    21776205.140    90538232.536 7      5381.166          47.375
R17  23548320.620   126011804.046 6       492.195          37.062    23548319.360   126011804.053 6       492.195          37.437    23548344.700    98009276.119 7       382.818          44.875    23548343.740    98009275.118 7       382.818          46.500
R04  19250580.200   103085985.725 8      3744.696          48.250    19250580.540   103085985.761 7      3744.696          45.625    19250590.000    80178024.480 8      2912.541          50.875    19250589.620    80178023.485 8      2912.541          51.000
R09  24115418.720   128774982.561 6       731.008          41.937    24115418.380   128774982.562 6       731.008          41.375    24115429.840   100158370.292 7       568.562          42.812    24115430.120   100158371.285 7       568.562          43.062
G19  23316453.980   122528799.319 7      6415.051          43.250    23316452.420   122528799.321 5      6415.051          30.625    23316456.380    95477008.691 5      4998.741          30.187
G22  23366334.320   122790913.667 7      2474.470          42.625    23366333.180   122790913.672 4      2474.470          29.937    23366337.360    95681245.646 4      1928.158          29.875
G03  20514276.920   107803246.831 7      1526.384          47.875    20514276.280   107803246.836 8      1526.384          48.437    20514281.120    84002579.605 8      1189.390          48.875    20514282.000    84002553.603 8      1189.390          49.437
G14  22837501.860   120011870.606 7      1181.968          45.125    22837500.800   120011870.621 5      1181.968          33.562    22837506.560    93515769.448 5       921.014          33.437    22837506.980    93515769.450 7       921.014          47.312
R03  21021236.320   112528319.200 7       -14.041          47.312    21021237.260   112528319.231 7       -14.041          46.000    21021245.520    87522065.573 8       -10.921          49.062    21021245.680    87522066.574 8       -10.921          49.000
G21  23407832.700   123008995.117 7      1504.415          45.000    23407830.940   123008995.127 5      1504.415          32.562    23407837.160    95851159.037 5      1172.271          32.750
G17  21711413.620   114094265.504 7      5199.479          46.937    21711412.460   114094265.506 7      5199.479          46.125    21711415.540    88904629.270 7      4051.542          46.437    21711415.960    88904635.267 8      4051.542          48.437
R18  20588377.960   109902168.906 7      2436.034          46.500    20588376.820   109902168.907 7      2436.034          47.062    20588386.700    85479492.432 8      1894.693          50.437    20588386.660    85479494.438 8      1894.693          50.125
> 2024 07 31 11 16 34.0000000  0 17
G04  21426855.700   112598890.270 7      5008.760          46.000    21426855.060   112598890.280 6      5008.760          38.062    21426860.180    87739394.999 6      3902.930          37.750    21426861.300    87739417.003 8      3902.930          50.625
G08  24640338.100   129485840.118 6      -480.436          41.937    24640337.020   129485840.113 6      -480.436          38.375    24640352.560   100898118.518 6      -374.366          38.062    24640353.700   100898122.531 7      -374.366          44.562
G06  24809962.260   130377215.935 6      5166.582          38.250    24809962.020   130377215.945 5      5166.582          34.687    24809971.580   101592688.281 5      4025.908          34.375    24809972.500   101592688.281 7      4025.908          43.312
G02  22315201.140   117267177.383 7      2109.148          46.000    22315198.940   117267177.388 6      2109.148          37.750    22315202.780    91377016.719 6      1643.492          37.437
G09  23050613.340   121131791.885 7      6400.135          42.625    23050612.660   121131791.893 7      6400.135          42.250    23050621.800    94388448.834 7      4987.118          42.500    23050622.340    94388451.844 7      4987.118          44.750
R05  21774899.360   116399315.099 7      6918.471          46.125    21774899.140   116399315.100 7      6918.471          46.187    21774911.580    90532850.686 7      5381.033          47.687    21774910.960    90532851.682 7      5381.033          47.750
R17  23548229.260   126011312.025 6       492.327          37.062    23548226.960   126011312.021 6       492.327          37.437    23548252.700    98008893.409 7       382.921          46.000    23548251.740    98008892.404 7       382.921          46.312
R04  19249880.980   103082241.651 8      3744.067          48.250    19249881.540   103082241.684 7      3744.067          46.687    19249890.840    80175112.425 8      2912.052          50.687    19249890.340    80175111.429 8      2912.052          51.250
R09  24115281.880   128774251.776 6       731.085          41.937    24115281.340   128774251.780 6       731.085          41.312    24115293.120   100157801.912 7       568.621          42.812    24115293.280   100157802.907 7       568.621          43.187
G19  23315233.100   122522384.442 7      6415.216          42.062    23315231.740   122522384.444 5      6415.216          30.625    23315235.580    95472010.098 5      4998.870          30.187
G22  23365863.480   122788439.510 7      2474.254          43.062    23365862.440   122788439.512 5      2474.254          30.000    23365866.580    95679317.731 4      1927.990          29.875
G03  20513986.520   107801720.700 8      1526.366          48.125    20513985.880   107801720.708 8      1526.366          48.875    20513990.700    84001390.416 8      1189.376          48.812    20513991.280    84001364.416 8      1189.376          49.500
G14  22837276.780   120010688.945 7      1181.908          44.500    22837275.840   120010688.963 5      1181.908          33.437    22837281.740    93514848.676 5       920.968          33.312    22837281.800    93514848.672 7       920.968          47.187
R03  21021238.860   112528333.605 7       -14.285          47.125    21021240.000   112528333.634 7       -14.285          45.812    21021248.200    87522076.779 8       -11.111          49.687    21021248.540    87522077.778 8       -11.111          48.750
G21  23407546.540   123007490.737 7      1504.696          44.250    23407544.620   123007490.744 5      1504.696          33.125    23407550.860    95849986.791 5      1172.491          33.250
G17  21710424.320   114089066.280 7      5199.464          46.562    21710423.140   114089066.282 7      5199.464          46.437    21710426.040    88900577.931 7      4051.531          46.125    21710426.500    88900583.930 8      4051.531          48.187
R18  20587921.640   109899733.103 7      2436.060          46.250    20587920.580   109899733.104 7      2436.060          46.812    20587930.540    85477597.920 8      1894.713          50.062    20587930.420    85477599.927 8      1894.713          50.750
> 2024 07 31 11 16 35.0000000  0 17
G04  21425902.560   112593881.764 7      5008.441          47.062    21425901.900   112593881.774 6      5008.441          38.500    21425907.040    87735492.271 6      3902.682          38.312    21425908.100    87735514.271 8      3902.682          50.562
G08  24640429.960   129486320.859 6      -480.815          41.875    24640428.720   129486320.856 6      -480.815          38.250    24640444.000   100898493.120 6      -374.661          38.062    24640445.240   100898497.119 7      -374.661          44.562
G06  24808978.780   130372049.300 6      5166.799          38.312    24808978.800   130372049.302 5      5166.799          34.812    24808988.420   101588662.336 5      4026.077          34.375    24808989.520   101588662.336 7      4026.077          43.312
G02  22314799.600   117265068.351 7      2109.066          44.937    22314797.440   117265068.356 6      2109.066          37.437    22314801.280    91375373.323 6      1643.428          37.500
G09  23049395.940   121125391.930 7      6399.922          42.250    23049394.620   121125391.940 6      6399.922          41.875    23049403.980    94383461.862 6      4986.952          41.375    23049404.360    94383464.872 7      4986.952          44.500
R05  21773605.100   116392396.856 7      6918.208          46.562    21773604.860   116392396.857 7      6918.208          46.500    21773617.200    90527469.841 7      5380.829          47.187    21773616.700    90527470.839 7      5380.829          47.875
R17  23548137.020   126010819.888 6       492.096          37.062    23548135.060   126010819.887 6       492.096          36.437    23548160.600    98008510.621 7       382.741          45.500    23548159.820    98008509.616 7       382.741          45.687
R04  19249181.700   103078498.069 8      3743.269          48.187    19249182.160   103078498.100 7      3743.269          46.687    19249191.680    80172200.756 8      2911.432          50.437    19249191.400    80172199.763 8      2911.432          51.000
R09  24115145.280   128773520.922 6       730.723          41.375    24115144.580   128773520.918 6       730.723          41.312    24115156.080   100157233.470 7       568.340          42.625    24115156.420   100157234.467 7       568.340          43.125
G19  23314012.500   122515969.373 7      6415.147          42.062    23314011.080   122515969.376 5      6415.147          30.187    23314014.860    95467011.351 5      4998.816          30.187
G22  23365392.800   122785965.463 7      2473.895          43.437    23365391.560   122785965.465 5      2473.895          30.000    23365395.740    95677389.907 4      1927.711          29.625
G03  20513696.260   107800194.569 8      1526.123          48.187    20513695.380   107800194.577 8      1526.123          48.875    20513700.300    84000201.230 8      1189.186          49.312    20513700.780    84000175.226 8      1189.186          49.625
G14  22837051.940   120009507.288 7      1181.651          44.500    22837051.000   120009507.306 5      1181.651          33.437    22837056.780    93513927.904 5       920.767          33.312    22837057.000    93513927.902 7       920.767          47.187
R03  21021241.460   112528348.190 7       -14.709          47.375    21021242.580   112528348.215 7       -14.709          45.750    21021250.960    87522088.120 8       -11.440          48.812    21021251.200    87522089.119 8       -11.440          49.312
G21  23407260.240   123005986.073 7      1504.719          44.687    23407258.320   123005986.080 5      1504.719          33.125    23407264.640    95848814.326 5      1172.509          33.250
G17  21709434.740   114083867.034 7      5199.219          46.437    21709433.920   114083867.037 7      5199.219          46.687    21709436.680    88896526.577 7      4051.340          46.750    21709437.220    88896532.574 7      4051.340          47.937
R18  20587465.040   109897297.361 7      2435.614          47.750    20587464.480   109897297.359 7      2435.614          46.687    20587474.260    85475703.457 8      1894.366          50.062    20587473.980    85475705.461 8      1894.366          50.500
> 2024 07 31 11 16 36.0000000  0 17
G04  21424949.560   112588873.389 7      5008.315          46.625    21424948.760   112588873.402 6      5008.315          38.437    21424953.860    87731589.650 6      3902.583          38.312    21424955.200    87731611.652 8      3902.583          50.687
G08  24640521.060   129486801.322 6      -480.587          41.500    24640520.180   129486801.327 6      -480.587          38.062    24640535.620   100898867.502 6      -374.483          37.562    24640536.600   100898871.511 7      -374.483          43.750
G06  24807995.400   130366882.231 6      5167.402          38.312    24807995.460   130366882.236 5      5167.402          35.000    24808005.180   101584636.054 5      4026.547          34.500    24808005.540   101584636.055 7      4026.547          43.375
G02  22314398.560   117262959.122 7      2109.330          45.125    22314396.140   117262959.127 6      2109.330          37.625    22314399.880    91373729.766 6      1643.634          37.562
G09  23048178.040   121118991.754 7      6400.184          43.000    23048176.540   121118991.764 6      6400.184          41.687    23048185.860    94378474.724 6      4987.157          41.250    23048186.520    94378477.728 7      4987.157          44.437
R05  21772310.660   116385478.671 7      6918.183          46.125    21772310.680   116385478.667 7      6918.183          45.812    21772323.020    90522089.039 7      5380.809          47.625    21772322.720    90522090.035 7      5380.809          47.062
R17  23548045.600   126010327.805 6       491.986          36.062    23548043.020   126010327.793 6       491.986          36.437    23548068.160    98008127.842 7       382.656          45.625    23548067.980    98008126.837 7       382.656          46.312
R04  19248482.740   103074755.014 8      3742.750          48.000    19248483.440   103074755.051 7      3742.750          46.312    19248492.980    80169289.498 8      2911.028          50.687    19248492.360    80169288.505 8      2911.028          51.187
R09  24115008.340   128772789.924 6       730.966          41.375    24115007.620   128772789.922 6       730.966          41.375    24115019.480   100156664.917 7       568.529          43.000    24115019.720   100156665.909 7       568.529          42.875
G19  23312792.040   122509554.128 7      6415.352          43.000    23312790.340   122509554.133 5      6415.352          30.187    23312794.100    95462012.465 5      4998.976          30.187
G22  23364921.760   122783491.537 7      2473.842          44.062    23364920.700   122783491.536 5      2473.842          30.000    23364925.120    95675462.174 4      1927.669          29.625
G03  20513405.940   107798668.447 7      1526.169          47.937    20513405.100   107798668.449 8      1526.169          49.312    20513409.860    83999012.039 8      1189.223          49.187    20513410.460    83998986.039 8      1189.223          49.625
G14  22836827.060   120008325.646 7      1181.627          44.875    22836826.240   120008325.661 5      1181.627          33.312    22836831.960    93513007.144 5       920.748          33.125    22836832.340    93513007.142 7       920.748          47.125
R03  21021244.100   112528363.012 7       -15.019          47.312    21021245.160   112528363.035 7       -15.019          45.625    21021253.700    87522099.647 8       -11.681          48.875    21021253.940    87522100.646 8       -11.681          49.000
G21  23406973.840   123004481.162 7      1505.077          43.875    23406971.960   123004481.172 5      1505.077          32.875    23406978.340    95847641.670 5      1172.787          32.750
G17  21708445.360   114078667.792 7      5199.246          46.312    21708444.360   114078667.794 7      5199.246          46.500    21708447.420    88892475.225 7      4051.361          46.312    21708447.640    88892481.222 8      4051.361          48.312
R18  20587008.440   109894861.665 7      2435.656          46.500    20587008.320   109894861.668 7      2435.656          46.625    20587018.040    85473809.030 8      1894.399          50.000    20587017.700    85473811.030 8      1894.399          50.437
> 2024 07 31 11 16 37.0000000  0 17
G04  21423996.620   112583865.196 7      5007.993          46.500    21423995.720   112583865.204 6      5007.993          37.875    21424000.820    87727687.170 6      3902.332          37.937    21424002.100    87727709.168 8      3902.332          50.750
G08  24640612.200   129487281.593 6      -480.332          41.000    24640611.560   129487281.595 6      -480.332          38.375    24640626.860   100899241.723 6      -374.285          37.312    24640628.120   100899245.720 7      -374.285          44.250
G06  24807012.000   130361714.826 6      5167.646          38.000    24807012.040   130361714.831 5      5167.646          35.000    24807021.900   101580609.509 5      4026.737          34.312    24807022.220   101580609.501 7      4026.737          43.187
G02  22313997.240   117260849.732 7      2109.382          45.250    22313994.780   117260849.737 6      2109.382          37.750    22313998.440    91372086.092 6      1643.675          37.687
G09  23046960.160   121112591.426 7      6400.304          42.750    23046958.460   121112591.436 6      6400.304          41.312    23046967.760    94373487.459 6      4987.250          40.812    23046968.120    94373490.461 7      4987.250          44.125
R05  21771016.900   116378560.580 7      6917.962          47.000    21771016.840   116378560.573 7      6917.962          46.500    21771029.040    90516708.307 7      5380.637          47.062    21771028.480    90516709.300 7      5380.637          47.375
R17  23547954.260   126009835.647 6       492.066          36.062    23547951.680   126009835.632 6       492.066          36.437    23547976.220    98007745.029 7       382.718          45.687    23547975.980    98007744.022 7       382.718          45.750
R04  19247783.640   103071012.549 8      3742.130          48.187    19247784.620   103071012.583 7      3742.130          47.062    19247793.780    80166378.696 8      2910.546          50.687    19247793.320    80166377.702 8      2910.546          50.750
R09  24114871.420   128772058.883 6       730.993          41.375    24114870.640   128772058.886 6       730.993          41.375    24114882.480   100156096.340 7       568.550          42.750    24114882.300   100156097.332 7       568.550          43.125
G19  23311571.400   122503138.723 7      6415.358          42.750    23311569.560   122503138.728 5      6415.358          30.187    23311573.200    95457013.458 5      4998.980          30.500
G22  23364451.140   122781017.779 7      2473.560          43.250    23364450.000   122781017.781 5      2473.560          30.000    23364454.380    95673534.572 4      1927.449          29.625
G03  20513115.340   107797142.356 8      1526.051          48.000    20513114.580   107797142.363 8      1526.051          48.375    20513119.440    83997822.885 8      1189.130          48.812    20513120.220    83997796.879 8      1189.130          50.312
G14  22836601.940   120007144.043 7      1181.481          43.312    22836601.620   120007144.064 5      1181.481          33.312    22836607.140    93512086.418 5       920.635          33.125    22836607.280    93512086.417 7       920.635          47.125
R03  21021246.880   112528378.057 7       -15.334          47.125    21021247.520   112528378.080 7       -15.334          45.562    21021256.360    87522111.350 8       -11.927          49.062    21021256.680    87522112.352 8       -11.927          48.937
G21  23406687.580   123002976.065 7      1505.103          44.000    23406685.380   123002976.075 5      1505.103          32.875    23406691.940    95846468.869 5      1172.807          32.750
G17  21707456.040   114073468.583 7      5199.124          45.812    21707455.040   114073468.583 7      5199.124          46.750    21707458.020    88888423.896 7      4051.265          46.625    21707458.580    88888429.895 8      4051.265          48.562
R18  20586552.640   109892426.091 7      2435.481          46.875    20586552.100   109892426.087 7      2435.481          47.250    20586561.800    85471914.691 8      1894.263          50.000    20586561.560    85471916.693 8      1894.263          50.250
> 2024 07 31 11 16 38.0000000  0 17
G04  21423043.520   112578857.208 7      5007.712          46.625    21423042.800   112578857.218 6      5007.712          37.937    21423047.940    87723784.845 6      3902.113          37.937    21423049.160    87723806.845 8      3902.113          50.687
G08  24640703.300   129487761.714 6      -480.203          40.812    24640702.860   129487761.708 6      -480.203          37.375    24640718.260   100899615.833 6      -374.184          36.562    24640719.480   100899619.838 7      -374.184          43.812
G06  24806028.740   130356547.132 6      5167.665          38.250    24806028.680   130356547.131 5      5167.665          34.312    24806038.580   101576582.736 5      4026.752          34.312    24806039.460   101576582.737 7      4026.752          42.937
G02  22313595.740   117258740.232 7      2109.436          46.375    22313593.380   117258740.237 6      2109.436          37.687    22313597.160    91370442.323 6      1643.717          37.375
G09  23045742.180   121106190.995 6      6400.329          41.875    23045740.400   121106191.002 6      6400.329          41.625    23045749.820    94368500.119 6      4987.269          41.375    23045750.480    94368503.116 7      4987.269          44.250
R05  21769722.540   116371642.614 7      6917.742          46.625    21769722.620   116371642.613 7      6917.742          46.312    21769734.900    90511327.688 7      5380.466          47.812    21769734.160    90511328.683 7      5380.466          47.000
R17  23547862.380   126009343.540 6       492.041          36.062    23547860.060   126009343.539 6       492.041          36.437    23547884.300    98007362.267 7       382.698          45.312    23547884.280    98007361.264 7       382.698          45.625
R04  19247085.180   103067270.748 7      3741.420          47.500    19247085.720   103067270.782 7      3741.420          46.562    19247095.220    80163468.408 8      2909.993          50.500    19247094.620    80163467.415 8      2909.993          50.937
R09  24114734.820   128771327.860 6       730.850          41.562    24114733.840   128771327.869 6       730.850          41.750    24114745.260   100155527.774 7       568.439          42.625    24114745.620   100155528.765 7       568.439          42.500
G19  23310350.280   122496723.218 7      6415.551          42.125    23310348.480   122496723.226 5      6415.551          30.500    23310352.300    95452014.372 5      4999.131          30.500
G22  23363980.520   122778544.228 7      2473.304          43.687    23363979.300   122778544.230 5      2473.304          30.187    23363983.700    95671607.135 4      1927.250          29.625
G03  20512824.920   107795616.401 8      1525.702          48.000    20512824.420   107795616.401 7      1525.702          47.937    20512829.060    83996633.828 8      1188.859          48.500    20512830.200    83996607.824 8      1188.859          48.687
G14  22836377.120   120005962.538 7      1181.397          44.062    22836376.860   120005962.553 5      1181.397          33.812    22836382.300    93511165.761 5       920.569          33.437    22836382.600    93511165.763 7       920.569          46.875
R03  21021250.060   112528393.396 7       -15.631          45.437    21021249.920   112528393.419 7       -15.631          45.375    21021259.320    87522123.287 8       -12.158          48.500    21021259.820    87522124.289 8       -12.158          49.250
G21  23406401.240   123001470.784 7      1505.214          44.000    23406399.040   123001470.788 5      1505.214          32.875    23406405.580    95845295.919 5      1172.894          32.875
G17  21706466.660   114068269.461 7      5198.909          47.125    21706465.640   114068269.461 7      5198.909          45.750    21706468.620    88884372.640 7      4051.098          45.562    21706469.020    88884378.639 7      4051.098          47.750
R18  20586096.300   109889990.665 7      2435.186          46.187    20586095.960   109889990.663 7      2435.186          47.375    20586105.460    85470020.474 8      1894.034          48.937    20586105.260    85470022.472 8      1894.034          49.187
> 2024 07 31 11 16 39.0000000  0 17
G04  21422090.740   112573849.416 7      5007.534          46.687    21422089.840   112573849.427 6      5007.534          38.000    21422094.880    87719882.679 6      3901.975          37.625    21422096.200    87719904.682 8      3901.975          50.750
G08  24640794.840   129488241.675 6      -479.991          39.750    24640794.080   129488241.664 6      -479.991          37.125    24640809.440   100899989.826 6      -374.019          36.562    24640810.680   100899993.827 7      -374.019          43.437
G06  24805045.260   130351379.041 6      5168.192          38.250    24805045.140   130351379.040 5      5168.192          35.062    24805055.180   101572555.657 5      4027.162          34.312    24805055.760   101572555.663 7      4027.162          43.000
G02  22313194.420   117256630.611 7      2109.615          45.687    22313191.920   117256630.614 6      2109.615          37.562    22313195.880    91368798.465 6      1643.856          37.687
G09  23044524.020   121099790.422 7      6400.514          42.437    23044522.120   121099790.432 6      6400.514          41.187    23044531.860    94363512.676 6      4987.413          40.750    23044532.460    94363515.671 7      4987.413          44.500
R05  21768428.440   116364724.788 7      6917.610          47.250    21768428.900   116364724.792 7      6917.610          46.500    21768440.940    90505947.167 7      5380.363          47.437    21768440.180    90505948.161 7      5380.363          47.812
R17  23547770.200   126008851.502 6       491.861          36.062    23547768.560   126008851.520 6       491.861          36.437    23547792.200    98006979.560 7       382.559          45.312    23547792.020    98006978.553 7       382.559          45.625
R04  19246386.640   103063529.554 7      3740.808          47.875    19246387.400   103063529.588 7      3740.808          47.312    19246396.520    80160558.597 8      2909.517          50.937    19246396.140    80160557.604 8      2909.517          50.500
R09  24114597.820   128770596.830 6       730.984          41.562    24114597.040   128770596.839 6       730.984          41.750    24114608.400   100154959.199 7       568.543          42.625    24114608.540   100154960.192 7       568.543          42.500
G19  23309129.320   122490307.622 7      6415.558          42.000    23309127.700   122490307.626 5      6415.558          30.500    23309131.580    95447015.209 5      4999.136          30.500
G22  23363509.640   122776070.906 7      2472.958          43.125    23363508.600   122776070.911 5      2472.958          30.187    23363513.060    95669679.879 5      1926.980          30.000
G03  20512534.600   107794090.473 8      1525.837          48.437    20512534.020   107794090.478 8      1525.837          49.062    20512538.820    83995444.799 8      1188.964          49.375    20512539.720    83995418.797 8      1188.964          50.000
G14  22836152.540   120004781.143 7      1181.172          44.562    22836152.020   120004781.158 5      1181.172          33.812    22836157.400    93510245.193 5       920.394          33.437    22836158.020    93510245.195 7       920.394          47.125
R03  21021252.660   112528409.041 7       -15.869          46.437    21021252.880   112528409.061 7       -15.869          45.312    21021262.360    87522135.453 8       -12.343          49.375    21021262.620    87522136.454 8       -12.343          48.875
G21  23406114.980   122999965.318 7      1505.490          43.937    23406112.600   122999965.323 5      1505.490          32.875    23406118.980    95844122.829 5      1173.109          32.875
G17  21705477.120   114063070.400 7      5198.916          47.375    21705476.240   114063070.402 7      5198.916          46.125    21705479.300    88880321.429 7      4051.104          46.500    21705479.660    88880327.426 7      4051.104          47.812
R18  20585640.060   109887555.331 7      2435.132          47.000    20585639.680   109887555.335 7      2435.132          47.062    20585649.380    85468126.333 8      1893.991          50.312    20585649.160    85468128.333 8      1893.991          50.375
> 2024 07 31 11 16 40.0000000  0 17
G04  21421137.800   112568841.778 7      5007.570          46.125    21421136.840   112568841.790 6      5007.570          37.812    21421141.940    87715980.630 6      3902.002          38.062    21421143.320    87716002.632 8      3902.002          51.000
G08  24640885.940   129488721.428 6      -479.699          39.687    24640885.220   129488721.420 6      -479.699          36.062    24640900.560   100900363.654 6      -373.792          36.125    24640901.440   100900367.665 7      -373.792          43.062
G06  24804061.800   130346210.624 6      5168.643          38.187    24804061.640   130346210.629 5      5168.643          35.062    24804071.520   101568528.327 5      4027.514          34.750    24804072.760   101568528.329 7      4027.514          43.000
G02  22312793.040   117254520.822 7      2109.896          45.750    22312790.420   117254520.827 6      2109.896          37.562    22312794.200    91367154.484 6      1644.074          37.875
G09  23043305.960   121093389.705 6      6400.801          41.375    23043303.960   121093389.723 6      6400.801          40.437    23043313.680    94358525.116 6      4987.637          40.250    23043314.380    94358528.114 7      4987.637          44.125
R05  21767134.020   116357807.028 7      6917.731          46.562    21767135.220   116357807.035 7      6917.731          46.437    21767146.860    90500566.708 7      5380.458          47.500    21767146.160    90500567.702 7      5380.458          47.687
R17  23547678.040   126008359.451 6       491.836          36.062    23547677.640   126008359.474 6       491.836          36.437    23547700.400    98006596.844 7       382.539          46.062    23547699.980    98006595.839 7       382.539          45.937
R04  19245688.080   103059788.891 8      3740.397          48.250    19245688.940   103059788.925 7      3740.397          46.562    19245697.980    80157649.200 8      2909.198          50.437    19245697.500    80157648.205 8      2909.198          50.687
R09  24114461.040   128769865.786 6       730.999          41.562    24114459.960   128769865.795 6       730.999          41.562    24114471.420   100154390.613 7       568.555          42.625    24114471.580   100154391.611 7       568.555          42.500
G19  23307908.320   122483891.856 7      6415.870          42.562    23307906.880   122483891.867 5      6415.870          30.500    23307910.720    95442015.924 5      4999.380          30.500
G22  23363039.080   122773597.716 7      2473.085          43.312    23363037.840   122773597.718 5      2473.085          30.187    23363042.460    95667752.718 5      1927.079          30.000
G03  20512244.280   107792564.618 7      1525.822          47.875    20512243.500   107792564.618 8      1525.822          49.187    20512248.400    83994255.819 8      1188.952          49.312    20512249.360    83994229.813 8      1188.952          50.437
G14  22835927.880   120003599.761 7      1181.309          44.375    22835927.040   120003599.779 5      1181.309          33.187    22835932.580    93509324.636 5       920.500          33.437    22835933.340    93509324.632 7       920.500          47.062
R03  21021255.920   112528424.902 7       -15.899          45.875    21021256.200   112528424.930 7       -15.899          45.500    21021265.340    87522147.796 8       -12.366          48.937    21021265.680    87522148.797 8       -12.366          48.187
G21  23405828.560   122998459.653 7      1505.713          44.000    23405826.040   122998459.653 5      1505.713          33.187    23405832.580    95842949.583 5      1173.283          33.312
G17  21704487.860   114057871.370 7      5199.023          46.875    21704486.920   114057871.369 7      5199.023          46.687    21704489.780    88876270.241 7      4051.187          46.687    21704490.360    88876276.238 8      4051.187          48.000
R18  20585183.800   109885120.105 7      2435.128          47.062    20585183.580   109885120.103 7      2435.128          46.625    20585193.360    85466232.270 8      1893.989          50.375    20585192.900    85466234.265 8      1893.989          50.562
> 2024 07 31 11 16 41.0000000  0 17
G04  21420184.700   112563834.430 7      5007.026          47.062    21420184.020   112563834.443 6      5007.026          37.750    21420189.120    87712078.808 6      3901.579          37.750    21420190.540    87712100.809 8      3901.579          50.625
G08  24640977.360   129489201.060 6      -479.711          39.500    24640976.380   129489201.060 5      -479.711          35.625    24640991.900   100900737.395 5      -373.801          35.625    24640993.200   100900741.406 7      -373.801          42.875
G06  24803078.300   130341041.918 6      5168.602          37.875    24803078.160   130341041.934 5      5168.602          34.812    24803087.920   101564500.781 5      4027.482          34.750    24803088.900   101564500.793 7      4027.482          43.000
G02  22312391.440   117252410.986 7      2109.695          45.125    22312388.980   117252410.994 6      2109.695          37.937    22312392.700    91365510.458 6      1643.918          37.750
G09  23042087.880   121086988.914 6      6400.818          41.625    23042085.820   121086988.927 6      6400.818          40.562    23042095.560    94353537.493 6      4987.650          40.437    23042096.360    94353540.497 7      4987.650          44.375
R05  21765840.300   116350889.472 7      6917.390          47.875    21765840.920   116350889.476 7      6917.390          46.687    21765852.880    90495186.389 7      5380.192          47.812    21765851.900    90495187.383 8      5380.192          48.125
R17  23547586.680   126007867.437 6       491.828          36.062    23547585.820   126007867.484 6       491.828          36.500    23547608.280    98006214.168 7       382.533          45.875    23547608.140    98006213.168 7       382.533          46.125
R04  19244989.660   103056048.862 8      3739.562          48.250    19244990.360   103056048.901 7      3739.562          47.125    19244999.580    80154740.297 8      2908.548          50.875    19244999.080    80154739.302 8      2908.548          51.437
R09  24114323.680   128769134.772 6       730.854          41.812    24114323.120   128769134.776 6       730.854          41.562    24114334.720   100153822.045 7       568.442          42.562    24114334.760   100153823.036 7       568.442          42.437
G19  23306687.700   122477476.052 7      6415.672          42.000    23306685.960   122477476.062 5      6415.672          30.500    23306689.840    95437016.606 5      4999.225          30.062
G22  23362568.540   122771124.799 7      2472.663          43.062    23362567.220   122771124.803 5      2472.663          30.187    23362571.900    95665825.767 5      1926.750          30.000
G03  20511953.960   107791038.902 8      1525.433          48.187    20511953.260   107791038.905 8      1525.433          48.437    20511958.060    83993066.954 8      1188.649          48.750    20511958.900    83993040.948 8      1188.649          49.750
G14  22835703.340   120002418.531 7      1181.008          44.500    22835702.360   120002418.544 5      1181.008          33.312    22835707.900    93508404.193 5       920.266          33.437    22835708.480    93508404.193 7       920.266          47.687
R03  21021259.320   112528441.114 7       -16.457          45.750    21021258.800   112528441.139 7       -16.457          45.125    21021268.360    87522160.405 8       -12.800          49.875    21021268.760    87522161.406 8       -12.800          49.250
G21  23405541.940   122996953.836 7      1505.735          44.312    23405539.400   122996953.841 5      1505.735          33.187    23405545.960    95841776.221 5      1173.300          33.312
G17  21703498.620   114052672.469 7      5198.767          46.625    21703497.500   114052672.471 7      5198.767          46.187    21703500.680    88872219.154 7      4050.988          45.937    21703501.120    88872225.157 8      4050.988          48.000
R18  20584727.820   109882685.081 7      2434.772          46.937    20584727.420   109882685.082 7      2434.772          47.437    20584737.100    85464338.364 8      1893.712          50.250    20584736.800    85464340.364 8      1893.712          50.250
> 2024 07 31 11 16 42.0000000  0 17
G04  21419231.920   112558827.367 7      5007.098          47.062    21419231.100   112558827.380 6      5007.098          38.062    21419236.260    87708177.204 6      3901.635          37.687    21419237.620    87708199.205 8      3901.635          50.625
G08  24641068.540   129489680.648 6      -479.245          39.312    24641067.640   129489680.650 5      -479.245          35.687    24641083.200   100901111.096 5      -373.438          35.312    24641084.880   100901115.097 7      -373.438          42.875
G06  24802094.600   130335873.013 6      5169.141          38.062    24802094.640   130335873.018 5      5169.141          34.312    24802104.240   101560473.062 5      4027.902          34.500    24802105.580   101560473.054 7      4027.902          43.125
G02  22311989.740   117250301.116 7      2110.014          45.562    22311987.580   117250301.118 6      2110.014          37.812    22311991.160    91363866.403 6      1644.166          37.750
G09  23040869.680   121080588.136 6      6400.909          41.750    23040867.960   121080588.144 6      6400.909          40.687    23040877.840    94348549.892 6      4987.721          40.562    23040878.140    94348552.900 7      4987.721          44.437
R05  21764546.360   116343972.111 7      6917.509          46.437    21764546.920   116343972.117 7      6917.509          45.937    21764558.780    90489806.231 7      5380.285          47.312    21764557.900    90489807.227 7      5380.285          47.750
R17  23547495.220   126007375.670 6       491.871          37.187    23547494.800   126007375.688 6       491.871          36.500    23547516.520    98005831.645 7       382.567          45.625    23547516.140    98005830.642 7       382.567          46.125
R04  19244291.540   103052309.578 7      3739.068          47.750    19244292.100   103052309.614 7      3739.068          47.062    19244301.220    80151831.965 8      2908.164          50.312    19244300.840    80151830.972 8      2908.164          51.500
R09  24114186.820   128768403.873 6       731.044          41.812    24114186.540   128768403.866 6       731.044          41.312    24114197.860   100153253.567 7       568.590          42.500    24114198.060   100153254.565 7       568.590          42.937
G19  23305466.520   122471060.253 6      6415.928          41.437    23305464.980   122471060.260 4      6415.928          29.625    23305468.860    95432017.290 5      4999.424          30.062
G22  23362098.100   122768652.194 7      2472.713          42.625    23362096.580   122768652.196 5      2472.713          30.187    23362101.360    95663899.062 5      1926.789          30.000
G03  20511663.600   107789513.355 7      1525.627          47.875    20511663.000   107789513.360 8      1525.627          48.812    20511667.800    83991878.222 8      1188.800          49.062    20511668.560    83991852.218 8      1188.800          50.062
G14  22835478.320   120001237.486 7      1181.092          44.812    22835477.560   120001237.501 5      1181.092          33.312    22835483.080    93507483.902 5       920.331          33.187    22835483.860    93507483.904 7       920.331          47.000
R03  21021262.480   112528457.673 7       -16.528          45.875    21021262.120   112528457.691 7       -16.528          45.687    21021271.360    87522173.276 8       -12.855          49.375    21021271.760    87522174.276 8       -12.855          49.000
G21  23405255.460   122995447.964 7      1506.093          44.500    23405252.840   122995447.969 5      1506.093          33.500    23405259.280    95840602.814 5      1173.579          33.500
G17  21702509.300   114047473.751 7      5198.902          47.000    21702508.220   114047473.748 7      5198.902          46.187    21702511.280    88868168.211 7      4051.092          46.250    21702511.880    88868174.212 7      4051.092          47.812
R18  20584271.640   109880250.327 7      2434.789          46.562    20584271.180   109880250.322 7      2434.789          46.687    20584281.060    85462444.664 8      1893.725          50.562    20584280.720    85462446.667 8      1893.725          50.625
> 2024 07 31 11 16 43.0000000  0 17
G04  21418278.880   112553820.364 7      5007.040          46.437    21418278.280   112553820.374 6      5007.040          37.812    21418283.420    87704275.653 6      3901.590          37.562    21418284.800    87704297.659 8      3901.590          50.500
G08  24641159.780   129490159.926 6      -478.971          39.562    24641158.800   129490159.931 6      -478.971          36.500    24641174.540   100901484.553 6      -373.224          36.250    24641176.080   100901488.558 7      -373.224          43.437
G06  24801110.860   130330703.550 6      5169.863          38.062    24801110.640   130330703.553 5      5169.863          34.312    24801120.560   101556444.916 5      4028.465          34.312    24801121.780   101556444.920 7      4028.465          43.187
G02  22311588.220   117248190.961 7      2110.352          45.500    22311585.960   117248190.964 6      2110.352          37.625    22311589.500    91362222.127 6      1644.430          37.375
G09  23039651.580   121074187.067 7      6401.232          42.500    23039649.960   121074187.077 6      6401.232          41.187    23039659.720    94343562.058 6      4987.973          40.937    23039660.060    94343565.058 7      4987.973          44.437
R05  21763252.240   116337054.728 7      6917.465          46.875    21763252.520   116337054.737 7      6917.465          46.312    21763264.600    90484426.065 7      5380.251          47.125    21763263.900    90484427.064 8      5380.251          48.125
R17  23547404.000   126006883.766 6       491.975          37.187    23547403.380   126006883.781 6       491.975          36.500    23547424.640    98005449.041 7       382.647          46.000    23547424.180    98005448.040 7       382.647          46.562
R04  19243593.520   103048570.748 8      3738.675          48.562    19243594.220   103048570.779 7      3738.675          47.000    19243602.800    80148923.989 8      2907.858          50.437    19243602.760    80148922.994 8      2907.858          50.875
R09  24114049.840   128767672.797 6       731.255          40.750    24114049.500   128767672.803 6       731.255          41.312    24114060.680   100152684.967 7       568.754          42.500    24114060.900   100152685.961 7       568.754          43.000
G19  23304245.660   122464644.172 7      6416.264          42.187    23304244.020   122464644.177 4      6416.264          29.625    23304248.040    95427017.755 5      4999.686          30.062
G22  23361627.560   122766179.626 7      2472.695          43.500    23361625.980   122766179.626 5      2472.695          30.187    23361630.840    95661972.390 5      1926.775          30.312
G03  20511373.240   107787987.747 8      1525.627          48.062    20511372.660   107787987.750 8      1525.627          48.812    20511377.480    83990689.437 8      1188.801          49.062    20511378.480    83990663.431 8      1188.801          49.937
G14  22835253.660   120000056.367 7      1181.234          44.187    22835252.840   120000056.382 5      1181.234          33.437    22835258.520    93506563.549 5       920.442          33.187    22835259.040    93506563.552 7       920.442          47.062
R03  21021265.500   112528474.324 7       -16.645          46.000    21021265.120   112528474.347 7       -16.645          45.312    21021274.480    87522186.235 8       -12.946          49.062    21021274.800    87522187.232 8       -12.946          49.375
G21  23404968.920   122993941.760 7      1506.498          43.875    23404966.060   122993941.765 5      1506.498          33.500    23404972.780    95839429.149 5      1173.895          33.500
G17  21701520.040   114042274.945 7      5198.952          47.125    21701518.940   114042274.950 7      5198.952          46.250    21701522.080    88864117.203 7      4051.131          46.250    21701522.280    88864123.202 8      4051.131          48.312
R18  20583815.620   109877815.524 7      2434.861          46.562    20583815.000   109877815.525 7      2434.861          47.500    20583824.780    85460550.936 8      1893.781          50.625    20583824.740    85460552.938 8      1893.781          50.625
> 2024 07 31 11 16 44.0000000  0 17
G04  21417326.480   112548813.353 7      5006.780          46.125    21417325.440   112548813.366 6      5006.780          37.625    21417330.600    87700374.092 6      3901.387          37.437    21417331.860    87700396.096 8      3901.387          50.437
G08  24641250.920   129490638.812 6      -478.897          39.562    24641250.000   129490638.814 6      -478.897          36.500    24641265.880   100901857.711 5      -373.167          35.812    24641267.220   100901861.726 7      -373.167          43.875
G06  24800127.260   130325533.597 6      5170.066          37.750    24800126.820   130325533.591 5      5170.066          34.562    24800136.660   101552416.382 5      4028.623          34.312    24800137.660   101552416.389 7      4028.623          43.375
G02  22311186.660   117246080.473 7      2110.460          45.437    22311184.400   117246080.476 6      2110.460          37.687    22311187.880    91360577.593 6      1644.515          37.812
G09  23038433.680   121067785.666 7      6401.357          42.687    23038431.880   121067785.669 6      6401.357          41.625    23038441.520    94338573.960 6      4988.071          41.312    23038442.160    94338576.960 7      4988.071          44.375
R05  21761958.300   116330137.254 7      6917.231          46.812    21761958.440   116330137.266 7      6917.231          47.000    21761970.160    90479045.814 7      5380.069          47.312    21761969.940    90479046.815 7      5380.069          47.812
R17  23547312.120   126006391.702 6       491.930          37.187    23547311.200   126006391.690 6       491.930          36.500    23547332.800    98005066.301 7       382.612          45.812    23547332.420    98005065.300 7       382.612          46.312
R04  19242895.460   103044832.337 8      3738.014          48.562    19242896.140   103044832.362 7      3738.014          47.062    19242904.720    80146016.335 8      2907.345          50.562    19242904.400    80146015.342 8      2907.345          50.875
R09  24113913.260   128766941.521 6       731.106          40.750    24113912.200   128766941.530 6       731.106          41.187    24113923.880   100152116.199 7       568.638          42.500    24113923.880   100152117.197 7       568.638          43.062
G19  23303024.960   122458227.769 6      6416.290          41.687    23303023.100   122458227.774 4      6416.290          29.625    23303026.920    95422017.969 5      4999.707          30.062
G22  23361157.100   122763707.072 7      2472.295          43.562    23361155.540   122763707.071 5      2472.295          30.187    23361160.260    95660045.722 5      1926.463          30.312
G03  20511082.860   107786461.993 8      1525.558          48.125    20511082.360   107786461.995 8      1525.558          48.562    20511087.200    83989500.541 8      1188.746          48.562    20511088.240    83989474.539 8      1188.746          49.937
G14  22835028.780   119998875.142 7      1181.002          44.125    22835028.020   119998875.158 5      1181.002          33.437    22835033.720    93505643.121 5       920.261          33.000    22835034.340    93505643.115 7       920.261          46.625
R03  21021268.600   112528491.031 7       -16.960          45.687    21021268.600   112528491.057 7       -16.960          45.500    21021277.700    87522199.232 8       -13.191          49.187    21021277.860    87522200.233 8       -13.191          48.812
G21  23404682.080   122992435.160 7      1506.584          44.062    23404679.380   122992435.162 5      1506.584          33.062    23404686.140    95838255.177 5      1173.962          33.000
G17  21700530.760   114037076.001 7      5198.795          47.312    21700529.620   114037076.004 7      5198.795          45.875    21700532.740    88860066.083 7      4051.009          46.187    21700533.160    88860072.080 8      4051.009          48.125
R18  20583359.620   109875380.616 7      2434.762          46.312    20583359.040   109875380.611 7      2434.762          47.250    20583368.560    85458657.120 8      1893.704          50.875    20583368.720    85458659.126 8      1893.704          50.312
> 2024 07 31 11 16 45.0000000  0 17
G04  21416373.500   112543806.636 7      5006.724          46.000    21416372.740   112543806.649 6      5006.724          37.750    21416377.860    87696472.759 6      3901.344          37.625    21416379.260    87696494.763 8      3901.344          50.687
G08  24641341.500   129491117.666 6      -478.325          40.125    24641341.000   129491117.666 6      -478.325          36.125    24641357.020   100902230.830 5      -372.720          35.812    24641358.020   100902234.831 7      -372.720          43.625
G06  24799143.180   130320363.419 6      5170.354          37.625    24799142.940   130320363.424 5      5170.354          34.562    24799152.820   101548387.681 5      4028.848          34.187    24799153.580   101548387.685 7      4028.848          43.375
G02  22310785.140   117243969.954 7      2110.722          45.562    22310782.780   117243969.961 6      2110.722          37.562    22310786.360    91358933.036 6      1644.718          37.187
G09  23037215.680   121061384.242 7      6401.567          42.562    23037213.820   121061384.247 6      6401.567          41.125    23037223.520    94333585.850 6      4988.234          41.125    23037224.220    94333588.854 7      4988.234          44.375
R05  21760664.420   116323220.029 7      6917.238          47.250    21760664.280   116323220.030 7      6917.238          46.437    21760676.040    90473665.755 7      5380.074          46.625    21760675.820    90473666.757 7      5380.074          47.125
R17  23547220.000   126005899.784 6       491.831          39.687    23547218.680   126005899.789 6       491.831          38.937    23547240.920    98004683.688 7       382.535          45.875    23547240.560    98004682.688 7       382.535          46.000
R04  19242197.500   103041094.635 8      3737.589          48.562    19242198.060   103041094.663 7      3737.589          46.875    19242206.720    80143109.240 8      2907.014          49.937    19242206.540    80143108.247 8      2907.014          51.000
R09  24113776.380   128766210.328 6       731.273          41.625    24113775.740   128766210.326 6       731.273          41.187    24113787.300   100151547.485 7       568.768          42.125    24113787.040   100151548.476 7       568.768          43.250
G19  23301803.820   122451811.344 7      6416.680          42.187    23301802.120   122451811.354 5      6416.680          30.000    23301805.860    95417018.167 4      5000.010          29.750
G22  23360686.880   122761234.790 7      2472.305          43.312    23360685.160   122761234.790 4      2472.305          29.875    23360689.940    95658119.271 5      1926.472          30.312
G03  20510792.540   107784936.424 7      1525.602          47.875    20510792.020   107784936.429 8      1525.602          48.750    20510796.840    83988311.790 8      1188.781          48.937    20510797.600    83988285.786 8      1188.781          49.812
G14  22834803.900   119997694.065 7      1181.167          44.187    22834803.320   119997694.081 5      1181.167          33.062    22834808.820    93504722.801 5       920.390          33.000    22834809.500    93504722.795 7       920.390          46.937
R03  21021271.460   112528508.140 7       -17.189          45.812    21021271.920   112528508.171 7       -17.189          45.187    21021280.920    87522212.542 8       -13.369          49.125    21021280.900    87522213.542 8       -13.369          49.375
G21  23404395.120   122990928.478 7      1506.937          44.000    23404392.800   122990928.483 5      1506.937          33.062    23404399.260    95837081.143 5      1174.237          33.000
G17  21699541.580   114031877.216 7      5198.905          47.750    21699540.240   114031877.221 7      5198.905          46.187    21699543.320    88856015.087 7      4051.095          46.187    21699543.880    88856021.086 8      4051.095          48.312
R18  20582903.360   109872945.963 7      2434.679          47.125    20582902.800   109872945.964 7      2434.679          47.062    20582912.460    85456763.507 8      1893.639          50.187    20582912.640    85456765.513 8      1893.639          50.937
> 2024 07 31 11 16 46.0000000  0 17
G04  21415420.620   112538800.235 7      5006.282          46.250    21415420.040   112538800.248 6      5006.282          37.437    21415425.180    87692571.675 6      3900.999          37.375    21415426.520    87692593.677 8      3900.999          50.437
G08  24641433.180   129491596.484 6      -478.631          38.562    24641431.980   129491596.479 5      -478.631          35.937    24641448.140   100902603.918 5      -372.959          35.625    24641449.140   100902607.925 7      -372.959          43.312
G06  24798159.620   130315192.985 6      5170.684          37.625    24798159.100   130315192.990 5      5170.684          34.562    24798168.960   101544358.777 5      4029.104          34.187    24798170.200   101544358.777 7      4029.104          43.187
G02  22310383.360   117241859.434 7      2110.546          45.687    22310381.200   117241859.442 6      2110.546          37.687    22310384.660    91357288.478 6      1644.581          37.625
G09  23035997.500   121054982.800 7      6401.578          42.875    23035995.780   121054982.799 6      6401.578          41.437    23036005.380    94328597.719 6      4988.243          40.937    23036005.760    94328600.723 7      4988.243          44.437
R05  21759370.320   116316303.053 7      6916.839          46.875    21759369.880   116316303.059 7      6916.839          46.625    21759381.580    90468285.896 7      5379.764          46.625    21759381.440    90468286.899 7      5379.764          47.000
R17  23547127.980   126005407.963 6       491.695          39.687    23547125.640   126005407.970 6       491.695          38.937    23547148.920    98004301.151 7       382.429          45.625    23547148.540    98004300.148 7       382.429          46.312
R04  19241499.440   103037357.631 8      3736.750          48.000    19241500.120   103037357.660 7      3736.750          47.187    19241508.900    80140202.686 8      2906.361          50.062    19241508.600    80140201.693 8      2906.361          51.000
R09  24113638.820   128765479.225 6       731.137          41.625    24113638.560   128765479.231 6       731.137          41.000    24113650.580   100150978.860 7       568.662          42.250    24113650.040   100150979.851 7       568.662          43.125
G19  23300582.760   122445394.951 6      6416.446          41.750    23300581.060   122445394.956 5      6416.446          30.000    23300584.900    95412018.387 4      4999.828          29.750
G22  23360215.980   122758762.822 7      2471.951          44.375    23360214.840   122758762.826 4      2471.951          29.875    23360219.560    95656193.068 5      1926.196          30.062
G03  20510502.620   107783411.037 8      1525.383          48.375    20510501.780   107783411.042 8      1525.383          48.437    20510506.560    83987123.177 8      1188.610          48.562    20510507.380    83987097.173 8      1188.610          49.625
G14  22834579.280   119996513.204 7      1180.865          44.000    22834578.660   119996513.222 5      1180.865          33.062    22834583.980    93503802.647 5       920.155          33.312    22834584.700    93503802.641 7       920.155          47.375
R03  21021274.880   112528525.625 7       -17.572          46.687    21021275.220   112528525.662 7       -17.572          45.187    21021284.320    87522226.153 8       -13.667          48.812    21021284.520    87522227.154 8       -13.667          49.187
G21  23404108.480   122989421.744 7      1506.866          43.562    23404106.180   122989421.746 5      1506.866          32.500    23404112.500    95835907.061 5      1174.181          32.750
G17  21698552.080   114026678.622 7      5198.590          47.187    21698550.980   114026678.622 7      5198.590          45.875    21698554.180    88851964.233 7      4050.849          46.000    21698554.380    88851970.234 7      4050.849          47.875
R18  20582447.020   109870511.574 7      2434.251          46.875    20582446.900   109870511.567 7      2434.251          46.812    20582456.500    85454870.086 8      1893.307          50.125    20582456.520    85454872.090 8      1893.307          50.812
> 2024 07 31 11 16 47.0000000  0 17
G04  21414468.200   112533793.981 7      5006.032          46.375    21414467.320   112533793.991 6      5006.032          37.750    21414472.600    87688670.704 6      3900.804          37.562    21414473.720    87688692.706 8      3900.804          50.187
G08  24641524.260   129492075.060 6      -478.611          38.750    24641523.000   129492075.052 5      -478.611          35.062    24641539.160   100902976.825 5      -372.944          34.812    24641540.140   100902980.823 7      -372.944          43.312
G06  24797175.120   130310022.180 6      5170.988          36.875    24797174.960   130310022.182 5      5170.988          34.312    24797185.100   101540329.580 5      4029.341          33.937    24797186.340   101540329.580 7      4029.341          43.187
G02  22309981.800   117239748.723 7      2110.702          45.812    22309979.520   117239748.728 6      2110.702          37.812    22309982.880    91355643.765 6      1644.703          37.187
G09  23034779.280   121048581.186 7      6401.630          42.750    23034777.820   121048581.189 6      6401.630          41.687    23034787.280    94323609.461 6      4988.283          41.250    23034787.600    94323612.465 7      4988.283          44.500
R05  21758076.200   116309386.138 7      6916.833          46.562    21758076.000   116309386.142 7      6916.833          46.125    21758087.540    90462906.082 7      5379.759          46.812    21758087.580    90462907.082 7      5379.759          46.937
R17  23547036.440   126004916.161 6       491.618          39.687    23547033.760   126004916.144 6       491.618          38.937    23547057.020    98003918.607 7       382.370          45.875    23547056.660    98003917.604 7       382.370          46.375
R04  19240801.620   103033621.150 8      3736.158          48.250    19240802.420   103033621.187 7      3736.158          47.250    19240811.120    80137296.544 8      2905.901          50.500    19240810.720    80137295.549 8      2905.901          50.812
R09  24113502.060   128764748.051 6       731.146          41.062    24113501.520   128764748.062 6       731.146          41.000    24113513.380   100150410.185 7       568.669          42.437    24113513.140   100150411.179 7       568.669          42.875
G19  23299361.500   122438978.364 7      6416.577          42.687    23299360.160   122438978.369 5      6416.577          30.000    23299363.780    95407018.457 4      4999.930          29.750
G22  23359745.500   122756291.016 7      2471.667          43.875    23359744.300   122756291.021 4      2471.667          29.875    23359749.220    95654266.986 5      1925.974          30.062
G03  20510212.160   107781885.679 8      1525.241          48.312    20510211.640   107781885.684 8      1525.241          49.187    20510216.360    83985934.590 8      1188.499          49.125    20510217.160    83985908.586 8      1188.499          50.250
G14  22834354.660   119995332.358 7      1180.777          44.750    22834353.960   119995332.373 5      1180.777          33.250    22834359.320    93502882.508 5       920.086          33.312    22834360.020    93502882.500 7       920.086          47.125
R03  21021278.140   112528543.379 7       -17.964          46.125    21021278.780   112528543.415 7       -17.964          45.250    21021287.600    87522239.959 8       -13.972          49.625    21021288.000    87522240.958 8       -13.972          49.500
G21  23403821.520   122987914.768 7      1506.913          44.875    23403819.400   122987914.773 5      1506.913          32.500    23403825.860    95834732.794 5      1174.218          32.750
G17  21697563.020   114021480.036 7      5198.474          47.062    21697561.720   114021480.036 7      5198.474          46.250    21697564.880    88847913.393 7      4050.759          46.187    21697565.240    88847919.394 7      4050.759          47.937
R18  20581990.940   109868077.220 7      2434.259          45.937    20581990.860   109868077.219 7      2434.259          47.187    20582000.440    85452976.710 8      1893.313          50.250    20582000.380    85452978.712 8      1893.313          50.562
> 2024 07 31 11 16 48.0000000  0 17
G04  21413515.360   112528787.910 7      5006.198          46.062    21413514.820   112528787.920 6      5006.198          37.437    21413520.040    87684769.872 6      3900.934          37.312    21413521.100    87684791.876 8      3900.934          50.000
G08  24641615.200   129492553.445 6      -478.070          38.750    24641613.980   129492553.436 5      -478.070          35.062    24641630.180   100903349.577 5      -372.522          34.812    24641631.100   100903353.586 7      -372.522          43.312
G06  24796191.400   130304851.049 6      5171.452          36.812    24796190.860   130304851.059 5      5171.452          34.312    24796201.020   101536300.136 5      4029.702          33.437    24796202.320   101536300.134 7      4029.702          42.812
G02  22309580.260   117237637.891 7      2111.004          45.750    22309577.900   117237637.893 6      2111.004          37.187    22309581.200    91353998.963 6      1644.938          37.812
G09  23033561.040   121042179.463 7      6401.882          42.812    23033559.740   121042179.470 6      6401.882          41.687    23033569.220    94318621.119 6      4988.480          41.250    23033569.740    94318624.121 7      4988.480          44.437
R05  21756782.220   116302469.351 7      6916.871          47.500    21756782.120   116302469.352 7      6916.871          46.187    21756793.260    90457526.365 7      5379.789          46.625    21756793.460    90457527.364 7      5379.789          46.875
R17  23546944.480   126004424.386 6       491.782          40.437    23546942.280   126004424.379 6       491.782          39.562    23546965.040    98003536.108 7       382.497          45.687    23546964.660    98003535.105 7       382.497          46.625
R04  19240104.100   103029885.317 8      3735.631          48.625    19240104.680   103029885.351 7      3735.631          46.937    19240113.460    80134390.901 8      2905.491          49.875    19240113.200    80134389.905 8      2905.491          50.937
R09  24113365.240   128764016.924 6       731.231          41.062    24113364.760   128764016.925 6       731.231          40.875    24113376.200   100149841.525 7       568.736          42.625    24113376.020   100149842.517 7       568.736          42.687
G19  23298140.600   122432561.679 7      6416.857          42.437    23298139.040   122432561.679 5      6416.857          30.000    23298142.740    95402018.449 4      5000.149          29.875
G22  23359275.600   122753819.425 7      2471.523          43.937    23359273.880   122753819.430 5      2471.523          30.125    23359278.940    95652341.071 5      1925.862          30.062
G03  20509922.060   107780360.397 8      1525.412          48.000    20509921.260   107780360.402 8      1525.412          49.000    20509926.080    83984746.061 8      1188.632          49.062    20509926.920    83984720.059 8      1188.632          49.812
G14  22834129.900   119994151.614 7      1180.817          44.687    22834129.360   119994151.630 5      1180.817          33.250    22834134.680    93501962.444 5       920.117          33.250    22834135.300    93501962.440 7       920.117          47.062
R03  21021281.420   112528561.413 7       -18.043          45.500    21021281.900   112528561.439 7       -18.043          45.312    21021291.040    87522253.982 8       -14.034          49.000    21021291.360    87522254.985 8       -14.034          49.125
G21  23403535.000   122986407.608 7      1507.360          44.875    23403532.480   122986407.613 5      1507.360          33.000    23403539.180    95833558.385 5      1174.566          33.000
G17  21696573.740   114016281.527 7      5198.578          47.375    21696572.500   114016281.529 7      5198.578          46.312    21696575.700    88843862.610 7      4050.840          45.937    21696575.900    88843868.615 8      4050.840          48.312
R18  20581534.980   109865643.029 7      2434.249          47.250    20581534.880   109865643.025 7      2434.249          47.375    20581544.300    85451083.450 8      1893.305          50.250    20581544.240    85451085.452 8      1893.305          50.625
> 2024 07 31 11 16 49.0000000  0 17
G04  21412562.780   112523782.003 7      5005.716          46.000    21412562.120   112523782.013 6      5005.716          37.812    21412567.420    87680869.171 6      3900.558          37.500    21412568.540    87680891.173 8      3900.558          50.562
G08  24641706.420   129493031.603 6      -478.049          38.937    24641705.060   129493031.608 5      -478.049          35.187    24641721.180   100903722.164 5      -372.505          34.625    24641722.640   100903726.171 7      -372.505          43.250
G06  24795207.920   130299679.508 6      5171.455          36.812    24795206.740   130299679.521 5      5171.455          33.750    24795216.960   101532270.370 5      4029.706          33.437    24795218.460   101532270.382 7      4029.706          43.187
G02  22309178.600   117235526.843 7      2111.109          45.375    22309176.140   117235526.846 6      2111.109          37.125    22309179.480    91352353.993 6      1645.020          37.437
G09  23032342.840   121035777.521 7      6402.033          43.437    23032341.600   121035777.529 6      6402.033          41.687    23032350.940    94313632.602 6      4988.597          41.750    23032351.520    94313635.605 7      4988.597          44.562
R05  21755488.240   116295552.570 7      6916.777          47.562    21755487.980   116295552.574 7      6916.777          46.375    21755499.360    90452146.657 7      5379.715          46.562    21755499.380    90452147.651 7      5379.715          46.812
R17  23546852.240   126003932.586 6       491.751          40.437    23546851.140   126003932.577 6       491.751          39.562    23546873.420    98003153.575 7       382.473          45.812    23546872.680    98003152.570 7       382.473          46.437
R04  19239406.600   103026150.009 7      3734.900          47.562    19239407.240   103026150.042 7      3734.900          47.500    19239415.920    80131485.667 8      2904.922          50.375    19239415.680    80131484.670 8      2904.922          50.437
R09  24113228.480   128763285.688 6       731.155          41.062    24113228.160   128763285.687 6       731.155          40.875    24113239.120   100149272.784 7       568.676          42.625    24113239.220   100149273.782 7       568.676          42.687
G19  23296919.460   122426144.768 7      6417.015          42.062    23296917.880   122426144.773 4      6417.015          29.875    23296921.900    95397018.269 4      5000.272          29.875
G22  23358805.200   122751347.917 7      2471.441          44.312    23358803.580   122751347.921 5      2471.441          30.125    23358808.520    95650415.222 5      1925.798          30.062
G03  20509631.580   107778835.105 8      1525.287          48.000    20509631.060   107778835.115 8      1525.287          48.937    20509635.860    83983557.526 8      1188.535          49.250    20509636.860    83983531.526 8      1188.535          50.312
G14  22833905.540   119992970.852 7      1180.696          44.750    22833904.580   119992970.868 5      1180.696          33.250    22833910.120    93501042.368 5       920.023          33.250    22833910.600    93501042.362 7       920.023          46.812
R03  21021284.820   112528579.635 7       -18.401          46.375    21021285.220   112528579.653 7       -18.401          44.875    21021294.760    87522268.146 8       -14.312          49.687    21021294.740    87522269.149 8       -14.312          49.125
G21  23403248.260   122984900.188 7      1507.462          44.812    23403245.760   122984900.188 5      1507.462          33.000    23403252.280    95832383.770 5      1174.646          33.000
G17  21695584.400   114011083.004 7      5198.442          46.750    21695583.320   114011083.003 7      5198.442          46.000    21695586.560    88839811.817 7      4050.734          45.562    21695586.660    88839817.821 8      4050.734          48.000
R18  20581079.480   109863208.868 7      2434.057          46.375    20581078.640   109863208.858 7      2434.057          47.250    20581088.280    85449190.207 8      1893.155          50.000    20581088.360    85449192.213 8      1893.155          50.125
> 2024 07 31 11 16 50.0000000  0 17
G04  21411610.480   112518776.408 7      5005.453          46.000    21411609.740   112518776.416 6      5005.453          37.750    21411614.840    87676968.718 6      3900.353          37.750    21411616.020    87676990.720 8      3900.353          49.875
G08  24641797.140   129493509.772 6      -478.201          39.187    24641795.980   129493509.771 5      -478.201          34.875    24641812.160   100904094.753 5      -372.624          34.250    24641813.520   100904098.756 7      -372.624          42.937
G06  24794223.380   130294507.757 6      5171.986          36.750    24794222.500   130294507.764 5      5171.986          33.750    24794233.060   101528240.438 5      4030.119          33.375    24794234.340   101528240.430 7      4030.119          43.187
G02  22308776.980   117233415.838 7      2110.975          45.687    22308774.320   117233415.843 6      2110.975          37.500    22308777.900    91350709.058 6      1644.916          37.250
G09  23031124.680   121029375.645 7      6401.820          42.812    23031123.640   121029375.647 6      6401.820          41.437    23031132.840    94308644.133 6      4988.431          41.187    23031133.140    94308647.137 7      4988.431          44.437
R05  21754194.600   116288636.082 7      6916.366          47.187    21754194.120   116288636.081 7      6916.366          45.812    21754205.520    90446767.175 7      5379.396          45.750    21754205.580    90446768.171 7      5379.396          46.625
R17  23546760.760   126003441.001 6       491.389          41.250    23546759.620   126003440.997 6       491.389          40.375    23546781.740    98002771.218 7       382.191          45.500    23546781.120    98002770.219 7       382.191          45.062
R04  19238708.860   103022415.447 7      3734.111          47.687    19238709.780   103022415.489 7      3734.111          47.500    19238718.540    80128581.016 8      2904.308          48.250    19238718.040    80128580.019 8      2904.308          48.500
R09  24113091.100   128762554.607 6       730.875          41.187    24113090.720   128762554.605 6       730.875          40.937    24113102.560   100148704.168 7       568.458          42.187    24113102.360   100148705.169 7       568.458          42.687
G19  23295698.320   122419727.952 7      6416.794          42.187    23295696.780   122419727.962 4      6416.794          29.875    23295700.780    95392018.159 4      5000.099          29.875
G22  23358335.040   122748876.757 7      2471.016          44.187    23358333.360   122748876.757 5      2471.016          30.125    23358338.200    95648489.639 5      1925.467          30.312
G03  20509341.420   107777310.067 8      1524.910          48.000    20509340.960   107777310.072 7      1524.910          47.562    20509345.640    83982369.185 7      1188.242          47.187    20509346.540    83982343.181 8      1188.242          48.375
G14  22833681.000   119991790.330 7      1180.383          45.250    22833679.960   119991790.343 5      1180.383          33.250    22833685.380    93500122.480 5       919.779          33.312    22833686.040    93500122.482 7       919.779          46.562
R03  21021288.280   112528598.285 7       -18.957          46.250    21021288.440   112528598.308 7       -18.957          44.625    21021298.160    87522282.660 8       -14.745          49.250    21021298.240    87522283.663 7       -14.745          47.375
G21  23402961.240   122983392.726 7      1507.521          44.937    23402959.060   122983392.728 5      1507.521          32.937    23402965.420    95831209.122 5      1174.692          33.000
G17  21694595.180   114005884.702 7      5198.173          46.625    21694593.980   114005884.701 7      5198.173          45.625    21694597.220    88835761.198 7      4050.524          45.375    21694597.240    88835767.200 7      4050.524          47.312
R18  20580623.680   109860774.997 7      2433.660          45.750    20580622.520   109860774.998 7      2433.660          46.875    20580632.160    85447297.211 8      1892.846          49.312    20580632.260    85447299.211 8      1892.846          50.062
> 2024 07 31 11 16 51.0000000  0 17
G04  21410657.780   112513771.039 7      5005.351          46.000    21410657.240   112513771.052 6      5005.351          37.812    21410662.480    87673068.439 6      3900.274          37.750    21410663.500    87673090.442 8      3900.274          50.687
G08  24641888.300   129493987.762 6      -477.876          38.625    24641886.900   129493987.759 5      -477.876          34.875    24641903.140   100904467.204 5      -372.371          34.250    24641904.220   100904471.211 7      -372.371          42.750
G06  24793239.400   130289335.730 6      5172.134          36.750    24793238.220   130289335.732 5      5172.134          33.625    24793248.680   101524210.291 5      4030.234          33.375    24793249.900   101524210.281 7      4030.234          42.937
G02  22308374.980   117231304.714 7      2111.225          45.625    22308372.680   117231304.722 6      2111.225          37.375    22308376.120    91349064.028 6      1645.111          37.250
G09  23029906.480   121022973.632 7      6402.089          43.500    23029905.440   121022973.629 7      6402.089          42.187    23029914.540    94303655.558 7      4988.641          42.125    23029915.140    94303658.562 7      4988.641          44.562
R05  21752900.420   116281719.729 7      6916.281          47.250    21752900.040   116281719.730 7      6916.281          46.562    21752911.960    90441387.799 7      5379.329          46.375    21752911.920    90441388.795 7      5379.329          46.500
R17  23546669.320   126002949.431 6       491.652          41.250    23546667.980   126002949.446 6       491.652          40.375    23546689.660    98002388.884 7       382.396          45.875    23546689.260    98002387.883 7       382.396          45.750
R04  19238011.800   103018681.491 7      3733.619          47.812    19238012.140   103018681.533 7      3733.619          47.437    19238021.140    80125676.834 8      2903.926          50.000    19238020.780    80125675.837 8      2903.926          50.187
R09  24112954.180   128761823.446 6       731.171          41.187    24112953.520   128761823.460 6       731.171          40.937    24112965.480   100148135.499 7       568.689          42.125    24112965.500   100148136.503 7       568.689          42.250
G19  23294476.940   122413311.005 6      6417.000          41.562    23294475.560   122413311.010 4      6417.000          29.875    23294479.620    95387017.950 4      5000.260          29.875
G22  23357864.860   122746405.818 7      2470.942          43.812    23357863.200   122746405.818 5      2470.942          30.250    23357867.900    95646564.234 5      1925.409          30.312
G03  20509051.300   107775785.095 7      1524.977          47.687    20509050.680   107775785.100 8      1524.977          48.687    20509055.440    83981180.899 8      1188.294          48.937    20509056.700    83981154.897 8      1188.294          50.375
G14  22833456.080   119990609.920 7      1180.221          44.562    22833455.400   119990609.935 5      1180.221          33.125    22833460.820    93499202.682 5       919.653          33.312    22833461.360    93499202.678 7       919.653          46.625
R03  21021291.860   112528617.214 7       -19.100          46.625    21021292.180   112528617.237 7       -19.100          44.812    21021301.800    87522297.382 8       -14.855          48.875    21021301.920    87522298.383 8       -14.855          49.312
G21  23402674.340   122981885.117 7      1507.672          45.000    23402672.280   122981885.121 5      1507.672          32.937    23402678.640    95830034.366 5      1174.809          33.000
G17  21693606.000   114000686.470 7      5198.223          47.000    21693604.720   114000686.473 7      5198.223          46.187    21693608.040    88831710.635 7      4050.563          46.250    21693608.120    88831716.638 8      4050.563          48.500
R18  20580167.920   109858341.305 7      2433.600          45.000    20580166.880   109858341.298 7      2433.600          46.812    20580176.480    85445404.329 8      1892.800          49.937    20580176.340    85445406.331 8      1892.800          50.375
> 2024 07 31 11 16 52.0000000  0 17
G04  21409705.320   112508765.884 7      5004.951          45.750    21409704.780   112508765.891 6      5004.951          38.062    21409709.920    87669168.321 6      3899.962          37.500    21409711.280    87669190.321 8      3899.962          50.500
G08  24641979.220   129494465.571 6      -477.837          38.875    24641977.900   129494465.568 5      -477.837          34.687    24641994.060   100904839.515 5      -372.340          34.437    24641995.320   100904843.530 7      -372.340          42.750
G06  24792255.560   130284163.304 6      5172.520          37.125    24792253.980   130284163.306 5      5172.520          33.625    24792264.480   101520179.833 5      4030.535          33.437    24792265.780   101520179.844 7      4030.535          43.187
G02  22307973.140   117229193.454 7      2111.236          45.687    22307970.920   117229193.453 6      2111.236          37.625    22307974.400    91347418.888 6      1645.119          37.625
G09  23028687.980   121016571.494 7      6401.971          43.812    23028687.340   121016571.499 6      6401.971          41.687    23028696.260    94298666.895 6      4988.548          41.875    23028697.100    94298669.900 7      4988.548          44.687
R05  21751606.560   116274803.503 7      6915.978          47.062    21751606.580   116274803.502 7      6915.978          46.875    21751618.220    90436008.521 7      5379.094          46.625    21751617.840    90436009.519 7      5379.094          46.750
R17  23546576.960   126002457.921 6       491.365          41.250    23546576.400   126002457.933 6       491.365          40.375    23546597.700    98002006.592 7       382.173          45.375    23546597.340    98002005.595 7       382.173          46.125
R04  19237314.720   103014948.145 8      3732.923          48.000    19237315.040   103014948.184 7      3732.923          47.187    19237323.900    80122773.121 8      2903.385          50.000    19237323.680    80122772.124 8      2903.385          50.625
R09  24112817.580   128761092.303 6       731.055          40.687    24112817.140   128761092.312 6       731.055          40.937    24112828.620   100147566.833 7       568.599          42.312    24112828.260   100147567.839 7       568.599          42.500
G19  23293255.640   122406893.947 6      6417.045          41.500    23293254.300   122406893.949 4      6417.045          29.875    23293258.540    95382017.653 4      5000.295          29.687
G22  23357394.680   122743935.093 7      2470.380          43.000    23357393.180   122743935.097 5      2470.380          30.250    23357397.680    95644638.998 5      1924.971          30.312
G03  20508761.140   107774260.207 7      1524.697          47.250    20508760.540   107774260.212 8      1524.697          48.812    20508765.340    83979992.677 8      1188.075          48.937    20508766.640    83979966.675 8      1188.075          50.125
G14  22833231.540   119989429.537 7      1180.189          44.687    22833230.840   119989429.555 5      1180.189          33.250    22833236.080    93498282.903 5       919.628          33.125    22833236.920    93498282.903 7       919.628          46.812
R03  21021295.060   112528636.399 7       -19.453          46.062    21021295.440   112528636.417 7       -19.453          45.000    21021305.520    87522312.304 8       -15.130          49.250    21021305.520    87522313.308 8       -15.130          49.375
G21  23402387.180   122980377.316 7      1507.717          44.687    23402385.460   122980377.326 5      1507.717          33.062    23402391.740    95828859.456 5      1174.845          33.000
G17  21692616.820   113995488.305 7      5197.997          46.812    21692615.560   113995488.312 7      5197.997          46.125    21692618.920    88827660.124 7      4050.388          45.750    21692619.120    88827666.130 8      4050.388          48.250
R18  20579711.820   109855907.720 7      2433.390          45.750    20579711.000   109855907.713 7      2433.390          46.375    20579720.520    85443511.543 8      1892.636          50.375    20579720.240    85443513.543 8      1892.636          50.125
> 2024 07 31 11 16 53.0000000  0 17
G04  21408752.860   112503760.980 7      5004.922          46.687    21408752.260   112503760.995 6      5004.922          37.250    21408757.440    87665268.405 6      3899.939          37.437    21408758.880    87665290.406 8      3899.939          50.687
G08  24642070.220   129494943.290 6      -477.475          38.500    24642068.620   129494943.290 5      -477.475          34.625    24642085.020   100905211.758 5      -372.058          34.562    24642086.220   100905215.767 7      -372.058          42.625
G06  24791270.720   130278990.672 6      5172.688          36.750    24791269.720   130278990.675 5      5172.688          33.812    24791280.080   101516149.218 5      4030.666          33.437    24791281.220   101516149.218 7      4030.666          43.125
G02  22307571.480   117227082.138 7      2111.529          45.250    22307569.260   117227082.140 6      2111.529          37.500    22307572.600    91345773.711 6      1645.348          37.750
G09  23027469.760   121010169.305 7      6402.418          44.625    23027469.220   121010169.305 7      6402.418          42.375    23027478.140    94293678.180 7      4988.897          42.187    23027478.700    94293681.182 7      4988.897          44.875
R05  21750313.000   116267887.473 7      6916.064          46.812    21750312.680   116267887.466 7      6916.064          46.812    21750324.500    90430629.390 7      5379.161          46.937    21750324.300    90430630.385 7      5379.161          47.187
R17  23546485.000   126001966.490 6       491.567          41.250    23546484.680   126001966.495 6       491.567          41.187    23546506.140    98001624.345 7       382.330          45.750    23546505.800    98001623.347 7       382.330          46.125
R04  19236617.800   103011215.517 8      3732.416          48.312    19236618.080   103011215.551 7      3732.416          46.875    19236626.940    80119869.966 8      2902.990          50.062    19236626.880    80119868.970 8      2902.990          50.437
R09  24112680.500   128760361.241 6       731.144          40.687    24112679.940   128760361.239 6       731.144          40.750    24112691.600   100146998.220 7       568.668          42.562    24112691.520   100146999.220 7       568.668          43.000
G19  23292034.720   122400476.852 6      6417.180          41.875    23292033.240   122400476.857 5      6417.180          30.000    23292037.360    95377017.326 4      5000.400          29.687
G22  23356924.440   122741464.603 7      2470.558          43.625    23356922.980   122741464.605 5      2470.558          30.250    23356927.580    95642713.941 5      1925.110          30.312
G03  20508471.040   107772735.454 8      1524.817          48.375    20508470.440   107772735.464 8      1524.817          49.125    20508475.180    83978804.561 8      1188.169          49.312    20508476.260    83978778.557 8      1188.169          50.375
G14  22833006.980   119988249.337 7      1180.255          45.062    22833006.320   119988249.355 5      1180.255          33.250    22833011.440    93497363.271 5       919.679          33.125    22833012.040    93497363.269 7       919.679          46.562
R03  21021299.240   112528655.927 7       -19.596          46.187    21021298.860   112528655.950 7       -19.596          45.375    21021309.140    87522327.497 8       -15.241          49.375    21021309.140    87522328.496 8       -15.241          49.312
G21  23402100.520   122978869.396 7      1508.104          45.000    23402098.540   122978869.404 5      1508.104          33.062    23402104.720    95827684.452 5      1175.146          33.125
G17  21691627.720   113990290.276 7      5198.141          46.937    21691626.480   113990290.278 7      5198.141          46.250    21691629.700    88823609.716 7      4050.499          46.375    21691630.140    88823615.720 8      4050.499          48.312
R18  20579255.960   109853474.333 7      2433.451          47.250    20579255.100   109853474.328 7      2433.451          46.562    20579264.580    85441618.914 8      1892.684          50.000    20579264.440    85441620.916 8      1892.684          50.312
> 2024 07 31 11 16 54.0000000  0 17
G04  21407800.580   112498756.250 7      5004.633          46.875    21407799.840   112498756.257 6      5004.633          37.437    21407805.040    87661368.617 6      3899.714          37.937    21407806.580    87661390.619 8      3899.714          50.312
G08  24642161.020   129495420.826 6      -477.604          38.500    24642159.580   129495420.836 5      -477.604          34.625    24642175.980   100905583.859 5      -372.159          34.562    24642177.180   100905587.870 7      -372.159          42.625
G06  24790285.940   130273817.610 6      5173.227          36.750    24790285.200   130273817.612 5      5173.227          33.812    24790295.820   101512118.266 5      4031.086          33.125    24790296.780   101512118.262 7      4031.086          43.500
G02  22307169.780   117224970.660 7      2111.481          45.812    22307167.500   117224970.662 6      2111.481          37.562    22307170.760    91344128.408 6      1645.310          37.500
G09  23026251.620   121003766.961 7      6402.376          44.125    23026250.860   121003766.958 7      6402.376          42.562    23026259.780    94288689.349 7      4988.864          42.562    23026260.420    94288692.351 7      4988.864          44.562
R05  21749019.240   116260971.525 7      6915.826          46.750    21749019.380   116260971.516 7      6915.826          46.000    21749030.840    90425250.324 7      5378.976          46.687    21749030.380    90425251.325 7      5378.976          46.875
R17  23546393.580   126001475.068 7       491.289          42.687    23546392.820   126001475.062 6       491.289          41.187    23546414.080    98001242.111 7       382.113          44.812    23546413.560    98001241.115 7       382.113          45.000
R04  19235920.500   103007483.443 8      3731.745          48.437    19235921.320   103007483.479 7      3731.745          47.375    19235929.940    80116967.250 8      2902.468          50.125    19235929.780    80116966.257 8      2902.468          50.750
R09  24112543.580   128759630.128 6       731.061          41.750    24112543.020   128759630.132 6       731.061          40.750    24112555.060   100146429.581 7       568.603          42.125    24112554.740   100146430.583 7       568.603          42.750
G19  23290813.520   122394059.576 6      6417.358          41.500    23290812.040   122394059.587 5      6417.358          30.000    23290816.080    95372016.860 4      5000.539          29.687
G22  23356454.300   122738994.285 7      2470.091          43.562    23356452.820   122738994.290 5      2470.091          30.250    23356457.420    95640789.019 5      1924.747          30.062
G03  20508180.960   107771210.734 8      1524.651          48.312    20508180.240   107771210.741 8      1524.651          48.687    20508185.100    83977616.470 8      1188.040          48.812    20508186.040    83977590.470 8      1188.040          50.125
G14  22832782.400   119987069.164 7      1180.122          44.437    22832781.780   119987069.182 5      1180.122          33.312    22832786.840    93496443.655 5       919.576          33.125    22832787.560    93496443.649 7       919.576          46.750
R03  21021302.740   112528675.653 7       -19.934          45.937    21021302.680   112528675.676 7       -19.934          45.187    21021312.800    87522342.841 8       -15.504          49.312    21021312.580    87522343.839 8       -15.504          49.937
G21  23401813.420   122977361.256 7      1508.136          45.062    23401811.520   122977361.261 5      1508.136          33.000    23401817.720    95826509.278 5      1175.171          33.125
G17  21690638.240   113985092.276 7      5197.970          47.437    21690637.340   113985092.278 7      5197.970          46.500    21690640.620    88819559.329 7      4050.366          46.375    21690640.740    88819565.334 8      4050.366          48.250
R18  20578800.040   109851041.046 7      2433.159          47.500    20578799.320   109851041.050 7      2433.159          46.812    20578808.880    85439726.364 8      1892.457          50.375    20578808.720    85439728.366 8      1892.457          50.000
