     3.05           OBSERVATION DATA    MIXED               RINEX VERSION / TYPE
TPS2RIN 1.0.28.3459 TPS-USER            20260427 154622 UTC PGM / RUN BY / DATE
Win64 build Jun 01, 2022 (c) Topcon Positioning Systems     COMMENT
SRC: 20240731_OAST.tps                                      COMMENT
Observer            Agency                                  OBSERVER / AGENCY
O0M3X53SBGM         TPS HIPER_SR        4.8 HSR Jul,08,2022 REC # / TYPE / VERS
FW: 4.8 HSR Jul,08,2022 p3                                  COMMENT
SN: HiPer SR 1212-12575                                     COMMENT
000                 TPSHIPER_SR     NONE                    ANT # / TYPE
        1.8000        0.0000        0.0000                  ANTENNA: DELTA H/E/N
CAMI9                                                       MARKER NAME
  5390427.3241 -1597883.2517  3006690.6190                  APPROX POSITION XYZ
  2024     7    31    15    44    7.0000000     GPS         TIME OF FIRST OBS
  2024     7    31    15    59    8.0000000     GPS         TIME OF LAST OBS
     1.000                                                  INTERVAL
   902 EPOCHS                                               COMMENT
G   12 C1C L1C D1C C1W L1W D1W C2W L2W D2W C2X L2X D2X      SYS / # / OBS TYPES
R   12 C1C L1C D1C C1P L1P D1P C2P L2P D2P C2C L2C D2C      SYS / # / OBS TYPES
    18                                                      # OF SATELLITES
   G05   902   902   902   902   902   902   902   902   902PRN / # OF OBS
         902   902   902                                    PRN / # OF OBS
   G06   902   902   902   902   902   902   902   902   902PRN / # OF OBS
         902   902   902                                    PRN / # OF OBS
   G07   902   902   902   902   902   902   902   902   902PRN / # OF OBS
         902   902   902                                    PRN / # OF OBS
   G09   902   902   902   902   902   902   902   902   902PRN / # OF OBS
         902   902   902                                    PRN / # OF OBS
   G11   902   902   902   902   902   902   902   902   902PRN / # OF OBS
         902   902   902                                    PRN / # OF OBS
   G13   902   902   902   902   902   902   902   902   902PRN / # OF OBS
           0     0     0                                    PRN / # OF OBS
   G14   222   222   222   222   222   222   222   222   222PRN / # OF OBS
         222   222   222                                    PRN / # OF OBS
   G19   895   895   895   893   893   893   893   893   893PRN / # OF OBS
           0     0     0                                    PRN / # OF OBS
   G20   902   902   902   902   902   902   902   902   902PRN / # OF OBS
           0     0     0                                    PRN / # OF OBS
   G30   902   902   902   902   902   902   902   902   902PRN / # OF OBS
         902   902   902                                    PRN / # OF OBS
   R05   569   569   569   569   569   569   569   569   569PRN / # OF OBS
         569   569   569                                    PRN / # OF OBS
   R06   902   902   902   902   902   902     0     0     0PRN / # OF OBS
           0     0     0                                    PRN / # OF OBS
   R07   902   902   902   902   902   902   902   902   902PRN / # OF OBS
         902   902   902                                    PRN / # OF OBS
   R09   902   902   902   902   902   902   902   902   902PRN / # OF OBS
         902   902   902                                    PRN / # OF OBS
   R15   902   902   902   902   902   902   902   902   902PRN / # OF OBS
         902   902   902                                    PRN / # OF OBS
   R16   902   902   902   902   902   902   902   902   902PRN / # OF OBS
         902   902   902                                    PRN / # OF OBS
   R21   902   902   902   902   902   902   902   902   902PRN / # OF OBS
         902   902   902                                    PRN / # OF OBS
   R22   902   902   902   902   902   902   902   902   902PRN / # OF OBS
         902   902   902                                    PRN / # OF OBS
G L1C                                                       SYS / PHASE SHIFT
G L1W -0.25000                                              SYS / PHASE SHIFT
G L2W  0.00000                                              SYS / PHASE SHIFT
G L2X  0.25000                                              SYS / PHASE SHIFT
R L1C                                                       SYS / PHASE SHIFT
R L1P -0.25000                                              SYS / PHASE SHIFT
R L2P -0.25000                                              SYS / PHASE SHIFT
R L2C                                                       SYS / PHASE SHIFT
  8 R05  1 R06 -4 R07  5 R09 -2 R15  0 R16 -1 R21  4 R22 -3 GLONASS SLOT / FRQ #
                                                            GLONASS COD/PHS/BIS
               *** Undefined LeapSeconds ***                COMMENT
                                                            END OF HEADER
> 2024 07 31 15 44  7.0000000  0 17
G05  23472864.000   123350734.311 7      5239.018    23472863.200   123350734.316 6      5239.018    23472871.140    96117486.686 6      4082.352    23472871.920    96117488.685 7      4082.352
G30  20960716.580   110149312.320 8      3863.293    20960715.340   110149312.324 8      3863.293    20960727.920    85830677.819 8      3010.358    20960728.420    85830680.818 8      3010.358
G11  20583974.880   108169515.304 7      3598.141    20583973.920   108169515.309 6      3598.141    20583979.980    84287953.668 6      2803.747    20583980.520    84287955.669 8      2803.747
R15  22718651.060   121401581.338 7      2438.607    22718650.820   121401581.344 7      2438.607    22718666.920    94423520.899 7      1896.694    22718666.540    94423519.902 8      1896.694
R06  20495260.000   109366652.713 6      2499.705    20495260.440   109366652.725 6      2499.705
G09  22997132.040   120850742.386 7       -42.546    22997131.420   120850742.388 6       -42.546    22997141.740    94169441.765 6       -33.153    22997141.520    94169458.771 7       -33.153
R09  23856169.160   127390612.432 6      6385.938    23856168.880   127390612.428 6      6385.938    23856189.180    99081666.230 6      4966.840    23856189.100    99081670.233 6      4966.840
R07  22236200.020   119032117.346 7      4236.319    22236200.200   119032117.372 7      4236.319    22236215.740    92580604.717 7      3294.914    22236216.340    92580607.728 7      3294.914
R05  22756882.480   121648569.520 7       466.420    22756882.320   121648569.518 7       466.420    22756897.500    94615621.880 7       362.771    22756897.460    94615621.876 7       362.771
G07  21764911.200   114375392.636 7      1748.687    21764910.160   114375392.644 7      1748.687    21764918.160    89123692.307 7      1362.614    21764918.780    89123704.311 7      1362.614
R16  22041711.400   117742864.949 7      5377.934    22041708.640   117742864.956 7      5377.934    22041732.540    91577878.490 7      4182.837    22041733.260    91577878.497 7      4182.837
G19  24337412.480   127893970.772 6      -429.293    24337410.120   127893970.782 4      -429.293    24337425.680    99657662.594 4      -334.514
R22  22392040.640   119530240.592 7      6077.759    22392040.740   119530240.595 7      6077.759    22392052.940    92968005.716 7      4727.146    22392052.740    92968009.713 7      4727.146
G20  21539512.120   113190899.491 7      4788.430    21539510.820   113190899.496 6      4788.430    21539515.840    88200720.549 6      3731.244
G13  22251581.160   116932854.773 7      5166.339    22251580.040   116932854.780 5      5166.339    22251593.320    91116554.754 5      4025.718
G06  20743983.960   109010362.302 8       709.766    20743983.540   109010362.304 8       709.766    20743996.200    84943187.552 8       553.064    20743996.920    84943189.554 8       553.064
R21  19652123.920   105162479.612 8      2467.779    19652124.260   105162479.621 8      2467.779    19652136.960    81793090.951 8      1919.384    19652136.800    81793089.951 8      1919.384
> 2024 07 31 15 44  8.0000000  0 17
G05  23471866.960   123345495.359 7      5238.983    23471866.320   123345495.367 6      5238.983    23471874.240    96113404.392 6      4082.325    23471875.220    96113406.392 7      4082.325
G30  20959981.420   110145449.485 8      3862.664    20959980.280   110145449.490 8      3862.664    20959992.820    85827667.822 8      3009.868    20959993.280    85827670.824 8      3009.868
G11  20583290.000   108165917.546 7      3597.438    20583289.320   108165917.551 6      3597.438    20583295.320    84285150.219 6      2803.198    20583295.840    84285152.222 8      2803.198
R15  22718194.800   121399143.225 7      2437.836    22718194.440   121399143.229 7      2437.836    22718210.580    94421624.593 7      1896.094    22718210.220    94421623.594 8      1896.094
R06  20494792.420   109364153.460 6      2499.231    20494792.300   109364153.482 6      2499.231
G09  22997140.080   120850785.088 7       -42.609    22997139.520   120850785.090 6       -42.609    22997149.820    94169475.038 6       -33.202    22997149.940    94169492.042 7       -33.202
R09  23854972.840   127384226.460 6      6386.100    23854972.840   127384226.472 6      6386.100    23854993.320    99076699.371 6      4966.967    23854993.420    99076703.380 6      4966.967
R07  22235408.640   119027881.016 7      4236.313    22235408.720   119027881.044 7      4236.313    22235424.360    92577309.798 7      3294.910    22235424.960    92577312.813 7      3294.910
R05  22756795.040   121648103.158 7       466.477    22756794.860   121648103.157 7       466.477    22756810.100    94615259.148 7       362.815    22756810.200    94615259.149 7       362.815
G07  21764578.600   114373644.362 7      1748.075    21764577.500   114373644.362 7      1748.075    21764585.620    89122330.011 7      1362.136    21764585.840    89122342.014 7      1362.136
R16  22040704.580   117737487.349 7      5377.449    22040702.080   117737487.358 7      5377.449    22040725.800    91573695.924 7      4182.460    22040726.420    91573695.929 7      4182.460
G19  24337493.780   127894399.982 6      -428.949    24337491.900   127894399.990 4      -428.949    24337507.200    99657997.040 4      -334.246
R22  22390902.100   119524163.119 7      6077.384    22390901.980   119524163.117 7      6077.384    22390914.140    92963278.793 7      4726.854    22390913.940    92963282.794 7      4726.854
G20  21538601.000   113186111.239 7      4788.207    21538599.660   113186111.247 6      4788.207    21538604.460    88196989.446 6      3731.070
G13  22250598.340   116927688.805 7      5165.939    22250596.960   116927688.812 5      5165.939    22250610.220    91112529.335 5      4025.407
G06  20743848.920   109009652.904 8       709.228    20743848.560   109009652.906 8       709.228    20743861.180    84942634.766 8       552.645    20743861.740    84942636.770 8       552.645
R21  19651662.840   105160012.395 7      2466.933    19651663.140   105160012.404 7      2466.933    19651675.840    81791171.998 8      1918.726    19651675.600    81791170.996 8      1918.726
> 2024 07 31 15 44  9.0000000  0 17
G05  23470869.920   123340256.640 7      5238.648    23470869.340   123340256.651 6      5238.648    23470877.360    96109322.278 6      4082.063    23470877.820    96109324.274 7      4082.063
G30  20959246.560   110141587.438 8      3861.764    20959245.320   110141587.438 8      3861.764    20959257.860    85824658.437 8      3009.167    20959258.500    85824661.439 8      3009.167
G11  20582605.760   108162320.614 7      3596.618    20582604.820   108162320.619 6      3596.618    20582610.800    84282347.414 6      2802.559    20582611.440    84282349.415 8      2802.559
R15  22717738.500   121396706.139 7      2436.585    22717738.200   121396706.145 7      2436.585    22717754.460    94419729.088 7      1895.122    22717754.140    94419728.089 8      1895.122
R06  20494324.100   109361654.559 6      2498.823    20494324.160   109361654.570 6      2498.823
G09  22997148.560   120850828.027 7       -42.980    22997147.720   120850828.029 7       -42.980    22997158.080    94169508.496 7       -33.491    22997158.480    94169525.502 7       -33.491
R09  23853777.320   127377840.511 6      6385.965    23853777.080   127377840.531 6      6385.965    23853797.280    99071732.529 6      4966.862    23853797.720    99071736.537 6      4966.862
R07  22234617.420   119023645.139 7      4235.900    22234617.340   119023645.154 6      4235.900    22234633.060    92574015.223 7      3294.589    22234633.300    92574018.237 7      3294.589
R05  22756707.460   121647636.918 7       466.234    22756707.540   121647636.924 7       466.234    22756723.320    94614896.525 7       362.626    22756723.480    94614896.523 7       362.626
G07  21764245.860   114371896.845 7      1747.144    21764244.900   114371896.847 7      1747.144    21764253.060    89120968.312 7      1361.411    21764253.140    89120980.310 7      1361.411
R16  22039698.600   117732110.406 7      5376.691    22039695.580   117732110.410 7      5376.691    22039719.080    91569513.860 7      4181.871    22039719.860    91569513.869 7      4181.871
G19  24337575.340   127894829.321 6      -429.401    24337573.460   127894829.329 4      -429.401    24337589.040    99658331.587 4      -334.598
R22  22389764.020   119518086.428 7      6076.334    22389763.480   119518086.426 7      6076.334    22389775.480    92958552.482 7      4726.037    22389775.800    92958556.485 7      4726.037
G20  21537689.680   113181323.303 7      4787.857    21537688.500   113181323.308 6      4787.857    21537693.620    88193258.591 6      3730.798
G13  22249615.160   116922523.423 7      5165.216    22249614.020   116922523.428 5      5165.216    22249627.240    91108504.370 5      4024.843
G06  20743714.240   109008944.294 8       708.248    20743713.700   109008944.291 8       708.248    20743726.380    84942082.590 8       551.882    20743727.020    84942084.595 8       551.882
R21  19651202.020   105157546.360 8      2465.586    19651202.420   105157546.375 7      2465.586    19651214.960    81789253.973 8      1917.678    19651214.560    81789252.971 8      1917.678
> 2024 07 31 15 44 10.0000000  0 17
G05  23469873.000   123335017.909 7      5238.679    23469872.440   123335017.919 6      5238.679    23469880.600    96105240.149 6      4082.087    23469881.180    96105242.145 7      4082.087
G30  20958511.600   110137725.960 7      3861.124    20958510.460   110137725.967 8      3861.124    20958522.980    85821649.501 8      3008.668    20958523.660    85821652.502 8      3008.668
G11  20581921.480   108158724.330 7      3595.837    20581920.520   108158724.335 6      3595.837    20581926.520    84279545.114 6      2801.951    20581926.900    84279547.114 8      2801.951
R15  22717282.820   121394269.808 7      2435.912    22717282.020   121394269.804 7      2435.912    22717298.460    94417834.162 7      1894.598    22717298.380    94417833.163 7      1894.598
R06  20493855.440   109359155.818 6      2498.602    20493854.860   109359155.818 6      2498.602
G09  22997156.540   120850870.995 7       -42.974    22997155.940   120850871.002 7       -42.974    22997166.360    94169541.980 7       -33.486    22997166.460    94169558.982 7       -33.486
R09  23852580.940   127371454.395 6      6386.146    23852581.300   127371454.398 6      6386.146    23852601.600    99066765.534 6      4967.003    23852601.580    99066769.541 6      4967.003
R07  22233826.020   119019409.451 7      4235.536    22233825.900   119019409.472 6      4235.536    22233841.580    92570720.809 7      3294.306    22233841.860    92570723.816 7      3294.306
R05  22756620.260   121647170.599 7       466.287    22756620.540   121647170.614 7       466.287    22756636.080    94614533.835 7       362.668    22756635.660    94614533.829 7       362.668
G07  21763913.400   114370149.853 7      1746.697    21763912.480   114370149.858 7      1746.697    21763920.620    89119607.021 7      1361.063    21763920.780    89119619.024 7      1361.063
R16  22038691.400   117726733.923 7      5376.118    22038688.860   117726733.937 7      5376.118    22038712.680    91565332.169 7      4181.425    22038713.320    91565332.174 7      4181.425
G19  24337657.400   127895258.440 6      -429.007    24337655.080   127895258.450 4      -429.007    24337670.540    99658665.963 4      -334.291
R22  22388625.480   119512010.249 7      6075.904    22388625.560   119512010.239 7      6075.904    22388636.760    92953826.559 7      4725.703    22388636.900    92953830.558 7      4725.703
G20  21536778.440   113176535.508 7      4787.620    21536777.480   113176535.513 6      4787.620    21536782.460    88189527.842 6      3730.613
G13  22248632.140   116917358.388 7      5164.836    22248631.140   116917358.393 5      5164.836    22248644.300    91104479.680 5      4024.547
G06  20743579.420   109008236.212 7       707.730    20743578.880   109008236.219 8       707.730    20743591.600    84941530.836 8       551.478    20743592.580    84941532.836 8       551.478
R21  19650741.380   105155081.299 8      2464.507    19650741.760   105155081.314 8      2464.507    19650754.200    81787336.698 8      1916.839    19650754.360    81787335.697 8      1916.839
> 2024 07 31 15 44 11.0000000  0 17
G05  23468875.960   123329779.266 7      5238.455    23468875.500   123329779.271 6      5238.455    23468883.740    96101158.096 6      4081.913    23468884.400    96101160.091 7      4081.913
G30  20957776.900   110133865.153 7      3860.313    20957775.720   110133865.156 8      3860.313    20957788.380    85818641.084 8      3008.036    20957789.000    85818644.086 8      3008.036
G11  20581237.240   108155128.743 7      3595.086    20581236.120   108155128.748 6      3595.086    20581242.360    84276743.355 6      2801.366    20581242.700    84276745.358 8      2801.366
R15  22716826.800   121391834.344 7      2434.884    22716826.060   121391834.337 7      2434.884    22716842.800    94415939.920 7      1893.799    22716842.720    94415938.921 8      1893.799
R06  20493386.720   109356657.303 6      2498.280    20493386.900   109356657.304 6      2498.280
G09  22997165.200   120850914.091 7       -43.304    22997164.020   120850914.099 7       -43.304    22997174.540    94169575.560 7       -33.744    22997174.700    94169592.568 7       -33.744
R09  23851385.400   127365068.211 6      6386.025    23851385.560   127365068.215 6      6386.025    23851405.620    99061798.505 6      4966.908    23851405.660    99061802.518 6      4966.908
R07  22233035.000   119015174.050 7      4235.047    22233034.580   119015174.081 7      4235.047    22233050.380    92567426.621 7      3293.925    22233050.600    92567429.627 7      3293.925
R05  22756533.340   121646704.297 7       466.179    22756533.440   121646704.298 7       466.179    22756548.900    94614171.143 7       362.584    22756548.660    94614171.137 7       362.584
G07  21763581.180   114368403.520 8      1745.825    21763580.040   114368403.520 7      1745.825    21763588.260    89118246.243 7      1360.383    21763588.840    89118258.245 7      1360.383
R16  22037684.720   117721358.005 7      5375.473    22037682.440   117721358.012 7      5375.473    22037706.360    91561150.908 7      4180.924    22037706.760    91561150.911 7      4180.924
G19  24337738.880   127895687.574 6      -429.169    24337736.660   127895687.592 4      -429.169    24337752.300    99659000.358 4      -334.417
R22  22387487.400   119505934.711 7      6074.987    22387487.240   119505934.704 7      6074.987    22387498.680    92949101.153 7      4724.990    22387499.000    92949105.152 7      4724.990
G20  21535867.480   113171747.908 7      4787.409    21535866.400   113171747.908 6      4787.409    21535871.280    88185797.242 6      3730.448
G13  22247649.500   116912193.823 7      5164.183    22247648.360   116912193.831 5      5164.183    22247661.700    91100455.356 5      4024.039
G06  20743444.740   109007528.802 8       706.967    20743444.300   109007528.805 8       706.967    20743457.100    84940979.598 8       550.883    20743457.900    84940981.600 8       550.883
R21  19650280.940   105152617.304 8      2463.268    19650281.160   105152617.321 8      2463.268    19650293.900    81785420.257 8      1915.875    19650293.520    81785419.256 8      1915.875
> 2024 07 31 15 44 12.0000000  0 17
G05  23467879.120   123324540.860 7      5238.599    23467878.760   123324540.868 6      5238.599    23467886.920    96097076.225 6      4082.025    23467887.960    96097078.232 7      4082.025
G30  20957042.300   110130005.162 8      3859.863    20957041.300   110130005.166 8      3859.863    20957053.840    85815633.301 8      3007.686    20957054.640    85815636.302 8      3007.686
G11  20580553.340   108151534.052 7      3594.448    20580552.300   108151534.059 6      3594.448    20580558.260    84273942.297 6      2800.869    20580558.460    84273944.296 8      2800.869
R15  22716371.340   121389399.884 7      2434.213    22716370.740   121389399.882 7      2434.213    22716387.240    94414046.464 7      1893.277    22716386.880    94414045.465 7      1893.277
R06  20492918.640   109354159.205 6      2498.275    20492918.400   109354159.195 6      2498.275
G09  22997173.060   120850957.477 7       -43.277    22997172.320   120850957.477 6       -43.277    22997182.860    94169609.362 6       -33.722    22997183.080    94169626.368 7       -33.722
R09  23850189.340   127358682.094 6      6386.233    23850189.460   127358682.098 6      6386.233    23850210.000    99056831.527 6      4967.070    23850209.680    99056835.532 6      4967.070
R07  22232243.520   119010939.093 7      4234.921    22232243.260   119010939.119 7      4234.921    22232259.400    92564132.766 7      3293.827    22232259.500    92564135.772 7      3293.827
R05  22756445.980   121646238.182 7       466.286    22756446.240   121646238.175 7       466.286    22756461.720    94613808.600 7       362.667    22756461.360    94613808.597 7       362.667
G07  21763248.860   114366657.958 7      1745.408    21763248.020   114366657.963 7      1745.408    21763256.100    89116886.068 7      1360.058    21763256.600    89116898.071 7      1360.058
R16  22036678.520   117715982.822 7      5375.005    22036676.360   117715982.829 7      5375.005    22036700.020    91556970.217 7      4180.560    22036700.460    91556970.221 7      4180.560
G19  24337820.400   127896116.829 6      -428.953    24337818.320   127896116.839 4      -428.953    24337833.860    99659334.840 4      -334.249
R22  22386349.640   119499859.942 7      6074.618    22386349.140   119499859.932 7      6074.618    22386360.400    92944376.332 7      4724.703    22386360.880    92944380.333 7      4724.703
G20  21534956.560   113166960.702 7      4787.285    21534955.380   113166960.702 6      4787.285    21534960.200    88182066.954 6      3730.352
G13  22246666.820   116907029.863 7      5163.931    22246665.640   116907029.873 5      5163.931    22246678.980    91096431.501 5      4023.842
G06  20743310.260   109006822.210 8       706.392    20743309.760   109006822.210 8       706.392    20743322.640    84940428.996 8       550.435    20743323.360    84940430.997 8       550.435
R21  19649820.680   105150154.501 8      2462.405    19649820.800   105150154.527 8      2462.405    19649833.560    81783504.746 8      1915.204    19649833.300    81783503.745 8      1915.204
> 2024 07 31 15 44 13.0000000  0 17
G05  23466882.160   123319302.436 7      5238.397    23466882.080   123319302.444 6      5238.397    23466890.240    96092994.343 6      4081.868    23466890.840    96092996.347 7      4081.868
G30  20956307.940   110126145.719 8      3859.146    20956306.860   110126145.721 8      3859.146    20956319.360    85812625.947 8      3007.127    20956320.060    85812628.951 8      3007.127
G11  20579869.160   108147939.949 7      3593.688    20579868.280   108147939.957 6      3593.688    20579874.320    84271141.698 6      2800.276    20579874.800    84271143.696 8      2800.276
R15  22715915.780   121386966.201 7      2433.232    22715915.660   121386966.202 7      2433.232    22715931.620    94412153.604 7      1892.514    22715932.140    94412152.603 7      1892.514
R06  20492450.900   109351661.219 6      2498.034    20492450.020   109351661.223 6      2498.034
G09  22997181.240   120851000.847 7       -43.410    22997180.580   120851000.849 7       -43.410    22997191.120    94169643.157 7       -33.826    22997191.040    94169660.161 7       -33.826
R09  23848993.240   127352295.743 6      6386.289    23848993.340   127352295.757 6      6386.289    23849014.220    99051864.375 6      4967.113    23849013.960    99051868.378 6      4967.113
R07  22231452.080   119006704.313 7      4234.568    22231451.840   119006704.342 7      4234.568    22231468.260    92560839.061 7      3293.553    22231469.000    92560842.067 7      3293.553
R05  22756358.720   121645771.922 7       466.287    22756358.660   121645771.918 7       466.287    22756374.020    94613445.954 7       362.667    22756374.700    94613445.952 7       362.667
G07  21762916.680   114364912.918 7      1744.788    21762915.880   114364912.923 7      1744.788    21762924.120    89115526.297 7      1359.575    21762924.280    89115538.301 8      1359.575
R16  22035672.360   117710608.056 7      5374.452    22035670.240   117710608.055 7      5374.452    22035693.960    91552789.847 7      4180.130    22035694.260    91552789.854 7      4180.130
G19  24337902.520   127896545.874 6      -428.804    24337899.900   127896545.873 4      -428.804    24337915.780    99659669.148 4      -334.133
R22  22385211.360   119493785.698 7      6073.893    22385211.460   119493785.683 7      6073.893    22385222.360    92939651.918 7      4724.139    22385222.980    92939655.920 7      4724.139
G20  21534045.500   113162173.575 7      4787.044    21534044.360   113162173.583 6      4787.044    21534049.400    88178336.733 6      3730.164
G13  22245684.260   116901866.246 7      5163.372    22245683.200   116901866.256 5      5163.372    22245696.360    91092407.914 5      4023.407
G06  20743176.100   109006116.120 7       705.759    20743175.480   109006116.125 8       705.759    20743188.320    84939878.792 8       549.942    20743189.080    84939880.794 8       549.942
R21  19649360.460   105147692.614 8      2461.346    19649360.800   105147692.634 8      2461.346    19649373.560    81781589.936 8      1914.380    19649373.260    81781588.933 8      1914.380
> 2024 07 31 15 44 14.0000000  0 17
G05  23465885.660   123314064.096 7      5238.487    23465885.160   123314064.101 6      5238.487    23465893.380    96088912.521 6      4081.938    23465893.960    96088914.528 7      4081.938
G30  20955573.580   110122286.967 7      3858.528    20955572.480   110122286.970 8      3858.528    20955585.040    85809619.132 8      3006.646    20955585.800    85809622.133 8      3006.646
G11  20579185.540   108144346.587 7      3593.150    20579184.440   108144346.595 6      3593.150    20579190.500    84268341.669 6      2799.858    20579191.080    84268343.670 8      2799.858
R15  22715460.540   121384533.424 7      2432.413    22715460.180   121384533.423 7      2432.413    22715476.600    94410261.448 7      1891.877    22715476.100    94410260.449 7      1891.877
R06  20491982.180   109349163.511 6      2497.700    20491981.640   109349163.528 6      2497.700
G09  22997189.440   120851044.359 7       -43.415    22997188.820   120851044.361 7       -43.415    22997199.320    94169677.058 7       -33.830    22997199.340    94169694.062 7       -33.830
R09  23847797.740   127345909.330 6      6386.520    23847797.960   127345909.347 6      6386.520    23847818.000    99046897.163 6      4967.293    23847817.800    99046901.161 6      4967.293
R07  22230660.660   119002469.860 7      4234.507    22230660.760   119002469.880 7      4234.507    22230677.220    92557545.590 7      3293.505    22230677.720    92557548.595 7      3293.505
R05  22756271.660   121645305.702 7       466.287    22756271.360   121645305.696 7       466.287    22756287.160    94613083.337 7       362.667    22756286.820    94613083.333 7       362.667
G07  21762584.760   114363168.551 7      1744.121    21762583.920   114363168.554 7      1744.121    21762592.180    89114167.050 7      1359.055    21762592.380    89114179.052 7      1359.055
R16  22034666.560   117705233.827 7      5374.064    22034664.260   117705233.833 7      5374.064    22034687.740    91548609.905 7      4179.827    22034688.320    91548609.908 7      4179.827
G19  24337983.980   127896974.884 6      -428.949    24337981.460   127896974.884 4      -428.949    24337997.340    99660003.442 4      -334.246
R22  22384073.940   119487712.090 7      6073.403    22384073.880   119487712.080 7      6073.403    22384084.680    92934928.005 7      4723.758    22384084.680    92934932.000 7      4723.758
G20  21533134.740   113157386.690 7      4786.910    21533133.520   113157386.700 6      4786.910    21533138.480    88174606.695 6      3730.060
G13  22244701.860   116896703.114 7      5163.019    22244700.680   116896703.121 5      5163.019    22244713.800    91088384.706 5      4023.132
G06  20743041.860   109005410.711 7       705.189    20743041.280   109005410.715 8       705.189    20743054.020    84939329.114 8       549.498    20743055.000    84939331.116 8       549.498
R21  19648900.720   105145231.794 8      2460.442    19648901.060   105145231.812 8      2460.442    19648913.800    81779675.957 8      1913.677    19648913.500    81779674.954 8      1913.677
> 2024 07 31 15 44 15.0000000  0 17
G05  23464888.940   123308826.042 7      5237.848    23464888.400   123308826.047 6      5237.848    23464896.600    96084830.923 6      4081.440    23464896.960    96084832.921 7      4081.440
G30  20954839.460   110118429.038 8      3857.463    20954838.300   110118429.041 8      3857.463    20954850.980    85806612.957 8      3005.815    20954851.860    85806615.959 8      3005.815
G11  20578501.820   108140754.124 7      3591.934    20578500.800   108140754.134 6      3591.934    20578506.920    84265542.349 6      2798.910    20578507.440    84265544.350 8      2798.910
R15  22715005.280   121382101.698 7      2431.126    22715005.260   121382101.696 7      2431.126    22715021.600    94408370.111 7      1890.875    22715021.240    94408369.114 7      1890.875
R06  20491514.640   109346666.250 6      2496.876    20491514.080   109346666.251 6      2496.876
G09  22997197.940   120851088.186 7       -44.127    22997197.120   120851088.188 7       -44.127    22997207.720    94169711.207 7       -34.385    22997208.080    94169728.215 7       -34.385
R09  23846601.540   127339523.045 6      6386.054    23846601.620   127339523.062 6      6386.054    23846622.240    99041930.055 6      4966.931    23846621.860    99041934.055 6      4966.931
R07  22229869.540   118998235.872 7      4233.698    22229869.860   118998235.898 7      4233.698    22229886.500    92554252.497 7      3292.877    22229887.220    92554255.503 7      3292.877
R05  22756184.720   121644839.662 7       465.798    22756184.080   121644839.658 7       465.798    22756199.880    94612720.859 7       362.288    22756199.880    94612720.853 7       362.288
G07  21762252.920   114361424.983 7      1743.103    21762252.060   114361424.983 7      1743.103    21762260.360    89112808.424 7      1358.262    21762260.660    89112820.430 7      1358.262
R16  22033660.920   117699860.319 7      5373.049    22033658.540   117699860.320 7      5373.049    22033681.720    91544430.521 7      4179.038    22033682.300    91544430.530 7      4179.038
G19  24338065.500   127897404.042 6      -429.415    24338063.220   127897404.041 4      -429.415    24338079.000    99660337.851 4      -334.609
R22  22382936.380   119481639.296 7      6072.340    22382936.280   119481639.283 7      6072.340    22382947.060    92930204.723 7      4722.931    22382947.300    92930208.718 7      4722.931
G20  21532224.060   113152600.207 7      4786.218    21532222.580   113152600.211 6      4786.218    21532227.660    88170876.967 6      3729.521
G13  22243719.220   116891540.611 7      5162.123    22243718.280   116891540.616 5      5162.123    22243731.420    91084361.985 5      4022.433
G06  20742907.640   109004706.129 8       704.145    20742907.080   109004706.131 8       704.145    20742919.980    84938780.076 8       548.684    20742920.940    84938782.077 8       548.684
R21  19648441.280   105142772.197 8      2458.907    19648441.320   105142772.212 8      2458.907    19648454.120    81777762.931 8      1912.483    19648453.600    81777761.926 8      1912.483
> 2024 07 31 15 44 16.0000000  0 17
G05  23463892.300   123303587.923 7      5238.297    23463891.780   123303587.925 6      5238.297    23463899.840    96080749.275 6      4081.790    23463900.520    96080751.274 7      4081.790
G30  20954105.380   110114571.653 8      3857.291    20954104.220   110114571.661 8      3857.291    20954116.880    85803607.209 8      3005.682    20954117.740    85803610.208 8      3005.682
G11  20577818.080   108137162.266 7      3591.706    20577817.300   108137162.273 6      3591.706    20577823.440    84262743.498 6      2798.732    20577823.780    84262745.495 8      2798.732
R15  22714550.300   121379670.743 7      2430.672    22714550.180   121379670.747 7      2430.672    22714566.620    94406479.383 7      1890.523    22714566.380    94406478.387 7      1890.523
R06  20491046.660   109344169.030 6      2497.420    20491046.440   109344169.039 6      2497.420
G09  22997206.180   120851131.991 7       -43.606    22997205.480   120851131.994 7       -43.606    22997216.240    94169745.340 7       -33.979    22997216.400    94169762.344 7       -33.979
R09  23845405.520   127333136.544 6      6386.765    23845405.720   127333136.539 6      6386.765    23845425.900    99036962.755 6      4967.484    23845426.140    99036966.758 6      4967.484
R07  22229079.120   118994002.085 7      4233.871    22229079.060   118994002.105 7      4233.871    22229095.460    92550959.554 7      3293.011    22229096.040    92550962.560 7      3293.011
R05  22756097.400   121644373.499 7       466.306    22756096.660   121644373.508 7       466.306    22756112.660    94612358.295 7       362.682    22756112.720    94612358.294 7       362.682
G07  21761921.140   114359681.935 7      1742.918    21761920.520   114359681.932 7      1742.918    21761928.620    89111450.209 7      1358.118    21761928.880    89111462.211 7      1358.118
R16  22032655.080   117694487.214 7      5373.064    22032652.280   117694487.228 7      5373.064    22032676.020    91540251.458 7      4179.049    22032676.480    91540251.471 7      4179.049
G19  24338147.360   127897833.005 6      -428.769    24338144.840   127897833.007 4      -428.769    24338160.520    99660672.112 4      -334.106
R22  22381798.520   119475567.033 7      6072.165    22381798.880   119475567.015 7      6072.165    22381809.600    92925481.845 7      4722.795    22381809.740    92925485.840 7      4722.795
G20  21531313.180   113147813.805 7      4786.558    21531311.740   113147813.807 6      4786.558    21531316.820    88167147.303 6      3729.786
G13  22242736.820   116886378.451 7      5162.112    22242736.000   116886378.456 5      5162.112    22242749.020    91080339.528 5      4022.425
G06  20742773.780   109004002.080 8       704.009    20742773.100   109004002.077 8       704.009    20742786.060    84938231.459 8       548.578    20742787.120    84938233.457 8       548.578
R21  19647982.020   105140313.499 8      2458.387    19647981.980   105140313.516 8      2458.387    19647994.520    81775850.612 8      1912.079    19647994.120    81775849.609 8      1912.079
> 2024 07 31 15 44 17.0000000  0 17
G05  23462895.420   123298349.790 7      5238.203    23462894.960   123298349.790 6      5238.203    23462903.120    96076667.618 6      4081.717    23462903.640    96076669.618 7      4081.717
G30  20953371.580   110110714.838 8      3856.510    20953370.380   110110714.846 8      3856.510    20953382.980    85800601.904 8      3005.072    20953383.760    85800604.904 8      3005.072
G11  20577134.960   108133571.029 7      3590.850    20577133.940   108133571.032 6      3590.850    20577140.080    84259945.125 6      2798.065    20577140.680    84259947.125 8      2798.065
R15  22714095.820   121377240.561 7      2429.764    22714095.420   121377240.559 7      2429.764    22714111.900    94404589.242 7      1889.816    22714111.780    94404588.245 8      1889.816
R06  20490578.760   109341671.994 6      2497.043    20490578.520   109341672.003 6      2497.043
G09  22997214.480   120851175.829 7       -43.867    22997213.840   120851175.831 7       -43.867    22997224.640    94169779.497 7       -34.182    22997225.260    94169796.507 7       -34.182
R09  23844209.260   127326749.866 6      6386.784    23844210.060   127326749.867 6      6386.784    23844229.800    99031995.352 6      4967.499    23844230.320    99031999.344 6      4967.499
R07  22228288.040   118989768.504 7      4233.470    22228287.680   118989768.532 7      4233.470    22228304.600    92547666.779 7      3292.699    22228305.380    92547669.793 7      3292.699
R05  22756010.320   121643907.279 7       466.250    22756009.740   121643907.286 7       466.250    22756025.460    94611995.676 7       362.639    22756025.300    94611995.672 7       362.639
G07  21761589.740   114357939.413 7      1742.247    21761588.880   114357939.412 7      1742.247    21761597.100    89110092.401 7      1357.595    21761597.420    89110104.405 8      1357.595
R16  22031649.740   117689114.603 7      5372.393    22031646.760   117689114.615 7      5372.393    22031670.100    91536072.769 7      4178.528    22031670.780    91536072.778 7      4178.528
G19  24338229.180   127898261.821 6      -428.782    24338226.420   127898261.829 4      -428.782    24338242.240    99661006.256 4      -334.116
R22  22380661.340   119469495.277 7      6071.464    22380661.840   119469495.261 7      6071.464    22380672.500    92920759.375 7      4722.250    22380672.280    92920763.367 7      4722.250
G20  21530402.100   113143027.526 7      4786.191    21530401.120   113143027.534 6      4786.191    21530406.200    88163417.742 6      3729.499
G13  22241755.020   116881216.640 7      5161.526    22241753.580   116881216.645 5      5161.526    22241767.020    91076317.348 5      4021.968
G06  20742639.920   109003298.578 7       703.252    20742639.260   109003298.577 8       703.252    20742652.120    84937683.269 8       547.989    20742652.960    84937685.268 8       547.989
R21  19647522.880   105137855.737 7      2457.288    19647522.740   105137855.758 8      2457.288    19647535.400    81773939.016 8      1911.224    19647535.000    81773938.009 8      1911.224
> 2024 07 31 15 44 18.0000000  0 17
G05  23461898.560   123293111.444 7      5238.356    23461898.120   123293111.444 6      5238.356    23461906.220    96072585.794 6      4081.836    23461906.820    96072587.801 7      4081.836
G30  20952637.520   110106858.388 8      3856.053    20952636.460   110106858.393 8      3856.053    20952649.160    85797596.880 8      3004.717    20952649.900    85797599.882 8      3004.717
G11  20576451.680   108129980.193 7      3590.449    20576450.700   108129980.192 6      3590.449    20576456.720    84257147.070 6      2797.752    20576457.300    84257149.071 8      2797.752
R15  22713641.000   121374810.918 7      2429.265    22713640.880   121374810.909 7      2429.265    22713657.160    94402699.522 8      1889.429    22713656.800    94402698.518 8      1889.429
R06  20490110.640   109339174.939 6      2496.815    20490110.780   109339174.932 6      2496.815
G09  22997223.020   120851219.483 7       -43.682    22997222.060   120851219.485 7       -43.682    22997232.780    94169813.514 7       -34.038    22997233.580    94169830.514 7       -34.038
R09  23843013.100   127320362.828 6      6387.183    23843013.660   127320362.821 6      6387.183    23843033.660    99027027.645 6      4967.809    23843034.280    99027031.646 6      4967.809
R07  22227497.540   118985534.923 7      4233.541    22227497.260   118985534.941 7      4233.541    22227513.780    92544373.987 7      3292.754    22227514.520    92544377.004 7      3292.754
R05  22755922.800   121643440.760 7       466.545    22755922.180   121643440.764 7       466.545    22755938.380    94611632.828 7       362.868    22755938.160    94611632.824 7       362.868
G07  21761258.220   114356197.227 7      1741.830    21761257.320   114356197.229 7      1741.830    21761265.520    89108734.855 7      1357.270    21761266.200    89108746.859 7      1357.270
R16  22030643.460   117683742.225 7      5372.135    22030641.000   117683742.236 7      5372.135    22030664.500    91531894.265 7      4178.327    22030665.000    91531894.274 7      4178.327
G19  24338310.380   127898690.288 6      -428.374    24338308.000   127898690.295 4      -428.374    24338323.820    99661340.131 4      -333.798
R22  22379523.780   119463423.819 7      6071.161    22379524.840   119463423.812 7      6071.161    22379535.100    92916037.136 7      4722.014    22379535.140    92916041.127 7      4722.014
G20  21529491.500   113138241.159 7      4786.265    21529490.220   113138241.166 6      4786.265    21529495.240    88159688.105 6      3729.557
G13  22240772.740   116876054.991 7      5161.324    22240771.300   116876054.999 5      5161.324    22240784.720    91072295.282 5      4021.811
G06  20742506.140   109002595.422 7       702.832    20742505.400   109002595.425 8       702.832    20742518.420    84937135.350 8       547.661    20742519.200    84937137.349 8       547.661
R21  19647063.380   105135398.754 8      2456.456    19647063.760   105135398.769 7      2456.456    19647076.200    81772028.023 8      1910.577    19647075.840    81772027.020 8      1910.577
> 2024 07 31 15 44 19.0000000  0 17
G05  23460901.680   123287873.259 7      5238.144    23460901.440   123287873.256 6      5238.144    23460909.540    96068504.093 6      4081.671    23460909.720    96068506.100 7      4081.671
G30  20951903.880   110103002.666 8      3855.349    20951902.700   110103002.671 8      3855.349    20951915.280    85794592.426 8      3004.168    20951916.100    85794595.428 8      3004.168
G11  20575768.340   108126390.147 7      3589.693    20575767.520   108126390.152 6      3589.693    20575773.580    84254349.632 6      2797.164    20575774.120    84254351.632 8      2797.164
R15  22713186.260   121372382.261 7      2428.216    22713186.200   121372382.254 7      2428.216    22713202.700    94400810.577 7      1888.613    22713202.360    94400809.576 7      1888.613
R06  20489643.140   109336678.154 6      2496.677    20489643.360   109336678.160 6      2496.677
G09  22997231.240   120851263.328 7       -43.910    22997230.400   120851263.333 7       -43.910    22997241.140    94169847.680 7       -34.216    22997241.580    94169864.682 7       -34.216
R09  23841816.980   127313975.780 6      6387.117    23841817.700   127313975.783 6      6387.117    23841837.540    99022059.953 6      4967.758    23841838.140    99022063.945 6      4967.758
R07  22226707.040   118981301.690 7      4233.145    22226705.860   118981301.710 6      4233.145    22226723.160    92541081.485 7      3292.446    22226723.680    92541084.498 7      3292.446
R05  22755835.800   121642974.364 7       466.349    22755835.180   121642974.363 7       466.349    22755851.160    94611270.069 7       362.716    22755851.000    94611270.060 7       362.716
G07  21760926.720   114354455.721 8      1741.258    21760925.880   114354455.728 7      1741.258    21760934.040    89107377.846 7      1356.825    21760934.660    89107389.848 7      1356.825
R16  22029637.760   117678370.471 7      5371.469    22029635.220   117678370.478 7      5371.469    22029658.720    91527716.243 7      4177.809    22029659.340    91527716.250 7      4177.809
G19  24338392.380   127899118.786 6      -428.390    24338389.560   127899118.791 4      -428.390    24338405.300    99661674.023 4      -333.810
R22  22378386.540   119457353.080 7      6070.516    22378387.600   119457353.071 7      6070.516    22378398.000    92911315.450 7      4721.512    22378397.880    92911319.441 7      4721.512
G20  21528580.800   113133455.082 7      4785.966    21528579.520   113133455.095 6      4785.966    21528584.460    88155958.699 6      3729.324
G13  22239790.340   116870893.845 7      5160.898    22239789.120   116870893.855 5      5160.898    22239802.560    91068273.630 5      4021.479
G06  20742372.520   109001892.987 8       702.096    20742371.700   109001892.989 8       702.096    20742384.740    84936587.990 8       547.088    20742385.460    84936589.988 8       547.088
R21  19646604.360   105132942.916 8      2455.348    19646604.680   105132942.929 7      2455.348    19646617.340    81770117.918 8      1909.715    19646617.180    81770116.913 8      1909.715
> 2024 07 31 15 44 20.0000000  0 17
G05  23459904.820   123282635.161 7      5238.045    23459904.800   123282635.166 6      5238.045    23459912.760    96064422.468 6      4081.594    23459912.940    96064424.471 7      4081.594
G30  20951170.300   110099147.625 7      3854.610    20951169.120   110099147.630 8      3854.610    20951181.760    85791588.502 8      3003.592    20951182.380    85791591.503 8      3003.592
G11  20575085.220   108122800.840 7      3588.887    20575084.500   108122800.844 6      3588.887    20575090.440    84251552.769 6      2796.535    20575091.200    84251554.773 8      2796.535
R15  22712731.780   121369954.518 7      2427.224    22712732.020   121369954.528 7      2427.224    22712748.160    94398922.349 7      1887.841    22712747.980    94398921.350 8      1887.841
R06  20489175.280   109334181.670 6      2496.228    20489175.200   109334181.684 6      2496.228
G09  22997239.880   120851307.302 7       -44.107    22997238.720   120851307.307 7       -44.107    22997249.560    94169881.943 7       -34.369    22997249.980    94169898.947 7       -34.369
R09  23840620.560   127307588.670 6      6387.063    23840621.660   127307588.674 6      6387.063    23840641.820    99017092.197 6      4967.715    23840641.940    99017096.189 6      4967.715
R07  22225916.400   118977068.754 7      4232.732    22225915.500   118977068.766 6      4232.732    22225932.100    92537789.196 7      3292.125    22225932.960    92537792.210 7      3292.125
R05  22755748.680   121642507.979 7       466.279    22755747.740   121642507.978 7       466.279    22755764.000    94610907.321 7       362.661    22755763.700    94610907.316 7       362.661
G07  21760595.660   114352714.904 8      1740.443    21760594.660   114352714.909 7      1740.443    21760602.880    89106021.365 7      1356.189    21760603.480    89106033.365 7      1356.189
R16  22028632.260   117672999.257 7      5370.850    22028629.640   117672999.269 7      5370.850    22028653.420    91523538.644 7      4177.328    22028653.780    91523538.651 7      4177.328
G19  24338473.600   127899547.232 6      -428.280    24338471.260   127899547.234 4      -428.280    24338486.900    99662007.871 4      -333.725
R22  22377249.880   119451282.990 7      6069.767    22377250.800   119451282.983 7      6069.767    22377261.220    92906594.271 7      4720.930    22377260.840    92906598.264 7      4720.930
G20  21527670.100   113128669.235 7      4785.716    21527668.860   113128669.242 6      4785.716    21527673.820    88152229.467 6      3729.129
G13  22238808.440   116865733.182 7      5160.399    22238806.940   116865733.187 5      5160.399    22238820.420    91064252.343 5      4021.090
G06  20742238.860   109001191.209 7       701.370    20742238.220   109001191.216 8       701.370    20742251.200    84936041.147 8       546.522    20742251.980    84936043.146 8       546.522
R21  19646145.760   105130488.114 8      2454.302    19646146.100   105130488.126 7      2454.302    19646158.520    81768208.623 8      1908.901    19646158.280    81768207.623 8      1908.901
> 2024 07 31 15 44 21.0000000  0 17
G05  23458908.360   123277397.178 7      5237.956    23458908.040   123277397.177 6      5237.956    23458915.960    96060340.921 6      4081.524    23458916.380    96060342.928 7      4081.524
G30  20950436.980   110095293.264 7      3854.031    20950435.660   110095293.266 8      3854.031    20950448.280    85788585.105 8      3003.141    20950448.900    85788588.105 8      3003.141
G11  20574402.560   108119212.276 7      3588.201    20574401.740   108119212.281 6      3588.201    20574407.540    84248756.483 6      2796.001    20574408.260    84248758.486 8      2796.001
R15  22712277.960   121367527.668 7      2426.453    22712277.620   121367527.664 7      2426.453    22712294.240    94397034.796 7      1887.241    22712293.980    94397033.795 7      1887.241
R06  20488707.580   109331685.429 6      2496.305    20488708.240   109331685.438 6      2496.305
G09  22997248.140   120851351.413 7       -44.052    22997247.060   120851351.418 7       -44.052    22997257.940    94169916.313 7       -34.326    22997258.460    94169933.317 7       -34.326
R09  23839424.660   127301201.475 6      6387.146    23839425.580   127301201.486 6      6387.146    23839445.680    99012124.385 6      4967.780    23839445.900    99012128.379 6      4967.780
R07  22225125.480   118972836.110 7      4232.502    22225125.060   118972836.119 7      4232.502    22225141.440    92534497.145 7      3291.946    22225142.080    92534500.162 7      3291.946
R05  22755661.240   121642041.618 7       466.357    22755660.480   121642041.627 7       466.357    22755676.500    94610544.602 7       362.722    22755676.680    94610544.594 7       362.722
G07  21760264.320   114350974.709 7      1739.966    21760263.560   114350974.714 7      1739.966    21760271.820    89104665.369 7      1355.818    21760272.300    89104677.372 7      1355.818
R16  22027626.740   117667628.628 7      5370.321    22027624.080   117667628.640 7      5370.321    22027648.180    91519361.501 7      4176.916    22027648.520    91519361.504 7      4176.916
G19  24338555.240   127899975.680 6      -428.475    24338552.880   127899975.680 4      -428.475    24338568.320    99662341.723 4      -333.877
R22  22376112.240   119445213.556 7      6069.120    22376114.120   119445213.549 7      6069.120    22376124.240    92901873.602 7      4720.427    22376123.940    92901877.591 7      4720.427
G20  21526759.340   113123883.640 7      4785.478    21526757.960   113123883.642 6      4785.478    21526763.160    88148500.430 6      3728.944
G13  22237826.420   116860573.011 7      5159.903    22237825.120   116860573.013 5      5159.903    22237838.460    91060231.438 5      4020.703
G06  20742105.420   109000490.113 8       700.818    20742104.820   109000490.113 8       700.818    20742117.860    84935494.825 8       546.092    20742118.720    84935496.823 8       546.092
R21  19645687.080   105128034.328 8      2453.338    19645687.480   105128034.346 7      2453.338    19645699.980    81766300.123 8      1908.152    19645700.080    81766299.123 8      1908.152
> 2024 07 31 15 44 22.0000000  0 17
G05  23457911.620   123272159.253 7      5238.060    23457911.400   123272159.247 6      5238.060    23457919.300    96056259.421 6      4081.605    23457919.400    96056261.426 7      4081.605
G30  20949703.440   110091439.541 8      3853.571    20949702.280   110091439.546 8      3853.571    20949714.960    85785582.211 8      3002.783    20949715.420    85785585.211 8      3002.783
G11  20573719.680   108115624.408 7      3587.641    20573718.840   108115624.413 6      3587.641    20573724.960    84245960.740 6      2795.564    20573725.380    84245962.743 8      2795.564
R15  22711824.100   121365101.600 7      2425.778    22711824.100   121365101.601 7      2425.778    22711840.160    94395147.863 7      1886.716    22711839.880    94395146.860 8      1886.716
R06  20488240.120   109329189.446 6      2496.089    20488239.140   109329189.442 6      2496.089
G09  22997256.580   120851395.652 7       -44.135    22997255.540   120851395.655 7       -44.135    22997266.280    94169950.781 7       -34.391    22997266.800    94169967.783 7       -34.391
R09  23838228.540   127294814.218 6      6387.306    23838229.140   127294814.213 6      6387.306    23838249.920    99007156.500 6      4967.905    23838249.800    99007160.496 6      4967.905
R07  22224335.100   118968603.746 7      4232.304    22224334.120   118968603.775 7      4232.304    22224350.620    92531205.322 7      3291.792    22224351.320    92531208.336 7      3291.792
R05  22755574.180   121641575.278 7       466.463    22755573.540   121641575.285 7       466.463    22755589.640    94610181.889 7       362.805    22755589.160    94610181.888 7       362.805
G07  21759933.320   114349235.159 7      1739.379    21759932.580   114349235.163 7      1739.379    21759940.840    89103309.877 7      1355.360    21759941.340    89103321.882 7      1355.360
R16  22026621.480   117662258.552 7      5369.831    22026618.940   117662258.551 7      5369.831    22026642.660    91515184.775 7      4176.535    22026643.220    91515184.778 7      4176.535
G19  24338637.040   127900404.015 6      -428.166    24338634.420   127900404.015 4      -428.166    24338649.780    99662675.491 4      -333.636
R22  22374975.500   119439144.723 7      6068.664    22374977.220   119439144.713 7      6068.664    22374987.560    92897153.399 7      4720.072    22374987.140    92897157.391 7      4720.072
G20  21525848.800   113119098.207 7      4785.487    21525847.280   113119098.210 6      4785.487    21525852.500    88144771.523 6      3728.951
G13  22236844.460   116855413.262 7      5159.629    22236843.420   116855413.264 5      5159.629    22236856.560    91056210.867 5      4020.490
G06  20741972.080   108999789.638 8       700.360    20741971.500   108999789.638 8       700.360    20741984.500    84934948.990 8       545.735    20741985.200    84934950.986 8       545.735
R21  19645228.820   105125581.573 8      2452.320    19645229.020   105125581.590 7      2452.320    19645241.640    81764392.425 8      1907.360    19645241.620    81764391.422 8      1907.360
> 2024 07 31 15 44 23.0000000  0 17
G05  23456914.640   123266921.236 7      5238.003    23456914.740   123266921.235 6      5238.003    23456922.460    96052177.856 6      4081.561    23456922.480    96052179.868 7      4081.561
G30  20948970.120   110087586.331 7      3852.839    20948969.060   110087586.336 8      3852.839    20948981.780    85782579.714 8      3002.212    20948982.240    85782582.713 8      3002.212
G11  20573037.160   108112037.098 7      3586.875    20573036.280   108112037.102 6      3586.875    20573042.280    84243165.429 6      2794.968    20573042.680    84243167.434 8      2794.968
R15  22711370.100   121362676.206 7      2424.925    22711370.040   121362676.199 7      2424.925    22711386.240    94393261.445 8      1886.053    22711385.980    94393260.444 8      1886.053
R06  20487773.160   109326693.515 6      2495.729    20487771.600   109326693.521 6      2495.729
G09  22997264.760   120851439.813 7       -44.156    22997263.920   120851439.813 7       -44.156    22997274.700    94169985.188 7       -34.407    22997275.040    94170002.190 7       -34.407
R09  23837032.640   127288426.649 6      6387.549    23837033.180   127288426.644 6      6387.549    23837053.060    99002188.396 6      4968.093    23837054.000    99002192.393 6      4968.093
R07  22223544.360   118964371.528 7      4232.010    22223543.680   118964371.553 7      4232.010    22223560.160    92527913.596 7      3291.564    22223560.500    92527916.606 7      3291.564
R05  22755486.640   121641108.773 7       466.477    22755486.280   121641108.779 7       466.477    22755502.160    94609819.047 7       362.816    22755502.220    94609819.046 7       362.816
G07  21759602.400   114347496.062 7      1738.747    21759601.560   114347496.067 7      1738.747    21759609.840    89101954.738 7      1354.868    21759610.200    89101966.744 8      1354.868
R16  22025616.360   117656888.805 7      5369.391    22025613.500   117656888.811 7      5369.391    22025637.440    91511008.319 7      4176.193    22025638.080    91511008.322 7      4176.193
G19  24338718.240   127900832.167 6      -428.343    24338715.880   127900832.169 4      -428.343    24338731.080    99663009.119 4      -333.774
R22  22373838.860   119433076.324 7      6068.064    22373840.360   119433076.320 7      6068.064    22373850.700    92892433.544 7      4719.605    22373850.400    92892437.536 7      4719.605
G20  21524938.060   113114312.835 7      4785.225    21524936.820   113114312.840 6      4785.225    21524941.880    88141042.664 6      3728.747
G13  22235862.560   116850253.792 7      5159.228    22235861.520   116850253.797 5      5159.228    22235874.740    91052190.515 5      4020.178
G06  20741838.900   108999089.652 8       699.632    20741838.360   108999089.657 8       699.632    20741851.320    84934403.542 8       545.168    20741852.260    84934405.542 8       545.168
R21  19644770.860   105123129.695 8      2451.282    19644770.720   105123129.713 8      2451.282    19644783.480    81762485.404 8      1906.553    19644783.220    81762484.401 8      1906.553
> 2024 07 31 15 44 24.0000000  0 17
G05  23455917.680   123261683.363 7      5237.907    23455917.980   123261683.368 6      5237.907    23455925.600    96048096.409 6      4081.486    23455925.780    96048098.405 7      4081.486
G30  20948237.100   110083733.831 7      3852.207    20948235.940   110083733.836 8      3852.207    20948248.640    85779577.767 8      3001.720    20948249.380    85779580.767 8      3001.720
G11  20572354.720   108108450.536 7      3586.247    20572353.680   108108450.546 6      3586.247    20572359.860    84240370.706 6      2794.479    20572360.040    84240372.712 8      2794.479
R15  22710916.620   121360251.762 7      2424.043    22710916.120   121360251.758 7      2424.043    22710932.420    94391375.775 7      1885.367    22710932.060    94391374.778 8      1885.367
R06  20487305.360   109324197.877 6      2495.692    20487304.460   109324197.864 6      2495.692
G09  22997273.200   120851484.160 7       -44.328    22997272.360   120851484.165 7       -44.328    22997283.260    94170019.747 7       -34.541    22997283.720    94170036.749 7       -34.541
R09  23835836.200   127282039.063 6      6387.623    23835836.920   127282039.067 6      6387.623    23835857.000    98997220.277 6      4968.151    23835857.860    98997224.273 6      4968.151
R07  22222753.380   118960139.676 7      4231.823    22222753.120   118960139.696 7      4231.823    22222769.580    92524622.156 7      3291.418    22222769.960    92524625.168 7      3291.418
R05  22755399.560   121640642.323 7       466.487    22755399.060   121640642.314 7       466.487    22755414.720    94609456.245 7       362.823    22755414.840    94609456.244 7       362.823
G07  21759271.780   114345757.649 8      1738.119    21759270.720   114345757.657 7      1738.119    21759278.960    89100600.132 7      1354.378    21759279.360    89100612.134 8      1354.378
R16  22024611.280   117651519.677 7      5368.871    22024608.780   117651519.689 7      5368.871    22024632.600    91506832.345 7      4175.788    22024632.680    91506832.346 7      4175.788
G19  24338799.860   127901260.287 6      -428.101    24338797.300   127901260.292 4      -428.101    24338812.680    99663342.719 4      -333.585
R22  22372702.060   119427008.628 7      6067.431    22372703.540   119427008.626 7      6067.431    22372714.260    92887714.228 7      4719.113    22372713.820    92887718.223 7      4719.113
G20  21524027.680   113109527.729 7      4785.036    21524026.220   113109527.734 6      4785.036    21524031.300    88137314.010 6      3728.599
G13  22234880.620   116845094.837 7      5158.822    22234879.760   116845094.842 5      5158.822    22234893.160    91048170.563 5      4019.861
G06  20741705.820   108998390.359 7       698.981    20741705.240   108998390.366 8       698.981    20741718.260    84933858.632 8       544.660    20741719.160    84933860.628 8       544.660
R21  19644312.580   105120678.957 8      2450.201    19644312.600   105120678.972 7      2450.201    19644325.600    81760579.264 8      1905.712    19644325.420    81760578.263 8      1905.712
> 2024 07 31 15 44 25.0000000  0 17
G05  23454921.020   123256445.483 7      5238.099    23454921.160   123256445.488 6      5238.099    23454928.960    96044014.943 6      4081.636    23454929.100    96044016.942 7      4081.636
G30  20947504.100   110079881.874 7      3851.887    20947502.920   110079881.879 8      3851.887    20947515.620    85776576.249 8      3001.471    20947516.260    85776579.248 8      3001.471
G11  20571672.380   108104864.607 7      3585.795    20571671.260   108104864.610 6      3585.795    20571677.500    84237576.474 6      2794.126    20571677.840    84237578.472 8      2794.126
R15  22710463.160   121357828.134 7      2423.410    22710462.360   121357828.130 7      2423.410    22710478.880    94389490.739 7      1884.874    22710478.700    94389489.743 8      1884.874
R06  20486837.240   109321702.367 6      2495.737    20486836.680   109321702.365 6      2495.737
G09  22997281.980   120851528.497 7       -44.116    22997280.680   120851528.502 7       -44.116    22997291.600    94170054.293 7       -34.376    22997292.020    94170071.301 7       -34.376
R09  23834639.840   127275651.313 6      6387.965    23834640.280   127275651.303 6      6387.965    23834660.760    98992252.014 6      4968.417    23834661.260    98992256.006 6      4968.417
R07  22221963.080   118955908.022 7      4231.717    22221962.880   118955908.048 7      4231.717    22221979.040    92521330.880 7      3291.336    22221979.260    92521333.884 7      3291.336
R05  22755312.440   121640175.727 7       466.795    22755311.400   121640175.744 7       466.795    22755327.460    94609093.356 7       363.063    22755327.200    94609093.352 7       363.063
G07  21758940.960   114344019.762 8      1737.845    21758940.040   114344019.761 7      1737.845    21758948.340    89099245.928 7      1354.165    21758948.440    89099257.934 7      1354.165
R16  22023606.240   117646150.958 7      5368.699    22023603.760   117646150.959 7      5368.699    22023627.320    91502656.677 7      4175.655    22023628.140    91502656.678 7      4175.655
G19  24338881.460   127901688.241 6      -427.675    24338878.700   127901688.246 4      -427.675    24338894.160    99663676.192 4      -333.254
R22  22371565.400   119420941.433 7      6067.133    22371566.580   119420941.434 7      6067.133    22371577.500    92882995.303 7      4718.881    22371577.260    92882999.300 7      4718.881
G20  21523116.880   113104742.727 7      4785.058    21523115.680   113104742.730 6      4785.058    21523120.760    88133585.437 6      3728.617
G13  22233899.080   116839936.226 7      5158.628    22233898.100   116839936.234 5      5158.628    22233911.380    91044150.872 5      4019.710
G06  20741572.960   108997691.605 8       698.624    20741572.300   108997691.607 8       698.624    20741585.320    84933314.138 8       544.383    20741586.100    84933316.134 8       544.383
R21  19643854.740   105118229.144 8      2449.380    19643855.000   105118229.167 7      2449.380    19643867.720    81758673.859 8      1905.073    19643867.740    81758672.858 8      1905.073
> 2024 07 31 15 44 26.0000000  0 17
G05  23453924.180   123251207.755 7      5237.409    23453924.400   123251207.757 6      5237.409    23453932.100    96039933.601 6      4081.098    23453932.400    96039935.606 7      4081.098
G30  20946771.260   110076030.666 7      3850.596    20946770.060   110076030.671 8      3850.596    20946782.720    85773575.311 8      3000.465    20946783.240    85773578.309 8      3000.465
G11  20570990.140   108101279.464 7      3584.488    20570989.080   108101279.467 6      3584.488    20570995.200    84234782.852 6      2793.108    20570995.660    84234784.852 8      2793.108
R15  22710009.720   121355405.481 7      2421.998    22710009.040   121355405.477 7      2421.998    22710025.460    94387606.460 7      1883.776    22710025.140    94387605.459 8      1883.776
R06  20486369.340   109319207.214 6      2494.681    20486369.020   109319207.207 6      2494.681
G09  22997290.540   120851573.054 7       -44.907    22997289.240   120851573.059 6       -44.907    22997300.140    94170089.011 6       -34.993    22997300.580    94170106.015 7       -34.993
R09  23833443.800   127269263.525 6      6387.463    23833444.660   127269263.534 6      6387.463    23833464.360    98987283.742 6      4968.026    23833465.220    98987287.730 6      4968.026
R07  22221172.200   118951676.705 7      4230.950    22221172.940   118951676.731 7      4230.950    22221188.600    92518039.856 7      3290.739    22221188.680    92518042.851 7      3290.739
R05  22755224.880   121639709.232 7       466.180    22755224.480   121639709.244 7       466.180    22755240.280    94608730.518 7       362.584    22755240.340    94608730.514 7       362.584
G07  21758610.360   114342282.565 7      1736.673    21758609.420   114342282.570 7      1736.673    21758617.740    89097892.276 7      1353.252    21758618.160    89097904.279 7      1353.252
R16  22022601.220   117640782.834 7      5367.649    22022598.180   117640782.832 7      5367.649    22022622.500    91498481.478 7      4174.838    22022622.880    91498481.481 7      4174.838
G19  24338962.580   127902116.253 6      -428.341    24338960.200   127902116.261 4      -428.341    24338975.780    99664009.706 4      -333.772
R22  22370428.940   119414874.957 7      6065.868    22370430.100   119414874.957 7      6065.868    22370441.040    92878276.933 7      4717.898    22370440.780    92878280.932 7      4717.898
G20  21522206.480   113099957.994 7      4784.389    21522205.060   113099957.996 6      4784.389    21522210.300    88129857.078 6      3728.095
G13  22232917.540   116834778.149 7      5157.599    22232916.640   116834778.154 5      5157.599    22232929.880    91040131.599 5      4018.908
G06  20741440.300   108996993.565 7       697.462    20741439.420   108996993.570 8       697.462    20741452.440    84932770.205 8       543.477    20741453.360    84932772.201 8       543.477
R21  19643397.260   105115780.426 8      2447.902    19643397.380   105115780.447 7      2447.902    19643410.120    81756769.298 8      1903.923    19643409.840    81756768.297 8      1903.923
> 2024 07 31 15 44 27.0000000  0 17
G05  23452927.600   123245970.329 7      5237.552    23452927.820   123245970.331 6      5237.552    23452935.460    96035852.492 6      4081.209    23452936.120    96035854.505 7      4081.209
G30  20946038.560   110072180.351 7      3850.117    20946037.360   110072180.359 8      3850.117    20946050.040    85770575.070 8      3000.091    20946050.680    85770578.072 8      3000.091
G11  20570308.220   108097695.281 7      3583.861    20570306.880   108097695.283 6      3583.861    20570313.080    84231989.979 6      2792.619    20570313.520    84231991.984 8      2792.619
R15  22709556.720   121352983.942 7      2421.192    22709555.800   121352983.940 7      2421.192    22709572.520    94385723.051 7      1883.149    22709572.180    94385722.052 8      1883.149
R06  20485901.800   109316712.483 6      2494.704    20485901.380   109316712.508 6      2494.704
G09  22997298.820   120851617.961 7       -44.908    22997297.680   120851617.964 7       -44.908    22997308.700    94170124.001 7       -34.993    22997309.520    94170141.007 7       -34.993
R09  23832247.300   127262875.907 6      6387.679    23832248.300   127262875.919 6      6387.679    23832268.340    98982315.602 6      4968.195    23832269.020    98982319.590 6      4968.195
R07  22220381.700   118947445.937 7      4230.660    22220382.200   118947445.963 7      4230.660    22220398.240    92514749.265 7      3290.513    22220398.420    92514752.254 7      3290.513
R05  22755137.580   121639242.975 7       466.382    22755137.420   121639242.987 7       466.382    22755153.080    94608367.874 7       362.742    22755153.200    94608367.868 7       362.742
G07  21758279.960   114340546.260 7      1736.131    21758279.020   114340546.267 7      1736.131    21758287.340    89096539.313 7      1352.830    21758287.680    89096551.315 7      1352.830
R16  22021596.500   117635415.520 7      5367.175    22021593.620   117635415.518 7      5367.175    22021617.700    91494306.913 7      4174.469    22021617.980    91494306.915 7      4174.469
G19  24339044.220   127902544.420 6      -427.942    24339041.820   127902544.428 4      -427.942    24339057.340    99664343.340 4      -333.461
R22  22369293.100   119408809.331 7      6065.532    22369293.540   119408809.332 7      6065.532    22369304.760    92873559.226 7      4717.636    22369304.440    92873563.227 7      4717.636
G20  21521295.960   113095173.736 7      4784.208    21521294.580   113095173.746 6      4784.208    21521299.800    88126129.089 6      3727.955
G13  22231936.320   116829620.752 7      5157.351    22231935.200   116829620.754 5      5157.351    22231948.480    91036112.856 5      4018.715
G06  20741307.520   108996296.424 7       696.965    20741306.720   108996296.427 8       696.965    20741319.740    84932226.970 8       543.089    20741320.660    84932228.965 8       543.089
R21  19642939.620   105113333.014 7      2446.990    19642939.840   105113333.040 7      2446.990    19642952.820    81754865.749 8      1903.214    19642952.580    81754864.750 8      1903.214
> 2024 07 31 15 44 28.0000000  0 17
G05  23451930.780   123240732.998 7      5237.316    23451931.120   123240733.000 6      5237.316    23451938.780    96031771.455 6      4081.026    23451939.200    96031773.461 7      4081.026
G30  20945306.000   110068330.704 8      3849.326    20945304.800   110068330.709 8      3849.326    20945317.480    85767575.352 8      2999.474    20945318.120    85767578.349 8      2999.474
G11  20569626.120   108094111.812 7      3583.033    20569625.080   108094111.814 6      3583.033    20569631.200    84229197.664 6      2791.974    20569631.760    84229199.664 8      2791.974
R15  22709103.780   121350563.239 7      2420.298    22709102.880   121350563.240 7      2420.298    22709119.420    94383840.295 7      1882.454    22709119.060    94383839.296 7      1882.454
R06  20485433.980   109314218.054 6      2494.383    20485433.980   109314218.039 6      2494.383
G09  22997307.280   120851662.987 7       -45.203    22997306.300   120851662.991 7       -45.203    22997317.300    94170159.083 7       -35.223    22997318.140    94170176.087 7       -35.223
R09  23831051.440   127256488.199 6      6387.704    23831051.960   127256488.211 6      6387.704    23831072.240    98977347.382 6      4968.214    23831072.420    98977351.377 6      4968.214
R07  22219591.480   118943215.445 7      4230.327    22219592.240   118943215.457 7      4230.327    22219607.900    92511458.878 7      3290.255    22219607.840    92511461.871 7      3290.255
R05  22755050.280   121638776.764 7       466.246    22755050.100   121638776.768 7       466.246    22755065.800    94608005.254 7       362.636    22755065.980    94608005.253 7       362.636
G07  21757949.940   114338810.584 7      1735.473    21757948.740   114338810.587 7      1735.473    21757957.100    89095186.835 7      1352.316    21757957.460    89095198.841 8      1352.316
R16  22020591.660   117630048.745 7      5366.526    22020589.220   117630048.759 7      5366.526    22020613.220    91490132.773 7      4173.965    22020613.520    91490132.776 7      4173.965
G19  24339125.940   127902972.582 6      -428.244    24339123.440   127902972.584 4      -428.244    24339138.780    99664676.969 4      -333.697
R22  22368156.620   119402744.360 7      6064.708    22368157.020   119402744.358 7      6064.708    22368168.720    92868842.026 7      4716.995    22368168.360    92868846.023 7      4716.995
G20  21520385.580   113090389.680 7      4783.969    21520384.320   113090389.685 6      4783.969    21520389.580    88122401.249 6      3727.768
G13  22230955.040   116824463.828 7      5156.802    22230953.800   116824463.833 5      5156.802    22230967.120    91032094.484 5      4018.287
G06  20741174.920   108995599.932 7       696.139    20741174.180   108995599.929 8       696.139    20741187.240    84931684.233 8       542.446    20741188.260    84931686.231 8       542.446
R21  19642482.300   105110886.645 7      2445.814    19642482.720   105110886.665 7      2445.814    19642495.720    81752963.011 8      1902.300    19642495.380    81752962.013 8      1902.300
> 2024 07 31 15 44 29.0000000  0 17
G05  23750727.880   124810920.940 7      5237.383    23750727.800   124810920.942 6      5237.383    23750735.620    97255294.535 6      4081.078    23750736.040    97255296.543 7      4081.078
G30  21244366.940   111639905.526 8      3848.910    21244365.540   111639905.534 8      3848.910    21244378.220    86992179.113 8      2999.151    21244378.640    86992182.113 8      2999.151
G11  20868737.440   109665952.581 7      3582.646    20868736.480   109665952.588 6      3582.646    20868742.680    85454008.652 6      2791.672    20868743.160    85454010.653 8      2791.672
R15  23008443.720   122950145.778 7      2419.657    23008442.860   122950145.781 7      2419.657    23008459.400    95627960.055 7      1881.956    23008459.260    95627959.054 8      1881.956
R06  20784759.160   110911476.282 6      2494.285    20784759.680   110911476.280 6      2494.285
G09  23297108.160   122427128.035 7       -44.977    23297107.340   122427128.040 7       -44.977    23297118.260    95397794.188 7       -35.047    23297119.240    95397811.195 7       -35.047
R09  24129648.560   128850981.752 6      6388.075    24129649.720   128850981.767 6      6388.075    24129669.420   100217509.039 6      4968.503    24129670.080   100217513.033 7      4968.503
R07  22518594.480   120543801.909 7      4230.358    22518594.900   120543801.927 7      4230.358    22518610.920    93756359.461 7      3290.278    22518611.200    93756362.459 7      3290.278
R05  23054755.600   123240873.501 7       466.368    23054755.320   123240873.503 7       466.368    23054770.960    95854080.495 7       362.731    23054770.940    95854080.493 7       362.731
G07  22057412.400   115912497.253 7      1734.919    22057411.440   115912497.258 7      1734.919    22057419.740    90321436.191 7      1351.885    22057420.200    90321448.195 7      1351.885
R16  22319380.880   119226125.365 7      5366.144    22319378.160   119226125.371 7      5366.144    22319402.160    92731525.706 7      4173.667    22319401.980    92731525.711 7      4173.667
G19  24638999.140   129478820.156 6      -427.916    24638997.340   129478820.153 4      -427.916    24639012.620   100892610.137 4      -333.441
R22  22666813.960   120996998.524 7      6064.240    22666814.200   120996998.525 7      6064.240    22666825.880    94108817.495 7      4716.631    22666825.640    94108821.494 7      4716.631
G20  21819268.540   114661030.583 7      4784.009    21819267.360   114661030.583 6      4784.009    21819272.600    89346277.281 6      3727.799
G13  22529767.500   118394732.466 7      5156.613    22529765.900   118394732.466 5      5156.613    22529779.360    92255680.447 5      4018.140
G06  21040835.000   110570324.739 8       695.707    21040834.420   110570324.741 8       695.707    21040847.520    86158742.519 8       542.109    21040848.600    86158744.520 8       542.109
R21  19941818.100   106712693.706 7      2445.075    19941818.940   106712693.721 7      2445.075    19941831.640    82998812.944 8      1901.725    19941831.440    82998811.941 8      1901.725
> 2024 07 31 15 44 30.0000000  0 17
G05  23749731.480   124805683.561 7      5237.339    23749730.980   124805683.564 6      5237.339    23749739.040    97251213.465 6      4081.044    23749739.240    97251215.488 7      4081.044
G30  21243634.440   111636057.012 7      3848.175    21243633.160   111636057.022 8      3848.175    21243645.880    86989180.279 8      2998.578    21243646.480    86989183.283 8      2998.578
G11  20868056.040   109662370.352 7      3581.925    20868054.900   109662370.359 6      3581.925    20868060.900    85451217.303 6      2791.110    20868061.580    85451219.306 8      2791.110
R15  23007990.840   122947726.622 7      2418.712    23007990.180   122947726.620 7      2418.712    23008006.700    95626078.498 7      1881.220    23008006.340    95626077.495 7      1881.220
R06  20784291.980   110908982.090 6      2494.107    20784291.900   110908982.099 6      2494.107
G09  23297116.540   122427173.103 7       -45.127    23297115.920   122427173.105 7       -45.127    23297126.820    95397829.308 6       -35.164    23297127.780    95397846.316 7       -35.164
R09  24128452.220   128844593.697 6      6388.049    24128452.900   128844593.714 6      6388.049    24128473.240   100212540.560 6      4968.482    24128473.200   100212544.556 6      4968.482
R07  22517804.660   120539571.784 7      4230.023    22517805.460   120539571.804 6      4230.023    22517820.700    93753069.378 7      3290.018    22517820.880    93753072.388 7      3290.018
R05  23054668.140   123240407.143 7       466.317    23054667.980   123240407.149 7       466.317    23054683.760    95853717.771 7       362.691    23054683.760    95853717.768 7       362.691
G07  22057082.460   115910762.637 7      1734.279    22057081.380   115910762.644 7      1734.279    22057089.580    90320084.548 7      1351.386    22057089.960    90320096.552 7      1351.386
R16  22318376.340   119220759.522 7      5365.614    22318373.640   119220759.528 7      5365.614    22318397.460    92727352.279 7      4173.255    22318397.600    92727352.284 7      4173.255
G19  24639080.800   129479247.936 6      -427.748    24639078.940   129479247.933 4      -427.748    24639093.940   100892943.475 4      -333.310
R22  22665677.780   120990934.572 7      6063.601    22665678.000   120990934.576 7      6063.601    22665689.780    94104101.103 7      4716.134    22665689.840    94104105.100 7      4716.134
G20  21818358.340   114656246.769 7      4783.742    21818357.000   114656246.769 6      4783.742    21818362.280    89342549.634 6      3727.591
G13  22528786.360   118389576.270 7      5156.012    22528784.800   118389576.272 5      5156.012    22528798.120    92251662.648 5      4017.671
G06  21040702.900   110569629.324 7       695.150    21040702.200   110569629.329 8       695.150    21040715.080    86158200.634 8       541.675    21040716.300    86158202.634 8       541.675
R21  19941361.540   106710249.202 7      2443.962    19941361.620   106710249.220 7      2443.962    19941374.800    82996911.657 8      1900.859    19941374.580    82996910.658 8      1900.859
> 2024 07 31 15 44 31.0000000  0 17
G05  23748734.880   124800446.359 7      5237.348    23748734.400   124800446.361 6      5237.348    23748742.360    97247132.534 6      4081.050    23748742.660    97247134.545 7      4081.050
G30  21242902.180   111632209.235 7      3847.657    21242900.960   111632209.243 8      3847.657    21242913.660    86986182.009 8      2998.174    21242914.540    86986185.011 8      2998.174
G11  20867374.500   109658788.937 7      3581.229    20867373.440   109658788.937 6      3581.229    20867379.480    85448426.585 6      2790.568    20867379.900    85448428.587 8      2790.568
R15  23007538.120   122945308.415 7      2417.875    23007537.400   122945308.419 7      2417.875    23007554.060    95624197.674 7      1880.569    23007553.940    95624196.673 8      1880.569
R06  20783824.520   110906488.253 6      2493.896    20783823.800   110906488.264 6      2493.896
G09  23297125.160   122427218.364 7       -45.123    23297124.360   122427218.372 7       -45.123    23297135.560    95397864.579 7       -35.161    23297136.160    95397881.585 7       -35.161
R09  24127256.040   128838205.642 6      6388.265    24127256.800   128838205.654 6      6388.265    24127276.900   100207572.062 6      4968.651    24127276.980   100207576.050 6      4968.651
R07  22517014.220   120535342.014 7      4229.761    22517014.840   120535342.045 6      4229.761    22517030.660    93749779.571 7      3289.814    22517031.400    93749782.586 7      3289.814
R05  23054581.300   123239940.899 7       466.348    23054581.060   123239940.903 7       466.348    23054596.480    95853355.136 7       362.715    23054596.320    95853355.134 7       362.715
G07  22056752.460   115909028.756 7      1733.756    22056751.320   115909028.758 7      1733.756    22056759.740    90318733.472 7      1350.979    22056760.100    90318745.470 8      1350.979
R16  22317371.800   119215394.328 7      5365.238    22317369.000   119215394.332 7      5365.238    22317393.340    92723179.363 7      4172.963    22317393.400    92723179.370 7      4172.963
G19  24639162.360   129479675.775 6      -427.485    24639160.340   129479675.780 4      -427.485    24639175.320   100893276.860 4      -333.105
R22  22664541.840   120984871.368 7      6062.987    22664542.060   120984871.371 7      6062.987    22664554.160    94099385.284 7      4715.656    22664553.520    94099389.283 7      4715.656
G20  21817448.000   114651463.252 7      4783.563    21817446.780   114651463.255 6      4783.563    21817452.060    89338822.220 6      3727.452
G13  22527805.020   118384420.600 7      5155.508    22527803.700   118384420.602 5      5155.508    22527817.040    92247645.252 5      4017.279
G06  21040570.580   110568934.661 7       694.507    21040570.020   110568934.663 8       694.507    21040582.840    86157659.327 8       541.174    21040583.840    86157661.324 8       541.174
R21  19940904.780   106707805.795 7      2443.061    19940905.080   106707805.816 7      2443.061    19940918.080    82995011.229 8      1900.158    19940917.960    82995010.230 8      1900.158
> 2024 07 31 15 44 32.0000000  0 17
G05  23747738.960   124795209.314 7      5236.891    23747737.800   124795209.319 6      5236.891    23747745.680    97243051.728 6      4080.694    23747745.920    97243053.730 7      4080.694
G30  21242170.080   111628362.189 8      3846.650    21242168.840   111628362.194 8      3846.650    21242181.540    86983184.317 8      2997.390    21242182.280    86983187.315 8      2997.390
G11  20866693.020   109655208.272 7      3580.251    20866691.840   109655208.277 6      3580.251    20866698.000    85445636.458 6      2789.806    20866698.620    85445638.464 8      2789.806
R15  23007085.680   122942891.148 7      2416.774    23007085.480   122942891.149 7      2416.774    23007101.960    95622317.582 8      1879.713    23007101.580    95622316.581 7      1879.713
R06  20783357.020   110903994.738 6      2493.228    20783357.320   110903994.758 6      2493.228
G09  23297133.860   122427263.836 7       -45.668    23297132.980   122427263.836 7       -45.668    23297144.320    95397900.003 6       -35.585    23297144.900    95397917.009 7       -35.585
R09  24126059.800   128831817.555 6      6388.070    24126060.460   128831817.561 6      6388.070    24126080.440   100202603.544 6      4968.499    24126080.800   100202607.536 6      4968.499
R07  22516224.440   120531112.592 7      4229.211    22516225.000   120531112.623 7      4229.211    22516240.640    93746490.021 7      3289.386    22516241.060    93746493.034 7      3289.386
R05  23054494.040   123239474.725 7       466.000    23054493.700   123239474.724 7       466.000    23054509.520    95852992.547 7       362.444    23054508.960    95852992.546 7       362.444
G07  22056422.740   115907295.553 7      1732.779    22056421.460   115907295.558 7      1732.779    22056429.900    90317382.929 7      1350.217    22056430.240    90317394.929 8      1350.217
R16  22316367.540   119210029.744 7      5364.263    22316364.940   119210029.753 7      5364.263    22316388.920    92719006.921 7      4172.205    22316388.820    92719006.926 7      4172.205
G19  24639243.840   129480103.635 6      -427.952    24639241.600   129480103.642 4      -427.952    24639256.780   100893610.257 4      -333.469
R22  22663406.040   120978808.844 7      6062.091    22663406.540   120978808.840 7      6062.091    22663418.300    94094669.989 7      4714.960    22663418.240    94094673.986 7      4714.960
G20  21816537.840   114646679.998 7      4783.082    21816536.400   114646680.000 6      4783.082    21816541.800    89335095.009 6      3727.077
G13  22526823.700   118379265.441 7      5154.782    22526822.620   118379265.446 5      5154.782    22526835.840    92243628.254 5      4016.713
G06  21040438.820   110568240.702 8       693.575    21040437.920   110568240.701 8       693.575    21040450.780    86157118.570 8       540.448    21040452.040    86157120.568 8       540.448
R21  19940448.420   106705363.517 7      2441.616    19940448.780   106705363.540 7      2441.616    19940461.920    82993111.677 8      1899.035    19940461.740    82993110.679 8      1899.035
> 2024 07 31 15 44 33.0000000  0 17
G05  23746742.100   124789972.461 7      5236.744    23746741.100   124789972.461 6      5236.744    23746749.080    97238971.061 6      4080.580    23746749.160    97238973.060 7      4080.580
G30  21241438.040   111624515.906 8      3845.825    21241436.900   111624515.908 8      3845.825    21241449.680    86980187.215 8      2996.747    21241450.100    86980190.211 8      2996.747
G11  20866011.640   109651628.442 7      3579.311    20866010.660   109651628.447 6      3579.311    20866016.700    85442846.982 6      2789.073    20866017.320    85442848.986 8      2789.073
R15  23006633.540   122940474.859 7      2415.684    23006633.080   122940474.860 7      2415.684    23006649.640    95620438.253 7      1878.865    23006649.260    95620437.254 7      1878.865
R06  20782890.500   110901501.579 6      2492.821    20782890.560   110901501.590 6      2492.821
G09  23297142.580   122427309.481 7       -45.883    23297141.780   122427309.483 7       -45.883    23297153.140    95397935.569 7       -35.753    23297153.420    95397952.573 7       -35.753
R09  24124863.800   128825429.497 6      6387.937    24124864.420   128825429.501 6      6387.937    24124884.100   100197635.054 6      4968.396    24124884.520   100197639.047 6      4968.396
R07  22515434.240   120526883.623 7      4228.544    22515434.860   120526883.662 7      4228.544    22515450.680    93743200.833 7      3288.868    22515451.100    93743203.837 7      3288.868
R05  23054406.940   123239008.597 7       466.096    23054406.220   123239008.590 7       466.096    23054422.100    95852630.005 7       362.519    23054421.840    95852630.006 7       362.519
G07  22056092.940   115905563.087 7      1732.048    22056091.780   115905563.089 7      1732.048    22056100.220    90316032.953 7      1349.648    22056100.340    90316044.953 8      1349.648
R16  22315363.200   119204665.776 7      5363.592    22315360.660   119204665.785 7      5363.592    22315384.760    92714834.954 7      4171.683    22315384.980    92714834.959 7      4171.683
G19  24639325.520   129480531.526 6      -427.990    24639322.960   129480531.539 4      -427.990    24639338.100   100893943.683 4      -333.498
R22  22662270.520   120972747.046 7      6061.418    22662270.980   120972747.039 7      6061.418    22662282.700    94089955.254 7      4714.436    22662282.680    94089959.253 7      4714.436
G20  21815627.520   114641897.070 7      4782.692    21815626.240   114641897.072 6      4782.692    21815631.780    89331368.058 6      3726.773
G13  22525842.860   118374110.832 7      5154.281    22525841.660   118374110.837 5      5154.281    22525855.060    92239611.686 5      4016.323
G06  21040306.720   110567547.468 8       692.887    21040305.960   110567547.468 8       692.887    21040318.840    86156578.380 8       539.912    21040319.980    86156580.382 8       539.912
R21  19939992.160   106702922.371 7      2440.529    19939992.460   106702922.386 7      2440.529    19940005.680    82991213.004 8      1898.189    19940005.700    82991212.007 8      1898.189
> 2024 07 31 15 44 34.0000000  0 17
G05  23745745.400   124784735.590 7      5236.908    23745744.460   124784735.592 6      5236.908    23745752.560    97234890.386 6      4080.707    23745752.980    97234892.399 7      4080.707
G30  21240706.420   111620670.176 8      3845.552    21240705.200   111620670.176 8      3845.552    21240717.720    86977190.547 8      2996.534    21240718.360    86977193.551 8      2996.534
G11  20865330.860   109648049.211 7      3579.040    20865329.520   109648049.218 6      3579.040    20865335.620    85440057.971 6      2788.862    20865335.960    85440059.969 8      2788.862
R15  23006181.520   122938059.308 7      2415.257    23006180.940   122938059.312 7      2415.257    23006197.820    95618559.499 7      1878.533    23006197.120    95618558.498 8      1878.533
R06  20782423.520   110899008.516 6      2493.334    20782422.980   110899008.516 6      2493.334
G09  23297151.060   122427355.153 7       -45.614    23297150.500   122427355.160 7       -45.614    23297161.680    95397971.155 7       -35.543    23297162.440    95397988.169 7       -35.543
R09  24123668.080   128819041.279 6      6388.275    24123667.940   128819041.283 6      6388.275    24123687.720   100192666.447 6      4968.658    24123688.160   100192670.447 6      4968.658
R07  22514644.500   120522654.836 7      4228.689    22514645.000   120522654.864 7      4228.689    22514660.940    93739911.772 7      3288.980    22514661.120    93739914.772 7      3288.980
R05  23054319.640   123238542.390 7       466.279    23054319.120   123238542.389 7       466.279    23054335.040    95852267.396 7       362.662    23054334.900    95852267.392 7       362.662
G07  22055763.300   115903831.166 7      1731.720    22055762.320   115903831.163 7      1731.720    22055770.660    90314683.394 7      1349.392    22055771.120    90314695.392 7      1349.392
R16  22314359.180   119199302.246 7      5363.411    22314356.740   119199302.245 7      5363.411    22314380.640    92710663.333 7      4171.542    22314380.820    92710663.337 7      4171.542
G19  24639406.880   129480959.265 6      -427.394    24639404.320   129480959.270 4      -427.394    24639419.580   100894276.986 4      -333.034
R22  22661135.040   120966685.782 7      6061.062    22661135.720   120966685.778 7      6061.062    22661147.320    94085240.945 7      4714.160    22661147.180    94085244.945 7      4714.160
G20  21814717.480   114637114.247 7      4782.810    21814716.180   114637114.252 6      4782.810    21814721.560    89327641.185 6      3726.865
G13  22524862.140   118368956.578 7      5154.104    22524860.960   118368956.583 5      5154.104    22524874.140    92235595.394 5      4016.185
G06  21040174.920   110566854.810 7       692.513    21040174.220   110566854.812 8       692.513    21040187.060    86156038.638 8       539.621    21040188.180    86156040.636 8       539.621
R21  19939536.380   106700482.186 7      2439.768    19939536.020   106700482.206 7      2439.768    19939549.600    82989315.080 8      1897.598    19939549.420    82989314.083 8      1897.598
> 2024 07 31 15 44 35.0000000  0 17
G05  23744748.700   124779498.508 7      5237.131    23744747.780   124779498.513 6      5237.131    23744755.880    97230809.549 6      4080.881    23744756.480    97230811.572 7      4080.881
G30  21239974.720   111616824.835 7      3845.078    21239973.400   111616824.840 8      3845.078    21239986.060    86974194.182 8      2996.165    21239986.580    86974197.181 8      2996.165
G11  20864649.860   109644470.434 7      3578.451    20864648.500   109644470.442 6      3578.451    20864654.660    85437269.312 6      2788.403    20864654.660    85437271.312 8      2788.403
R15  23005729.440   122935644.384 7      2414.612    23005729.200   122935644.380 7      2414.612    23005745.740    95616681.223 7      1878.031    23005745.340    95616680.226 8      1878.031
R06  20781956.160   110896515.511 6      2492.938    20781955.260   110896515.504 6      2492.938
G09  23297159.860   122427400.672 7       -45.485    23297159.100   122427400.677 7       -45.485    23297170.300    95398006.618 7       -35.443    23297171.320    95398023.630 7       -35.443
R09  24122471.480   128812652.639 6      6388.991    24122471.380   128812652.635 6      6388.991    24122491.580   100187697.500 6      4969.215    24122491.980   100187701.495 6      4969.215
R07  22513854.640   120518426.102 7      4228.614    22513855.340   120518426.120 7      4228.614    22513870.600    93736622.753 7      3288.922    22513871.320    93736625.753 7      3288.922
R05  23054232.580   123238075.858 7       466.555    23054232.180   123238075.859 7       466.555    23054247.780    95851904.542 7       362.876    23054247.440    95851904.540 7       362.876
G07  22055433.980   115902099.574 7      1731.367    22055432.900   115902099.579 7      1731.367    22055441.180    90313334.108 7      1349.117    22055441.460    90313346.108 8      1349.117
R16  22313355.360   119193938.978 7      5363.100    22313352.800   119193938.982 7      5363.100    22313376.800    92706491.912 7      4171.300    22313376.900    92706491.917 7      4171.300
G19  24639488.440   129481386.723 6      -427.412    24639485.600   129481386.722 4      -427.412    24639500.820   100894610.064 4      -333.049
R22  22659999.680   120960624.833 7      6060.756    22660000.600   120960624.829 7      6060.756    22660011.540    94080526.878 7      4713.921    22660011.580    94080530.879 7      4713.921
G20  21813807.420   114632331.352 7      4782.914    21813806.080   114632331.355 6      4782.914    21813811.260    89323914.254 6      3726.946
G13  22523881.500   118363802.494 7      5153.893    22523880.220   118363802.496 5      5153.893    22523893.380    92231579.233 5      4016.021
G06  21040043.100   110566162.498 7       692.100    21040042.480   110566162.495 8       692.100    21040055.300    86155499.170 8       539.299    21040056.080    86155501.168 8       539.299
R21  19939080.200   106698042.760 7      2439.013    19939080.460   106698042.778 7      2439.013    19939093.660    82987417.745 8      1897.010    19939093.520    82987416.746 8      1897.010
> 2024 07 31 15 44 36.0000000  0 17
G05  23743752.020   124774261.610 7      5236.769    23743751.220   124774261.618 6      5236.769    23743759.180    97226728.858 6      4080.600    23743759.600    97226730.871 7      4080.600
G30  21239243.080   111612980.246 8      3844.153    21239241.780   111612980.246 8      3844.153    21239254.420    86971198.402 8      2995.444    21239255.180    86971201.402 8      2995.444
G11  20863968.800   109640892.457 7      3577.567    20863967.620   109640892.462 6      3577.567    20863973.760    85434481.275 6      2787.715    20863974.020    85434483.274 8      2787.715
R15  23005277.640   122933230.420 7      2413.518    23005277.360   122933230.411 7      2413.518    23005293.920    95614803.699 7      1877.181    23005293.660    95614802.698 8      1877.181
R06  20781488.840   110894022.749 6      2492.647    20781488.400   110894022.736 6      2492.647
G09  23297168.720   122427446.383 7       -45.832    23297167.780   122427446.388 7       -45.832    23297178.980    95398042.239 7       -35.713    23297179.280    95398059.245 7       -35.713
R09  24121275.320   128806264.064 6      6388.699    24121275.280   128806264.073 6      6388.699    24121294.860   100182728.608 6      4968.988    24121295.440   100182732.604 6      4968.988
R07  22513064.920   120514197.759 7      4227.961    22513065.640   120514197.779 7      4227.961    22513081.300    93733334.044 7      3288.414    22513081.600    93733337.052 7      3288.414
R05  23054144.940   123237609.444 7       466.336    23054144.860   123237609.453 7       466.336    23054160.220    95851541.781 7       362.706    23054160.280    95851541.778 7       362.706
G07  22055104.400   115900368.710 7      1730.510    22055103.560   115900368.712 7      1730.510    22055111.680    90311985.386 7      1348.449    22055112.340    90311997.386 8      1348.449
R16  22312351.620   119188576.370 7      5362.266    22312348.680   119188576.371 7      5362.266    22312373.000    92702321.009 7      4170.651    22312372.940    92702321.012 7      4170.651
G19  24639569.100   129481814.154 6      -427.635    24639567.020   129481814.143 4      -427.635    24639582.180   100894943.121 4      -333.222
R22  22658864.840   120954564.626 7      6059.802    22658865.620   120954564.622 7      6059.802    22658876.160    94075813.388 7      4713.179    22658876.360    94075817.387 7      4713.179
G20  21812897.520   114627548.771 7      4782.385    21812895.960   114627548.773 6      4782.385    21812901.260    89320187.574 6      3726.534
G13  22522900.720   118358648.944 7      5153.265    22522899.660   118358648.949 5      5153.265    22522912.660    92227563.494 5      4015.532
G06  21039911.360   110565470.936 7       691.115    21039910.880   110565470.935 8       691.115    21039923.760    86154960.280 8       538.531    21039924.500    86154962.282 8       538.531
R21  19938624.740   106695604.458 7      2437.720    19938624.700   106695604.473 7      2437.720    19938637.980    82985521.283 8      1896.004    19938637.500    82985520.283 8      1896.004
> 2024 07 31 15 44 37.0000000  0 17
G05  23742755.660   124769024.967 7      5236.572    23742754.800   124769024.970 6      5236.572    23742762.780    97222648.357 6      4080.446    23742762.900    97222650.358 7      4080.446
G30  21238511.560   111609136.464 8      3843.378    21238510.400   111609136.466 8      3843.378    21238522.940    86968203.253 8      2994.840    21238523.620    86968206.252 8      2994.840
G11  20863288.120   109637315.362 7      3576.645    20863286.900   109637315.367 6      3576.645    20863293.000    85431693.926 6      2786.996    20863293.440    85431695.925 8      2786.996
R15  23004826.340   122930817.503 7      2412.321    23004825.600   122930817.494 7      2412.321    23004842.400    95612926.994 7      1876.249    23004842.140    95612925.993 7      1876.249
R06  20781022.060   110891530.430 6      2492.152    20781021.580   110891530.425 6      2492.152
G09  23297177.520   122427492.383 7       -46.115    23297176.520   122427492.388 7       -46.115    23297187.860    95398078.079 6       -35.934    23297188.280    95398095.087 7       -35.934
R09  24120078.800   128799875.525 6      6388.641    24120079.100   128799875.532 6      6388.641    24120098.960   100177759.751 6      4968.943    24120098.900   100177763.752 6      4968.943
R07  22512275.200   120509969.801 7      4227.773    22512275.720   120509969.827 7      4227.773    22512291.480    93730045.643 7      3288.268    22512291.840    93730048.668 7      3288.268
R05  23054058.020   123237143.264 7       466.120    23054057.880   123237143.271 7       466.120    23054073.240    95851179.191 7       362.538    23054072.920    95851179.185 7       362.538
G07  22054775.080   115898638.634 8      1729.711    22054774.220   115898638.636 7      1729.711    22054782.460    90310637.277 7      1347.827    22054783.120    90310649.275 8      1347.827
R16  22311347.640   119183214.478 7      5361.567    22311345.040   119183214.484 7      5361.567    22311369.100    92698150.653 7      4170.108    22311369.300    92698150.653 7      4170.108
G19  24639650.320   129482241.641 5      -427.486    24639648.340   129482241.630 4      -427.486    24639663.600   100895276.227 4      -333.106
R22  22657729.640   120948505.214 7      6058.997    22657730.840   120948505.215 7      6058.997    22657740.940    94071100.510 7      4712.553    22657741.320    94071104.511 7      4712.553
G20  21811987.380   114622766.557 7      4782.040    21811985.760   114622766.562 6      4782.040    21811991.200    89316461.169 6      3726.265
G13  22521920.320   118353496.011 7      5152.762    22521919.160   118353496.016 5      5152.762    22521931.980    92223548.230 5      4015.139
G06  21039779.980   110564780.166 7       690.301    21039779.320   110564780.166 8       690.301    21039792.300    86154422.010 8       537.897    21039793.120    86154424.012 8       537.897
R21  19938169.420   106693167.350 7      2436.478    19938169.460   106693167.364 7      2436.478    19938182.500    82983625.746 8      1895.038    19938182.240    82983624.745 8      1895.038
> 2024 07 31 15 44 38.0000000  0 17
G05  23741759.440   124763788.556 7      5236.240    23741758.140   124763788.558 6      5236.240    23741766.320    97218568.040 6      4080.187    23741766.840    97218570.045 7      4080.187
G30  21237780.240   111605293.535 8      3842.498    21237779.160   111605293.537 8      3842.498    21237791.700    86965208.767 8      2994.154    21237792.640    86965211.767 8      2994.154
G11  20862607.560   109633739.150 7      3575.799    20862606.420   109633739.155 6      3575.799    20862612.360    85428907.268 6      2786.337    20862612.960    85428909.264 8      2786.337
R15  23004374.960   122928405.626 7      2411.348    23004374.440   122928405.622 7      2411.348    23004391.200    95611051.096 7      1875.493    23004390.680    95611050.101 7      1875.493
R06  20780554.860   110889038.509 6      2491.807    20780553.440   110889038.504 6      2491.807
G09  23297186.580   122427538.672 7       -46.354    23297185.200   122427538.679 7       -46.354    23297196.680    95398114.144 6       -36.120    23297197.140    95398131.152 7       -36.120
R09  24118882.300   128793487.131 6      6388.421    24118882.600   128793487.148 6      6388.421    24118902.720   100172791.002 6      4968.772    24118902.280   100172794.999 6      4968.772
R07  22511485.140   120505742.307 7      4227.338    22511485.740   120505742.349 7      4227.338    22511501.860    93726757.606 7      3287.929    22511502.420    93726760.639 7      3287.929
R05  23053970.720   123236677.293 7       465.934    23053970.720   123236677.300 7       465.934    23053986.100    95850816.771 7       362.393    23053985.960    95850816.770 7       362.393
G07  22054445.980   115896909.354 7      1728.974    22054445.140   115896909.356 7      1728.974    22054453.400    90309289.793 7      1347.253    22054454.120    90309301.787 7      1347.253
R16  22310343.900   119177853.317 7      5360.785    22310341.360   119177853.324 7      5360.785    22310365.700    92693980.880 7      4169.500    22310365.680    92693980.883 7      4169.500
G19  24639731.980   129482669.296 6      -427.696    24639729.780   129482669.293 4      -427.696    24639744.920   100895609.469 4      -333.270
R22  22656594.680   120942446.587 7      6058.238    22656596.040   120942446.586 7      6058.238    22656605.640    94066388.242 7      4711.963    22656606.020    94066392.242 7      4711.963
G20  21811077.340   114617984.725 7      4781.646    21811075.840   114617984.727 6      4781.646    21811081.240    89312735.066 6      3725.958
G13  22520939.740   118348343.717 7      5152.053    22520938.640   118348343.722 5      5152.053    22520951.620    92219533.467 5      4014.586
G06  21039648.860   110564090.204 8       689.591    21039648.040   110564090.206 8       689.591    21039660.980    86153884.371 8       537.344    21039662.020    86153886.369 8       537.344
R21  19937714.480   106690731.466 7      2435.310    19937714.060   106690731.476 7      2435.310    19937727.420    82981731.166 8      1894.130    19937727.040    82981730.165 8      1894.130
> 2024 07 31 15 44 39.0000000  0 17
G05  23740762.880   124758552.252 7      5236.068    23740761.680   124758552.257 6      5236.068    23740769.940    97214487.808 6      4080.053    23740770.460    97214489.814 7      4080.053
G30  21237049.220   111601451.261 8      3841.791    21237048.020   111601451.260 8      3841.791    21237060.520    86962214.787 8      2993.603    21237061.320    86962217.787 8      2993.603
G11  20861927.060   109630163.669 7      3574.875    20861926.120   109630163.676 6      3574.875    20861932.120    85426121.174 6      2785.617    20861932.700    85426123.177 8      2785.617
R15  23003923.780   122925994.657 7      2410.336    23003923.200   122925994.647 7      2410.336    23003939.980    95609175.896 7      1874.706    23003939.800    95609174.897 8      1874.706
R06  20780088.280   110886546.851 6      2491.416    20780087.620   110886546.852 6      2491.416
G09  23297195.660   122427585.079 7       -46.567    23297194.100   122427585.086 7       -46.567    23297205.420    95398150.300 7       -36.286    23297205.820    95398167.300 7       -36.286
R09  24117685.900   128787098.689 6      6388.270    24117686.260   128787098.708 6      6388.270    24117705.640   100167822.212 6      4968.655    24117706.380   100167826.216 6      4968.655
R07  22510695.480   120501515.128 7      4226.861    22510696.520   120501515.170 7      4226.861    22510712.080    93723469.807 7      3287.559    22510713.120    93723472.836 7      3287.559
R05  23053883.740   123236211.368 7       465.736    23053883.240   123236211.369 7       465.736    23053898.900    95850454.378 7       362.239    23053898.560    95850454.377 7       362.239
G07  22054117.200   115895180.739 7      1728.143    22054116.320   115895180.744 7      1728.143    22054124.440    90307942.816 7      1346.605    22054125.080    90307954.818 8      1346.605
R16  22309340.680   119172492.710 7      5360.188    22309337.660   119172492.713 7      5360.188    22309361.940    92689811.518 7      4169.035    22309362.060    92689811.521 7      4169.035
G19  24639812.860   129483096.916 6      -427.819    24639810.980   129483096.913 4      -427.819    24639826.380   100895942.680 4      -333.365
R22  22655459.300   120936388.606 7      6057.530    22655461.100   120936388.599 7      6057.530    22655470.780    94061676.475 7      4711.412    22655471.020    94061680.474 7      4711.412
G20  21810167.340   114613203.113 7      4781.352    21810165.900   114613203.118 6      4781.352    21810171.420    89309009.139 6      3725.729
G13  22519959.320   118343191.896 7      5151.376    22519958.320   118343191.900 5      5151.376    22519971.300    92215519.069 5      4014.059
G06  21039517.780   110563400.901 7       688.892    21039516.920   110563400.903 8       688.892    21039529.820    86153347.243 8       536.799    21039530.840    86153349.244 8       536.799
R21  19937259.440   106688296.664 7      2434.024    19937258.740   106688296.684 7      2434.024    19937272.320    82979837.429 8      1893.130    19937271.820    82979836.432 8      1893.130
> 2024 07 31 15 44 40.0000000  0 17
G05  23739766.320   124753315.930 7      5236.407    23739765.200   124753315.934 6      5236.407    23739773.560    97210407.563 6      4080.317    23739774.340    97210409.567 7      4080.317
G30  21236318.180   111597609.551 8      3841.467    21236316.960   111597609.553 8      3841.467    21236329.380    86959221.255 8      2993.351    21236329.920    86959224.257 8      2993.351
G11  20861247.020   109626588.799 7      3574.598    20861245.940   109626588.804 6      3574.598    20861251.860    85423335.560 6      2785.401    20861252.480    85423337.558 8      2785.401
R15  23003472.580   122923584.438 7      2409.855    23003471.620   122923584.437 7      2409.855    23003488.820    95607301.300 7      1874.331    23003488.540    95607300.299 8      1874.331
R06  20779620.820   110884055.303 6      2491.655    20779620.600   110884055.317 6      2491.655
G09  23297204.440   122427631.515 7       -46.423    23297202.920   122427631.520 7       -46.423    23297214.240    95398186.488 6       -36.174    23297214.500    95398203.484 7       -36.174
R09  24116489.680   128780710.065 6      6388.755    24116489.560   128780710.077 6      6388.755    24116509.820   100162853.280 6      4969.032    24116509.980   100162857.285 6      4969.032
R07  22509905.560   120497288.126 7      4227.036    22509906.520   120497288.154 7      4227.036    22509922.560    93720182.136 7      3287.695    22509922.960    93720185.157 7      3287.695
R05  23053796.260   123235745.317 7       466.135    23053795.980   123235745.321 7       466.135    23053811.740    95850091.892 7       362.549    23053811.480    95850091.886 7       362.549
G07  22053788.260   115893452.647 7      1727.841    22053787.400   115893452.649 7      1727.841    22053795.640    90306596.251 7      1346.370    22053796.120    90306608.251 7      1346.370
R16  22308337.380   119167132.500 7      5360.081    22308334.340   119167132.509 7      5360.081    22308358.500    92685642.485 7      4168.952    22308358.700    92685642.492 7      4168.952
G19  24639894.380   129483524.353 6      -427.189    24639892.280   129483524.353 4      -427.189    24639907.740   100896275.745 4      -332.874
R22  22654324.620   120930331.140 7      6057.249    22654326.460   120930331.144 7      6057.249    22654335.820    94056965.127 7      4711.194    22654336.200    94056969.126 7      4711.194
G20  21809257.360   114608421.608 7      4781.559    21809256.120   114608421.616 6      4781.559    21809261.500    89305283.293 6      3725.890
G13  22518979.080   118338040.413 7      5151.352    22518978.020   118338040.418 5      5151.352    22518991.000    92211504.938 5      4014.041
G06  21039386.620   110562712.155 7       688.536    21039385.760   110562712.157 8       688.536    21039398.780    86152810.550 8       536.521    21039399.760    86152812.550 8       536.521
R21  19936804.360   106685862.790 7      2433.441    19936804.460   106685862.805 7      2433.441    19936817.580    82977944.414 8      1892.676    19936817.140    82977943.415 8      1892.676
> 2024 07 31 15 44 41.0000000  0 17
G05  23738769.960   124748079.563 7      5236.408    23738768.700   124748079.565 6      5236.408    23738777.240    97206327.281 6      4080.318    23738777.860    97206329.286 7      4080.318
G30  21235587.240   111593768.357 8      3840.997    21235586.000   111593768.362 8      3840.997    21235598.480    86956228.125 8      2992.985    21235598.960    86956231.125 8      2992.985
G11  20860566.800   109623014.503 7      3574.074    20860565.760   109623014.508 6      3574.074    20860571.760    85420550.392 6      2784.992    20860572.380    85420552.390 8      2784.992
R15  23003021.460   122921174.949 7      2409.183    23003020.940   122921174.948 7      2409.183    23003037.900    95605427.261 7      1873.809    23003037.580    95605426.260 8      1873.809
R06  20779153.400   110881563.892 6      2491.425    20779152.780   110881563.911 6      2491.425
G09  23297213.120   122427677.909 7       -46.387    23297211.720   122427677.911 7       -46.387    23297223.180    95398222.633 7       -36.146    23297223.500    95398239.635 7       -36.146
R09  24115292.960   128774321.185 6      6389.024    24115293.400   128774321.199 6      6389.024    24115313.300   100157884.151 6      4969.241    24115313.580   100157888.154 6      4969.241
R07  22509116.140   120493061.293 7      4226.841    22509116.860   120493061.321 7      4226.841    22509133.120    93716894.599 7      3287.543    22509132.880    93716897.605 7      3287.543
R05  23053708.720   123235279.086 7       466.397    23053708.680   123235279.082 7       466.397    23053724.300    95849729.269 7       362.753    23053724.340    95849729.265 7       362.753
G07  22053459.460   115891725.031 7      1727.439    22053458.700   115891725.033 7      1727.439    22053466.980    90305250.062 7      1346.057    22053467.420    90305262.060 7      1346.057
R16  22307333.600   119161772.701 7      5359.750    22307330.740   119161772.700 7      5359.750    22307355.140    92681473.759 7      4168.694    22307355.480    92681473.766 7      4168.694
G19  24639975.920   129483951.608 6      -427.122    24639973.560   129483951.611 4      -427.122    24639989.000   100896608.674 4      -332.823
R22  22653190.320   120924274.157 7      6056.841    22653191.520   120924274.158 7      6056.841    22653200.860    94052254.136 7      4710.876    22653201.320    94052258.142 7      4710.876
G20  21808347.620   114603640.183 7      4781.520    21808346.300   114603640.188 6      4781.520    21808351.520    89301557.509 6      3725.860
G13  22517998.800   118332889.238 7      5151.069    22517997.860   118332889.246 5      5151.069    22518010.860    92207491.047 5      4013.820
G06  21039255.720   110562023.906 7       688.005    21039254.860   110562023.905 8       688.005    21039267.820    86152274.243 8       536.108    21039268.780    86152276.250 8       536.108
R21  19936349.860   106683429.802 7      2432.618    19936349.660   106683429.812 7      2432.618    19936362.920    82976052.083 8      1892.036    19936362.520    82976051.083 8      1892.036
> 2024 07 31 15 44 42.0000000  0 17
G05  23737773.200   124742843.377 7      5236.221    23737772.360   124742843.377 6      5236.221    23737780.820    97202247.138 6      4080.172    23737781.500    97202249.141 7      4080.172
G30  21234856.360   111589927.964 8      3840.111    21234855.200   111589927.966 8      3840.111    21234867.680    86953235.609 8      2992.294    21234868.220    86953238.611 8      2992.294
G11  20859886.700   109619441.050 7      3573.127    20859885.620   109619441.060 6      3573.127    20859891.700    85417765.881 6      2784.255    20859892.380    85417767.887 8      2784.255
R15  23002570.760   122918766.473 7      2408.113    23002570.520   122918766.474 7      2408.113    23002587.100    95603554.010 7      1872.977    23002586.880    95603553.007 8      1872.977
R06  20778686.140   110879072.885 6      2490.964    20778686.620   110879072.881 6      2490.964
G09  23297221.700   122427724.550 7       -46.606    23297220.660   122427724.550 7       -46.606    23297232.040    95398258.968 6       -36.316    23297232.200    95398275.968 7       -36.316
R09  24114096.180   128767932.366 6      6388.743    24114097.060   128767932.378 6      6388.743    24114116.840   100152915.070 6      4969.022    24114117.140   100152919.066 6      4969.022
R07  22508326.560   120488834.866 7      4226.309    22508327.200   120488834.900 7      4226.309    22508343.580    93713607.387 7      3287.129    22508343.100    93713610.381 7      3287.129
R05  23053622.160   123234813.011 7       465.961    23053621.300   123234813.023 7       465.961    23053637.200    95849366.766 7       362.414    23053637.060    95849366.764 7       362.414
G07  22053130.780   115889998.173 7      1726.677    22053130.040   115889998.176 7      1726.677    22053138.320    90303904.455 7      1345.462    22053138.640    90303916.459 8      1345.462
R16  22306330.680   119156413.598 7      5358.849    22306327.560   119156413.596 7      5358.849    22306352.080    92677305.578 7      4167.993    22306351.980    92677305.585 7      4167.993
G19  24640057.380   129484378.919 6      -427.321    24640054.860   129484378.926 4      -427.321    24640070.160   100896941.647 4      -332.977
R22  22652055.440   120918217.941 7      6055.969    22652056.900   120918217.947 7      6055.969    22652066.480    94047543.752 7      4710.198    22652066.880    94047547.753 7      4710.198
G20  21807437.700   114598859.107 7      4780.994    21807436.480   114598859.112 6      4780.994    21807441.820    89297831.998 6      3725.450
G13  22517018.560   118327738.665 7      5150.372    22517017.580   118327738.667 5      5150.372    22517030.560    92203477.624 5      4013.277
G06  21039124.920   110561336.426 8       687.206    21039124.100   110561336.426 8       687.206    21039136.940    86151738.535 8       535.485    21039137.800    86151740.535 8       535.485
R21  19935895.540   106680997.980 7      2431.359    19935895.340   106680997.987 7      2431.359    19935908.620    82974160.654 8      1891.057    19935907.920    82974159.656 8      1891.057
> 2024 07 31 15 44 43.0000000  0 17
G05  23736776.860   124737607.241 7      5236.157    23736775.920   124737607.246 6      5236.157    23736784.560    97198167.039 6      4080.122    23736785.320    97198169.047 7      4080.122
G30  21234125.640   111586088.196 8      3839.423    21234124.520   111586088.198 8      3839.423    21234136.940    86950243.588 8      2991.758    21234137.580    86950246.590 8      2991.758
G11  20859206.720   109615868.291 7      3572.468    20859205.820   109615868.295 6      3572.468    20859211.860    85414981.908 6      2783.741    20859212.280    85414983.911 8      2783.741
R15  23002120.140   122916358.822 7      2407.308    23002119.860   122916358.818 7      2407.308    23002136.540    95601681.395 7      1872.351    23002136.120    95601680.394 7      1872.351
R06  20778219.160   110876582.034 6      2490.902    20778219.600   110876582.048 6      2490.902
G09  23297230.980   122427771.278 7       -46.746    23297229.520   122427771.280 7       -46.746    23297241.040    95398295.382 6       -36.425    23297241.400    95398312.380 7       -36.425
R09  24112899.600   128761543.403 6      6388.992    24112900.520   128761543.404 6      6388.992    24112920.660   100147945.874 6      4969.216    24112920.720   100147949.875 6      4969.216
R07  22507537.260   120484608.688 7      4226.100    22507537.840   120484608.717 7      4226.100    22507553.900    93710320.360 7      3286.967    22507553.760    93710323.345 7      3286.967
R05  23053535.240   123234346.885 7       466.135    23053534.180   123234346.884 7       466.135    23053550.320    95849004.209 7       362.549    23053550.380    95849004.209 7       362.549
G07  22052802.400   115888271.920 7      1725.999    22052801.640   115888271.925 7      1725.999    22052809.760    90302559.327 7      1344.934    22052810.040    90302571.333 7      1344.934
R16  22305327.440   119151054.982 7      5358.438    22305324.400   119151054.978 7      5358.438    22305348.920    92673137.772 7      4167.674    22305348.880    92673137.777 7      4167.674
G19  24640138.080   129484806.135 6      -427.087    24640136.320   129484806.148 4      -427.087    24640151.520   100897274.547 4      -332.795
R22  22650921.300   120912162.306 7      6055.420    22650922.400   120912162.309 7      6055.420    22650931.660    94042833.811 7      4709.771    22650932.160    94042837.813 7      4709.771
G20  21806528.080   114594078.197 7      4780.824    21806526.600   114594078.204 6      4780.824    21806532.120    89294106.617 6      3725.317
G13  22516038.560   118322588.475 7      5149.976    22516037.440   118322588.480 5      5149.976    22516050.500    92199464.499 5      4012.968
G06  21038994.240   110560649.564 8       686.582    21038993.420   110560649.561 8       686.582    21039006.320    86151203.307 8       534.999    21039007.300    86151205.312 8       534.999
R21  19935440.960   106678567.154 7      2430.318    19935441.140   106678567.166 7      2430.318    19935454.080    82972270.018 8      1890.248    19935453.800    82972269.019 8      1890.248
> 2024 07 31 15 44 44.0000000  0 17
G05  23735780.700   124732371.260 7      5235.665    23735779.520   124732371.268 6      5235.665    23735788.260    97194087.060 6      4079.739    23735788.740    97194089.073 7      4079.739
G30  21233395.080   111582249.132 8      3838.550    21233393.960   111582249.129 8      3838.550    21233406.340    86947252.112 8      2991.078    21233406.980    86947255.112 8      2991.078
G11  20858527.100   109612296.293 7      3571.435    20858526.060   109612296.301 6      3571.435    20858532.020    85412198.534 6      2782.936    20858532.600    85412200.536 8      2782.936
R15  23001669.920   122913952.080 7      2406.044    23001669.400   122913952.081 7      2406.044    23001686.260    95599809.491 7      1871.367    23001685.800    95599808.492 7      1871.367
R06  20777752.500   110874091.556 6      2490.106    20777753.120   110874091.557 6      2490.106
G09  23297239.720   122427818.166 7       -47.101    23297238.460   122427818.168 7       -47.101    23297249.920    95398331.916 7       -36.702    23297250.520    95398348.918 7       -36.702
R09  24111703.360   128755154.379 6      6388.862    24111703.720   128755154.391 6      6388.862    24111723.840   100142976.644 6      4969.115    24111724.000   100142980.642 6      4969.115
R07  22506747.440   120480382.858 7      4225.385    22506748.400   120480382.895 7      4225.385    22506764.560    93707033.616 7      3286.411    22506764.420    93707036.599 7      3286.411
R05  23053447.740   123233880.850 7       465.803    23053447.000   123233880.838 7       465.803    23053462.920    95848641.729 7       362.291    23053463.020    95848641.725 7       362.291
G07  22052473.760   115886546.340 7      1725.024    22052473.360   115886546.348 7      1725.024    22052481.480    90301214.725 7      1344.175    22052481.520    90301226.727 8      1344.175
R16  22304324.340   119145697.022 7      5357.426    22304321.320   119145697.025 7      5357.426    22304345.740    92668970.482 7      4166.887    22304345.940    92668970.489 7      4166.887
G19  24640219.600   129485233.406 6      -427.445    24640217.560   129485233.414 4      -427.445    24640232.860   100897607.481 4      -333.074
R22  22649786.840   120906107.356 7      6054.429    22649788.020   120906107.357 7      6054.429    22649797.340    94038124.417 7      4709.000    22649797.880    94038128.416 7      4709.000
G20  21805618.400   114589297.562 7      4780.238    21805616.860   114589297.570 6      4780.238    21805622.500    89290381.445 6      3724.861
G13  22515058.500   118317438.811 7      5149.277    22515057.580   118317438.814 5      5149.277    22515070.480    92195451.784 5      4012.424
G06  21038863.420   110559963.396 7       685.612    21038862.780   110559963.395 8       685.612    21038875.620    86150668.625 8       534.243    21038876.560    86150670.627 8       534.243
R21  19934986.900   106676137.422 7      2429.056    19934986.780   106676137.440 7      2429.056    19935000.240    82970380.226 8      1889.266    19934999.880    82970379.228 8      1889.266
> 2024 07 31 15 44 45.0000000  0 17
G05  23734784.280   124727135.408 7      5235.944    23734783.260   124727135.411 6      5235.944    23734791.840    97190007.171 6      4079.956    23734792.220    97190009.180 7      4079.956
G30  21232664.780   111578410.776 8      3838.181    21232663.580   111578410.778 8      3838.181    21232676.000    86944261.189 8      2990.791    21232676.540    86944264.191 8      2990.791
G11  20857847.420   109608725.055 7      3571.006    20857846.400   109608725.060 6      3571.006    20857852.440    85409415.747 6      2782.602    20857852.940    85409417.747 8      2782.602
R15  23001220.000   122911546.238 7      2405.543    23001219.520   122911546.234 7      2405.543    23001235.980    95597938.281 7      1870.978    23001235.600    95597937.282 7      1870.978
R06  20777286.380   110871601.280 6      2490.383    20777286.180   110871601.287 6      2490.383
G09  23297248.920   122427865.235 7       -47.022    23297247.440   122427865.238 7       -47.022    23297258.820    95398368.589 7       -36.641    23297259.520    95398385.589 7       -36.641
R09  24110507.160   128748765.365 6      6389.169    24110507.180   128748765.372 6      6389.169    24110527.500   100138007.400 6      4969.354    24110527.580   100138011.399 6      4969.354
R07  22505958.140   120476157.377 7      4225.477    22505959.040   120476157.413 7      4225.477    22505975.060    93703747.130 7      3286.482    22505975.200    93703750.115 7      3286.482
R05  23053361.000   123233414.855 7       466.162    23053360.000   123233414.843 7       466.162    23053375.660    95848279.286 7       362.570    23053375.720    95848279.280 7       362.570
G07  22052145.580   115884821.435 7      1724.735    22052144.920   115884821.438 7      1724.735    22052153.260    90299870.639 7      1343.949    22052153.640    90299882.643 8      1343.949
R16  22303321.400   119140339.659 7      5357.182    22303318.560   119140339.655 7      5357.182    22303342.960    92664803.646 7      4166.697    22303343.100    92664803.651 7      4166.697
G19  24640301.320   129485660.598 6      -427.054    24640298.780   129485660.603 4      -427.054    24640314.180   100897940.354 4      -332.769
R22  22648652.600   120900053.077 7      6054.147    22648653.560   120900053.086 7      6054.147    22648663.100    94033415.537 7      4708.781    22648663.800    94033419.536 7      4708.781
G20  21804708.700   114584517.164 7      4780.394    21804707.200   114584517.169 6      4780.394    21804712.860    89286656.462 6      3724.982
G13  22514078.560   118312289.641 7      5149.032    22514077.680   118312289.649 5      5149.032    22514090.700    92191439.456 5      4012.233
G06  21038732.980   110559277.913 7       685.233    21038732.360   110559277.915 8       685.233    21038745.300    86150134.476 8       533.948    21038746.140    86150136.481 8       533.948
R21  19934533.200   106673708.787 7      2428.285    19934533.040   106673708.805 7      2428.285    19934546.340    82968491.279 8      1888.666    19934546.040    82968490.283 8      1888.666
> 2024 07 31 15 44 46.0000000  0 17
G05  23733787.740   124721899.712 7      5235.523    23733787.060   124721899.709 6      5235.523    23733795.560    97185927.413 6      4079.629    23733796.160    97185929.420 7      4079.629
G30  21231934.320   111574573.165 8      3837.229    21231933.280   111574573.167 8      3837.229    21231945.720    86941270.849 8      2990.048    21231946.420    86941273.851 8      2990.048
G11  20857168.120   109605154.624 7      3569.965    20857167.000   109605154.629 6      3569.965    20857173.040    85406633.593 6      2781.791    20857173.400    85406635.591 8      2781.791
R15  23000769.900   122909141.380 7      2404.314    23000769.140   122909141.375 7      2404.314    23000785.840    95596067.843 7      1870.022    23000785.840    95596066.844 8      1870.022
R06  20776819.820   110869111.341 6      2489.817    20776820.200   110869111.350 6      2489.817
G09  23297258.100   122427912.481 7       -47.394    23297256.400   122427912.486 7       -47.394    23297267.820    95398405.406 7       -36.930    23297268.120    95398422.406 7       -36.930
R09  24109310.280   128742376.349 6      6388.859    24109310.860   128742376.361 6      6388.859    24109331.020   100133038.172 6      4969.112    24109331.200   100133042.170 6      4969.112
R07  22505169.020   120471932.315 7      4224.840    22505170.280   120471932.333 7      4224.840    22505185.640    93700460.960 7      3285.986    22505185.880    93700463.956 7      3285.986
R05  23053273.520   123232948.972 7       465.805    23053272.440   123232948.958 7       465.805    23053288.560    95847916.929 7       362.292    23053288.600    95847916.927 7       362.292
G07  22051817.440   115883097.261 7      1723.721    22051816.860   115883097.263 7      1723.721    22051825.080    90298527.129 7      1343.159    22051825.380    90298539.131 8      1343.159
R16  22302318.520   119134982.903 7      5356.424    22302315.600   119134982.901 7      5356.424    22302340.040    92660637.295 7      4166.108    22302340.100    92660637.302 7      4166.108
G19  24640382.440   129486087.841 6      -427.385    24640380.200   129486087.846 4      -427.385    24640395.560   100898273.268 4      -333.027
R22  22647518.500   120893999.524 7      6053.155    22647519.760   120893999.530 7      6053.155    22647529.040    94028707.220 7      4708.009    22647529.740    94028711.213 7      4708.009
G20  21803799.180   114579737.081 7      4779.913    21803797.460   114579737.086 6      4779.913    21803803.160    89282931.724 6      3724.607
G13  22513098.780   118307141.023 7      5148.258    22513097.880   118307141.030 5      5148.258    22513110.860    92187427.554 5      4011.630
G06  21038602.860   110558593.158 7       684.355    21038602.140   110558593.155 8       684.355    21038614.940    86149600.891 8       533.264    21038615.980    86149602.891 8       533.264
R21  19934079.580   106671281.295 8      2426.884    19934079.360   106671281.312 7      2426.884    19934092.600    82966603.226 8      1887.577    19934092.300    82966602.231 8      1887.577
> 2024 07 31 15 44 47.0000000  0 17
G05  23732791.380   124716663.915 7      5235.751    23732790.800   124716663.912 6      5235.751    23732799.220    97181847.576 6      4079.806    23732800.120    97181849.585 7      4079.806
G30  21231204.200   111570736.033 8      3836.857    21231203.220   111570736.035 8      3836.857    21231215.520    86938280.880 8      2989.759    21231216.380    86938283.884 8      2989.759
G11  20856488.900   109601584.721 7      3569.508    20856487.720   109601584.728 6      3569.508    20856493.720    85403851.848 6      2781.435    20856494.160    85403853.848 8      2781.435
R15  23000319.880   122906737.194 7      2403.721    23000319.420   122906737.193 7      2403.721    23000336.100    95594197.932 7      1869.560    23000335.760    95594196.931 8      1869.560
R06  20776353.180   110866621.437 6      2489.816    20776353.860   110866621.465 6      2489.816
G09  23297266.880   122427959.676 7       -47.332    23297265.360   122427959.686 7       -47.332    23297276.860    95398442.183 7       -36.882    23297277.400    95398459.185 7       -36.882
R09  24108113.760   128735987.084 6      6389.271    24108114.820   128735987.085 6      6389.271    24108133.620   100128068.725 6      4969.433    24108134.420   100128072.734 6      4969.433
R07  22504379.920   120467707.296 7      4224.921    22504380.420   120467707.317 7      4224.921    22504396.180    93697174.847 7      3286.050    22504396.620    93697177.843 7      3286.050
R05  23053186.180   123232482.889 7       466.072    23053185.280   123232482.885 7       466.072    23053201.400    95847554.424 7       362.501    23053201.160    95847554.422 7       362.501
G07  22051489.320   115881373.504 7      1723.445    22051488.780   115881373.504 7      1723.445    22051497.060    90297183.944 7      1342.944    22051497.160    90297195.952 8      1342.944
R16  22301315.520   119129626.488 7      5356.172    22301312.820   119129626.497 7      5356.172    22301337.300    92656471.209 7      4165.912    22301337.600    92656471.214 7      4165.912
G19  24640463.920   129486514.815 6      -426.988    24640461.740   129486514.817 4      -426.988    24640476.720   100898605.973 4      -332.718
R22  22646384.640   120887946.414 7      6052.774    22646385.960   120887946.418 7      6052.774    22646395.240    94023999.242 7      4707.713    22646395.480    94024003.237 7      4707.713
G20  21802889.580   114574957.022 7      4779.960    21802887.760   114574957.030 6      4779.960    21802893.700    89279207.005 6      3724.644
G13  22512119.500   118301992.654 7      5148.100    22512118.160   118301992.662 5      5148.100    22512131.180    92183415.850 5      4011.506
G06  21038472.640   110557908.861 7       684.000    21038471.800   110557908.858 8       684.000    21038484.700    86149067.666 8       532.987    21038485.800    86149069.666 8       532.987
R21  19933625.880   106668854.629 8      2426.127    19933626.020   106668854.641 7      2426.127    19933639.200    82964715.813 8      1886.988    19933638.760    82964714.816 8      1886.988
> 2024 07 31 15 44 48.0000000  0 17
G05  23731795.360   124711428.171 7      5235.851    23731794.460   124711428.173 6      5235.851    23731803.020    97177767.781 6      4079.884    23731804.100    97177769.800 7      4079.884
G30  21230474.240   111566899.555 8      3836.372    21230473.060   111566899.554 8      3836.372    21230485.560    86935291.421 8      2989.381    21230486.280    86935294.425 8      2989.381
G11  20855809.680   109598015.519 7      3569.040    20855808.420   109598015.526 6      3569.040    20855814.500    85401070.652 6      2781.070    20855815.100    85401072.650 8      2781.070
R15  22999870.140   122904333.885 7      2403.063    22999869.880   122904333.889 7      2403.063    22999886.220    95592328.700 7      1869.049    22999885.940    95592327.703 7      1869.049
R06  20775886.960   110864131.781 6      2489.880    20775886.860   110864131.782 6      2489.880
G09  23297275.700   122428006.961 7       -47.220    23297274.320   122428006.971 7       -47.220    23297285.880    95398479.027 7       -36.794    23297286.240    95398496.027 7       -36.794
R09  24106917.620   128729597.713 6      6389.541    24106917.640   128729597.714 6      6389.541    24106937.600   100123099.222 6      4969.643    24106938.060   100123103.227 6      4969.643
R07  22503590.860   120463482.543 7      4224.858    22503591.520   120463482.574 7      4224.858    22503606.940    93693888.938 7      3286.000    22503607.500    93693891.934 7      3286.000
R05  23053098.780   123232016.838 7       466.105    23053098.340   123232016.845 7       466.105    23053114.000    95847191.950 7       362.526    23053114.260    95847191.948 7       362.526
G07  22051161.660   115879650.383 7      1723.013    22051160.880   115879650.385 7      1723.013    22051169.080    90295841.254 7      1342.608    22051169.240    90295853.258 7      1342.608
R16  22300313.180   119124270.635 7      5355.746    22300310.200   119124270.631 7      5355.746    22300334.640    92652305.548 7      4165.580    22300334.780    92652305.550 7      4165.580
G19  24640545.240   129486941.747 6      -426.728    24640542.960   129486941.749 4      -426.728    24640558.100   100898938.644 4      -332.515
R22  22645251.100   120881893.915 7      6052.463    22645252.060   120881893.913 7      6052.463    22645261.340    94019291.740 7      4707.471    22645261.660    94019295.735 7      4707.471
G20  21801979.940   114570177.171 7      4779.950    21801978.140   114570177.173 6      4779.950    21801984.120    89275482.445 6      3724.636
G13  22511139.640   118296844.732 7      5147.883    22511138.660   118296844.737 5      5147.883    22511151.380    92179404.491 5      4011.338
G06  21038342.460   110557225.204 7       683.513    21038341.760   110557225.206 8       683.513    21038354.620    86148534.942 8       532.607    21038355.640    86148536.945 8       532.607
R21  19933172.720   106666428.996 8      2425.381    19933172.800   106666429.008 7      2425.381    19933185.940    82962829.207 8      1886.407    19933185.600    82962828.209 8      1886.407
> 2024 07 31 15 44 49.0000000  0 17
G05  23730798.780   124706192.516 7      5235.528    23730798.180   124706192.515 6      5235.528    23730806.800    97173688.056 6      4079.632    23730807.400    97173690.067 7      4079.632
G30  21229744.080   111563063.741 8      3835.369    21229743.160   111563063.744 8      3835.369    21229755.520    86932302.482 8      2988.599    21229756.360    86932305.485 8      2988.599
G11  20855130.520   109594447.034 7      3568.052    20855129.400   109594447.039 6      3568.052    20855135.400    85398290.014 6      2780.301    20855135.960    85398292.017 8      2780.301
R15  22999420.760   122901931.466 7      2401.876    22999420.200   122901931.473 7      2401.876    22999436.680    95590460.164 7      1868.125    22999436.340    95590459.165 8      1868.125
R06  20775420.120   110861642.346 6      2489.387    20775420.780   110861642.344 6      2489.387
G09  23297284.660   122428054.356 7       -47.603    23297283.340   122428054.364 7       -47.603    23297294.920    95398515.952 7       -37.093    23297295.220    95398532.954 7       -37.093
R09  24105720.920   128723208.267 6      6389.381    24105721.520   128723208.271 6      6389.381    24105741.480   100118129.655 6      4969.519    24105741.720   100118133.660 6      4969.519
R07  22502801.680   120459258.070 7      4224.312    22502802.460   120459258.106 7      4224.312    22502817.760    93690603.243 7      3285.576    22502818.040    93690606.247 7      3285.576
R05  23053010.920   123231550.758 7       466.053    23053011.260   123231550.775 7       466.053    23053026.760    95846829.445 7       362.485    23053027.200    95846829.439 7       362.485
G07  22050833.780   115877927.888 8      1722.143    22050833.060   115877927.890 7      1722.143    22050841.260    90294499.052 7      1341.929    22050841.660    90294511.052 8      1341.929
R16  22299310.660   119118915.278 7      5355.000    22299307.440   119118915.279 7      5355.000    22299332.180    92648140.287 7      4165.000    22299332.360    92648140.287 7      4165.000
G19  24640626.700   129487368.590 6      -426.799    24640624.140   129487368.592 4      -426.799    24640639.420   100899271.249 4      -332.571
R22  22644117.220   120875842.043 7      6051.544    22644118.640   120875842.042 7      6051.544    22644127.640    94014584.729 7      4706.756    22644128.200    94014588.726 7      4706.756
G20  21801070.580   114565397.514 7      4779.546    21801068.600   114565397.521 6      4779.546    21801074.600    89271758.037 6      3724.321
G13  22510160.060   118291697.264 7      5147.162    22510159.400   118291697.269 5      5147.162    22510172.020    92175393.489 5      4010.776
G06  21038212.500   110556542.165 8       682.701    21038211.760   110556542.167 8       682.701    21038224.600    86148002.696 8       531.975    21038225.780    86148004.697 8       531.975
R21  19932719.820   106664004.412 7      2424.020    19932719.460   106664004.435 7      2424.020    19932732.800    82960943.419 8      1885.349    19932732.320    82960942.419 8      1885.349
> 2024 07 31 15 44 50.0000000  0 17
G05  23729802.380   124700957.097 7      5235.160    23729801.940   124700957.097 6      5235.160    23729810.560    97169608.512 6      4079.345    23729811.060    97169610.516 7      4079.345
G30  21229014.380   111559228.706 7      3834.629    21229013.460   111559228.708 8      3834.629    21229025.720    86929314.146 8      2988.022    21229026.860    86929317.150 8      2988.022
G11  20854451.600   109590879.401 7      3567.211    20854450.420   109590879.406 6      3567.211    20854456.540    85395510.034 6      2779.645    20854456.980    85395512.037 8      2779.645
R15  22998971.180   122899530.073 7      2400.863    22998970.740   122899530.066 7      2400.863    22998987.360    95588592.412 7      1867.338    22998986.920    95588591.413 8      1867.338
R06  20774953.760   110859153.344 6      2488.611    20774953.960   110859153.352 6      2488.611
G09  23297293.800   122428102.006 7       -47.829    23297292.460   122428102.003 7       -47.829    23297303.980    95398553.076 6       -37.269    23297304.360    95398570.074 7       -37.269
R09  24104524.180   128716818.877 6      6389.272    24104525.380   128716818.891 6      6389.272    24104544.780   100113160.142 6      4969.434    24104545.520   100113164.142 6      4969.434
R07  22502012.900   120455034.020 7      4223.826    22502013.500   120455034.046 7      4223.826    22502028.700    93687317.865 7      3285.198    22502028.620    93687320.873 7      3285.198
R05  23052924.440   123231084.904 7       465.773    23052923.820   123231084.903 7       465.773    23052939.980    95846467.098 7       362.268    23052939.640    95846467.096 7       362.268
G07  22050506.160   115876206.149 7      1721.322    22050505.420   115876206.151 7      1721.322    22050513.620    90293157.437 7      1341.290    22050514.100    90293169.443 7      1341.290
R16  22298308.280   119113560.627 7      5354.268    22298305.280   119113560.622 7      5354.268    22298329.820    92643975.564 7      4164.430    22298329.900    92643975.567 7      4164.430
G19  24640707.680   129487795.530 6      -427.049    24640705.280   129487795.530 4      -427.049    24640720.580   100899603.927 4      -332.766
R22  22642983.940   120869790.940 7      6050.719    22642985.040   120869790.941 7      6050.719    22642994.080    94009878.324 7      4706.115    22642994.260    94009882.321 7      4706.115
G20  21800161.020   114560618.227 7      4779.077    21800159.180   114560618.229 6      4779.077    21800165.080    89268033.918 6      3723.956
G13  22509180.880   118286550.375 7      5146.581    22509179.820   118286550.377 5      5146.581    22509192.700    92171382.932 5      4010.323
G06  21038082.680   110555859.917 8       681.919    21038081.920   110555859.917 8       681.919    21038094.780    86147471.064 8       531.365    21038096.020    86147473.069 8       531.365
R21  19932266.560   106661580.989 7      2422.834    19932266.720   106661581.009 7      2422.834    19932279.960    82959058.531 8      1884.426    19932279.640    82959057.530 8      1884.426
> 2024 07 31 15 44 51.0000000  0 17
G05  23728806.400   124695721.558 7      5235.687    23728805.740   124695721.560 6      5235.687    23728814.180    97165528.875 6      4079.756    23728814.640    97165530.883 7      4079.756
G30  21228284.760   111555394.183 8      3834.267    21228283.600   111555394.185 8      3834.267    21228295.940    86926326.212 8      2987.740    21228296.720    86926329.212 8      2987.740
G11  20853772.900   109587312.323 7      3566.828    20853771.800   109587312.328 6      3566.828    20853777.780    85392730.495 6      2779.346    20853778.180    85392732.497 8      2779.346
R15  22998522.060   122897129.369 7      2400.408    22998521.380   122897129.362 7      2400.408    22998537.880    95586725.198 7      1866.984    22998537.660    95586724.199 7      1866.984
R06  20774487.440   110856664.384 6      2488.985    20774487.060   110856664.368 6      2488.985
G09  23297302.820   122428149.591 7       -47.466    23297301.480   122428149.590 7       -47.466    23297313.020    95398590.146 7       -36.987    23297313.340    95398607.148 7       -36.987
R09  24103327.420   128710429.220 6      6389.807    24103328.380   128710429.226 6      6389.807    24103348.120   100108190.396 6      4969.850    24103348.720   100108194.395 6      4969.850
R07  22501223.740   120450810.085 7      4223.830    22501224.420   120450810.116 7      4223.830    22501239.480    93684032.591 7      3285.201    22501239.440    93684035.603 7      3285.201
R05  23052837.540   123230618.861 7       466.163    23052836.720   123230618.865 7       466.163    23052852.920    95846104.620 7       362.571    23052852.620    95846104.616 7       362.571
G07  22050178.600   115874484.872 7      1721.175    22050177.980   115874484.875 7      1721.175    22050186.060    90291816.185 7      1341.175    22050186.600    90291828.189 7      1341.175
R16  22297305.880   119108206.330 7      5354.219    22297302.960   119108206.329 7      5354.219    22297327.400    92639811.124 7      4164.392    22297327.820    92639811.127 7      4164.392
G19  24640788.640   129488222.255 6      -426.528    24640786.440   129488222.252 4      -426.528    24640801.740   100899936.436 4      -332.360
R22  22641850.360   120863740.275 7      6050.613    22641852.040   120863740.279 7      6050.613    22641860.780    94005172.253 7      4706.032    22641860.920    94005176.244 7      4706.032
G20  21799251.500   114555838.959 7      4779.302    21799249.900   114555838.966 6      4779.302    21799255.740    89264309.817 6      3724.132
G13  22508201.180   118281403.777 7      5146.520    22508200.600   118281403.785 5      5146.520    22508213.600    92167372.611 5      4010.275
G06  21037953.020   110555178.152 7       681.584    21037952.100   110555178.152 8       681.584    21037965.120    86146939.811 8       531.104    21037966.200    86146941.815 8       531.104
R21  19931814.180   106659158.417 7      2422.203    19931813.920   106659158.434 7      2422.203    19931827.180    82957174.308 8      1883.936    19931826.760    82957173.305 8      1883.936
> 2024 07 31 15 44 52.0000000  0 17
G05  23727810.160   124690486.090 7      5235.552    23727809.520   124690486.089 6      5235.552    23727817.920    97161449.295 6      4079.651    23727818.660    97161451.306 7      4079.651
G30  21227555.180   111551560.251 8      3833.719    21227554.140   111551560.253 8      3833.719    21227566.400    86923338.735 8      2987.314    21227567.080    86923341.734 8      2987.314
G11  20853094.200   109583745.901 7      3566.168    20853093.040   109583745.903 6      3566.168    20853099.200    85389951.461 6      2778.832    20853099.540    85389953.463 8      2778.832
R15  22998073.160   122894729.464 7      2399.673    22998072.680   122894729.455 7      2399.673    22998088.900    95584858.609 7      1866.412    22998088.440    95584857.610 8      1866.412
R06  20774021.100   110854175.635 6      2488.589    20774021.020   110854175.635 6      2488.589
G09  23297311.860   122428197.249 7       -47.504    23297310.580   122428197.253 7       -47.504    23297322.060    95398627.286 6       -37.016    23297322.480    95398644.286 7       -37.016
R09  24102130.660   128704039.421 6      6389.981    24102131.720   128704039.438 6      6389.981    24102151.600   100103220.561 6      4969.985    24102151.860   100103224.555 6      4969.985
R07  22500434.620   120446586.378 7      4223.745    22500435.460   120446586.414 7      4223.745    22500450.460    93680747.491 7      3285.135    22500450.540    93680750.510 7      3285.135
R05  23052750.000   123230152.767 7       466.231    23052749.280   123230152.766 7       466.231    23052765.740    95845742.102 7       362.624    23052765.460    95845742.093 7       362.624
G07  22049851.160   115872764.185 7      1720.516    22049850.520   115872764.190 7      1720.516    22049858.660    90290475.395 7      1340.662    22049859.000    90290487.395 7      1340.662
R16  22296303.560   119102852.552 7      5353.590    22296300.620   119102852.551 7      5353.590    22296325.280    92635647.087 7      4163.904    22296325.460    92635647.089 7      4163.904
G19  24640869.780   129488648.861 6      -426.598    24640867.740   129488648.856 4      -426.598    24640882.960   100900268.854 4      -332.414
R22  22640716.760   120857690.208 7      6049.908    22640718.500   120857690.217 7      6049.908    22640727.700    94000466.651 7      4705.484    22640727.700    94000470.642 7      4705.484
G20  21798341.940   114551059.877 7      4779.079    21798340.440   114551059.880 6      4779.079    21798346.180    89260585.853 6      3723.958
G13  22507221.600   118276257.566 7      5146.134    22507221.280   118276257.570 5      5146.134    22507234.280    92163362.584 5      4009.975
G06  21037823.340   110554496.979 7       680.943    21037822.560   110554496.976 8       680.943    21037835.420    86146409.018 8       530.605    21037836.660    86146411.020 8       530.605
R21  19931361.660   106656736.869 7      2421.072    19931361.380   106656736.884 7      2421.072    19931374.520    82955290.874 8      1883.056    19931374.460    82955289.873 8      1883.056
> 2024 07 31 15 44 53.0000000  0 17
G05  23726813.940   124685250.653 7      5235.247    23726813.200   124685250.652 6      5235.247    23726821.600    97157369.738 6      4079.413    23726822.400    97157371.755 7      4079.413
G30  21226825.480   111547726.955 8      3832.887    21226824.620   111547726.957 8      3832.887    21226836.880    86920351.755 8      2986.665    21226837.580    86920354.755 8      2986.665
G11  20852415.660   109580180.149 8      3565.394    20852414.540   109580180.151 6      3565.394    20852420.620    85387172.951 6      2778.229    20852420.960    85387174.955 8      2778.229
R15  22997623.760   122892330.374 7      2398.615    22997623.580   122892330.373 7      2398.615    22997640.020    95582992.664 7      1865.589    22997639.440    95582991.670 7      1865.589
R06  20773555.200   110851687.064 6      2488.330    20773554.220   110851687.078 6      2488.330
G09  23297320.960   122428245.004 7       -47.958    23297319.660   122428245.009 6       -47.958    23297331.140    95398664.498 6       -37.370    23297331.520    95398681.498 7       -37.370
R09  24100934.120   128697649.516 6      6389.795    24100935.120   128697649.535 6      6389.795    24100954.940   100098250.641 6      4969.840    24100955.480   100098254.635 6      4969.840
R07  22499645.840   120442362.984 7      4223.130    22499646.640   120442363.020 7      4223.130    22499661.380    93677462.633 7      3284.657    22499661.480    93677465.648 7      3284.657
R05  23052662.680   123229686.636 7       466.169    23052662.700   123229686.637 7       466.169    23052678.520    95845379.548 7       362.576    23052678.200    95845379.544 7       362.576
G07  22049524.020   115871044.088 7      1719.698    22049523.120   115871044.093 7      1719.698    22049531.360    90289135.062 7      1340.025    22049531.740    90289147.071 7      1340.025
R16  22295301.500   119097499.260 7      5352.972    22295298.380   119097499.264 7      5352.972    22295323.100    92631483.427 7      4163.422    22295323.140    92631483.430 7      4163.422
G19  24640951.160   129489075.347 6      -426.651    24640948.780   129489075.338 4      -426.651    24640964.000   100900601.185 4      -332.455
R22  22639583.640   120851640.733 7      6049.082    22639585.060   120851640.742 7      6049.082    22639594.540    93995761.502 7      4704.842    22639594.540    93995765.499 7      4704.842
G20  21797432.760   114546280.948 7      4778.746    21797430.940   114546280.950 6      4778.746    21797436.800    89256862.016 6      3723.698
G13  22506242.560   118271111.790 7      5145.432    22506242.060   118271111.795 5      5145.432    22506254.880    92159352.899 5      4009.428
G06  21037693.800   110553816.402 8       680.186    21037693.060   110553816.407 8       680.186    21037705.940    86145878.692 8       530.015    21037707.020    86145880.697 8       530.015
R21  19930909.260   106654316.331 8      2419.842    19930909.320   106654316.340 7      2419.842    19930922.180    82953408.222 8      1882.099    19930922.100    82953407.226 8      1882.099
> 2024 07 31 15 44 54.0000000  0 17
G05  23725817.660   124680015.405 7      5235.120    23725816.900   124680015.407 6      5235.120    23725825.220    97153290.326 6      4079.315    23725826.060    97153292.339 7      4079.315
G30  21226096.260   111543894.436 8      3832.088    21226095.360   111543894.436 8      3832.088    21226107.520    86917365.381 8      2986.043    21226108.420    86917368.383 8      2986.043
G11  20851737.300   109576615.259 7      3564.421    20851736.240   109576615.264 6      3564.421    20851742.260    85384395.114 6      2777.471    20851742.680    85384397.115 8      2777.471
R15  22997175.020   122889932.270 7      2397.647    22997174.580   122889932.263 7      2397.647    22997191.060    95581127.479 7      1864.836    22997190.760    95581126.480 7      1864.836
R06  20773088.600   110849198.878 6      2488.043    20773087.860   110849198.884 6      2488.043
G09  23297330.200   122428292.958 7       -48.130    23297328.840   122428292.969 7       -48.130    23297340.300    95398701.863 7       -37.504    23297340.680    95398718.865 7       -37.504
R09  24099737.060   128691259.666 6      6389.799    24099738.900   128691259.673 6      6389.799    24099757.940   100093280.752 6      4969.843    24099758.940   100093284.748 6      4969.843
R07  22498856.900   120438139.975 7      4222.735    22498857.540   120438140.014 7      4222.735    22498872.440    93674178.075 7      3284.349    22498872.900    93674181.088 7      3284.349
R05  23052576.060   123229220.646 7       465.936    23052575.420   123229220.648 7       465.936    23052591.100    95845017.111 7       362.395    23052590.900    95845017.112 7       362.395
G07  22049196.720   115869324.751 7      1718.868    22049195.900   115869324.756 7      1718.868    22049204.240    90287795.317 7      1339.377    22049204.460    90287807.321 7      1339.377
R16  22294299.340   119092146.665 7      5352.289    22294296.720   119092146.661 7      5352.289    22294321.040    92627320.300 7      4162.892    22294321.420    92627320.305 7      4162.892
G19  24641032.540   129489501.874 6      -426.471    24641029.920   129489501.874 4      -426.471    24641045.060   100900933.544 4      -332.315
R22  22638450.560   120845591.992 7      6048.232    22638451.700   120845592.006 7      6048.232    22638461.640    93991056.938 7      4704.181    22638461.280    93991060.933 7      4704.181
G20  21796523.360   114541502.363 7      4778.384    21796521.520   114541502.368 6      4778.384    21796527.600    89253138.445 6      3723.416
G13  22505263.340   118265966.588 7      5144.884    22505263.040   118265966.595 5      5144.884    22505275.800    92155343.660 5      4009.001
G06  21037564.660   110553136.597 8       679.387    21037563.680   110553136.597 8       679.387    21037576.560    86145348.966 8       529.393    21037577.460    86145350.966 8       529.393
R21  19930457.080   106651896.937 7      2418.762    19930456.840   106651896.941 7      2418.762    19930470.140    82951526.466 8      1881.259    19930470.060    82951525.467 8      1881.259
> 2024 07 31 15 44 55.0000000  0 17
G05  23724821.320   124674780.334 7      5234.884    23724820.600   124674780.336 6      5234.884    23724828.940    97149211.054 6      4079.130    23724829.540    97149213.061 7      4079.130
G30  21225367.200   111540062.669 8      3831.283    21225366.140   111540062.669 8      3831.283    21225378.400    86914379.593 8      2985.416    21225379.280    86914382.592 8      2985.416
G11  20851058.960   109573051.160 7      3563.570    20851057.940   109573051.168 6      3563.570    20851064.120    85381617.892 6      2776.808    20851064.440    85381619.893 8      2776.808
R15  22996726.440   122887535.165 7      2396.436    22996726.120   122887535.166 7      2396.436    22996742.700    95579263.074 7      1863.895    22996742.160    95579262.075 7      1863.895
R06  20772622.160   110846711.036 6      2487.494    20772621.080   110846711.029 6      2487.494
G09  23297338.960   122428341.131 7       -48.340    23297338.000   122428341.136 6       -48.340    23297349.360    95398739.391 6       -37.667    23297349.660    95398756.395 7       -37.667
R09  24098540.840   128684869.825 6      6389.651    24098541.520   128684869.823 6      6389.651    24098561.720   100088310.861 6      4969.728    24098562.180   100088314.865 6      4969.728
R07  22498067.980   120433917.352 7      4222.219    22498069.200   120433917.386 7      4222.219    22498083.880    93670893.806 7      3283.948    22498083.680    93670896.815 7      3283.948
R05  23052488.260   123228754.710 7       465.823    23052487.720   123228754.714 7       465.823    23052503.960    95844654.718 7       362.306    23052503.860    95844654.713 7       362.306
G07  22048869.600   115867606.105 7      1718.216    22048868.900   115867606.107 7      1718.216    22048877.100    90286456.112 7      1338.870    22048877.480    90286468.116 7      1338.870
R16  22293297.000   119086794.727 7      5351.422    22293294.880   119086794.726 7      5351.422    22293319.140    92623157.692 7      4162.217    22293319.480    92623157.699 7      4162.217
G19  24641113.720   129489928.494 6      -426.825    24641111.000   129489928.504 4      -426.825    24641126.100   100901265.979 4      -332.591
R22  22637317.860   120839543.964 7      6047.580    22637318.200   120839543.978 7      6047.580    22637328.820    93986352.918 7      4703.673    22637328.380    93986356.911 7      4703.673
G20  21795614.200   114536724.085 7      4778.000    21795612.180   114536724.088 6      4778.000    21795618.380    89249415.108 6      3723.117
G13  22504284.460   118260821.908 7      5144.336    22504284.040   118260821.910 5      5144.336    22504296.740    92151334.825 5      4008.574
G06  21037435.300   110552457.523 7       678.572    21037434.460   110552457.523 8       678.572    21037447.360    86144819.807 8       528.758    21037448.400    86144821.812 8       528.758
R21  19930005.580   106649478.678 7      2417.560    19930004.760   106649478.685 7      2417.560    19930018.100    82949645.589 8      1880.325    19930018.060    82949644.593 8      1880.325
> 2024 07 31 15 44 56.0000000  0 17
G05  23723824.980   124669545.456 7      5234.737    23723824.540   124669545.459 6      5234.737    23723832.780    97145131.931 6      4079.016    23723833.220    97145133.936 7      4079.016
G30  21224638.040   111536231.675 8      3830.626    21224637.160   111536231.674 8      3830.626    21224649.400    86911394.408 8      2984.903    21224650.240    86911397.406 8      2984.903
G11  20850380.880   109569487.907 7      3562.717    20850379.920   109569487.912 6      3562.717    20850385.940    85378841.329 6      2776.143    20850386.260    85378843.332 8      2776.143
R15  22996278.120   122885139.046 7      2395.532    22996277.700   122885139.058 7      2395.532    22996293.900    95577399.436 7      1863.191    22996293.880    95577398.439 7      1863.191
R06  20772154.700   110844223.488 6      2487.271    20772155.180   110844223.486 6      2487.271
G09  23297347.920   122428389.551 7       -48.592    23297347.260   122428389.556 7       -48.592    23297358.620    95398777.120 7       -37.864    23297359.260    95398794.118 7       -37.864
R09  24097344.740   128678480.008 6      6389.705    24097345.560   128678480.006 6      6389.705    24097364.640   100083340.999 6      4969.771    24097365.480   100083345.003 6      4969.771
R07  22497279.240   120429695.106 7      4222.006    22497279.740   120429695.129 7      4222.006    22497295.000    93667609.833 7      3283.782    22497295.280    93667612.829 7      3283.782
R05  23052401.360   123228288.916 7       465.670    23052400.840   123228288.922 7       465.670    23052416.800    95844292.436 7       362.188    23052416.640    95844292.424 7       362.188
G07  22048542.740   115865888.223 7      1717.473    22048541.980   115865888.230 7      1717.473    22048550.140    90285117.507 7      1338.291    22048550.800    90285129.513 7      1338.291
R16  22292295.280   119081443.430 7      5350.987    22292292.860   119081443.421 7      5350.987    22292317.320    92618995.570 7      4161.879    22292317.660    92618995.577 7      4161.879
G19  24641194.820   129490355.166 6      -426.757    24641192.220   129490355.176 4      -426.757    24641207.220   100901598.453 4      -332.538
R22  22636184.640   120833496.691 7      6046.915    22636185.180   120833496.705 7      6046.915    22636196.240    93981649.492 7      4703.156    22636195.520    93981653.481 7      4703.156
G20  21794705.040   114531946.120 7      4777.752    21794702.880   114531946.123 6      4777.752    21794709.200    89245692.022 6      3722.924
G13  22503305.480   118255677.798 7      5143.864    22503305.220   118255677.803 5      5143.864    22503317.860    92147326.440 5      4008.205
G06  21037306.280   110551779.214 7       677.838    21037305.400   110551779.213 8       677.838    21037318.280    86144291.246 8       528.186    21037319.280    86144293.249 8       528.186
R21  19929553.740   106647061.578 8      2416.488    19929553.180   106647061.590 7      2416.488    19929566.500    82947765.626 8      1879.491    19929566.280    82947764.626 8      1879.491
> 2024 07 31 15 44 57.0000000  0 17
G05  23722828.800   124664310.913 7      5234.683    23722828.280   124664310.915 6      5234.683    23722836.580    97141053.068 6      4078.974    23722837.440    97141055.077 7      4078.974
G30  21223909.200   111532401.608 8      3829.883    21223908.360   111532401.608 8      3829.883    21223920.580    86908409.945 8      2984.325    21223921.160    86908412.944 8      2984.325
G11  20849703.020   109565925.597 7      3562.148    20849702.040   109565925.602 6      3562.148    20849708.120    85376065.500 6      2775.700    20849708.620    85376067.502 8      2775.700
R15  22995829.580   122882744.073 7      2394.713    22995829.720   122882744.069 7      2394.713    22995845.900    95575536.680 7      1862.555    22995845.460    95575535.683 8      1862.555
R06  20771689.780   110841736.449 6      2487.151    20771689.080   110841736.439 6      2487.151
G09  23297357.420   122428438.323 7       -48.630    23297356.660   122428438.325 7       -48.630    23297367.880    95398815.118 7       -37.894    23297368.140    95398832.126 7       -37.894
R09  24096148.560   128672090.335 6      6389.941    24096148.660   128672090.336 6      6389.941    24096168.400   100078371.257 6      4969.954    24096168.960   100078375.258 6      4969.954
R07  22496490.440   120425473.436 7      4221.634    22496491.080   120425473.459 7      4221.634    22496506.260    93664326.318 7      3283.493    22496506.560    93664329.306 7      3283.493
R05  23052314.460   123227823.354 7       465.776    23052313.760   123227823.363 6       465.776    23052329.980    95843930.332 7       362.270    23052329.800    95843930.322 7       362.270
G07  22048216.060   115864171.208 7      1716.919    22048215.160   115864171.213 7      1716.919    22048223.460    90283779.574 7      1337.859    22048223.940    90283791.582 7      1337.859
R16  22291293.460   119076092.911 7      5350.470    22291291.240   119076092.912 7      5350.470    22291315.960    92614834.082 7      4161.477    22291316.000    92614834.085 7      4161.477
G19  24641275.820   129490781.998 6      -426.557    24641273.340   129490782.008 4      -426.557    24641288.500   100901931.045 4      -332.382
R22  22635051.860   120827450.317 7      6046.299    22635052.000   120827450.323 7      6046.299    22635063.760    93976946.759 7      4702.677    22635062.800    93976950.752 7      4702.677
G20  21793795.820   114527168.623 7      4777.521    21793793.740   114527168.628 6      4777.521    21793799.880    89241969.301 6      3722.744
G13  22502326.700   118250534.417 7      5143.335    22502326.500   118250534.424 5      5143.335    22502339.100    92143318.625 5      4007.793
G06  21037177.240   110551101.782 7       677.315    21037176.560   110551101.782 8       677.315    21037189.420    86143763.369 8       527.778    21037190.400    86143765.376 8       527.778
R21  19929102.260   106644645.780 7      2415.443    19929101.740   106644645.792 7      2415.443    19929115.040    82945886.671 8      1878.678    19929115.120    82945885.672 8      1878.678
> 2024 07 31 15 44 58.0000000  0 17
G05  23721832.820   124659076.333 7      5234.526    23721832.160   124659076.335 6      5234.526    23721840.380    97136974.178 6      4078.852    23721841.440    97136976.187 7      4078.852
G30  21223180.640   111528572.056 7      3829.285    21223179.560   111528572.058 8      3829.285    21223191.740    86905425.882 8      2983.858    21223192.560    86905428.882 8      2983.858
G11  20849025.340   109562363.892 7      3561.387    20849024.200   109562363.897 6      3561.387    20849030.340    85373290.143 6      2775.107    20849030.880    85373292.145 8      2775.107
R15  22995381.640   122880349.822 7      2393.850    22995381.520   122880349.818 7      2393.850    22995397.960    95573674.486 7      1861.884    22995397.520    95573673.485 7      1861.884
R06  20771224.000   110839249.512 6      2486.946    20771222.380   110839249.536 6      2486.946
G09  23297366.660   122428487.085 7       -48.774    23297365.860   122428487.087 7       -48.774    23297377.300    95398853.110 6       -38.006    23297377.440    95398870.116 7       -38.006
R09  24094951.820   128665700.416 6      6390.112    24094951.580   128665700.436 6      6390.112    24094971.480   100073401.335 6      4970.087    24094972.120   100073405.339 6      4970.087
R07  22495701.880   120421251.918 7      4221.302    22495701.620   120421251.952 7      4221.302    22495717.800    93661042.934 7      3283.235    22495718.280    93661045.924 7      3283.235
R05  23052227.100   123227357.687 7       465.688    23052226.580   123227357.691 6       465.688    23052242.920    95843568.143 7       362.202    23052242.860    95843568.140 7       362.202
G07  22047889.220   115862454.712 7      1716.261    22047888.600   115862454.711 7      1716.261    22047896.680    90282442.044 7      1337.346    22047897.380    90282454.048 8      1337.346
R16  22290291.960   119070742.818 7      5349.824    22290289.880   119070742.822 7      5349.824    22290314.260    92610672.911 7      4160.974    22290314.380    92610672.914 7      4160.974
G19  24641356.940   129491208.676 6      -426.479    24641354.500   129491208.683 4      -426.479    24641369.840   100902263.517 4      -332.321
R22  22633919.460   120821404.419 7      6045.690    22633918.980   120821404.430 7      6045.690    22633931.080    93972244.406 7      4702.204    22633930.160    93972248.401 7      4702.204
G20  21792886.880   114522391.207 7      4777.390    21792884.740   114522391.212 6      4777.390    21792890.880    89238246.640 6      3722.642
G13  22501347.880   118245391.334 7      5142.911    22501347.800   118245391.342 5      5142.911    22501360.500    92139311.036 5      4007.463
G06  21037048.480   110550424.870 7       676.646    21037047.700   110550424.870 8       676.646    21037060.600    86143235.897 8       527.256    21037061.440    86143237.900 8       527.256
R21  19928650.980   106642230.909 7      2414.386    19928650.520   106642230.921 7      2414.386    19928663.800    82944008.431 8      1877.856    19928663.540    82944007.432 8      1877.856
> 2024 07 31 15 44 59.0000000  0 17
G05  23720836.880   124653841.632 7      5234.716    23720835.980   124653841.634 6      5234.716    23720844.220    97132895.195 6      4078.999    23720845.580    97132897.205 7      4078.999
G30  21222452.000   111524742.980 7      3828.778    21222450.900   111524742.987 8      3828.778    21222463.160    86902442.193 8      2983.463    21222463.920    86902445.192 8      2983.463
G11  20848347.380   109558802.710 7      3560.867    20848346.520   109558802.714 6      3560.867    20848352.820    85370515.193 6      2774.702    20848353.160    85370517.198 8      2774.702
R15  22994933.900   122877956.236 7      2393.118    22994933.340   122877956.226 7      2393.118    22994949.940    95571812.810 7      1861.314    22994949.760    95571811.813 7      1861.314
R06  20770758.180   110836762.724 6      2486.477    20770756.860   110836762.743 6      2486.477
G09  23297375.980   122428535.775 7       -48.784    23297375.020   122428535.780 7       -48.784    23297386.520    95398891.051 7       -38.013    23297386.800    95398908.055 7       -38.013
R09  24093755.280   128659310.278 6      6390.181    24093755.340   128659310.298 6      6390.181    24093775.320   100068431.226 6      4970.141    24093775.500   100068435.228 6      4970.141
R07  22494913.100   120417030.496 7      4221.257    22494912.640   120417030.541 7      4221.257    22494929.000    93657759.619 7      3283.200    22494929.440    93657762.606 7      3283.200
R05  23052139.800   123226891.866 7       465.834    23052139.880   123226891.862 6       465.834    23052155.800    95843205.819 7       362.315    23052155.500    95843205.809 7       362.315
G07  22047562.640   115860738.643 7      1715.768    22047562.040   115860738.648 7      1715.768    22047570.120    90281104.849 7      1336.962    22047570.800    90281116.858 7      1336.962
R16  22289290.520   119065393.087 7      5349.522    22289288.420   119065393.080 7      5349.522    22289312.760    92606512.011 7      4160.739    22289313.080    92606512.014 7      4160.739
G19  24641437.900   129491635.153 5      -426.665    24641435.600   129491635.156 4      -426.665    24641450.880   100902595.831 4      -332.466
R22  22632786.660   120815358.982 7      6045.115    22632786.260   120815358.988 7      6045.115    22632798.600    93967542.404 7      4701.756    22632797.840    93967546.397 7      4701.756
G20  21791977.440   114517613.818 7      4777.312    21791975.660   114517613.825 6      4777.312    21791981.780    89234524.003 6      3722.581
G13  22500369.420   118240248.531 7      5142.602    22500369.060   118240248.538 5      5142.602    22500381.820    92135303.667 5      4007.223
G06  21036919.720   110549748.421 7       676.110    21036919.040   110549748.423 8       676.110    21036931.940    86142708.788 8       526.839    21036932.720    86142710.792 8       526.839
R21  19928199.860   106639816.850 7      2413.583    19928199.480   106639816.860 7      2413.583    19928212.620    82942130.822 8      1877.231    19928212.620    82942129.823 8      1877.231
> 2024 07 31 15 45  0.0000000  0 17
G05  23719840.520   124648607.075 7      5234.814    23719839.740   124648607.080 6      5234.814    23719848.060    97128816.323 6      4079.076    23719849.160    97128818.340 7      4079.076
G30  21221723.460   111520914.621 8      3828.308    21221722.320   111520914.623 8      3828.308    21221734.600    86899459.058 8      2983.097    21221735.320    86899462.058 8      2983.097
G11  20847669.920   109555242.297 7      3560.257    20847669.120   109555242.302 6      3560.257    20847675.120    85367740.846 6      2774.226    20847675.740    85367742.846 8      2774.226
R15  22994486.340   122875563.558 7      2392.473    22994485.860   122875563.551 7      2392.473    22994502.400    95569951.849 7      1860.812    22994502.040    95569950.848 7      1860.812
R06  20770291.880   110834276.173 6      2486.586    20770290.780   110834276.174 6      2486.586
G09  23297385.620   122428584.602 7       -48.613    23297384.400   122428584.605 7       -48.613    23297395.800    95398929.094 6       -37.880    23297395.840    95398946.098 7       -37.880
R09  24092558.460   128652920.138 6      6390.435    24092558.640   128652920.133 6      6390.435    24092578.480   100063461.104 6      4970.339    24092578.900   100063465.100 6      4970.339
R07  22494124.400   120412809.404 7      4221.111    22494123.680   120412809.454 7      4221.111    22494140.480    93654476.553 7      3283.086    22494140.820    93654479.539 7      3283.086
R05  23052052.440   123226426.050 7       466.063    23052052.240   123226426.052 6       466.063    23052068.680    95842843.524 7       362.494    23052068.460    95842843.522 7       362.494
G07  22047236.340   115859023.257 7      1715.256    22047235.460   115859023.260 7      1715.256    22047243.700    90279768.185 7      1336.563    22047244.240    90279780.192 7      1336.563
R16  22288289.260   119060043.983 7      5349.060    22288286.760   119060043.973 7      5349.060    22288311.260    92602351.605 7      4160.380    22288311.720    92602351.606 7      4160.380
G19  24641518.740   129492061.473 5      -426.040    24641516.820   129492061.473 4      -426.040    24641532.020   100902928.026 4      -331.979
R22  22631654.320   120809314.210 7      6044.688    22631653.980   120809314.206 7      6044.688    22631666.420    93962840.917 7      4701.424    22631665.580    93962844.912 7      4701.424
G20  21791068.320   114512836.702 7      4777.191    21791066.760   114512836.704 6      4777.191    21791072.660    89230801.574 6      3722.486
G13  22499390.780   118235106.210 7      5142.344    22499390.460   118235106.223 5      5142.344    22499403.180    92131296.677 5      4007.021
G06  21036791.360   110549072.634 8       675.771    21036790.420   110549072.636 8       675.771    21036803.240    86142182.192 8       526.575    21036804.140    86142184.197 8       526.575
R21  19927748.800   106637403.857 7      2412.715    19927748.600   106637403.866 7      2412.715    19927761.780    82940254.045 8      1876.556    19927761.740    82940253.046 8      1876.556
> 2024 07 31 15 45  1.0000000  0 17
G05  23718844.160   124643372.505 7      5234.564    23718843.600   124643372.510 6      5234.564    23718851.920    97124737.444 6      4078.881    23718853.020    97124739.453 7      4078.881
G30  21220995.180   111517086.819 8      3827.531    21220993.920   111517086.821 8      3827.531    21221006.140    86896476.357 8      2982.492    21221006.920    86896479.361 8      2982.492
G11  20846992.360   109551682.491 7      3559.448    20846991.640   109551682.496 6      3559.448    20846997.680    85364966.971 6      2773.596    20846998.260    85364968.974 8      2773.596
R15  22994038.560   122873171.682 7      2391.418    22994038.320   122873171.678 7      2391.418    22994054.440    95568091.509 7      1859.992    22994054.240    95568090.513 7      1859.992
R06  20769826.060   110831789.729 6      2486.517    20769824.660   110831789.725 6      2486.517
G09  23297394.720   122428633.480 7       -48.970    23297393.720   122428633.484 7       -48.970    23297405.020    95398967.176 7       -38.159    23297405.440    95398984.180 7       -38.159
R09  24091361.840   128646529.816 6      6390.339    24091361.800   128646529.814 6      6390.339    24091381.820   100058490.852 6      4970.263    24091382.220   100058494.856 6      4970.263
R07  22493336.000   120408588.510 6      4220.743    22493335.320   120408588.544 7      4220.743    22493352.100    93651193.627 7      3282.800    22493352.180    93651196.619 7      3282.800
R05  23051965.220   123225960.162 7       465.952    23051965.060   123225960.161 6       465.952    23051981.520    95842481.162 7       362.407    23051981.400    95842481.155 7       362.407
G07  22046910.140   115857308.390 7      1714.577    22046909.180   115857308.389 7      1714.577    22046917.300    90278431.927 7      1336.034    22046917.540    90278443.931 7      1336.034
R16  22287288.160   119054695.333 7      5348.358    22287285.420   119054695.328 7      5348.358    22287310.140    92598191.556 7      4159.834    22287310.520    92598191.559 7      4159.834
G19  24641599.820   129492487.699 6      -426.066    24641597.940   129492487.706 4      -426.066    24641613.200   100903260.156 4      -331.999
R22  22630521.820   120803269.948 7      6044.040    22630521.880   120803269.946 7      6044.040    22630534.160    93958139.834 7      4700.920    22630533.180    93958143.829 7      4700.920
G20  21790159.380   114508059.675 7      4776.918    21790157.560   114508059.682 6      4776.918    21790163.660    89227079.222 6      3722.274
G13  22498412.460   118229964.269 7      5141.806    22498411.820   118229964.279 5      5141.806    22498424.560    92127289.979 5      4006.602
G06  21036662.740   110548397.412 8       674.959    21036661.920   110548397.417 8       674.959    21036674.880    86141656.041 8       525.942    21036675.780    86141658.044 8       525.942
R21  19927298.200   106634991.840 7      2411.433    19927297.900   106634991.850 7      2411.433    19927311.060    82938378.026 8      1875.559    19927310.740    82938377.027 8      1875.559
> 2024 07 31 15 45  2.0000000  0 17
G05  23717848.060   124638138.056 7      5234.330    23717847.480   124638138.061 6      5234.330    23717855.820    97120658.657 6      4078.699    23717856.680    97120660.659 7      4078.699
G30  21220266.880   111513259.721 8      3826.602    21220265.720   111513259.720 8      3826.602    21220277.880    86893494.207 8      2981.768    21220278.580    86893497.207 8      2981.768
G11  20846315.300   109548123.437 7      3558.555    20846314.420   109548123.445 6      3558.555    20846320.500    85362193.678 6      2772.900    20846320.940    85362195.683 8      2772.900
R15  22993591.000   122870780.709 7      2390.292    22993591.100   122870780.710 7      2390.292    22993607.200    95566231.872 7      1859.116    22993606.680    95566230.873 7      1859.116
R06  20769359.860   110829303.600 6      2485.818    20769358.880   110829303.606 6      2485.818
G09  23297403.820   122428682.459 7       -49.086    23297403.060   122428682.464 6       -49.086    23297414.440    95399005.340 6       -38.249    23297415.000    95399022.342 7       -38.249
R09  24090165.420   128640139.459 6      6390.194    24090165.480   128640139.458 6      6390.194    24090184.880   100053520.568 6      4970.151    24090185.500   100053524.566 6      4970.151
R07  22492547.800   120404367.945 6      4220.198    22492547.100   120404367.976 7      4220.198    22492563.680    93647910.966 7      3282.376    22492563.440    93647913.957 7      3282.376
R05  23051878.180   123225494.314 7       465.817    23051878.100   123225494.313 6       465.817    23051894.320    95842118.834 7       362.302    23051894.140    95842118.826 7       362.302
G07  22046584.100   115855594.173 7      1713.773    22046583.020   115855594.173 7      1713.773    22046591.120    90277096.174 7      1335.408    22046591.700    90277108.178 7      1335.408
R16  22286287.480   119049347.246 7      5347.766    22286284.520   119049347.244 7      5347.766    22286308.900    92594031.946 7      4159.374    22286309.320    92594031.947 7      4159.374
G19  24641681.040   129492913.937 6      -426.239    24641679.240   129492913.947 4      -426.239    24641694.360   100903592.292 4      -332.134
R22  22629389.660   120797226.361 7      6043.215    22629389.840   120797226.362 7      6043.215    22629401.760    93953439.271 7      4700.278    22629401.460    93953443.266 7      4700.278
G20  21789250.220   114503282.910 7      4776.495    21789248.640   114503282.918 6      4776.495    21789254.600    89223357.066 6      3721.945
G13  22497434.340   118224822.810 7      5141.072    22497433.360   118224822.818 5      5141.072    22497446.160    92123283.654 5      4006.030
G06  21036534.300   110547722.855 8       674.212    21036533.600   110547722.854 8       674.212    21036546.460    86141130.400 8       525.360    21036547.020    86141132.406 8       525.360
R21  19926847.880   106632580.880 8      2410.301    19926847.340   106632580.892 7      2410.301    19926860.440    82936502.834 8      1874.678    19926859.800    82936501.834 8      1874.678
> 2024 07 31 15 45  3.0000000  0 17
G05  23716852.160   124632903.831 7      5234.183    23716851.340   124632903.838 6      5234.183    23716859.520    97116580.042 6      4078.584    23716860.560    97116582.046 7      4078.584
G30  21219538.760   111509433.396 8      3825.981    21219537.560   111509433.395 8      3825.981    21219549.740    86890512.661 8      2981.284    21219550.480    86890515.661 8      2981.284
G11  20845638.200   109544565.226 7      3557.882    20845637.320   109544565.228 6      3557.882    20845643.360    85359421.042 6      2772.375    20845643.940    85359423.045 8      2772.375
R15  22993143.540   122868390.733 7      2389.578    22993143.580   122868390.715 7      2389.578    22993159.680    95564372.995 7      1858.561    22993159.380    95564371.998 7      1858.561
R06  20768894.680   110826817.797 6      2485.789    20768893.480   110826817.795 6      2485.789
G09  23297413.460   122428731.712 7       -49.319    23297412.360   122428731.722 6       -49.319    23297423.760    95399043.719 6       -38.430    23297424.040    95399060.723 7       -38.430
R09  24088968.300   128633749.084 6      6390.310    24088968.480   128633749.090 6      6390.310    24088988.400   100048550.289 6      4970.241    24088988.480   100048554.285 6      4970.241
R07  22491759.520   120400147.781 7      4220.056    22491758.740   120400147.804 7      4220.056    22491775.360    93644628.614 7      3282.266    22491774.900    93644631.606 7      3282.266
R05  23051791.420   123225028.640 7       465.730    23051790.840   123225028.644 6       465.730    23051807.280    95841756.643 7       362.234    23051807.080    95841756.641 7       362.234
G07  22046257.860   115853880.724 7      1713.097    22046256.800   115853880.729 7      1713.097    22046265.060    90275761.023 7      1334.881    22046265.440    90275773.031 7      1334.881
R16  22285286.380   119043999.849 7      5347.234    22285283.020   119043999.839 7      5347.234    22285307.840    92589872.868 7      4158.960    22285308.080    92589872.870 7      4158.960
G19  24641762.720   129493340.218 6      -426.081    24641760.200   129493340.228 4      -426.081    24641775.460   100903924.457 4      -332.011
R22  22628258.060   120791183.564 7      6042.498    22628258.240   120791183.562 7      6042.498    22628269.820    93948739.322 7      4699.721    22628269.200    93948743.315 7      4699.721
G20  21788341.380   114498506.477 7      4776.389    21788339.660   114498506.477 6      4776.389    21788345.700    89219635.168 6      3721.861
G13  22496455.740   118219681.919 7      5140.672    22496455.020   118219681.924 5      5140.672    22496467.880    92119277.775 5      4005.718
G06  21036406.080   110547049.075 7       673.547    21036405.380   110547049.080 8       673.547    21036418.280    86140605.372 8       524.842    21036419.000    86140607.377 8       524.842
R21  19926397.520   106630171.079 7      2409.306    19926397.060   106630171.093 7      2409.306    19926410.080    82934628.542 8      1873.905    19926409.700    82934627.540 8      1873.905
> 2024 07 31 15 45  4.0000000  0 17
G05  23715856.700   124627669.684 7      5234.027    23715855.300   124627669.692 6      5234.027    23715863.480    97112501.492 6      4078.462    23715864.800    97112503.488 7      4078.462
G30  21218810.700   111505607.738 8      3825.226    21218809.520   111505607.737 8      3825.226    21218821.800    86887531.631 8      2980.695    21218822.420    86887534.633 8      2980.695
G11  20844961.320   109541007.751 7      3556.956    20844960.420   109541007.753 6      3556.956    20844966.420    85356648.984 6      2771.654    20844966.880    85356650.988 8      2771.654
R15  22992696.440   122866001.643 7      2388.554    22992696.880   122866001.628 7      2388.554    22992712.600    95562514.825 7      1857.764    22992712.540    95562513.826 8      1857.764
R06  20768428.780   110824332.297 6      2485.207    20768427.560   110824332.295 6      2485.207
G09  23297422.920   122428781.088 7       -49.517    23297421.760   122428781.090 7       -49.517    23297433.180    95399082.189 6       -38.584    23297433.700    95399099.189 7       -38.584
R09  24087771.620   128627358.685 6      6390.370    24087771.960   128627358.683 6      6390.370    24087791.980   100043579.972 6      4970.288    24087791.780   100043583.972 6      4970.288
R07  22490970.880   120395927.894 7      4219.681    22490970.520   120395927.919 7      4219.681    22490986.840    93641346.485 7      3281.974    22490986.660    93641349.485 7      3281.974
R05  23051704.540   123224563.016 7       465.454    23051703.900   123224563.018 6       465.454    23051720.020    95841394.489 7       362.020    23051719.840    95841394.490 7       362.020
G07  22045931.920   115852167.919 7      1712.377    22045930.860   115852167.921 7      1712.377    22045938.980    90274426.372 7      1334.320    22045939.600    90274438.374 7      1334.320
R16  22284285.080   119038652.994 7      5346.576    22284282.440   119038652.989 7      5346.576    22284307.040    92585714.219 7      4158.448    22284306.860    92585714.220 7      4158.448
G19  24641843.700   129493766.467 6      -426.237    24641841.380   129493766.475 4      -426.237    24641856.620   100904256.597 4      -332.133
R22  22627125.820   120785141.389 7      6041.721    22627126.960   120785141.379 7      6041.721    22627137.760    93944039.848 7      4699.116    22627137.440    93944043.843 7      4699.116
G20  21787432.220   114493730.265 7      4776.069    21787430.660   114493730.267 6      4776.069    21787436.800    89215913.448 6      3721.612
G13  22495477.600   118214541.504 7      5140.107    22495476.900   118214541.506 5      5140.107    22495489.680    92115272.261 5      4005.278
G06  21036277.880   110546375.957 7       672.672    21036277.340   110546375.960 8       672.672    21036290.220    86140080.857 8       524.160    21036290.940    86140082.862 8       524.160
R21  19925947.480   106627762.331 7      2408.133    19925947.000   106627762.341 7      2408.133    19925959.980    82932755.062 8      1872.992    19925959.540    82932754.059 8      1872.992
> 2024 07 31 15 45  5.0000000  0 17
G05  23714860.500   124622435.553 7      5233.987    23714859.260   124622435.561 6      5233.987    23714867.520    97108422.950 6      4078.431    23714868.400    97108424.957 7      4078.431
G30  21218082.600   111501782.671 8      3824.747    21218081.620   111501782.668 8      3824.747    21218093.860    86884551.063 8      2980.322    21218094.340    86884554.065 8      2980.322
G11  20844284.660   109537450.894 7      3556.466    20844283.600   109537450.898 6      3556.466    20844289.460    85353877.408 6      2771.272    20844289.860    85353879.411 8      2771.272
R15  22992249.640   122863613.342 7      2387.869    22992249.880   122863613.338 7      2387.869    22992265.620    95560657.274 7      1857.231    22992265.640    95560656.273 7      1857.231
R06  20767963.680   110821846.929 6      2485.080    20767962.080   110821846.922 6      2485.080
G09  23297432.280   122428830.488 7       -49.478    23297431.260   122428830.488 7       -49.478    23297442.580    95399120.677 6       -38.554    23297443.400    95399137.679 7       -38.554
R09  24086574.780   128620968.114 6      6390.847    24086574.780   128620968.118 6      6390.847    24086595.160   100038609.534 6      4970.659    24086594.820   100038613.533 6      4970.659
R07  22490183.340   120391708.185 7      4219.718    22490182.520   120391708.216 7      4219.718    22490198.560    93638064.498 7      3282.003    22490198.160    93638067.513 7      3282.003
R05  23051617.080   123224097.283 7       465.817    23051617.000   123224097.290 6       465.817    23051633.000    95841032.253 7       362.302    23051632.980    95841032.249 7       362.302
G07  22045606.140   115850455.658 7      1711.976    22045605.020   115850455.655 7      1711.976    22045613.160    90273092.140 7      1334.007    22045613.740    90273104.140 7      1334.007
R16  22283284.180   119033306.592 7      5346.155    22283281.640   119033306.591 7      5346.155    22283306.120    92581555.917 7      4158.121    22283306.140    92581555.922 7      4158.121
G19  24641924.300   129494192.561 6      -426.100    24641922.440   129494192.566 4      -426.100    24641937.820   100904588.618 4      -332.026
R22  22625994.660   120779099.756 7      6041.249    22625995.660   120779099.748 7      6041.249    22626005.680    93939340.802 7      4698.749    22626005.320    93939344.801 7      4698.749
G20  21786523.860   114488954.202 7      4775.904    21786521.840   114488954.207 6      4775.904    21786528.080    89212191.841 6      3721.483
G13  22494499.340   118209401.451 7      5139.838    22494498.800   118209401.454 5      5139.838    22494511.600    92111267.035 5      4005.068
G06  21036150.180   110545703.389 7       672.212    21036149.420   110545703.391 8       672.212    21036162.200    86139556.770 8       523.802    21036163.160    86139558.774 8       523.802
R21  19925497.460   106625354.518 7      2407.246    19925496.840   106625354.527 7      2407.246    19925510.100    82930882.314 8      1872.303    19925509.820    82930881.313 8      1872.303
> 2024 07 31 15 45  6.0000000  0 17
G05  23713864.520   124617201.685 7      5233.846    23713863.280   124617201.687 6      5233.846    23713871.540    97104344.611 6      4078.321    23713872.160    97104346.612 7      4078.321
G30  21217355.140   111497958.450 8      3823.837    21217353.840   111497958.458 8      3823.837    21217366.160    86881571.161 8      2979.613    21217366.820    86881574.159 8      2979.613
G11  20843607.960   109533894.961 7      3555.515    20843606.840   109533894.968 6      3555.515    20843612.800    85351106.554 6      2770.531    20843613.400    85351108.554 8      2770.531
R15  22991802.800   122861226.110 7      2386.806    22991802.620   122861226.105 7      2386.806    22991818.940    95558800.542 7      1856.405    22991818.740    95558799.543 8      1856.405
R06  20767497.280   110819361.982 6      2484.749    20767496.380   110819361.988 6      2484.749
G09  23297441.740   122428880.188 7       -49.783    23297440.620   122428880.195 6       -49.783    23297452.020    95399159.404 6       -38.792    23297452.620    95399176.404 7       -38.792
R09  24085378.300   128614577.710 6      6390.380    24085377.900   128614577.713 6      6390.380    24085398.140   100033639.213 6      4970.295    24085398.740   100033643.218 6      4970.295
R07  22489394.980   120387489.012 7      4219.030    22489394.540   120387489.046 7      4219.030    22489410.640    93634782.927 7      3281.468    22489410.020    93634785.942 7      3281.468
R05  23051530.640   123223631.756 7       465.545    23051529.920   123223631.765 6       465.545    23051545.440    95840670.176 7       362.090    23051545.860    95840670.176 7       362.090
G07  22045280.340   115848744.227 7      1711.093    22045279.320   115848744.232 7      1711.093    22045287.480    90271758.561 7      1333.319    22045288.060    90271770.568 7      1333.319
R16  22282283.520   119027960.952 7      5345.336    22282280.600   119027960.951 7      5345.336    22282305.380    92577398.210 7      4157.483    22282305.280    92577398.213 7      4157.483
G19  24642005.960   129494618.765 6      -426.161    24642003.380   129494618.773 4      -426.161    24642018.860   100904920.732 4      -332.074
R22  22624862.780   120773058.939 7      6040.507    22624864.280   120773058.940 7      6040.507    22624873.780    93934642.398 7      4698.172    22624873.740    93934646.395 7      4698.172
G20  21785615.060   114484178.529 7      4775.539    21785613.120   114484178.533 6      4775.539    21785619.320    89208470.539 6      3721.199
G13  22493521.380   118204262.040 7      5139.225    22493520.680   118204262.045 5      5139.225    22493533.700    92107262.311 5      4004.591
G06  21036022.360   110545031.659 7       671.438    21036021.660   110545031.659 8       671.438    21036034.340    86139033.333 8       523.198    21036035.120    86139035.338 8       523.198
R21  19925047.620   106622947.940 7      2406.050    19925047.080   106622947.955 7      2406.050    19925060.320    82929010.529 8      1871.372    19925060.140    82929009.531 8      1871.372
> 2024 07 31 15 45  7.0000000  0 17
G05  23712868.520   124611967.940 7      5233.857    23712867.380   124611967.943 6      5233.857    23712875.400    97100266.371 6      4078.330    23712876.700    97100268.375 7      4078.330
G30  21216627.440   111494134.955 8      3823.314    21216626.260   111494134.957 8      3823.314    21216638.520    86878591.816 8      2979.206    21216639.300    86878594.814 8      2979.206
G11  20842931.420   109530339.801 7      3554.867    20842930.440   109530339.811 6      3554.867    20842936.320    85348336.295 6      2770.026    20842936.740    85348338.302 8      2770.026
R15  22991356.700   122858839.799 7      2386.026    22991356.460   122858839.795 7      2386.026    22991372.320    95556944.529 7      1855.798    22991372.080    95556943.532 7      1855.798
R06  20767032.580   110816877.355 6      2484.642    20767030.800   110816877.356 6      2484.642
G09  23297451.280   122428930.079 7       -49.898    23297450.260   122428930.086 6       -49.898    23297461.500    95399198.278 6       -38.882    23297462.280    95399215.280 7       -38.882
R09  24084181.280   128608187.238 6      6390.551    24084181.400   128608187.253 6      6390.551    24084201.420   100028668.857 6      4970.429    24084201.920   100028672.860 6      4970.429
R07  22488606.820   120383270.192 7      4218.776    22488606.560   120383270.228 7      4218.776    22488622.420    93631501.629 7      3281.270    22488622.040    93631504.633 7      3281.270
R05  23051443.220   123223166.290 6       465.643    23051442.960   123223166.286 6       465.643    23051458.640    95840308.134 7       362.167    23051458.700    95840308.131 7       362.167
G07  22044954.980   115847033.471 7      1710.590    22044953.760   115847033.479 7      1710.590    22044961.960    90270425.513 7      1332.927    22044962.340    90270437.517 7      1332.927
R16  22281282.840   119022615.959 7      5344.719    22281280.360   119022615.952 7      5344.719    22281304.780    92573241.003 7      4157.004    22281304.960    92573241.004 7      4157.004
G19  24642087.220   129495045.007 6      -426.054    24642084.440   129495045.019 4      -426.054    24642099.860   100905252.868 4      -331.990
R22  22623731.060   120767018.816 7      6039.936    22623733.160   120767018.817 7      6039.936    22623742.200    93929944.522 7      4697.728    22623742.440    93929948.524 7      4697.728
G20  21784706.100   114479403.133 8      4775.406    21784704.240   114479403.138 6      4775.406    21784710.520    89204749.455 6      3721.096
G13  22492543.460   118199123.141 7      5138.834    22492542.760   118199123.148 5      5138.834    22492555.860    92103257.987 5      4004.286
G06  21035894.600   110544360.638 7       670.774    21035893.900   110544360.640 8       670.774    21035906.620    86138510.454 8       522.681    21035907.600    86138512.456 8       522.681
R21  19924597.840   106620542.511 7      2404.998    19924597.560   106620542.529 7      2404.998    19924610.920    82927139.640 8      1870.554    19924610.660    82927138.641 8      1870.554
> 2024 07 31 15 45  8.0000000  0 17
G05  23711872.600   124606734.196 7      5233.528    23711871.520   124606734.203 6      5233.528    23711879.420    97096188.138 6      4078.074    23711880.280    97096190.139 7      4078.074
G30  21215899.920   111490312.042 7      3822.470    21215898.760   111490312.042 8      3822.470    21215911.060    86875612.926 8      2978.548    21215912.080    86875615.928 8      2978.548
G11  20842254.920   109526785.271 7      3554.069    20842254.040   109526785.278 6      3554.069    20842259.900    85345566.525 6      2769.404    20842260.320    85345568.524 8      2769.404
R15  22990910.080   122856454.266 7      2385.044    22990910.140   122856454.264 7      2385.044    22990926.080    95555089.122 7      1855.034    22990925.700    95555088.126 7      1855.034
R06  20766566.560   110814392.869 6      2484.291    20766566.020   110814392.875 6      2484.291
G09  23297461.080   122428979.978 7       -50.079    23297459.780   122428979.983 7       -50.079    23297470.960    95399237.158 7       -39.022    23297471.800    95399254.160 7       -39.022
R09  24082984.180   128601796.620 6      6390.437    24082984.700   128601796.632 6      6390.437    24083004.680   100023698.376 6      4970.340    24083005.120   100023702.375 6      4970.340
R07  22487818.660   120379051.578 7      4218.393    22487818.940   120379051.617 7      4218.393    22487834.360    93628220.491 7      3280.972    22487833.780    93628223.479 7      3280.972
R05  23051356.460   123222700.728 6       465.442    23051355.920   123222700.730 6       465.442    23051371.500    95839946.026 7       362.011    23051371.580    95839946.027 7       362.011
G07  22044629.560   115845323.267 7      1709.782    22044628.300   115845323.269 7      1709.782    22044636.520    90269092.885 7      1332.298    22044636.920    90269104.887 7      1332.298
R16  22280281.760   119017271.411 7      5344.093    22280279.620   119017271.410 7      5344.093    22280304.040    92569084.145 7      4156.517    22280304.380    92569084.150 7      4156.517
G19  24642168.420   129495471.095 6      -426.185    24642165.600   129495471.106 4      -426.185    24642180.840   100905584.883 4      -332.092
R22  22622599.660   120760979.254 7      6039.129    22622601.820   120760979.255 7      6039.129    22622610.560    93925247.085 7      4697.100    22622610.900    93925251.084 7      4697.100
G20  21783797.420   114474627.872 7      4774.966    21783795.680   114474627.877 6      4774.966    21783801.880    89201028.469 6      3720.753
G13  22491565.460   118193984.620 7      5138.166    22491564.900   118193984.627 5      5138.166    22491578.060    92099253.955 5      4003.766
G06  21035767.120   110543690.148 7       670.096    21035766.380   110543690.151 8       670.096    21035779.140    86137987.986 8       522.153    21035780.040    86137989.986 8       522.153
R21  19924148.620   106618138.053 7      2403.792    19924148.580   106618138.073 7      2403.792    19924161.560    82925269.504 8      1869.616    19924161.200    82925268.503 8      1869.616
> 2024 07 31 15 45  9.0000000  0 17
G05  23710876.800   124601500.693 7      5233.430    23710875.440   124601500.703 6      5233.430    23710883.620    97092110.090 6      4077.997    23710884.240    97092112.101 7      4077.997
G30  21215172.560   111486489.961 7      3821.717    21215171.480   111486489.960 8      3821.717    21215183.720    86872634.686 8      2977.961    21215184.420    86872637.686 8      2977.961
G11  20841578.820   109523231.635 7      3553.246    20841577.740   109523231.637 6      3553.246    20841583.680    85342797.454 6      2768.763    20841584.220    85342799.457 8      2768.763
R15  22990463.960   122854069.791 7      2383.995    22990464.080   122854069.789 7      2383.995    22990479.800    95553234.537 7      1854.218    22990479.280    95553233.538 7      1854.218
R06  20766101.060   110811908.821 6      2483.937    20766100.640   110811908.812 6      2483.937
G09  23297470.580   122429030.169 7       -50.313    23297469.140   122429030.179 7       -50.313    23297480.620    95399276.272 6       -39.205    23297480.980    95399293.272 7       -39.205
R09  24081787.500   128595406.095 6      6390.518    24081788.180   128595406.093 6      6390.518    24081808.200   100018727.960 6      4970.403    24081808.500   100018731.954 6      4970.403
R07  22487030.440   120374833.438 7      4217.933    22487031.060   120374833.488 7      4217.933    22487046.480    93624939.730 7      3280.614    22487045.940    93624942.710 7      3280.614
R05  23051269.840   123222235.351 6       465.390    23051268.760   123222235.349 6       465.390    23051284.260    95839584.068 7       361.970    23051284.560    95839584.062 7       361.970
G07  22044304.120   115843613.854 7      1709.103    22044303.000   115843613.859 7      1709.103    22044311.220    90267760.876 7      1331.769    22044311.840    90267772.883 7      1331.769
R16  22279281.640   119011927.588 7      5343.462    22279279.240   119011927.586 7      5343.462    22279303.680    92564927.846 7      4156.026    22279303.940    92564927.849 7      4156.026
G19  24642248.600   129495897.284 6      -426.282    24642246.560   129495897.297 4      -426.282    24642262.060   100905916.974 4      -332.168
R22  22621468.780   120754940.474 7      6038.438    22621470.260   120754940.483 7      6038.438    22621478.980    93920550.267 7      4696.563    22621479.560    93920554.266 7      4696.563
G20  21782888.740   114469852.971 7      4774.765    21782886.960   114469852.978 6      4774.765    21782893.060    89197307.770 6      3720.596
G13  22490587.860   118188846.711 7      5137.634    22490587.240   118188846.719 5      5137.634    22490600.240    92095250.402 5      4003.351
G06  21035639.640   110543020.496 8       669.228    21035638.960   110543020.501 8       669.228    21035651.680    86137466.171 8       521.477    21035652.520    86137468.178 8       521.477
R21  19923699.460   106615734.793 7      2402.731    19923699.120   106615734.808 7      2402.731    19923712.460    82923400.293 8      1868.791    19923712.380    82923399.293 8      1868.791
> 2024 07 31 15 45 10.0000000  0 17
G05  23709880.800   124596267.253 7      5233.360    23709879.700   124596267.266 6      5233.360    23709887.740    97088032.089 6      4077.943    23709888.260    97088034.094 7      4077.943
G30  21214445.460   111482668.499 7      3821.126    21214444.140   111482668.504 8      3821.126    21214456.520    86869656.928 8      2977.500    21214457.080    86869659.928 8      2977.500
G11  20840902.540   109519678.679 7      3552.615    20840901.620   109519678.678 6      3552.615    20840907.500    85340028.913 6      2768.272    20840908.100    85340030.911 8      2768.272
R15  22990017.900   122851686.139 7      2383.198    22990017.700   122851686.137 7      2383.198    22990033.580    95551380.594 7      1853.599    22990033.340    95551379.591 8      1853.599
R06  20765635.260   110809424.936 6      2483.705    20765635.140   110809424.945 6      2483.705
G09  23297480.280   122429080.436 7       -50.228    23297478.820   122429080.441 6       -50.228    23297490.100    95399315.433 6       -39.139    23297490.680    95399332.439 7       -39.139
R09  24080590.980   128589015.458 6      6390.738    24080591.100   128589015.457 6      6390.738    24080611.480   100013757.464 6      4970.574    24080611.960   100013761.469 6      4970.574
R07  22486242.440   120370615.542 7      4217.832    22486243.040   120370615.578 7      4217.832    22486258.920    93621659.142 7      3280.536    22486258.300    93621662.115 7      3280.536
R05  23051182.500   123221769.992 6       465.357    23051181.840   123221769.988 6       465.357    23051197.280    95839222.112 7       361.944    23051197.520    95839222.113 7       361.944
G07  22043979.060   115841905.045 7      1708.502    22043977.760   115841905.053 7      1708.502    22043985.980    90266429.341 7      1331.300    22043986.720    90266441.345 7      1331.300
R16  22278281.800   119006584.258 7      5343.022    22278278.860   119006584.254 7      5343.022    22278303.420    92560771.934 7      4155.683    22278303.700    92560771.936 7      4155.683
G19  24642329.520   129496323.354 6      -425.958    24642327.660   129496323.362 4      -425.958    24642343.160   100906248.977 4      -331.915
R22  22620337.580   120748902.287 7      6038.015    22620338.780   120748902.298 7      6038.015    22620347.640    93915853.898 7      4696.234    22620348.180    93915857.896 7      4696.234
G20  21781980.020   114465078.261 7      4774.615    21781978.300   114465078.269 6      4774.615    21781984.560    89193587.222 6      3720.479
G13  22489610.320   118183709.218 7      5137.348    22489609.600   118183709.225 5      5137.348    22489622.580    92091247.183 5      4003.129
G06  21035512.360   110542351.441 7       668.661    21035511.680   110542351.443 8       668.661    21035524.360    86136944.821 8       521.035    21035525.120    86136946.824 8       521.035
R21  19923250.620   106613332.494 7      2401.871    19923250.400   106613332.506 7      2401.871    19923263.560    82921531.832 8      1868.122    19923263.440    82921530.829 8      1868.122
> 2024 07 31 15 45 11.0000000  0 17
G05  23708884.580   124591033.984 7      5233.187    23708883.760   124591033.981 6      5233.187    23708891.940    97083954.209 6      4077.808    23708892.240    97083956.206 7      4077.808
G30  21213718.380   111478847.765 8      3820.357    21213717.080   111478847.767 8      3820.357    21213729.440    86866679.735 8      2976.902    21213730.120    86866682.738 8      2976.902
G11  20840226.560   109516126.503 7      3551.751    20840225.640   109516126.508 6      3551.751    20840231.600    85337260.988 6      2767.598    20840232.040    85337262.989 8      2767.598
R15  22989571.760   122849303.464 7      2382.199    22989571.740   122849303.458 7      2382.199    22989587.680    95549527.405 7      1852.821    22989587.560    95549526.406 7      1852.821
R06  20765170.340   110806941.353 6      2483.449    20765169.740   110806941.375 6      2483.449
G09  23297489.860   122429130.895 7       -50.575    23297488.660   122429130.905 7       -50.575    23297499.680    95399354.754 6       -39.409    23297500.260    95399371.754 7       -39.409
R09  24079394.200   128582624.827 6      6390.541    24079394.620   128582624.841 6      6390.541    24079414.620   100008786.983 6      4970.421    24079414.660   100008790.992 6      4970.421
R07  22485454.580   120366398.015 7      4217.330    22485455.180   120366398.043 7      4217.330    22485471.180    93618378.837 7      3280.145    22485470.740    93618381.810 7      3280.145
R05  23051095.280   123221304.735 6       465.168    23051094.520   123221304.731 6       465.168    23051110.340    95838860.249 7       361.797    23051110.340    95838860.248 7       361.797
G07  22043654.160   115840196.927 7      1707.842    22043652.820   115840196.927 7      1707.842    22043660.840    90265098.334 7      1330.786    22043661.700    90265110.338 7      1330.786
R16  22277281.360   119001241.516 7      5342.487    22277278.880   119001241.509 7      5342.487    22277303.340    92556616.478 7      4155.268    22277303.440    92556616.483 7      4155.268
G19  24642410.860   129496749.509 6      -426.381    24642408.680   129496749.514 4      -426.381    24642424.280   100906581.043 4      -332.245
R22  22619206.580   120742864.817 7      6037.213    22619207.620   120742864.834 7      6037.213    22619216.460    93911158.087 7      4695.610    22619217.180    93911162.086 7      4695.610
G20  21781071.480   114460303.836 7      4774.255    21781069.920   114460303.841 6      4774.255    21781075.980    89189866.890 6      3720.199
G13  22488633.100   118178572.258 7      5136.768    22488631.960   118178572.263 5      5136.768    22488645.120    92087244.355 5      4002.676
G06  21035385.040   110541683.093 7       667.911    21035384.480   110541683.097 8       667.911    21035397.240    86136424.026 8       520.450    21035398.080    86136426.031 8       520.450
R21  19922802.020   106610931.305 7      2400.602    19922801.580   106610931.320 7      2400.602    19922814.840    82919664.243 8      1867.135    19922814.500    82919663.238 8      1867.135
> 2024 07 31 15 45 12.0000000  0 17
G05  23707888.900   124585800.880 7      5233.086    23707887.880   124585800.885 6      5233.086    23707896.120    97079876.472 6      4077.729    23707896.580    97079878.465 7      4077.729
G30  21212991.520   111475027.832 7      3819.546    21212990.180   111475027.832 8      3819.546    21213002.460    86863703.170 8      2976.270    21213003.220    86863706.170 8      2976.270
G11  20839550.760   109512575.164 7      3551.037    20839549.820   109512575.169 6      3551.037    20839555.820    85334493.708 6      2767.042    20839556.260    85334495.709 8      2767.042
R15  22989126.000   122846921.803 7      2381.219    22989126.300   122846921.799 7      2381.219    22989142.080    95547675.012 7      1852.059    22989141.840    95547674.013 7      1852.059
R06  20764704.260   110804458.151 6      2483.229    20764704.340   110804458.165 6      2483.229
G09  23297498.960   122429181.582 7       -50.661    23297498.200   122429181.590 6       -50.661    23297509.360    95399394.244 6       -39.476    23297509.820    95399411.244 7       -39.476
R09  24078197.500   128576234.206 6      6390.715    24078197.500   128576234.209 6      6390.715    24078217.840   100003816.490 6      4970.556    24078217.880   100003820.497 7      4970.556
R07  22484666.920   120362180.857 7      4217.090    22484667.440   120362180.885 7      4217.090    22484683.160    93615098.828 7      3279.959    22484683.440    93615101.813 8      3279.959
R05  23051007.900   123220839.598 6       465.166    23051007.820   123220839.602 6       465.166    23051023.280    95838498.482 7       361.796    23051023.140    95838498.477 7       361.796
G07  22043329.120   115838489.553 7      1707.203    22043327.820   115838489.553 7      1707.203    22043335.920    90263767.915 7      1330.288    22043336.560    90263779.919 7      1330.288
R16  22276281.240   118995899.461 7      5341.878    22276278.960   118995899.464 7      5341.878    22276303.240    92552461.561 7      4154.794    22276303.400    92552461.563 7      4154.794
G19  24642491.660   129497175.619 6      -425.999    24642489.800   129497175.621 4      -425.999    24642505.420   100906913.075 4      -331.947
R22  22618075.660   120736828.111 7      6036.340    22618076.200   120736828.130 7      6036.340    22618085.380    93906462.877 7      4694.931    22618086.240    93906466.874 7      4694.931
G20  21780163.140   114455529.731 7      4774.074    21780161.320   114455529.738 6      4774.074    21780167.640    89186146.808 6      3720.057
G13  22487655.400   118173435.863 7      5136.161    22487654.580   118173435.867 5      5136.161    22487667.620    92083241.979 5      4002.204
G06  21035258.060   110541015.490 8       667.368    21035257.500   110541015.490 8       667.368    21035270.140    86135903.804 8       520.027    21035271.280    86135905.809 8       520.027
R21  19922353.200   106608531.289 7      2399.521    19922353.040   106608531.301 7      2399.521    19922366.420    82917797.557 8      1866.294    19922366.240    82917796.550 8      1866.294
> 2024 07 31 15 45 13.0000000  0 17
G05  23706893.340   124580567.829 7      5233.158    23706892.120   124580567.831 6      5233.158    23706900.280    97075798.776 6      4077.785    23706901.180    97075800.775 7      4077.785
G30  21212264.680   111471208.480 8      3819.169    21212263.300   111471208.477 8      3819.169    21212275.740    86860727.056 8      2975.975    21212276.380    86860730.057 8      2975.975
G11  20838875.260   109509024.489 8      3550.489    20838874.240   109509024.493 6      3550.489    20838880.200    85331726.947 6      2766.615    20838880.660    85331728.951 8      2766.615
R15  22988680.600   122844540.945 7      2380.460    22988680.700   122844540.944 7      2380.460    22988696.400    95545823.242 7      1851.469    22988696.380    95545822.243 7      1851.469
R06  20764239.500   110801975.138 6      2483.047    20764239.240   110801975.165 6      2483.047
G09  23297508.680   122429232.317 7       -50.569    23297507.920   122429232.327 6       -50.569    23297519.060    95399433.780 6       -39.404    23297519.260    95399450.786 7       -39.404
R09  24077000.760   128569843.486 6      6390.923    24077000.640   128569843.487 6      6390.923    24077021.320    99998845.930 6      4970.718    24077021.140    99998849.933 6      4970.718
R07  22483879.320   120357963.961 7      4216.865    22483879.700   120357964.000 7      4216.865    22483895.420    93611819.035 7      3279.784    22483895.760    93611822.026 8      3279.784
R05  23050920.660   123220374.415 7       465.164    23050920.680   123220374.430 6       465.164    23050936.160    95838136.676 7       361.794    23050936.620    95838136.670 7       361.794
G07  22043004.300   115836782.757 7      1706.689    22043002.980   115836782.765 7      1706.689    22043011.120    90262437.956 7      1329.888    22043011.840    90262449.958 7      1329.888
R16  22275281.400   118990557.947 7      5341.256    22275279.020   118990557.954 7      5341.256    22275303.340    92548307.063 7      4154.311    22275303.400    92548307.070 7      4154.311
G19  24642572.680   129497601.652 6      -425.839    24642570.940   129497601.657 4      -425.839    24642586.340   100907245.051 4      -331.823
R22  22616944.800   120730791.952 7      6035.923    22616945.040   120730791.974 7      6035.923    22616954.600    93901768.093 7      4694.607    22616955.200    93901772.092 7      4694.607
G20  21779254.700   114450755.799 7      4773.984    21779252.880   114450755.806 6      4773.984    21779259.220    89182426.863 6      3719.988
G13  22486678.080   118168299.872 7      5135.860    22486677.240   118168299.880 5      5135.860    22486690.120    92079239.921 5      4001.969
G06  21035131.140   110540348.503 7       666.771    21035130.600   110540348.508 8       666.771    21035143.240    86135384.071 8       519.562    21035144.300    86135386.074 8       519.562
R21  19921905.020   106606132.291 7      2398.470    19921904.800   106606132.306 7      2398.470    19921918.000    82915931.670 8      1865.476    19921917.840    82915930.665 8      1865.476
> 2024 07 31 15 45 14.0000000  0 17
G05  23705897.440   124575334.796 7      5232.841    23705896.220   124575334.801 6      5232.841    23705904.420    97071721.090 6      4077.539    23705905.320    97071723.089 7      4077.539
G30  21211538.100   111467389.741 8      3818.303    21211536.600   111467389.740 8      3818.303    21211549.020    86857751.416 8      2975.301    21211549.740    86857754.418 8      2975.301
G11  20838199.700   109505474.473 7      3549.559    20838198.700   109505474.478 6      3549.559    20838204.740    85328960.699 6      2765.890    20838205.300    85328962.701 8      2765.890
R15  22988235.240   122842160.839 7      2379.566    22988235.320   122842160.832 7      2379.566    22988251.040    95543972.050 7      1850.773    22988250.860    95543971.051 7      1850.773
R06  20763774.200   110799492.325 6      2482.473    20763774.120   110799492.342 6      2482.473
G09  23297518.220   122429283.133 7       -51.014    23297517.580   122429283.138 6       -51.014    23297528.720    95399473.369 6       -39.751    23297529.060    95399490.373 7       -39.751
R09  24075803.800   128563452.606 6      6390.833    24075803.700   128563452.602 6      6390.833    24075824.560    99993875.242 6      4970.648    24075824.280    99993879.242 7      4970.648
R07  22483091.780   120353747.301 7      4216.314    22483091.720   120353747.335 7      4216.314    22483107.820    93608539.414 7      3279.355    22483108.420    93608542.418 8      3279.355
R05  23050833.680   123219909.118 7       465.160    23050833.500   123219909.135 6       465.160    23050848.960    95837774.778 7       361.791    23050849.320    95837774.772 7       361.791
G07  22042679.540   115835076.536 7      1705.828    22042678.260   115835076.539 7      1705.828    22042686.280    90261108.427 7      1329.217    22042687.100    90261120.432 7      1329.217
R16  22274281.120   118985216.912 7      5340.647    22274279.420   118985216.916 7      5340.647    22274303.420    92544152.934 7      4153.837    22274303.400    92544152.935 7      4153.837
G19  24642654.000   129498027.599 6      -426.107    24642652.020   129498027.604 4      -426.107    24642667.340   100907576.956 4      -332.032
R22  22615814.040   120724756.375 7      6035.144    22615813.860   120724756.383 7      6035.144    22615823.920    93897073.747 7      4694.001    22615824.840    93897077.746 7      4694.001
G20  21778346.340   114445982.017 7      4773.577    21778344.480   114445982.027 6      4773.577    21778350.780    89178707.033 6      3719.671
G13  22485700.920   118163164.249 7      5135.338    22485699.840   118163164.254 5      5135.338    22485712.720    92075238.153 5      4001.562
G06  21035004.480   110539682.093 8       665.867    21035003.780   110539682.093 8       665.867    21035016.520    86134864.779 8       518.857    21035017.600    86134866.784 8       518.857
R21  19921456.900   106603734.212 8      2397.417    19921456.540   106603734.226 7      2397.417    19921469.960    82914066.491 8      1864.658    19921469.780    82914065.484 8      1864.658
> 2024 07 31 15 45 15.0000000  0 17
G05  23704901.880   124570101.872 7      5232.633    23704900.440   124570101.879 6      5232.633    23704908.720    97067643.491 6      4077.376    23704909.120    97067645.495 7      4077.376
G30  21210811.500   111463571.676 8      3817.583    21210810.100   111463571.681 8      3817.583    21210822.440    86854776.310 8      2974.740    21210823.300    86854779.307 8      2974.740
G11  20837524.400   109501925.193 8      3548.702    20837523.380   109501925.198 6      3548.702    20837529.180    85326195.024 6      2765.223    20837529.760    85326197.029 8      2765.223
R15  22987789.800   122839781.622 7      2378.581    22987789.740   122839781.626 7      2378.581    22987805.960    95542121.562 7      1850.007    22987805.700    95542120.561 8      1850.007
R06  20763308.680   110797009.726 6      2482.278    20763308.740   110797009.735 6      2482.278
G09  23297528.120   122429334.055 7       -51.151    23297527.180   122429334.057 6       -51.151    23297538.320    95399513.044 6       -39.858    23297538.500    95399530.050 7       -39.858
R09  24074607.400   128557061.627 6      6390.832    24074606.880   128557061.636 6      6390.832    24074627.800    99988904.487 6      4970.647    24074627.420    99988908.489 7      4970.647
R07  22482303.640   120349530.952 7      4215.943    22482304.200   120349530.986 7      4215.943    22482320.140    93605260.031 7      3279.067    22482320.960    93605263.048 7      3279.067
R05  23050746.980   123219443.823 7       465.183    23050746.560   123219443.830 6       465.183    23050761.820    95837412.872 7       361.809    23050762.140    95837412.866 7       361.809
G07  22042355.000   115833370.949 7      1705.121    22042353.680   115833370.954 7      1705.121    22042361.760    90259779.402 7      1328.666    22042362.600    90259791.405 7      1328.666
R16  22273281.660   118979876.464 7      5340.023    22273279.760   118979876.473 7      5340.023    22273303.720    92539999.263 7      4153.351    22273303.820    92539999.268 7      4153.351
G19  24642735.060   129498453.499 6      -426.258    24642733.060   129498453.501 4      -426.258    24642748.460   100907908.823 4      -332.149
R22  22614683.080   120718721.441 7      6034.460    22614682.940   120718721.447 7      6034.460    22614693.500    93892379.913 7      4693.469    22614694.300    93892383.910 7      4693.469
G20  21777438.080   114441208.466 7      4773.283    21777436.140   114441208.468 6      4773.283    21777442.360    89174987.381 6      3719.441
G13  22484723.720   118158029.126 7      5134.678    22484722.720   118158029.131 5      5134.678    22484735.620    92071236.760 5      4001.047
G06  21034877.700   110539016.325 7       665.186    21034877.280   110539016.327 8       665.186    21034889.760    86134345.990 8       518.327    21034890.760    86134347.991 8       518.327
R21  19921008.920   106601337.200 8      2396.264    19921008.680   106601337.217 8      2396.264    19921022.000    82912202.146 8      1863.761    19921021.820    82912201.141 8      1863.761
> 2024 07 31 15 45 16.0000000  0 17
G05  23703905.920   124564869.201 7      5232.680    23703904.660   124564869.206 6      5232.680    23703912.980    97063566.088 6      4077.413    23703913.780    97063568.086 7      4077.413
G30  21210085.180   111459754.455 8      3816.909    21210083.620   111459754.458 8      3816.909    21210096.060    86851801.854 8      2974.214    21210097.020    86851804.855 8      2974.214
G11  20836849.080   109498376.799 7      3548.015    20836847.940   109498376.801 6      3548.015    20836853.940    85323430.037 6      2764.687    20836854.420    85323432.042 8      2764.687
R15  22987345.180   122837403.452 7      2377.702    22987344.800   122837403.459 7      2377.702    22987360.860    95540271.883 7      1849.324    22987360.800    95540270.884 7      1849.324
R06  20762842.800   110794527.562 6      2482.026    20762843.940   110794527.565 6      2482.026
G09  23297537.720   122429385.275 7       -51.355    23297537.060   122429385.283 7       -51.355    23297548.080    95399552.956 7       -40.017    23297548.320    95399569.960 7       -40.017
R09  24073410.720   128550670.801 6      6390.911    24073410.140   128550670.804 6      6390.911    24073430.940    99983933.844 6      4970.709    24073430.980    99983937.846 7      4970.709
R07  22481516.440   120345315.071 7      4215.606    22481517.180   120345315.107 7      4215.606    22481532.340    93601981.019 7      3278.805    22481533.420    93601984.050 7      3278.805
R05  23050660.160   123218978.718 7       465.066    23050659.720   123218978.733 7       465.066    23050674.940    95837051.125 7       361.718    23050674.820    95837051.122 7       361.718
G07  22042030.480   115831666.176 7      1704.468    22042029.440   115831666.181 7      1704.468    22042037.360    90258451.006 7      1328.157    22042038.280    90258463.012 7      1328.157
R16  22272282.320   118974536.735 7      5339.427    22272280.000   118974536.742 7      5339.427    22272303.920    92535846.147 7      4152.888    22272304.060    92535846.152 7      4152.888
G19  24642815.860   129498879.448 6      -425.932    24642813.980   129498879.448 4      -425.932    24642829.800   100908240.730 4      -331.895
R22  22613552.640   120712687.305 7      6033.868    22613552.120   120712687.314 7      6033.868    22613563.180    93887686.707 7      4693.008    22613563.800    93887690.698 7      4693.008
G20  21776529.880   114436435.288 7      4773.103    21776527.820   114436435.296 6      4773.103    21776534.060    89171268.026 6      3719.301
G13  22483746.420   118152894.602 7      5134.293    22483745.680   118152894.606 5      5134.293    22483758.580    92067235.842 5      4000.748
G06  21034751.020   110538351.361 7       664.652    21034750.560   110538351.366 8       664.652    21034763.240    86133827.832 8       517.911    21034764.040    86133829.835 8       517.911
R21  19920561.400   106598941.424 8      2395.296    19920561.300   106598941.438 8      2395.296    19920574.220    82910338.755 8      1863.008    19920574.120    82910337.754 8      1863.008
> 2024 07 31 15 45 17.0000000  0 17
G05  23702910.100   124559636.673 7      5232.462    23702908.840   124559636.676 6      5232.462    23702917.320    97059488.797 6      4077.243    23702917.760    97059490.789 7      4077.243
G30  21209358.640   111455937.928 8      3816.115    21209357.320   111455937.930 8      3816.115    21209369.800    86848827.940 8      2973.596    21209370.640    86848830.944 8      2973.596
G11  20836174.040   109494829.158 8      3547.180    20836172.860   109494829.163 6      3547.180    20836178.820    85320665.642 6      2764.036    20836179.320    85320667.651 8      2764.036
R15  22986900.320   122835026.221 7      2376.729    22986899.800   122835026.222 7      2376.729    22986915.960    95538422.927 7      1848.567    22986915.760    95538421.929 7      1848.567
R06  20762377.820   110792045.651 6      2481.739    20762378.640   110792045.668 6      2481.739
G09  23297547.740   122429436.622 7       -51.440    23297546.880   122429436.627 7       -51.440    23297557.820    95399592.967 6       -40.083    23297558.340    95399609.967 7       -40.083
R09  24072213.700   128544279.915 6      6390.877    24072213.320   128544279.924 6      6390.877    24072234.200    99978963.162 6      4970.682    24072234.240    99978967.156 6      4970.682
R07  22480728.940   120341099.466 7      4215.377    22480729.740   120341099.505 7      4215.377    22480744.840    93598702.223 7      3278.626    22480745.960    93598705.265 7      3278.626
R05  23050573.120   123218513.672 7       464.954    23050572.700   123218513.684 7       464.954    23050588.020    95836689.419 7       361.631    23050588.040    95836689.415 7       361.631
G07  22041706.300   115829962.065 7      1703.683    22041705.160   115829962.068 7      1703.683    22041713.020    90257123.129 7      1327.545    22041713.760    90257135.131 7      1327.545
R16  22271282.360   118969197.540 7      5338.876    22271280.500   118969197.539 7      5338.876    22271304.580    92531693.448 7      4152.459    22271304.840    92531693.455 7      4152.459
G19  24642897.460   129499305.408 6      -425.999    24642895.100   129499305.408 4      -425.999    24642910.720   100908572.645 4      -331.947
R22  22612422.200   120706653.852 7      6033.177    22612422.380   120706653.850 7      6033.177    22612432.960    93882994.021 7      4692.471    22612433.220    93882998.018 7      4692.471
G20  21775621.480   114431662.382 7      4772.763    21775619.520   114431662.386 6      4772.763    21775625.840    89167548.878 6      3719.036
G13  22482769.680   118147760.582 7      5133.791    22482768.860   118147760.587 5      5133.791    22482781.580    92063235.320 5      4000.357
G06  21034624.600   110537687.090 8       663.898    21034624.200   110537687.095 8       663.898    21034636.860    86133310.211 8       517.323    21034637.660    86133312.217 8       517.323
R21  19920114.020   106596546.731 7      2394.113    19920113.500   106596546.749 7      2394.113    19920127.000    82908476.214 8      1862.088    19920126.600    82908475.213 8      1862.088
> 2024 07 31 15 45 18.0000000  0 17
G05  23701914.380   124554404.093 7      5232.532    23701913.200   124554404.095 6      5232.532    23701921.640    97055411.468 6      4077.298    23701922.040    97055413.468 7      4077.298
G30  21208632.640   111452121.945 8      3815.613    21208631.160   111452121.947 8      3815.613    21208643.660    86845854.453 8      2973.205    21208644.480    86845857.455 8      2973.205
G11  20835499.000   109491282.120 7      3546.578    20835497.940   109491282.125 6      3546.578    20835503.940    85317901.714 6      2763.567    20835504.260    85317903.719 8      2763.567
R15  22986455.600   122832649.777 7      2375.901    22986455.440   122832649.778 7      2375.901    22986471.320    95536574.587 7      1847.923    22986470.880    95536573.592 7      1847.923
R06  20761911.840   110789563.877 6      2481.577    20761913.580   110789563.904 6      2481.577
G09  23297557.400   122429487.985 7       -51.479    23297556.720   122429487.987 6       -51.479    23297567.620    95399632.981 6       -40.114    23297568.040    95399649.983 7       -40.114
R09  24071016.580   128537888.870 6      6390.825    24071016.740   128537888.882 6      6390.825    24071037.500    99973992.344 6      4970.642    24071037.960    99973996.345 7      4970.642
R07  22479941.460   120336884.056 7      4215.174    22479942.740   120336884.084 7      4215.174    22479957.180    93595423.563 7      3278.469    22479958.040    93595426.604 7      3278.469
R05  23050485.680   123218048.551 6       464.970    23050485.480   123218048.571 7       464.970    23050500.800    95836327.660 7       361.644    23050501.060    95836327.652 7       361.644
G07  22041382.300   115828258.454 7      1703.188    22041380.960   115828258.459 7      1703.188    22041388.880    90255795.644 7      1327.159    22041389.320    90255807.648 7      1327.159
R16  22270283.100   118963858.759 7      5338.418    22270281.340   118963858.763 7      5338.418    22270304.920    92527541.071 7      4152.103    22270305.160    92527541.076 7      4152.103
G19  24642978.620   129499731.185 6      -425.724    24642976.220   129499731.192 4      -425.724    24642991.700   100908904.417 4      -331.733
R22  22611292.000   120700620.917 7      6032.478    22611291.960   120700620.915 7      6032.478    22611302.760    93878301.745 7      4691.927    22611303.100    93878305.738 7      4691.927
G20  21774713.260   114426889.553 7      4772.664    21774711.260   114426889.563 6      4772.664    21774717.580    89163829.795 6      3718.959
G13  22481792.800   118142626.903 7      5133.409    22481791.840   118142626.908 5      5133.409    22481804.660    92059235.059 5      4000.059
G06  21034498.460   110537023.353 8       663.326    21034497.980   110537023.355 8       663.326    21034510.600    86132793.007 8       516.878    21034511.560    86132795.009 8       516.878
R21  19919666.580   106594152.941 7      2393.232    19919666.200   106594152.953 7      2393.232    19919679.540    82906614.371 8      1861.402    19919679.340    82906613.372 8      1861.402
> 2024 07 31 15 45 19.0000000  0 17
G05  23700918.720   124549171.775 7      5232.498    23700917.640   124549171.782 6      5232.498    23700925.980    97051334.343 6      4077.271    23700926.420    97051336.345 7      4077.271
G30  21207906.720   111448306.815 8      3814.930    21207905.140   111448306.820 8      3814.930    21207917.640    86842881.629 8      2972.672    21207918.680    86842884.633 8      2972.672
G11  20834824.280   109487735.983 7      3545.886    20834823.120   109487735.985 6      3545.886    20834829.120    85315138.488 6      2763.028    20834829.300    85315140.495 8      2763.028
R15  22986010.960   122830274.405 7      2375.024    22986010.660   122830274.398 7      2375.024    22986026.720    95534727.079 7      1847.241    22986026.400    95534726.082 8      1847.241
R06  20761447.440   110787082.550 6      2481.324    20761448.780   110787082.570 6      2481.324
G09  23297567.020   122429539.639 7       -51.574    23297566.560   122429539.644 6       -51.574    23297577.460    95399673.232 6       -40.188    23297577.940    95399690.238 7       -40.188
R09  24069819.540   128531497.899 6      6391.056    24069819.960   128531497.911 6      6391.056    24069840.360    99969021.593 6      4970.821    24069840.800    99969025.592 7      4970.821
R07  22479154.420   120332669.087 7      4214.925    22479155.180   120332669.118 7      4214.925    22479169.760    93592145.258 7      3278.275    22479170.240    93592148.283 7      3278.275
R05  23050399.420   123217583.628 6       465.008    23050398.540   123217583.645 6       465.008    23050414.040    95835966.053 7       361.673    23050413.780    95835966.043 7       361.673
G07  22041058.280   115826555.670 7      1702.595    22041056.940   115826555.675 7      1702.595    22041064.840    90254468.801 7      1326.697    22041065.480    90254480.804 7      1326.697
R16  22269283.840   118958520.718 7      5337.834    22269281.900   118958520.722 7      5337.834    22269305.740    92523389.274 7      4151.648    22269305.780    92523389.281 7      4151.648
G19  24643059.560   129500157.110 6      -425.831    24643057.220   129500157.115 4      -425.831    24643072.740   100909236.305 4      -331.816
R22  22610162.080   120694588.812 7      6031.827    22610162.720   120694588.805 7      6031.827    22610173.040    93873610.108 7      4691.421    22610172.920    93873614.099 7      4691.421
G20  21773805.000   114422117.138 7      4772.446    21773803.140   114422117.145 6      4772.446    21773809.440    89160111.032 6      3718.789
G13  22480815.960   118137493.861 7      5132.862    22480815.060   118137493.866 5      5132.862    22480827.860    92055235.296 5      3999.633
G06  21034372.160   110536360.441 8       662.683    21034371.780   110536360.445 8       662.683    21034384.480    86132276.441 8       516.377    21034385.240    86132278.446 8       516.377
R21  19919219.500   106591760.362 7      2392.219    19919219.300   106591760.380 7      2392.219    19919232.440    82904753.474 8      1860.615    19919232.040    82904752.477 8      1860.615
> 2024 07 31 15 45 20.0000000  0 17
G05  23699922.980   124543939.417 7      5232.348    23699921.860   124543939.420 6      5232.348    23699930.360    97047257.179 6      4077.155    23699930.760    97047259.172 7      4077.155
G30  21207180.720   111444492.203 8      3814.343    21207179.200   111444492.205 8      3814.343    21207191.680    86839909.208 8      2972.215    21207192.740    86839912.212 8      2972.215
G11  20834149.580   109484190.431 7      3545.215    20834148.400   109484190.433 6      3545.215    20834154.420    85312375.719 6      2762.506    20834154.640    85312377.721 8      2762.506
R15  22985566.400   122827899.744 7      2374.266    22985566.300   122827899.742 7      2374.266    22985582.460    95532880.127 7      1846.651    22985582.120    95532879.128 8      1846.651
R06  20760982.980   110784601.317 6      2480.959    20760984.000   110784601.331 6      2480.959
G09  23297576.660   122429591.273 7       -51.692    23297576.380   122429591.286 7       -51.692    23297587.300    95399713.467 6       -40.280    23297587.420    95399730.471 7       -40.280
R09  24068622.980   128525106.686 6      6391.380    24068623.320   128525106.700 6      6391.380    24068643.620    99964050.645 6      4971.073    24068644.100    99964054.644 7      4971.073
R07  22478366.900   120328454.293 7      4214.639    22478367.920   120328454.327 7      4214.639    22478382.500    93588867.089 7      3278.052    22478382.500    93588870.114 7      3278.052
R05  23050312.400   123217118.571 6       465.125    23050311.780   123217118.583 6       465.125    23050326.840    95835604.328 7       361.764    23050326.640    95835604.330 7       361.764
G07  22040734.320   115824853.369 8      1702.001    22040733.100   115824853.369 7      1702.001    22040740.780    90253142.333 7      1326.235    22040741.500    90253154.334 7      1326.235
R16  22268284.880   118953183.115 7      5337.400    22268282.600   118953183.121 7      5337.400    22268306.320    92519237.811 7      4151.311    22268306.740    92519237.816 7      4151.311
G19  24643140.680   129500582.792 6      -425.521    24643138.260   129500582.794 4      -425.521    24643153.640   100909568.007 4      -331.575
R22  22609032.320   120688557.177 7      6031.293    22609033.180   120688557.173 7      6031.293    22609043.280    93868918.840 7      4691.005    22609042.780    93868922.835 7      4691.005
G20  21772896.760   114417344.788 7      4772.334    21772895.020   114417344.801 6      4772.334    21772901.240    89156392.322 6      3718.702
G13  22479839.360   118132361.118 7      5132.519    22479838.220   118132361.123 5      5132.519    22479851.260    92051235.768 5      3999.365
G06  21034246.160   110535698.020 7       662.187    21034245.740   110535698.022 8       662.187    21034258.480    86131760.261 8       515.990    21034259.260    86131762.266 8       515.990
R21  19918772.680   106589368.680 7      2391.228    19918772.220   106589368.695 7      2391.228    19918785.460    82902893.272 8      1859.844    19918785.120    82902892.274 8      1859.844
> 2024 07 31 15 45 21.0000000  0 17
G05  23698927.240   124538707.086 7      5232.453    23698926.200   124538707.088 6      5232.453    23698934.760    97043180.044 6      4077.236    23698935.540    97043182.047 7      4077.236
G30  21206454.900   111440678.227 8      3813.761    21206453.420   111440678.227 8      3813.761    21206465.960    86836937.281 8      2971.762    21206466.880    86836940.283 8      2971.762
G11  20833474.940   109480645.545 7      3544.701    20833473.780   109480645.547 6      3544.701    20833479.800    85309613.469 6      2762.105    20833480.080    85309615.472 8      2762.105
R15  22985122.000   122825525.897 7      2373.550    22985121.760   122825525.896 7      2373.550    22985138.060    95531033.812 7      1846.094    22985137.840    95531032.815 8      1846.094
R06  20760518.000   110782120.223 6      2480.978    20760518.560   110782120.250 6      2480.978
G09  23297586.740   122429642.974 7       -51.566    23297586.140   122429642.979 6       -51.566    23297597.180    95399753.748 6       -40.181    23297597.140    95399770.750 7       -40.181
R09  24067425.660   128518715.384 6      6391.407    24067426.340   128518715.395 6      6391.407    24067447.060    99959079.627 6      4971.095    24067447.240    99959083.631 7      4971.095
R07  22477579.500   120324239.769 7      4214.332    22477580.820   120324239.811 7      4214.332    22477595.000    93585589.138 7      3277.814    22477594.800    93585592.151 7      3277.814
R05  23050225.660   123216653.466 6       465.347    23050225.100   123216653.465 6       465.347    23050239.600    95835242.569 7       361.937    23050239.560    95835242.565 7       361.937
G07  22040410.560   115823151.665 7      1701.487    22040409.180   115823151.673 7      1701.487    22040417.000    90251816.339 7      1325.834    22040417.680    90251828.335 7      1325.834
R16  22267285.560   118947846.099 7      5336.711    22267283.600   118947846.103 7      5336.711    22267307.100    92515086.807 7      4150.775    22267307.680    92515086.814 7      4150.775
G19  24643221.680   129501008.442 6      -425.615    24643219.120   129501008.447 4      -425.615    24643234.780   100909899.680 4      -331.648
R22  22607902.720   120682526.156 7      6030.804    22607904.160   120682526.144 7      6030.804    22607913.680    93864228.042 7      4690.625    22607913.140    93864232.039 7      4690.625
G20  21771988.600   114412572.635 7      4772.152    21771986.880   114412572.645 6      4772.152    21771993.080    89152673.759 6      3718.560
G13  22478862.720   118127228.811 7      5132.226    22478861.480   118127228.816 5      5132.226    22478874.760    92047236.579 5      3999.137
G06  21034119.960   110535036.214 7       661.614    21034119.820   110535036.219 8       661.614    21034132.480    86131244.564 8       515.544    21034133.300    86131246.567 8       515.544
R21  19918326.020   106586978.011 8      2390.253    19918325.720   106586978.026 7      2390.253    19918338.780    82901033.858 8      1859.085    19918338.320    82901032.861 8      1859.085
> 2024 07 31 15 45 22.0000000  0 17
G05  23697931.780   124533474.931 7      5231.949    23697930.660   124533474.936 6      5231.949    23697939.120    97039103.046 6      4076.843    23697939.880    97039105.049 7      4076.843
G30  21205729.260   111436864.961 8      3812.732    21205727.760   111436864.968 8      3812.732    21205740.240    86833965.910 8      2970.960    21205741.160    86833968.918 8      2970.960
G11  20832800.600   109477101.446 7      3543.579    20832799.240   109477101.454 6      3543.579    20832805.480    85306851.834 6      2761.230    20832805.860    85306853.839 8      2761.230
R15  22984677.980   122823152.946 7      2372.397    22984678.160   122823152.947 7      2372.397    22984693.960    95529188.191 7      1845.198    22984693.780    95529187.195 7      1845.198
R06  20760052.540   110779639.451 6      2480.560    20760054.200   110779639.476 6      2480.560
G09  23297596.840   122429694.844 7       -51.945    23297596.020   122429694.852 6       -51.945    23297607.020    95399794.166 6       -40.477    23297607.220    95399811.168 7       -40.477
R09  24066228.660   128512324.071 6      6391.189    24066229.760   128512324.072 6      6391.189    24066249.920    99954108.604 6      4970.925    24066250.240    99954112.606 6      4970.925
R07  22476792.060   120320025.542 7      4213.987    22476793.000   120320025.592 7      4213.987    22476807.500    93582311.421 7      3277.545    22476807.840    93582314.437 7      3277.545
R05  23050138.860   123216188.447 6       464.743    23050137.900   123216188.445 6       464.743    23050153.040    95834880.885 7       361.467    23050152.940    95834880.881 7       361.467
G07  22040086.840   115821450.634 7      1700.643    22040085.600   115821450.634 7      1700.643    22040093.220    90250490.856 7      1325.176    22040093.940    90250502.856 7      1325.176
R16  22266286.900   118942509.666 7      5336.086    22266284.620   118942509.670 7      5336.086    22266308.200    92510936.260 7      4150.289    22266308.520    92510936.267 7      4150.289
G19  24643302.560   129501434.008 6      -425.589    24643300.040   129501434.007 4      -425.589    24643315.860   100910231.286 4      -331.627
R22  22606773.000   120676495.799 7      6029.940    22606774.640   120676495.792 7      6029.940    22606784.160    93859537.775 7      4689.954    22606783.660    93859541.768 7      4689.954
G20  21771080.700   114407800.726 7      4771.701    21771078.760   114407800.734 6      4771.701    21771085.020    89148955.386 6      3718.209
G13  22477886.000   118122096.991 7      5131.569    22477885.040   118122096.996 5      5131.569    22477898.080    92043237.768 5      3998.625
G06  21033994.300   110534375.091 7       660.742    21033993.920   110534375.096 8       660.742    21034006.740    86130729.395 8       514.864    21034007.620    86130731.400 8       514.864
R21  19917879.260   106584588.419 7      2388.919    19917879.300   106584588.431 7      2388.919    19917892.160    82899175.284 8      1858.048    19917891.980    82899174.287 8      1858.048
> 2024 07 31 15 45 23.0000000  0 17
G05  23696935.960   124528242.721 7      5232.235    23696934.880   124528242.723 6      5232.235    23696943.520    97035025.997 6      4077.066    23696944.320    97035028.002 7      4077.066
G30  21205003.760   111433052.233 7      3812.482    21205002.160   111433052.235 8      3812.482    21205014.760    86830994.956 8      2970.765    21205015.580    86830997.964 8      2970.765
G11  20832126.420   109473557.947 7      3543.231    20832125.100   109473557.952 6      3543.231    20832131.140    85304090.660 6      2760.959    20832131.520    85304092.662 8      2760.959
R15  22984234.280   122820780.759 7      2371.839    22984233.980   122820780.757 7      2371.839    22984250.120    95527343.163 7      1844.764    22984249.880    95527342.164 8      1844.764
R06  20759588.100   110777158.827 6      2480.600    20759589.420   110777158.849 6      2480.600
G09  23297606.720   122429746.725 7       -51.784    23297605.920   122429746.729 6       -51.784    23297616.940    95399834.588 6       -40.351    23297616.800    95399851.592 7       -40.351
R09  24065031.640   128505932.583 6      6391.576    24065032.780   128505932.581 6      6391.576    24065053.140    99949137.440 6      4971.226    24065053.160    99949141.436 7      4971.226
R07  22476005.040   120315811.526 7      4213.991    22476006.200   120315811.568 7      4213.991    22476020.240    93579033.853 7      3277.548    22476020.260    93579036.855 7      3277.548
R05  23050052.060   123215723.256 6       465.266    23050050.900   123215723.252 6       465.266    23050066.180    95834519.066 7       361.873    23050066.120    95834519.067 7       361.873
G07  22039763.160   115819750.131 8      1700.398    22039762.000   115819750.133 7      1700.398    22039769.620    90249165.776 7      1324.986    22039770.200    90249177.782 7      1324.986
R16  22265287.740   118937173.695 7      5335.843    22265285.640   118937173.696 7      5335.843    22265309.100    92506786.069 7      4150.100    22265309.480    92506786.074 7      4150.100
G19  24643383.780   129501859.442 6      -425.365    24643381.000   129501859.442 4      -425.365    24643396.740   100910562.795 4      -331.453
R22  22605643.420   120670465.971 7      6029.616    22605645.460   120670465.967 7      6029.616    22605654.680    93854847.911 7      4689.701    22605654.500    93854851.908 7      4689.701
G20  21770172.860   114403028.941 7      4771.713    21770170.860   114403028.949 6      4771.713    21770177.020    89145237.116 6      3718.218
G13  22476909.760   118116965.546 7      5131.299    22476908.480   118116965.551 5      5131.299    22476921.580    92039239.249 5      3998.415
G06  21033868.600   110533714.512 7       660.335    21033868.360   110533714.514 8       660.335    21033881.020    86130214.648 8       514.546    21033881.980    86130216.651 8       514.546
R21  19917432.860   106582199.765 8      2388.177    19917432.980   106582199.786 7      2388.177    19917445.740    82897317.440 8      1857.471    19917445.340    82897316.443 8      1857.471
> 2024 07 31 15 45 24.0000000  0 17
G05  23695940.620   124523010.582 7      5232.197    23695939.300   124523010.589 6      5232.197    23695947.980    97030949.014 6      4077.036    23695948.600    97030951.019 7      4077.036
G30  21204278.260   111429240.180 7      3811.827    21204276.760   111429240.182 8      3811.827    21204289.380    86828024.531 8      2970.255    21204290.200    86828027.537 8      2970.255
G11  20831452.040   109470015.175 7      3542.522    20831451.100   109470015.180 6      3542.522    20831456.840    85301330.057 6      2760.407    20831457.540    85301332.059 8      2760.407
R15  22983790.300   122818409.474 7      2370.883    22983790.220   122818409.478 7      2370.883    22983806.080    95525498.839 7      1844.020    22983805.860    95525497.838 7      1844.020
R06  20759123.040   110774678.485 6      2480.392    20759124.220   110774678.499 6      2480.392
G09  23297616.420   122429798.726 7       -51.851    23297615.780   122429798.728 6       -51.851    23297626.840    95399875.103 6       -40.404    23297626.860    95399892.109 7       -40.404
R09  24063834.620   128499540.968 6      6391.789    24063835.340   128499540.975 6      6391.789    24063856.160    99944166.188 6      4971.391    24063856.460    99944170.193 7      4971.391
R07  22475217.860   120311597.776 7      4213.713    22475218.440   120311597.812 7      4213.713    22475233.320    93575756.487 7      3277.332    22475233.100    93575759.485 7      3277.332
R05  23049965.040   123215258.130 6       465.284    23049963.520   123215258.136 6       465.284    23049978.460    95834157.309 7       361.887    23049978.740    95834157.306 7       361.887
G07  22039439.720   115818050.248 7      1699.759    22039438.520   115818050.253 7      1699.759    22039446.200    90247841.210 7      1324.487    22039446.740    90247853.208 7      1324.487
R16  22264288.700   118931838.258 7      5335.261    22264286.520   118931838.264 7      5335.261    22264310.180    92502636.295 7      4149.647    22264310.640    92502636.302 7      4149.647
G19  24643464.280   129502284.809 6      -425.262    24643461.920   129502284.806 4      -425.262    24643477.860   100910894.247 4      -331.373
R22  22604513.940   120664436.778 7      6029.017    22604516.240   120664436.769 7      6029.017    22604525.020    93850158.536 7      4689.235    22604525.080    93850162.535 7      4689.235
G20  21769264.780   114398257.353 7      4771.581    21769262.860   114398257.363 6      4771.581    21769269.080    89141518.998 6      3718.115
G13  22475933.040   118111834.532 7      5130.890    22475932.140   118111834.537 5      5130.890    22475945.140    92035241.067 5      3998.096
G06  21033743.140   110533054.582 7       659.658    21033742.740   110533054.584 8       659.658    21033755.460    86129700.409 8       514.019    21033756.520    86129702.413 8       514.019
R21  19916986.300   106579812.182 7      2387.214    19916986.940   106579812.200 7      2387.214    19916999.600    82895460.426 8      1856.722    19916999.200    82895459.428 8      1856.722
> 2024 07 31 15 45 25.0000000  0 17
G05  23694944.780   124517778.624 7      5231.665    23694943.680   124517778.634 6      5231.665    23694952.220    97026872.172 6      4076.622    23694953.180    97026874.185 7      4076.622
G30  21203553.120   111425428.892 7      3810.774    21203551.420   111425428.897 8      3810.774    21203564.100    86825054.703 8      2969.434    21203564.960    86825057.706 8      2969.434
G11  20830778.100   109466473.218 7      3541.408    20830777.020   109466473.223 6      3541.408    20830782.920    85298570.090 6      2759.539    20830783.500    85298572.095 8      2759.539
R15  22983346.660   122816039.163 7      2369.691    22983346.520   122816039.169 7      2369.691    22983362.740    95523655.274 7      1843.093    22983362.480    95523654.275 7      1843.093
R06  20758658.760   110772198.487 6      2479.614    20758659.880   110772198.501 6      2479.614
G09  23297626.420   122429850.945 7       -52.505    23297625.720   122429850.950 6       -52.505    23297636.680    95399915.793 6       -40.913    23297637.140    95399932.807 7       -40.913
R09  24062637.980   128493149.421 6      6391.334    24062638.860   128493149.433 6      6391.334    24062659.100    99939194.987 6      4971.038    24062659.460    99939198.987 7      4971.038
R07  22474430.640   120307384.424 7      4212.967    22474431.280   120307384.455 7      4212.967    22474446.240    93572479.438 7      3276.752    22474446.220    93572482.438 7      3276.752
R05  23049877.780   123214793.158 6       464.862    23049876.720   123214793.160 6       464.862    23049891.780    95833795.661 7       361.559    23049891.780    95833795.657 7       361.559
G07  22039116.260   115816351.095 7      1698.728    22039115.220   115816351.105 7      1698.728    22039122.720    90246517.201 7      1323.685    22039123.140    90246529.201 7      1323.685
R16  22263290.340   118926503.443 7      5334.311    22263287.700   118926503.455 7      5334.311    22263311.600    92498487.003 7      4148.908    22263312.240    92498487.010 7      4148.908
G19  24643545.260   129502710.188 6      -425.436    24643542.940   129502710.185 4      -425.436    24643558.920   100911225.712 4      -331.509
R22  22603384.780   120658408.325 7      6027.888    22603387.040   120658408.331 7      6027.888    22603395.880    93845469.749 7      4688.357    22603395.680    93845473.749 7      4688.357
G20  21768357.020   114393486.099 7      4770.890    21768354.760   114393486.104 6      4770.890    21768361.080    89137801.136 6      3717.577
G13  22474956.820   118106704.077 7      5130.082    22474955.840   118106704.085 5      5130.082    22474968.600    92031243.322 5      3997.466
G06  21033617.620   110532395.367 7       658.771    21033617.320   110532395.369 8       658.771    21033630.040    86129186.726 8       513.328    21033630.860    86129188.729 8       513.328
R21  19916540.700   106577425.744 8      2385.792    19916540.960   106577425.759 7      2385.792    19916553.520    82893604.304 8      1855.616    19916553.220    82893603.303 8      1855.616
> 2024 07 31 15 45 26.0000000  0 17
G05  23693949.240   124512546.587 7      5231.938    23693948.040   124512546.597 6      5231.938    23693956.760    97022795.264 6      4076.835    23693957.340    97022797.271 7      4076.835
G30  21202827.920   111421618.111 7      3810.419    21202826.260   111421618.116 8      3810.419    21202838.900    86822085.265 8      2969.157    21202839.740    86822088.271 8      2969.157
G11  20830104.080   109462931.826 8      3540.974    20830103.100   109462931.831 6      3540.974    20830109.120    85295810.564 6      2759.201    20830109.520    85295812.568 8      2759.201
R15  22982903.320   122813669.575 7      2369.087    22982903.180   122813669.579 7      2369.087    22982919.300    95521812.266 7      1842.624    22982919.000    95521811.267 7      1842.624
R06  20758193.500   110769718.529 6      2479.752    20758195.320   110769718.538 6      2479.752
G09  23297636.420   122429903.109 7       -52.292    23297635.760   122429903.119 6       -52.292    23297646.540    95399956.444 6       -40.747    23297646.960    95399973.448 7       -40.747
R09  24061441.020   128486757.641 6      6391.703    24061441.680   128486757.637 6      6391.703    24061462.440    99934223.592 6      4971.324    24061462.580    99934227.591 7      4971.324
R07  22473643.400   120303171.236 7      4212.921    22473644.340   120303171.259 7      4212.921    22473659.100    93569202.512 7      3276.716    22473659.140    93569205.512 7      3276.716
R05  23049790.460   123214328.064 7       465.028    23049789.500   123214328.068 6       465.028    23049804.900    95833433.927 7       361.688    23049804.940    95833433.924 7       361.688
G07  22038793.100   115814652.442 7      1698.300    22038792.100   115814652.441 7      1698.300    22038799.520    90245193.569 7      1323.350    22038800.100    90245205.571 7      1323.350
R16  22262292.300   118921169.021 7      5333.966    22262289.220   118921169.014 7      5333.966    22262313.220    92494338.012 7      4148.641    22262313.460    92494338.017 7      4148.641
G19  24643625.520   129503135.375 6      -425.177    24643624.020   129503135.375 4      -425.177    24643639.800   100911557.027 4      -331.307
R22  22602255.600   120652380.349 7      6027.600    22602257.300   120652380.353 7      6027.600    22602266.320    93840781.328 7      4688.133    22602266.360    93840785.323 7      4688.133
G20  21767449.000   114388714.887 7      4771.022    21767446.900   114388714.892 6      4771.022    21767453.180    89134083.310 6      3717.679
G13  22473980.640   118101573.938 7      5129.757    22473979.800   118101573.941 5      5129.757    22473992.460    92027245.818 5      3997.213
G06  21033492.160   110531736.669 8       658.287    21033491.960   110531736.674 8       658.287    21033504.700    86128673.451 8       512.951    21033505.520    86128675.454 8       512.951
R21  19916094.920   106575040.175 8      2384.978    19916095.100   106575040.185 8      2384.978    19916107.800    82891748.851 8      1854.983    19916107.480    82891747.850 8      1854.983
> 2024 07 31 15 45 27.0000000  0 17
G05  23692953.740   124507314.810 7      5231.770    23692952.420   124507314.823 6      5231.770    23692961.040    97018718.559 6      4076.704    23692961.840    97018720.562 7      4076.704
G30  21202102.960   111417808.150 8      3809.687    21202101.220   111417808.147 8      3809.687    21202113.860    86819116.464 8      2968.588    21202114.800    86819119.470 8      2968.588
G11  20829430.520   109459391.293 7      3540.192    20829429.440   109459391.301 6      3540.192    20829435.340    85293051.707 6      2758.591    20829435.660    85293053.710 8      2758.591
R15  22982460.060   122811301.008 7      2368.130    22982459.900   122811301.010 7      2368.130    22982476.220    95519970.053 7      1841.879    22982475.820    95519969.054 7      1841.879
R06  20757728.700   110767238.966 6      2479.387    20757730.160   110767238.986 6      2479.387
G09  23297646.560   122429955.541 7       -52.461    23297645.680   122429955.546 6       -52.461    23297656.580    95399997.295 6       -40.878    23297657.120    95400014.296 7       -40.878
R09  24060244.560   128480365.894 6      6391.865    24060244.580   128480365.884 6      6391.865    24060265.440    99929252.233 6      4971.451    24060265.400    99929256.229 7      4971.451
R07  22472856.620   120298958.470 7      4212.644    22472857.360   120298958.488 7      4212.644    22472872.300    93565925.916 7      3276.501    22472872.220    93565928.918 7      3276.501
R05  23049703.480   123213863.122 7       465.089    23049702.920   123213863.118 7       465.089    23049717.860    95833072.293 7       361.736    23049717.840    95833072.294 7       361.736
G07  22038469.820   115812954.550 7      1697.559    22038468.860   115812954.555 7      1697.559    22038476.380    90243870.541 7      1322.773    22038476.680    90243882.543 7      1322.773
R16  22261293.740   118915835.232 7      5333.570    22261290.460   118915835.238 7      5333.570    22261314.620    92490189.530 7      4148.333    22261315.020    92490189.537 7      4148.333
G19  24643706.760   129503560.639 6      -425.218    24643704.920   129503560.644 4      -425.218    24643720.620   100911888.403 4      -331.338
R22  22601126.420   120646353.147 7      6026.861    22601128.480   120646353.156 7      6026.861    22601137.200    93836093.506 7      4687.559    22601137.280    93836097.508 7      4687.559
G20  21766540.900   114383944.035 7      4770.823    21766539.080   114383944.039 6      4770.823    21766545.280    89130365.765 6      3717.524
G13  22473004.540   118096444.370 7      5129.406    22473003.460   118096444.377 5      5129.406    22473016.380    92023248.763 5      3996.939
G06  21033367.220   110531078.738 8       657.631    21033366.760   110531078.741 8       657.631    21033379.520    86128160.768 8       512.440    21033380.720    86128162.771 8       512.440
R21  19915649.160   106572655.760 8      2383.891    19915649.520   106572655.775 8      2383.891    19915662.140    82889894.306 8      1854.137    19915661.940    82889893.305 8      1854.137
> 2024 07 31 15 45 28.0000000  0 17
G05  23691958.000   124502083.060 7      5231.928    23691956.860   124502083.070 6      5231.928    23691965.540    97014641.875 6      4076.827    23691965.960    97014643.867 7      4076.827
G30  21201377.920   111413998.798 8      3809.228    21201376.300   111413998.798 8      3809.228    21201389.000    86816148.142 8      2968.230    21201389.700    86816151.146 8      2968.230
G11  20828756.860   109455851.438 7      3539.706    20828755.760   109455851.441 6      3539.706    20828761.720    85290293.370 6      2758.213    20828762.240    85290295.371 8      2758.213
R15  22982016.960   122808933.256 7      2367.454    22982016.800   122808933.260 7      2367.454    22982033.040    95518128.477 7      1841.353    22982032.640    95518127.471 7      1841.353
R06  20757264.280   110764759.609 6      2479.327    20757264.720   110764759.602 6      2479.327
G09  23297656.340   122430008.037 7       -52.486    23297655.640   122430008.041 7       -52.486    23297666.640    95400038.198 7       -40.898    23297666.840    95400055.206 7       -40.898
R09  24059047.880   128473974.055 6      6392.025    24059048.240   128473974.048 6      6392.025    24059068.480    99924280.799 6      4971.575    24059068.140    99924284.795 7      4971.575
R07  22472069.280   120294745.945 7      4212.524    22472069.820   120294745.968 7      4212.524    22472085.400    93562649.521 7      3276.407    22472085.680    93562652.527 7      3276.407
R05  23049616.400   123213398.140 7       465.113    23049615.520   123213398.141 7       465.113    23049630.940    95832710.643 7       361.755    23049630.680    95832710.641 7       361.755
G07  22038146.800   115811257.232 7      1697.124    22038145.940   115811257.236 7      1697.124    22038153.440    90242547.959 7      1322.435    22038153.860    90242559.961 7      1322.435
R16  22260295.060   118910501.993 7      5333.139    22260292.200   118910502.002 7      5333.139    22260316.160    92486041.462 7      4147.997    22260316.560    92486041.469 7      4147.997
G19  24643787.420   129503985.821 6      -425.165    24643785.840   129503985.832 4      -425.165    24643801.660   100912219.714 4      -331.297
R22  22599997.640   120640326.541 7      6026.404    22599999.480   120640326.552 7      6026.404    22600008.440    93831406.148 7      4687.203    22600008.060    93831410.147 7      4687.203
G20  21765633.000   114379173.369 7      4770.706    21765631.220   114379173.382 6      4770.706    21765637.480    89126648.365 6      3717.434
G13  22472028.460   118091315.224 7      5129.168    22472027.380   118091315.231 5      5129.168    22472040.360    92019252.036 5      3996.755
G06  21033242.040   110530421.418 8       657.125    21033241.680   110530421.420 8       657.125    21033254.460    86127648.560 8       512.045    21033255.360    86127650.566 8       512.045
R21  19915203.640   106570272.348 8      2382.983    19915204.000   106570272.366 8      2382.983    19915216.640    82888040.537 8      1853.431    19915216.480    82888039.538 8      1853.431
> 2024 07 31 15 45 29.0000000  0 17
G05  23690962.460   124496851.357 7      5231.661    23690961.280   124496851.362 6      5231.661    23690969.940    97010565.221 6      4076.619    23690970.940    97010567.217 7      4076.619
G30  21200653.140   111410190.059 8      3808.424    21200651.560   111410190.064 8      3808.424    21200664.200    86813180.299 8      2967.603    21200664.820    86813183.303 8      2967.603
G11  20828083.360   109452312.254 7      3538.799    20828082.240   109452312.258 6      3538.799    20828088.180    85287535.564 6      2757.505    20828088.600    85287537.566 8      2757.505
R15  22981573.780   122806566.333 7      2366.425    22981573.940   122806566.337 7      2366.425    22981590.140    95516287.542 7      1840.553    22981589.740    95516286.541 8      1840.553
R06  20756799.660   110762280.412 6      2479.048    20756800.700   110762280.402 6      2479.048
G09  23297666.320   122430060.584 7       -52.670    23297665.760   122430060.589 6       -52.670    23297676.580    95400079.138 6       -41.042    23297677.240    95400096.150 7       -41.042
R09  24057850.540   128467582.038 6      6391.951    24057851.360   128467582.041 6      6391.951    24057871.100    99919309.232 6      4971.517    24057870.880    99919313.230 7      4971.517
R07  22471282.440   120290533.651 7      4212.037    22471283.280   120290533.682 7      4212.037    22471298.480    93559373.300 7      3276.029    22471298.480    93559376.312 7      3276.029
R05  23049529.120   123212933.065 7       465.095    23049529.000   123212933.074 7       465.095    23049544.180    95832348.921 7       361.740    23049544.080    95832348.914 7       361.740
G07  22037824.160   115809560.502 7      1696.359    22037823.100   115809560.499 7      1696.359    22037830.520    90241225.825 7      1321.839    22037831.080    90241237.830 7      1321.839
R16  22259296.760   118905169.280 7      5332.363    22259294.060   118905169.300 7      5332.363    22259317.780    92481893.813 7      4147.394    22259318.220    92481893.818 7      4147.394
G19  24643868.800   129504410.875 6      -425.089    24643866.700   129504410.883 4      -425.089    24643882.540   100912550.925 4      -331.238
R22  22598868.360   120634300.516 7      6025.647    22598870.240   120634300.527 7      6025.647    22598879.260    93826719.240 7      4686.615    22598879.480    93826723.241 7      4686.615
G20  21764725.280   114374402.877 8      4770.316    21764723.540   114374402.884 6      4770.316    21764729.800    89122931.098 6      3717.130
G13  22471052.520   118086186.501 7      5128.429    22471051.420   118086186.511 5      5128.429    22471064.380    92015255.639 5      3996.178
G06  21033117.160   110529764.672 7       656.439    21033116.740   110529764.669 8       656.439    21033129.480    86127136.800 8       511.511    21033130.460    86127138.806 8       511.511
R21  19914758.540   106567889.945 8      2381.765    19914758.880   106567889.960 8      2381.765    19914771.480    82886187.554 8      1852.484    19914771.300    82886186.554 8      1852.484
> 2024 07 31 15 45 30.0000000  0 17
G05  23689967.080   124491619.866 7      5231.718    23689965.740   124491619.869 6      5231.718    23689974.420    97006488.739 6      4076.663    23689975.540    97006490.737 7      4076.663
G30  21199928.600   111406382.129 8      3807.843    21199926.940   111406382.131 8      3807.843    21199939.520    86810213.085 8      2967.150    21199940.420    86810216.091 8      2967.150
G11  20827409.960   109448773.930 7      3538.211    20827408.860   109448773.933 6      3538.211    20827414.880    85284778.427 6      2757.048    20827415.400    85284780.427 8      2757.048
R15  22981131.500   122804200.419 7      2365.766    22981131.180   122804200.420 7      2365.766    22981147.440    95514447.391 8      1840.040    22981147.100    95514446.388 7      1840.040
R06  20756335.060   110759801.599 6      2478.885    20756335.760   110759801.605 6      2478.885
G09  23297676.040   122430113.400 7       -52.739    23297675.780   122430113.410 6       -52.739    23297686.600    95400120.297 6       -41.096    23297687.120    95400137.303 7       -41.096
R09  24056653.480   128461190.122 6      6392.183    24056653.700   128461190.117 6      6392.183    24056674.500    99914337.744 6      4971.698    24056674.080    99914341.742 7      4971.698
R07  22470495.700   120286321.761 7      4211.877    22470496.200   120286321.802 7      4211.877    22470511.660    93556097.398 7      3275.904    22470511.740    93556100.408 7      3275.904
R05  23049441.940   123212468.176 7       465.045    23049441.700   123212468.175 7       465.045    23049456.980    95831987.333 7       361.702    23049456.940    95831987.332 7       361.702
G07  22037501.400   115807864.541 8      1695.783    22037500.400   115807864.541 7      1695.783    22037507.700    90239904.304 7      1321.389    22037508.340    90239916.306 7      1321.389
R16  22258298.380   118899837.302 7      5331.909    22258295.600   118899837.311 7      5331.909    22258319.660    92477746.721 7      4147.040    22258320.020    92477746.728 7      4147.040
G19  24643949.920   129504835.997 6      -424.702    24643947.540   129504835.999 4      -424.702    24643963.380   100912882.182 4      -330.936
R22  22597739.660   120628275.273 7      6025.100    22597740.860   120628275.282 7      6025.100    22597750.680    93822032.952 7      4686.189    22597750.840    93822036.949 7      4686.189
G20  21763817.620   114369632.726 7      4770.238    21763815.740   114369632.731 6      4770.238    21763822.020    89119214.098 6      3717.069
G13  22470076.420   118081058.359 7      5128.103    22470075.720   118081058.366 5      5128.103    22470088.300    92011259.699 5      3995.924
G06  21032992.180   110529108.731 8       655.853    21032991.820   110529108.730 8       655.853    21033004.700    86126625.670 8       511.054    21033005.720    86126627.675 8       511.054
R21  19914313.860   106565508.727 8      2380.931    19914314.000   106565508.736 8      2380.931    19914326.300    82884335.484 8      1851.835    19914326.360    82884334.485 8      1851.835
> 2024 07 31 15 45 31.0000000  0 17
G05  23688971.380   124486388.479 7      5231.348    23688970.160   124486388.486 6      5231.348    23688978.860    97002412.339 6      4076.375    23688979.620    97002414.333 7      4076.375
G30  21199204.280   111402574.887 8      3806.876    21199202.480   111402574.892 8      3806.876    21199215.000    86807246.410 8      2966.397    21199216.000    86807249.413 8      2966.397
G11  20826736.640   109445236.346 8      3537.133    20826735.700   109445236.353 6      3537.133    20826741.820    85282021.867 6      2756.207    20826742.600    85282023.874 8      2756.207
R15  22980688.820   122801835.414 7      2364.550    22980688.620   122801835.415 7      2364.550    22980704.700    95512607.951 7      1839.094    22980704.380    95512606.950 7      1839.094
R06  20755870.780   110757323.052 6      2478.445    20755871.160   110757323.043 6      2478.445
G09  23297686.300   122430166.355 7       -53.083    23297685.880   122430166.357 6       -53.083    23297696.720    95400161.553 6       -41.363    23297697.480    95400178.553 7       -41.363
R09  24055456.180   128454798.145 6      6392.091    24055457.080   128454798.148 6      6392.091    24055477.500    99909366.204 6      4971.627    24055477.400    99909370.202 7      4971.627
R07  22469708.800   120282110.189 7      4211.334    22469709.820   120282110.215 7      4211.334    22469725.000    93552821.723 7      3275.482    22469724.940    93552824.737 7      3275.482
R05  23049354.800   123212003.266 7       464.941    23049354.860   123212003.262 7       464.941    23049370.120    95831625.732 7       361.621    23049369.860    95831625.733 7       361.621
G07  22037178.820   115806169.212 8      1694.969    22037177.760   115806169.217 7      1694.969    22037185.280    90238583.272 7      1320.755    22037185.920    90238595.276 7      1320.755
R16  22257300.420   118894505.912 7      5331.053    22257297.720   118894505.915 7      5331.053    22257321.680    92473600.094 7      4146.374    22257322.060    92473600.095 7      4146.374
G19  24644031.020   129505261.087 6      -425.024    24644028.420   129505261.087 4      -425.024    24644044.220   100913213.419 4      -331.188
R22  22596611.260   120622250.682 7      6024.173    22596611.820   120622250.701 7      6024.173    22596622.020    93817347.161 7      4685.468    22596622.000    93817351.168 7      4685.468
G20  21762910.140   114364862.804 7      4769.822    21762908.080   114364862.809 6      4769.822    21762914.300    89115497.277 6      3716.745
G13  22469100.960   118075930.679 7      5127.408    22469099.960   118075930.689 5      5127.408    22469112.620    92007264.112 5      3995.383
G06  21032867.460   110528453.444 8       654.837    21032867.140   110528453.443 8       654.837    21032879.960    86126115.049 8       510.262    21032880.860    86126117.055 8       510.262
R21  19913869.260   106563128.534 8      2379.699    19913869.280   106563128.546 8      2379.699    19913881.560    82882484.216 8      1850.877    19913881.580    82882483.221 8      1850.877
> 2024 07 31 15 45 32.0000000  0 17
G05  23687975.980   124481157.191 7      5231.534    23687974.580   124481157.201 6      5231.534    23687983.380    96998336.017 6      4076.520    23687984.620    96998338.017 7      4076.520
G30  21198479.800   111398768.329 8      3806.486    21198478.080   111398768.328 8      3806.486    21198490.700    86804280.262 8      2966.093    21198491.080    86804283.268 8      2966.093
G11  20826063.620   109441699.518 8      3536.655    20826062.680   109441699.522 6      3536.655    20826068.740    85279265.895 6      2755.835    20826069.440    85279267.898 8      2755.835
R15  22980246.680   122799471.311 7      2363.823    22980245.980   122799471.318 7      2363.823    22980262.260    95510769.215 7      1838.529    22980262.060    95510768.218 8      1838.529
R06  20755406.280   110754844.802 6      2478.390    20755406.220   110754844.787 6      2478.390
G09  23297696.760   122430219.447 7       -53.006    23297695.900   122430219.451 7       -53.006    23297706.780    95400202.923 6       -41.303    23297707.500    95400219.925 7       -41.303
R09  24054259.800   128448406.165 6      6392.276    24054260.160   128448406.174 6      6392.276    24054280.480    99904394.664 6      4971.770    24054280.020    99904398.658 7      4971.770
R07  22468922.220   120277898.911 7      4211.279    22468922.780   120277898.953 7      4211.279    22468938.080    93549546.303 7      3275.440    22468938.100    93549549.307 7      3275.440
R05  23049268.200   123211538.421 7       465.007    23049268.000   123211538.422 7       465.007    23049283.060    95831264.190 7       361.672    23049283.100    95831264.191 7       361.672
G07  22036856.120   115804474.555 7      1694.505    22036855.280   115804474.562 7      1694.505    22036862.700    90237262.764 7      1320.393    22036863.380    90237274.770 7      1320.393
R16  22256302.260   118889175.106 7      5330.718    22256299.660   118889175.110 7      5330.718    22256323.660    92469453.924 7      4146.114    22256323.820    92469453.923 7      4146.114
G19  24644111.580   129505686.172 6      -424.931    24644109.440   129505686.175 4      -424.931    24644125.100   100913544.654 4      -331.115
R22  22595482.400   120616226.755 7      6023.821    22595483.420   120616226.769 7      6023.821    22595493.440    93812661.891 7      4685.194    22595493.580    93812665.888 7      4685.194
G20  21762002.500   114360093.142 7      4769.774    21762000.440   114360093.149 6      4769.774    21762006.840    89111780.660 6      3716.707
G13  22468125.140   118070803.506 7      5127.122    22468124.360   118070803.514 5      5127.122    22468136.940    92003268.921 5      3995.160
G06  21032743.120   110527798.819 8       654.460    21032742.540   110527798.813 8       654.460    21032755.420    86125604.939 8       509.969    21032756.360    86125606.946 8       509.969
R21  19913424.560   106560749.421 8      2378.794    19913424.580   106560749.436 8      2378.794    19913437.040    82880633.797 8      1850.173    19913437.000    82880632.799 8      1850.173
> 2024 07 31 15 45 33.0000000  0 17
G05  23686980.640   124475925.934 6      5231.299    23686979.080   124475925.939 6      5231.299    23686987.840    96994259.717 6      4076.337    23686988.880    96994261.716 7      4076.337
G30  21197755.480   111394962.372 8      3805.605    21197753.860   111394962.377 8      3805.605    21197766.340    86801314.590 8      2965.407    21197767.080    86801317.591 8      2965.407
G11  20825390.840   109438163.331 8      3535.820    20825389.720   109438163.333 6      3535.820    20825395.800    85276510.423 6      2755.184    20825396.440    85276512.428 8      2755.184
R15  22979804.380   122797108.013 7      2362.821    22979803.980   122797108.009 7      2362.821    22979820.040    95508931.094 7      1837.750    22979819.800    95508930.098 7      1837.750
R06  20754942.100   110752366.742 6      2477.745    20754941.940   110752366.718 6      2477.745
G09  23297706.640   122430272.591 7       -53.261    23297706.100   122430272.593 6       -53.261    23297716.980    95400244.334 6       -41.502    23297717.420    95400261.334 7       -41.502
R09  24053063.000   128442014.038 6      6392.079    24053063.040   128442014.039 6      6392.079    24053083.400    99899423.012 6      4971.617    24053083.320    99899427.010 7      4971.617
R07  22468135.300   120273687.862 7      4210.961    22468136.100   120273687.887 7      4210.961    22468151.520    93546271.036 7      3275.192    22468151.580    93546274.030 7      3275.192
R05  23049180.780   123211073.492 7       464.821    23049181.000   123211073.501 7       464.821    23049196.140    95830902.591 7       361.527    23049196.140    95830902.590 7       361.527
G07  22036533.860   115802780.442 8      1693.817    22036532.960   115802780.449 7      1693.817    22036540.300    90235942.682 7      1319.858    22036541.040    90235954.689 7      1319.858
R16  22255304.220   118883844.757 7      5330.083    22255301.860   118883844.769 7      5330.083    22255325.700    92465308.114 7      4145.620    22255326.140    92465308.119 7      4145.620
G19  24644192.640   129506111.087 6      -424.860    24644190.340   129506111.089 4      -424.860    24644205.900   100913875.754 4      -331.060
R22  22594354.300   120610203.383 7      6023.083    22594354.600   120610203.403 7      6023.083    22594365.020    93807977.056 7      4684.620    22594365.300    93807981.053 7      4684.620
G20  21761094.860   114355323.627 7      4769.417    21761092.860   114355323.634 6      4769.417    21761099.180    89108064.150 6      3716.429
G13  22467149.600   118065676.699 7      5126.605    22467148.740   118065676.709 5      5126.605    22467161.340    91999274.017 5      3994.757
G06  21032618.760   110527144.785 7       653.578    21032618.100   110527144.784 8       653.578    21032630.940    86125095.296 8       509.282    21032632.040    86125097.303 8       509.282
R21  19912979.880   106558371.302 8      2377.571    19912980.180   106558371.322 8      2377.571    19912992.720    82878784.149 8      1849.222    19912992.580    82878783.148 8      1849.222
> 2024 07 31 15 45 34.0000000  0 17
G05  23685985.120   124470694.801 6      5230.982    23685983.440   124470694.817 6      5230.982    23685992.380    96990183.520 6      4076.090    23685993.400    96990185.512 7      4076.090
G30  21197031.440   111391157.117 8      3804.853    21197029.740   111391157.119 8      3804.853    21197042.340    86798349.454 8      2964.820    21197042.940    86798352.458 8      2964.820
G11  20824718.180   109434627.898 7      3535.072    20824717.120   109434627.900 6      3535.072    20824722.920    85273755.536 6      2754.602    20824723.580    85273757.537 8      2754.602
R15  22979362.500   122794745.613 7      2361.857    22979361.560   122794745.606 7      2361.857    22979377.940    95507093.676 8      1837.000    22979377.400    95507092.675 8      1837.000
R06  20754478.000   110749888.916 6      2477.488    20754477.540   110749888.901 6      2477.488
G09  23297716.860   122430325.864 7       -53.398    23297716.220   122430325.866 6       -53.398    23297727.040    95400285.841 6       -41.609    23297727.460    95400302.843 7       -41.609
R09  24051865.400   128435621.826 6      6392.101    24051865.740   128435621.835 6      6392.101    24051886.120    99894451.297 6      4971.634    24051886.420    99894455.296 7      4971.634
R07  22467348.860   120269477.141 7      4210.504    22467349.680   120269477.159 7      4210.504    22467364.920    93542996.029 7      3274.836    22467365.340    93542999.025 7      3274.836
R05  23049093.840   123210608.622 7       464.746    23049093.860   123210608.634 7       464.746    23049108.980    95830541.020 7       361.469    23049109.220    95830541.018 7       361.469
G07  22036211.660   115801087.022 7      1693.065    22036210.640   115801087.024 7      1693.065    22036218.040    90234623.131 7      1319.271    22036218.560    90234635.135 7      1319.271
R16  22254306.400   118878514.996 7      5329.485    22254303.840   118878515.007 7      5329.485    22254327.860    92461162.759 7      4145.155    22254328.100    92461162.763 7      4145.155
G19  24644273.480   129506535.980 6      -424.905    24644271.340   129506535.982 4      -424.905    24644286.860   100914206.840 4      -331.095
R22  22593225.860   120604180.702 7      6022.326    22593226.160   120604180.717 7      6022.326    22593236.540    93803292.749 7      4684.032    22593237.160    93803296.746 7      4684.032
G20  21760187.280   114350554.351 7      4769.168    21760185.280   114350554.359 6      4769.168    21760191.540    89104347.834 6      3716.235
G13  22466173.900   118060550.409 7      5125.968    22466173.180   118060550.420 5      5125.968    22466185.840    91995279.517 5      3994.260
G06  21032494.280   110526491.400 8       652.978    21032493.780   110526491.399 8       652.978    21032506.680    86124586.161 8       508.814    21032507.500    86124588.166 8       508.814
R21  19912535.980   106555994.292 8      2376.412    19912536.140   106555994.310 8      2376.412    19912548.380    82876935.355 8      1848.321    19912548.200    82876934.355 8      1848.321
> 2024 07 31 15 45 35.0000000  0 17
G05  23684989.640   124465463.839 7      5231.016    23684987.980   124465463.849 6      5231.016    23684996.840    96986107.446 6      4076.116    23684997.740    96986109.426 7      4076.116
G30  21196307.340   111387352.616 8      3804.180    21196305.800   111387352.623 8      3804.180    21196318.340    86795384.918 8      2964.296    21196318.880    86795387.921 8      2964.296
G11  20824045.440   109431093.295 7      3534.315    20824044.560   109431093.300 6      3534.315    20824050.400    85271001.296 6      2754.011    20824050.940    85271003.299 8      2754.011
R15  22978920.200   122792384.161 7      2361.034    22978919.600   122792384.163 7      2361.034    22978936.000    95505257.006 7      1836.360    22978935.700    95505256.007 8      1836.360
R06  20754013.820   110747411.439 6      2477.398    20754013.220   110747411.435 6      2477.398
G09  23297727.300   122430379.365 7       -53.500    23297726.420   122430379.365 6       -53.500    23297737.200    95400327.524 6       -41.688    23297737.600    95400344.532 7       -41.688
R09  24050668.560   128429229.648 6      6392.303    24050668.880   128429229.662 6      6392.303    24050689.380    99889479.608 6      4971.791    24050689.160    99889483.604 7      4971.791
R07  22466562.460   120265266.790 7      4210.346    22466562.740   120265266.810 7      4210.346    22466578.240    93539721.320 7      3274.713    22466578.500    93539724.317 7      3274.713
R05  23049006.700   123210143.924 7       464.631    23049007.360   123210143.912 7       464.631    23049022.320    95830179.569 7       361.379    23049022.260    95830179.569 7       361.379
G07  22035889.520   115799394.339 7      1692.338    22035888.540   115799394.338 7      1692.338    22035895.960    90233304.156 7      1318.705    22035896.240    90233316.160 7      1318.705
R16  22253308.700   118873185.902 7      5328.856    22253306.340   118873185.914 7      5328.856    22253330.340    92457017.920 7      4144.666    22253330.540    92457017.925 7      4144.666
G19  24644354.400   129506960.926 6      -424.971    24644352.000   129506960.933 4      -424.971    24644367.540   100914537.967 4      -331.146
R22  22592097.920   120598158.748 7      6021.749    22592097.740   120598158.762 7      6021.749    22592108.360    93798609.017 7      4683.582    22592108.500    93798613.010 7      4683.582
G20  21759279.560   114345785.406 7      4768.922    21759277.900   114345785.409 6      4768.922    21759284.060    89100631.775 6      3716.043
G13  22465198.620   118055424.656 7      5125.632    22465197.860   118055424.663 5      5125.632    22465210.540    91991285.434 5      3993.999
G06  21032370.100   110525838.774 8       652.286    21032369.620   110525838.777 8       652.286    21032382.520    86124077.616 8       508.275    21032383.340    86124079.616 8       508.275
R21  19912091.640   106553618.418 8      2375.446    19912091.840   106553618.438 8      2375.446    19912104.380    82875087.451 8      1847.569    19912104.480    82875086.450 8      1847.569
> 2024 07 31 15 45 36.0000000  0 17
G05  23683994.280   124460232.940 7      5230.799    23683992.540   124460232.948 6      5230.799    23684001.500    96982031.422 6      4075.947    23684002.440    96982033.402 7      4075.947
G30  21195583.680   111383548.737 7      3803.546    21195581.900   111383548.745 8      3803.546    21195594.560    86792420.861 8      2963.802    21195595.100    86792423.866 8      2963.802
G11  20823372.960   109427559.381 7      3533.462    20823372.140   109427559.386 6      3533.462    20823377.800    85268247.599 6      2753.347    20823378.360    85268249.598 8      2753.347
R15  22978478.520   122790023.554 7      2360.163    22978478.080   122790023.544 7      2360.163    22978494.060    95503420.978 7      1835.682    22978493.880    95503419.979 7      1835.682
R06  20753549.240   110744934.187 6      2477.152    20753549.260   110744934.183 6      2477.152
G09  23297737.440   122430432.930 7       -53.616    23297736.580   122430432.935 6       -53.616    23297747.500    95400369.267 6       -41.779    23297747.720    95400386.273 7       -41.779
R09  24049471.780   128422837.396 6      6392.332    24049471.580   128422837.410 6      6392.332    24049492.520    99884507.850 6      4971.814    24049492.340    99884511.848 7      4971.814
R07  22465775.600   120261056.727 7      4209.918    22465776.120   120261056.745 7      4209.918    22465791.480    93536446.831 7      3274.381    22465792.200    93536449.839 7      3274.381
R05  23048920.080   123209679.150 7       464.732    23048921.020   123209679.146 7       464.732    23048935.260    95829818.084 7       361.458    23048935.860    95829818.081 7       361.458
G07  22035567.720   115797702.220 7      1691.707    22035566.640   115797702.227 7      1691.707    22035573.960    90231985.626 7      1318.214    22035574.840    90231997.635 7      1318.214
R16  22252311.240   118867857.292 7      5328.362    22252309.160   118867857.296 7      5328.362    22252333.040    92452873.446 7      4144.282    22252333.340    92452873.451 7      4144.282
G19  24644435.300   129507385.772 6      -424.993    24644432.900   129507385.782 4      -424.993    24644448.480   100914869.016 4      -331.163
R22  22590969.780   120592137.410 7      6020.945    22590969.860   120592137.414 7      6020.945    22590980.260    93793925.752 7      4682.957    22590980.820    93793929.749 7      4682.957
G20  21758372.120   114341016.625 7      4768.707    21758370.380   114341016.627 6      4768.707    21758376.480    89096915.843 6      3715.876
G13  22464223.500   118050299.336 7      5125.066    22464222.680   118050299.343 5      5125.066    22464235.220    91987291.686 5      3993.558
G06  21032245.940   110525186.740 8       651.716    21032245.520   110525186.745 8       651.716    21032258.500    86123569.531 8       507.831    21032259.280    86123571.535 8       507.831
R21  19911647.740   106551243.506 8      2374.343    19911648.200   106551243.529 8      2374.343    19911660.640    82873240.295 8      1846.711    19911660.200    82873239.294 8      1846.711
> 2024 07 31 15 45 37.0000000  0 17
G05  23682998.680   124455002.138 6      5230.851    23682997.100   124455002.146 6      5230.851    23683006.160    96977955.477 6      4075.988    23683007.220    96977957.473 7      4075.988
G30  21194860.020   111379745.573 8      3802.953    21194858.180   111379745.576 8      3802.953    21194870.820    86789457.358 8      2963.340    21194871.660    86789460.362 8      2963.340
G11  20822700.660   109424026.197 7      3532.939    20822699.800   109424026.200 6      3532.939    20822705.600    85265494.465 6      2752.939    20822706.000    85265496.465 8      2752.939
R15  22978036.960   122787663.855 7      2359.347    22978036.180   122787663.848 7      2359.347    22978052.540    95501585.665 7      1835.047    22978052.200    95501584.666 7      1835.047
R06  20753085.240   110742457.204 6      2476.977    20753084.880   110742457.208 6      2476.977
G09  23297747.760   122430486.670 7       -53.773    23297746.840   122430486.673 6       -53.773    23297757.700    95400411.141 6       -41.901    23297758.120    95400428.145 7       -41.901
R09  24048274.000   128416445.079 6      6392.490    24048274.440   128416445.102 6      6392.490    24048294.920    99879536.056 6      4971.937    24048295.340    99879540.055 7      4971.937
R07  22464989.240   120256847.002 7      4209.703    22464989.280   120256847.020 7      4209.703    22465005.120    93533172.604 7      3274.213    22465005.860    93533175.615 7      3274.213
R05  23048833.380   123209214.452 7       464.767    23048833.520   123209214.461 7       464.767    23048848.160    95829456.663 7       361.485    23048848.500    95829456.655 7       361.485
G07  22035245.820   115796010.784 7      1691.202    22035244.720   115796010.786 7      1691.202    22035252.060    90230667.622 7      1317.820    22035252.720    90230679.631 7      1317.820
R16  22251313.960   118862529.256 7      5327.912    22251311.300   118862529.257 7      5327.912    22251335.380    92448729.428 7      4143.932    22251335.760    92448729.431 7      4143.932
G19  24644515.960   129507810.597 6      -424.786    24644513.640   129507810.607 4      -424.786    24644529.180   100915200.050 4      -331.002
R22  22589842.160   120586116.734 7      6020.348    22589841.820   120586116.740 7      6020.348    22589852.640    93789243.013 7      4682.493    22589852.760    93789247.008 7      4682.493
G20  21757464.720   114336248.103 7      4768.478    21757462.820   114336248.110 6      4768.478    21757468.960    89093200.116 6      3715.697
G13  22463248.180   118045174.494 7      5124.645    22463247.340   118045174.504 5      5124.645    22463259.940    91983298.315 5      3993.230
G06  21032122.080   110524535.407 8       651.120    21032121.580   110524535.407 8       651.120    21032134.580    86123061.986 8       507.366    21032135.320    86123063.989 8       507.366
R21  19911204.040   106548869.643 8      2373.399    19911204.680   106548869.661 8      2373.399    19911216.900    82871393.949 8      1845.977    19911216.980    82871392.953 8      1845.977
> 2024 07 31 15 45 38.0000000  0 17
G05  23682003.140   124449771.510 7      5230.591    23682001.760   124449771.512 6      5230.591    23682010.820    96973879.667 6      4075.785    23682011.860    96973881.663 7      4075.785
G30  21194136.380   111375943.116 7      3802.173    21194134.600   111375943.116 8      3802.173    21194147.140    86786494.407 8      2962.732    21194147.900    86786497.411 8      2962.732
G11  20822028.280   109420493.807 7      3532.017    20822027.480   109420493.810 6      3532.017    20822033.340    85262741.953 6      2752.221    20822034.020    85262743.951 8      2752.221
R15  22977595.440   122785305.096 7      2358.362    22977594.780   122785305.098 7      2358.362    22977611.020    95499751.092 7      1834.282    22977610.860    95499750.091 8      1834.282
R06  20752621.080   110739980.520 6      2476.486    20752620.240   110739980.521 6      2476.486
G09  23297758.220   122430540.553 7       -53.983    23297757.020   122430540.558 6       -53.983    23297767.980    95400453.127 6       -42.065    23297768.520    95400470.131 7       -42.065
R09  24047076.940   128410052.782 6      6392.249    24047077.500   128410052.801 6      6392.249    24047097.900    99874564.269 6      4971.749    24047098.180    99874568.266 7      4971.749
R07  22464202.880   120252637.585 7      4209.255    22464202.660   120252637.619 7      4209.255    22464218.680    93529898.636 7      3273.865    22464219.300    93529901.651 7      3273.865
R05  23048746.780   123208749.825 7       464.492    23048746.680   123208749.837 7       464.492    23048761.060    95829095.286 7       361.272    23048761.880    95829095.287 7       361.272
G07  22034924.020   115794320.013 7      1690.456    22034922.920   115794320.015 7      1690.456    22034930.300    90229350.145 7      1317.239    22034931.200    90229362.149 7      1317.239
R16  22250316.480   118857201.850 7      5327.044    22250314.340   118857201.859 7      5327.044    22250337.940    92444585.913 7      4143.256    22250338.400    92444585.912 7      4143.256
G19  24644597.100   129508235.390 6      -424.675    24644594.540   129508235.392 4      -424.675    24644610.120   100915531.054 4      -330.915
R22  22588714.400   120580096.733 7      6019.643    22588714.260   120580096.737 7      6019.643    22588724.520    93784560.792 7      4681.945    22588724.940    93784564.789 7      4681.945
G20  21756557.480   114331479.841 7      4768.157    21756555.480   114331479.854 6      4768.157    21756561.720    89089484.590 6      3715.447
G13  22462272.740   118040050.167 7      5124.060    22462272.100   118040050.174 5      5124.060    22462284.780    91979305.341 5      3992.774
G06  21031998.260   110523884.760 8       650.275    21031997.780   110523884.763 8       650.275    21032010.820    86122554.985 8       506.708    21032011.580    86122556.987 8       506.708
R21  19910760.540   106546496.885 8      2372.238    19910761.240   106546496.906 8      2372.238    19910773.540    82869548.471 8      1845.074    19910773.540    82869547.472 8      1845.074
> 2024 07 31 15 45 39.0000000  0 17
G05  23681007.660   124444540.900 7      5230.734    23681006.220   124444540.899 6      5230.734    23681015.300    96969803.869 6      4075.897    23681016.480    96969805.861 7      4075.897
G30  21193412.760   111372141.266 8      3801.740    21193411.140   111372141.266 8      3801.740    21193423.680    86783531.929 8      2962.395    21193424.520    86783534.934 8      2962.395
G11  20821356.260   109416962.061 7      3531.570    20821355.420   109416962.063 6      3531.570    20821361.380    85259989.941 6      2751.873    20821361.980    85259991.939 8      2751.873
R15  22977154.300   122782947.172 7      2357.716    22977153.500   122782947.173 7      2357.716    22977169.940    95497917.154 7      1833.779    22977169.760    95497916.157 7      1833.779
R06  20752157.180   110737503.997 6      2476.528    20752155.620   110737503.989 6      2476.528
G09  23297768.520   122430594.493 7       -53.848    23297767.300   122430594.503 6       -53.848    23297778.200    95400495.159 6       -41.959    23297778.940    95400512.161 7       -41.959
R09  24045879.860   128403660.345 6      6392.631    24045880.600   128403660.349 6      6392.631    24045900.740    99869592.362 6      4972.046    24045901.560    99869596.360 7      4972.046
R07  22463416.140   120248428.417 7      4209.190    22463416.380   120248428.437 7      4209.190    22463432.540    93526624.828 7      3273.814    22463433.020    93526627.832 7      3273.814
R05  23048659.680   123208285.118 7       464.808    23048660.020   123208285.117 7       464.808    23048674.240    95828733.837 7       361.517    23048674.700    95828733.832 7       361.517
G07  22034602.420   115792629.815 8      1690.041    22034601.440   115792629.820 7      1690.041    22034608.700    90228033.111 7      1316.915    22034609.420    90228045.116 7      1316.915
R16  22249319.720   118851874.955 7      5326.779    22249317.120   118851874.956 7      5326.779    22249340.920    92440442.775 7      4143.051    22249341.260    92440442.777 7      4143.051
G19  24644678.160   129508660.068 6      -424.534    24644675.220   129508660.067 4      -424.534    24644690.980   100915861.972 4      -330.806
R22  22587586.200   120574077.322 7      6019.230    22587586.900   120574077.323 7      6019.230    22587596.420    93779879.028 7      4681.623    22587597.020    93779883.025 7      4681.623
G20  21755650.000   114326711.735 7      4768.211    21755648.120   114326711.745 6      4768.211    21755654.240    89085769.182 6      3715.489
G13  22461297.560   118034926.215 7      5123.927    22461297.080   118034926.223 5      5123.927    22461309.860    91975312.664 5      3992.670
G06  21031874.680   110523234.678 8       649.943    21031874.060   110523234.681 8       649.943    21031887.160    86122048.419 8       506.449    21031888.020    86122050.422 8       506.449
R21  19910317.280   106544125.142 8      2371.407    19910317.980   106544125.165 8      2371.407    19910330.420    82867703.777 8      1844.428    19910330.280    82867702.776 8      1844.428
> 2024 07 31 15 45 40.0000000  0 17
G05  23680012.740   124439310.505 7      5230.129    23680010.940   124439310.515 6      5230.129    23680019.880    96965728.245 6      4075.425    23680021.400    96965730.243 7      4075.425
G30  21192689.620   111368340.234 7      3800.506    21192687.860   111368340.236 8      3800.506    21192700.420    86780570.093 8      2961.433    21192701.220    86780573.097 8      2961.433
G11  20820684.620   109413431.192 7      3530.298    20820683.540   109413431.197 6      3530.298    20820689.380    85257238.614 6      2750.881    20820690.180    85257240.615 8      2750.881
R15  22976713.080   122780590.270 7      2356.260    22976712.560   122780590.274 7      2356.260    22976728.660    95496084.017 7      1832.647    22976728.580    95496083.018 8      1832.647
R06  20751692.840   110735027.825 6      2475.841    20751692.280   110735027.836 6      2475.841
G09  23297778.300   122430648.712 7       -54.501    23297777.620   122430648.714 7       -54.501    23297788.620    95400537.399 6       -42.469    23297789.280    95400554.399 7       -42.469
R09  24044683.000   128397267.951 6      6392.191    24044683.520   128397267.966 6      6392.191    24044703.600    99864620.508 6      4971.704    24044704.260    99864624.502 7      4971.704
R07  22462630.320   120244219.677 7      4208.370    22462629.820   120244219.689 7      4208.370    22462646.060    93523351.368 7      3273.177    22462646.820    93523354.370 7      3273.177
R05  23048572.560   123207820.537 7       464.395    23048572.600   123207820.538 7       464.395    23048587.600    95828372.497 7       361.196    23048587.620    95828372.491 7       361.196
G07  22034281.060   115790940.400 7      1688.881    22034279.880   115790940.400 7      1688.881    22034287.120    90226716.680 7      1316.011    22034288.060    90226728.682 7      1316.011
R16  22248322.440   118846548.810 7      5325.668    22248319.960   118846548.803 7      5325.668    22248343.800    92436300.224 7      4142.186    22248344.040    92436300.222 7      4142.186
G19  24644758.960   129509084.814 6      -424.919    24644755.920   129509084.819 4      -424.919    24644771.760   100916192.943 4      -331.106
R22  22586458.940   120568058.680 7      6018.126    22586459.300   120568058.684 7      6018.126    22586468.840    93775197.866 7      4680.764    22586469.380    93775201.861 7      4680.764
G20  21754742.700   114321943.988 7      4767.535    21754740.960   114321943.996 6      4767.535    21754747.160    89082054.055 6      3714.962
G13  22460322.720   118029802.882 7      5122.952    22460322.160   118029802.884 5      5122.952    22460334.860    91971320.468 5      3991.911
G06  21031750.960   110522585.392 7       648.812    21031750.520   110522585.395 8       648.812    21031763.520    86121542.474 8       505.568    21031764.260    86121544.476 8       505.568
R21  19909874.600   106541754.599 8      2369.871    19909875.200   106541754.614 8      2369.871    19909887.280    82865860.012 8      1843.233    19909887.440    82865859.011 8      1843.233
