     3.05           OBSERVATION DATA    MIXED               RINEX VERSION / TYPE
TPS2RIN 1.0.29.3920 TPS-USER            20240801 093645 UTC PGM / RUN BY / DATE
Win64 build Feb 23, 2024 (c) Topcon Positioning Systems     COMMENT
SRC: 20240731_CAMI7.tps                                     COMMENT
OPT: -S -v 3.05                                             COMMENT
Observer            Agency                                  OBSERVER / AGENCY
O0M3X53SBGM         TPS HIPER_SR        4.8 HSR Jul,08,2022 REC # / TYPE / VERS
FW: 4.8 HSR Jul,08,2022 p3                                  COMMENT
SN: HiPer SR 1212-12575                                     COMMENT
000                 TPSHIPER_SR     NONE                    ANT # / TYPE
        1.8000        0.0000        0.0000                  ANTENNA: DELTA H/E/N
CAMI7                                                       MARKER NAME
  5389645.6939 -1598350.9603  3007680.2630                  APPROX POSITION XYZ
  2024     7    31    14    46   40.0000000     GPS         TIME OF FIRST OBS
  2024     7    31    15     1   51.0000000     GPS         TIME OF LAST OBS
     1.000                                                  INTERVAL
   912 EPOCHS                                               COMMENT
G   16 C1C L1C D1C S1C C1W L1W D1W S1W C2W L2W D2W S2W C2X  SYS / # / OBS TYPES
       L2X D2X S2X                                          SYS / # / OBS TYPES
R   16 C1C L1C D1C S1C C1P L1P D1P S1P C2P L2P D2P S2P C2C  SYS / # / OBS TYPES
       L2C D2C S2C                                          SYS / # / OBS TYPES
    17                                                      # OF SATELLITES
   G04   912   912   912   912   912   912   912   912   912PRN / # OF OBS
         912   912   912   912   912   912   912            PRN / # OF OBS
   G05   793   793   793   793   793   793   793   793   793PRN / # OF OBS
         793   793   793   793   793   793   793            PRN / # OF OBS
   G06   912   912   912   912   912   912   912   912   912PRN / # OF OBS
         912   912   912   912   912   912   912            PRN / # OF OBS
   G07   912   912   912   912   912   912   912   912   912PRN / # OF OBS
         912   912   912   912   912   912   912            PRN / # OF OBS
   G09   912   912   912   912   912   912   912   912   912PRN / # OF OBS
         912   912   912   912   912   912   912            PRN / # OF OBS
   G11   912   912   912   912   912   912   912   912   912PRN / # OF OBS
         912   912   912   912   912   912   912            PRN / # OF OBS
   G13   912   912   912   912   912   912   912   912   912PRN / # OF OBS
         912   912   912     0     0     0     0            PRN / # OF OBS
   G17   912   912   912   912   912   912   912   912   912PRN / # OF OBS
         912   912   912   912   912   912   912            PRN / # OF OBS
   G19   912   912   912   912   912   912   912   912   912PRN / # OF OBS
         912   912   912     0     0     0     0            PRN / # OF OBS
   G20   912   912   912   912   912   912   912   912   912PRN / # OF OBS
         912   912   912     0     0     0     0            PRN / # OF OBS
   G30   912   912   912   912   912   912   912   912   912PRN / # OF OBS
         912   912   912   912   912   912   912            PRN / # OF OBS
   R05   912   912   912   912   912   912   912   912   912PRN / # OF OBS
         912   912   912   912   912   912   912            PRN / # OF OBS
   R06   912   912   912   912   912   912   912   912     0PRN / # OF OBS
           0     0     0     0     0     0     0            PRN / # OF OBS
   R07   912   912   912   912   912   912   912   912   912PRN / # OF OBS
         912   912   912   912   912   912   912            PRN / # OF OBS
   R15   912   912   912   912   912   912   912   912   912PRN / # OF OBS
         912   912   912   912   912   912   912            PRN / # OF OBS
   R16   273   273   273   273   269   269   269   269   269PRN / # OF OBS
         269   269   269   268   268   268   268            PRN / # OF OBS
   R21   912   912   912   912   912   912   912   912   912PRN / # OF OBS
         912   912   912   912   912   912   912            PRN / # OF OBS
G L1C                                                       SYS / PHASE SHIFT
G L1W -0.25000                                              SYS / PHASE SHIFT
G L2W  0.00000                                              SYS / PHASE SHIFT
G L2X  0.25000                                              SYS / PHASE SHIFT
R L1C                                                       SYS / PHASE SHIFT
R L1P -0.25000                                              SYS / PHASE SHIFT
R L2P -0.25000                                              SYS / PHASE SHIFT
R L2C                                                       SYS / PHASE SHIFT
  6 R05  1 R06 -4 R07  5 R15  0 R16 -1 R21  4               GLONASS SLOT / FRQ #
                                                            GLONASS COD/PHS/BIS
    18    18  1929     7GPS                                 LEAP SECONDS
                                                            END OF HEADER
> 2024 07 31 14 46 40.0000000  0 15
R06  20838180.420   111196523.709 6      3173.259          39.125    20838179.720   111196523.699 6      3173.259          38.000
G06  20368818.920   107038878.067 8      2582.692          49.000    20368818.020   107038878.069 8      2582.692          50.812    20368825.820    83406933.829 8      2012.487          51.062    20368826.720    83406939.826 8      2012.487          52.500
G04  24505774.360   128778710.735 6      -651.084          39.687    24505773.460   128778710.745 4      -651.084          25.250    24505784.120   100347079.237 4      -507.338          25.312    24505784.900   100347092.204 7      -507.338          43.062
G11  22042214.960   115832613.919 7      5099.647          45.937    22042214.260   115832613.927 6      5099.647          37.250    22042219.700    90259205.790 6      3973.751          37.437    22042220.120    90259208.788 8      3973.751          49.562
R21  20741702.460   110993039.504 7      5265.074          45.500    20741701.920   110993039.516 7      5265.074          46.500    20741714.120    86327968.801 8      4095.057          49.500    20741714.000    86327970.803 8      4095.057          49.125
R15  23573159.020   125967825.966 6      4522.504          41.562    23573158.840   125967825.983 6      4522.504          40.625    23573182.940    97975070.055 7      3517.503          44.937    23573182.300    97975067.050 7      3517.503          45.062
G07  22028066.540   115758277.577 7      3452.538          47.812    22028065.480   115758277.580 7      3452.538          45.875    22028075.060    90201275.170 7      2690.290          46.250    22028075.480    90201289.171 7      2690.290          47.312
R07  23721849.940   126984925.591 7      4939.422          42.937    23721850.040   126984925.619 7      4939.422          42.375    23721874.240    98766158.124 7      3841.773          45.000    23721873.900    98766159.130 7      3841.773          45.375
R05  21481737.760   114832194.823 7       151.335          46.625    21481737.640   114832194.830 7       151.335          45.250    21481749.980    89313977.658 7       117.705          47.812    21481750.120    89313978.656 8       117.705          48.312
G09  21562548.600   113311952.268 7       222.991          46.812    21562547.660   113311952.275 7       222.991          47.375    21562555.560    88295056.737 7       173.759          47.500    21562555.780    88295061.741 8       173.759          48.125
G13  24492447.380   128708680.238 7      5994.296          44.625    24492445.960   128708680.245 5      5994.296          31.250    24492464.040   100292480.663 5      4670.880          31.312
G20  23243771.900   122146834.749 7      4760.306          42.937    23243770.240   122146834.753 5      4760.306          30.875    23243774.020    95179363.797 5      3709.329          30.750
G30  22538875.800   118442586.259 7      5200.235          45.062    22538874.900   118442586.267 7      5200.235          43.437    22538890.300    92292990.125 7      4052.131          43.562    22538891.400    92292999.132 7      4052.131          44.562
G17  23771111.780   124918032.793 7      -488.703          43.812    23771110.580   124918032.788 6      -488.703          41.750    23771125.240    97338781.948 6      -380.808          41.312    23771126.120    97338781.950 7      -380.808          45.437
G19  22518627.340   118336178.738 7      -472.376          45.812    22518625.240   118336178.740 6      -472.376          37.000    22518638.380    92210047.576 6      -368.085          37.625
> 2024 07 31 14 46 41.0000000  0 15
R06  20837585.540   111193350.337 6      3173.192          39.125    20837584.900   111193350.348 6      3173.192          38.000
G06  20368327.260   107036295.211 8      2582.584          48.875    20368326.560   107036295.211 8      2582.584          50.625    20368334.300    83404921.209 8      2012.403          51.125    20368335.180    83404927.210 8      2012.403          52.125
G04  24505898.020   128779361.240 6      -650.517          40.250    24505897.220   128779361.253 4      -650.517          25.250    24505907.920   100347586.126 4      -506.896          25.312    24505908.480   100347599.129 7      -506.896          42.750
G11  22041244.540   115827513.970 7      5099.844          46.250    22041243.820   115827513.978 6      5099.844          37.062    22041249.280    90255231.806 6      3973.904          37.187    22041249.740    90255234.799 8      3973.904          49.937
R21  20740718.600   110987774.341 7      5264.882          46.125    20740718.060   110987774.351 7      5264.882          46.500    20740730.360    86323873.676 8      4094.908          49.312    20740730.140    86323875.674 8      4094.908          49.250
R15  23572312.340   125963303.181 6      4522.523          41.562    23572311.920   125963303.187 6      4522.523          40.312    23572336.740    97971552.346 7      3517.518          45.125    23572335.800    97971549.346 7      3517.518          45.437
G07  22027409.460   115754824.874 7      3452.470          47.250    22027408.320   115754824.874 7      3452.470          45.875    22027417.900    90198584.755 7      2690.237          45.812    22027418.340    90198598.759 7      2690.237          47.625
R07  23720927.820   126979985.832 7      4939.628          42.937    23720927.420   126979985.857 7      4939.628          42.375    23720951.220    98762316.104 7      3841.933          44.937    23720951.160    98762317.114 7      3841.933          45.437
R05  21481709.500   114832043.148 7       151.663          46.250    21481709.320   114832043.144 7       151.663          45.937    21481721.660    89313859.676 8       117.960          48.312    21481721.720    89313860.672 8       117.960          48.625
G09  21562505.920   113311729.005 7       223.285          46.750    21562505.220   113311729.007 7       223.285          47.187    21562513.100    88294882.760 7       173.988          47.500    21562513.320    88294887.760 8       173.988          48.000
G13  24491306.300   128702685.703 7      5994.497          44.187    24491305.200   128702685.711 5      5994.497          31.250    24491323.200   100287809.595 5      4671.037          31.312
G20  23242865.900   122142074.075 7      4760.814          43.937    23242864.240   122142074.080 5      4760.814          30.500    23242868.060    95175654.188 5      3709.725          30.687
G30  22537886.480   118437385.900 7      5200.298          45.000    22537885.240   118437385.902 7      5200.298          43.625    22537900.680    92288937.897 7      4052.180          43.500    22537901.440    92288946.902 7      4052.180          44.562
G17  23771204.480   124918521.083 7      -488.179          43.250    23771203.440   124918521.088 6      -488.179          41.312    23771218.160    97339162.438 6      -380.399          41.562    23771218.500    97339162.442 7      -380.399          45.062
G19  22518717.320   118336650.937 7      -472.146          45.437    22518715.040   118336650.937 6      -472.146          37.187    22518728.360    92210415.518 6      -367.906          37.125
> 2024 07 31 14 46 42.0000000  0 15
R06  20836990.720   111190177.197 6      3173.089          39.125    20836990.100   111190177.201 6      3173.089          38.000
G06  20367835.820   107033712.795 8      2582.379          49.437    20367835.140   107033712.797 8      2582.379          50.687    20367842.880    83402908.934 8      2012.243          51.562    20367843.660    83402914.933 8      2012.243          51.687
G04  24506021.840   128780011.687 6      -650.029          38.125    24506021.120   128780011.703 4      -650.029          25.250    24506031.680   100348092.966 4      -506.516          25.312    24506031.860   100348105.951 6      -506.516          41.875
G11  22040274.100   115822414.218 7      5099.866          46.000    22040273.320   115822414.226 6      5099.866          37.437    22040278.860    90251257.975 6      3973.921          37.062    22040279.180    90251260.969 8      3973.921          50.125
R21  20739734.640   110982509.751 7      5264.476          46.687    20739734.220   110982509.763 7      5264.476          46.312    20739746.400    86319778.993 8      4094.592          49.625    20739746.300    86319780.995 8      4094.592          49.625
R15  23571465.960   125958780.730 6      4522.400          40.937    23571464.840   125958780.737 6      4522.400          40.312    23571490.080    97968034.905 7      3517.422          45.000    23571489.720    97968031.907 7      3517.422          45.250
G07  22026752.680   115751372.529 7      3452.327          47.500    22026751.440   115751372.531 7      3452.327          45.687    22026760.940    90195894.619 7      2690.125          46.125    22026761.520    90195908.622 7      2690.125          47.937
R07  23720004.460   126975046.180 7      4939.772          43.375    23720004.560   126975046.216 7      4939.772          42.500    23720028.420    98758474.175 7      3842.045          45.062    23720028.160    98758475.181 7      3842.045          45.375
R05  21481681.020   114831891.349 7       152.004          45.937    21481680.640   114831891.353 7       152.004          46.062    21481693.180    89313741.612 8       118.225          48.187    21481693.260    89313742.607 8       118.225          48.750
G09  21562463.500   113311505.850 7       223.326          46.562    21562462.800   113311505.860 7       223.326          47.312    21562470.620    88294708.874 7       174.020          47.312    21562470.800    88294713.877 8       174.020          48.562
G13  24490165.720   128696691.232 7      5994.558          44.187    24490164.440   128696691.237 5      5994.558          31.125    24490182.640   100283138.578 5      4671.085          31.312
G20  23241960.040   122137313.273 7      4761.024          43.562    23241958.300   122137313.281 5      4761.024          30.500    23241962.000    95171944.474 5      3709.889          30.687
G30  22536896.640   118432185.666 7      5200.372          45.187    22536895.640   118432185.666 7      5200.372          43.812    22536911.240    92284885.769 7      4052.238          43.375    22536912.040    92284894.772 7      4052.238          44.750
G17  23771297.460   124919009.276 7      -488.024          43.812    23771296.240   124919009.278 6      -488.024          41.750    23771311.020    97339542.846 6      -380.279          41.750    23771311.540    97339542.846 7      -380.279          45.250
G19  22518807.220   118337123.244 7      -472.141          45.125    22518804.980   118337123.244 6      -472.141          37.250    22518818.100    92210783.541 6      -367.902          37.562
> 2024 07 31 14 46 43.0000000  0 15
R06  20836396.760   111187004.167 6      3173.059          39.250    20836395.260   111187004.162 6      3173.059          37.812
G06  20367344.440   107031130.749 8      2581.913          49.312    20367343.760   107031130.754 8      2581.913          50.687    20367351.520    83400896.950 8      2011.881          51.062    20367352.540    83400902.951 8      2011.881          51.750
G04  24506145.460   128780661.861 6      -650.037          38.937    24506144.800   128780661.874 4      -650.037          25.500    24506155.460   100348599.587 4      -506.522          25.312    24506156.620   100348612.574 7      -506.522          43.375
G11  22039303.520   115817314.593 7      5099.665          45.625    22039303.060   115817314.595 6      5099.665          37.062    22039308.420    90247284.241 6      3973.765          36.875    22039308.780    90247287.233 8      3973.765          49.562
R21  20738751.260   110977245.602 7      5263.956          46.812    20738750.640   110977245.609 7      5263.956          46.437    20738762.880    86315684.655 8      4094.188          49.312    20738762.600    86315686.655 8      4094.188          49.375
R15  23570619.820   125954258.517 6      4522.233          40.937    23570618.760   125954258.518 6      4522.233          40.312    23570643.560    97964517.643 7      3517.293          44.812    23570643.520    97964514.644 7      3517.293          45.312
G07  22026095.700   115747920.480 7      3451.963          47.375    22026094.480   115747920.485 7      3451.963          46.062    22026104.000    90193204.715 7      2689.841          46.437    22026104.420    90193218.716 7      2689.841          47.437
R07  23719081.980   126970106.619 7      4939.555          43.375    23719081.600   126970106.647 7      4939.555          42.500    23719105.520    98754632.305 7      3841.876          44.375    23719105.440    98754633.313 7      3841.876          44.750
R05  21481652.700   114831739.378 7       152.111          47.000    21481652.660   114831739.384 7       152.111          46.312    21481664.820    89313623.408 7       118.309          47.937    21481664.740    89313624.408 8       118.309          48.312
G09  21562421.260   113311282.766 7       223.040          46.062    21562420.360   113311282.768 7       223.040          47.375    21562428.120    88294535.035 7       173.798          47.562    21562428.300    88294540.037 7       173.798          47.812
G13  24489024.560   128690696.739 7      5994.496          44.875    24489023.820   128690696.744 5      5994.496          31.125    24489041.940   100278467.541 5      4671.036          31.125
G20  23241053.940   122132552.248 7      4761.072          43.687    23241052.400   122132552.255 5      4761.072          30.500    23241056.040    95168234.588 5      3709.926          30.687
G30  22535907.220   118426985.499 7      5200.219          45.687    22535906.060   118426985.501 7      5200.219          43.562    22535921.640    92280833.701 7      4052.119          43.375    22535922.500    92280842.699 7      4052.119          44.312
G17  23771390.220   124919497.225 7      -487.793          44.562    23771389.140   124919497.229 6      -487.793          41.375    23771403.760    97339923.063 6      -380.098          41.250    23771404.260    97339923.063 7      -380.098          44.937
G19  22518896.960   118337595.580 7      -472.353          45.375    22518895.040   118337595.582 6      -472.353          37.312    22518908.000    92211151.590 6      -368.068          37.187
> 2024 07 31 14 46 44.0000000  0 15
R06  20835801.540   111183831.542 6      3172.322          39.250    20835800.980   111183831.540 6      3172.322          37.812
G06  20366853.260   107028549.315 8      2581.090          49.000    20366852.500   107028549.318 8      2581.090          51.000    20366860.340    83398885.437 8      2011.239          51.312    20366861.340    83398891.434 8      2011.239          52.125
G04  24506268.960   128781312.075 6      -650.136          41.125    24506268.640   128781312.088 4      -650.136          25.500    24506279.320   100349106.245 4      -506.600          25.312    24506279.520   100349119.230 7      -506.600          43.375
G11  22038333.180   115812215.311 7      5099.065          46.375    22038332.760   115812215.314 6      5099.065          37.312    22038337.960    90243310.773 6      3973.297          37.312    22038338.460    90243313.773 8      3973.297          49.812
R21  20737767.360   110971982.157 7      5263.069          46.312    20737767.080   110971982.167 7      5263.069          46.500    20737779.200    86311590.867 8      4093.498          49.687    20737778.860    86311592.869 8      4093.498          49.312
R15  23569773.540   125949736.852 6      4521.364          40.937    23569773.380   125949736.840 6      4521.364          40.125    23569796.660    97961000.781 7      3516.617          44.687    23569797.220    97960997.783 7      3516.617          44.750
G07  22025438.800   115744468.947 7      3451.238          47.125    22025437.720   115744468.947 7      3451.238          45.812    22025447.200    90190515.211 7      2689.276          46.000    22025447.660    90190529.215 7      2689.276          47.500
R07  23718159.360   126965167.355 7      4939.031          43.375    23718159.100   126965167.386 7      4939.031          42.375    23718182.980    98750790.678 7      3841.468          44.812    23718182.700    98750791.675 7      3841.468          44.875
R05  21481623.920   114831587.488 7       151.782          46.312    21481624.120   114831587.492 7       151.782          46.375    21481636.580    89313505.264 8       118.053          48.687    21481636.360    89313506.260 8       118.053          48.375
G09  21562379.000   113311059.926 7       222.689          46.812    21562377.900   113311059.931 8       222.689          48.250    21562385.800    88294361.391 7       173.524          47.562    21562386.060    88294366.395 8       173.524          48.062
G13  24487884.080   128684702.452 7      5994.216          44.437    24487883.260   128684702.457 5      5994.216          31.125    24487901.260   100273796.667 5      4670.817          31.125
G20  23240147.960   122127791.212 7      4760.967          43.937    23240146.420   122127791.225 5      4760.967          30.750    23240149.980    95164524.692 5      3709.845          30.625
G30  22534917.740   118421785.639 7      5199.691          44.750    22534916.660   118421785.641 7      5199.691          43.687    22534932.100    92276781.865 7      4051.707          43.062    22534932.780    92276790.864 7      4051.707          44.812
G17  23771483.020   124919985.199 7      -487.938          44.312    23771481.900   124919985.199 6      -487.938          41.812    23771496.780    97340303.297 6      -380.212          41.500    23771497.180    97340303.301 7      -380.212          45.000
G19  22518986.900   118338068.149 7      -472.692          45.000    22518984.820   118338068.157 6      -472.692          37.000    22518997.780    92211519.820 6      -368.331          37.250
> 2024 07 31 14 46 45.0000000  0 15
R06  20835207.160   111180659.230 6      3172.185          39.250    20835206.280   111180659.231 6      3172.185          37.812
G06  20366362.220   107025968.433 8      2580.640          49.250    20366361.420   107025968.438 8      2580.640          51.125    20366369.200    83396874.358 8      2010.888          51.312    20366370.220    83396880.353 8      2010.888          52.187
G04  24506392.800   128781962.278 6      -650.153          40.500    24506392.440   128781962.293 4      -650.153          25.500    24506403.080   100349612.896 4      -506.612          25.312    24506404.000   100349625.859 7      -506.612          42.687
G11  22037363.080   115807116.337 7      5098.885          46.687    22037362.260   115807116.339 6      5098.885          36.937    22037367.720    90239337.548 6      3973.157          36.812    22037368.300    90239340.542 8      3973.157          50.187
R21  20736783.940   110966719.397 7      5262.524          47.625    20736783.440   110966719.399 7      5262.524          46.187    20736795.760    86307497.605 8      4093.074          49.562    20736795.640    86307499.605 8      4093.074          48.937
R15  23568927.260   125945215.558 6      4521.096          40.937    23568928.040   125945215.562 6      4521.096          40.125    23568950.320    97957484.236 7      3516.408          44.687    23568950.860    97957481.234 7      3516.408          44.562
G07  22024782.260   115741017.897 7      3450.959          47.625    22024780.980   115741017.899 7      3450.959          45.875    22024790.500    90187826.085 7      2689.059          46.000    22024791.020    90187840.087 7      2689.059          47.500
R07  23717236.680   126960228.361 7      4938.981          43.562    23717236.520   126960228.390 7      4938.981          42.375    23717260.420    98746949.249 7      3841.429          44.562    23717259.960    98746950.248 7      3841.429          44.437
R05  21481595.560   114831435.615 7       151.971          46.687    21481595.800   114831435.614 7       151.971          46.562    21481608.160    89313387.132 8       118.200          48.375    21481607.940    89313388.136 8       118.200          48.687
G09  21562336.480   113310837.333 7       222.554          47.125    21562335.500   113310837.333 7       222.554          47.187    21562343.400    88294187.936 7       173.419          47.250    21562343.680    88294192.938 8       173.419          48.000
G13  24486743.660   128678708.374 7      5994.079          43.750    24486742.660   128678708.377 5      5994.079          31.125    24486760.500   100269125.954 5      4670.711          31.125
G20  23239241.920   122123030.184 7      4761.076          44.125    23239240.540   122123030.192 5      4761.076          30.750    23239244.060    95160814.798 5      3709.929          30.625
G30  22533928.220   118416586.031 7      5199.576          44.625    22533927.120   118416586.035 7      5199.576          43.750    22533942.680    92272730.225 7      4051.617          44.125    22533943.320    92272739.230 7      4051.617          44.625
G17  23771576.200   124920473.169 7      -487.842          43.937    23771574.780   124920473.171 6      -487.842          41.812    23771589.660    97340683.531 6      -380.137          41.625    23771590.020    97340683.533 7      -380.137          45.250
G19  22519076.820   118338540.974 7      -472.856          45.000    22519074.700   118338540.979 6      -472.856          37.250    22519087.860    92211888.245 6      -368.459          37.125
> 2024 07 31 14 46 46.0000000  0 15
R06  20834612.840   111177487.125 6      3171.932          39.250    20834612.260   111177487.115 6      3171.932          37.812
G06  20365871.180   107023387.959 8      2580.174          49.500    20365870.220   107023387.956 8      2580.174          50.000    20365878.080    83394863.591 8      2010.525          50.437    20365878.880    83394869.590 8      2010.525          51.812
G04  24506516.740   128782612.247 6      -649.915          40.500    24506516.220   128782612.265 4      -649.915          25.500    24506526.860   100350119.366 4      -506.427          25.187    24506527.560   100350132.328 7      -506.427          43.375
G11  22036392.760   115802017.521 7      5098.536          45.625    22036391.980   115802017.528 6      5098.536          37.187    22036397.260    90235364.451 6      3972.886          37.250    22036398.000    90235367.444 8      3972.886          49.187
R21  20735800.100   110961457.114 7      5261.836          46.562    20735799.880   110961457.121 7      5261.836          47.062    20735812.320    86303404.722 8      4092.539          48.687    20735811.860    86303406.722 8      4092.539          48.312
R15  23568081.360   125940694.574 7      4520.717          42.562    23568082.340   125940694.583 6      4520.717          40.750    23568103.940    97953967.905 7      3516.113          44.000    23568104.520    97953964.901 7      3516.113          43.937
G07  22024125.720   115737567.196 7      3450.387          46.875    22024124.480   115737567.193 7      3450.387          45.437    22024133.860    90185137.227 7      2688.613          45.562    22024134.480    90185151.230 7      2688.613          46.812
R07  23716314.180   126955289.515 7      4938.712          43.437    23716314.140   126955289.540 7      4938.712          43.000    23716337.920    98743107.936 7      3841.220          44.437    23716337.280    98743108.942 7      3841.220          44.125
R05  21481567.120   114831283.609 7       151.947          47.062    21481567.260   114831283.610 7       151.947          46.312    21481579.720    89313268.900 7       118.181          47.687    21481579.640    89313269.901 8       118.181          48.000
G09  21562294.080   113310614.832 7       222.175          46.562    21562293.200   113310614.835 7       222.175          47.812    21562300.980    88294014.557 7       173.123          47.562    21562301.500    88294019.559 7       173.123          47.312
G13  24485602.880   128672714.305 7      5993.883          44.812    24485602.040   128672714.307 5      5993.883          31.125    24485619.880   100264455.250 5      4670.558          31.312
G20  23238335.780   122118268.941 7      4761.190          42.812    23238334.420   122118268.948 5      4761.190          30.750    23238338.100    95157104.740 5      3710.018          30.625
G30  22532938.840   118411386.546 7      5199.271          45.000    22532937.640   118411386.556 7      5199.271          43.875    22532953.200    92268678.689 7      4051.380          43.437    22532954.000    92268687.689 7      4051.380          44.750
G17  23771668.800   124920960.946 7      -487.794          44.000    23771667.620   124920960.957 6      -487.794          41.312    23771682.480    97341063.620 6      -380.099          41.000    23771682.720    97341063.626 7      -380.099          45.125
G19  22519166.680   118339013.859 7      -473.117          46.062    22519164.660   118339013.864 6      -473.117          36.937    22519178.040    92212256.722 6      -368.662          36.812
> 2024 07 31 14 46 47.0000000  0 15
R06  20834018.360   111174315.538 6      3171.584          39.062    20834018.180   111174315.537 6      3171.584          37.812
G06  20365380.460   107020808.220 8      2579.730          49.312    20365379.420   107020808.225 8      2579.730          51.125    20365387.240    83392853.407 8      2010.179          51.500    20365388.120    83392859.404 8      2010.179          51.750
G04  24506640.460   128783262.434 6      -649.788          39.687    24506639.780   128783262.447 4      -649.788          25.500    24506650.380   100350625.999 4      -506.328          25.187    24506650.100   100350639.013 7      -506.328          43.375
G11  22035422.640   115796919.196 7      5098.372          45.375    22035421.720   115796919.201 6      5098.372          37.312    22035427.160    90231391.726 6      3972.757          36.937    22035427.680    90231394.722 8      3972.757          49.875
R21  20734817.200   110956195.659 7      5261.371          46.625    20734816.760   110956195.674 7      5261.371          46.500    20734829.080    86299312.486 8      4092.177          50.187    20734828.760    86299314.484 8      4092.177          49.250
R15  23567235.580   125936174.199 7      4520.450          42.562    23567236.320   125936174.203 6      4520.450          40.750    23567258.640    97950452.072 7      3515.905          44.062    23567258.580    97950449.070 7      3515.905          44.437
G07  22023469.000   115734117.163 7      3450.115          46.750    22023467.840   115734117.168 7      3450.115          46.187    22023477.340    90182448.877 7      2688.401          45.875    22023478.000    90182462.880 7      2688.401          47.625
R07  23715391.820   126950351.174 7      4938.444          43.437    23715391.180   126950351.205 7      4938.444          43.000    23715415.200    98739267.022 7      3841.012          44.875    23715415.080    98739268.023 7      3841.012          43.875
R05  21481538.940   114831131.792 7       152.102          46.937    21481538.860   114831131.796 7       152.102          45.875    21481551.320    89313150.818 8       118.301          48.000    21481551.320    89313151.812 8       118.301          48.687
G09  21562252.020   113310392.720 7       222.206          46.687    21562250.960   113310392.723 7       222.206          47.062    21562258.760    88293841.476 7       173.147          47.312    21562259.380    88293846.482 7       173.147          47.812
G13  24484462.360   128666720.601 7      5993.860          44.250    24484461.480   128666720.605 5      5993.860          31.437    24484479.320   100259784.829 5      4670.540          31.312
G20  23237429.780   122113507.876 7      4761.287          43.250    23237428.380   122113507.883 5      4761.287          30.812    23237432.100    95153394.820 5      3710.094          30.750
G30  22531949.600   118406187.485 7      5199.228          45.250    22531948.360   118406187.489 7      5199.228          43.500    22531963.920    92264627.470 7      4051.347          43.562    22531964.460    92264636.467 7      4051.347          44.750
G17  23771761.420   124921448.934 7      -487.838          43.562    23771760.640   124921448.937 6      -487.838          41.875    23771775.240    97341443.864 6      -380.134          41.625    23771775.480    97341443.862 7      -380.134          44.687
G19  22519256.740   118339487.135 7      -473.098          44.625    22519254.760   118339487.137 6      -473.098          36.625    22519268.220    92212625.501 6      -368.648          36.687
> 2024 07 31 14 46 48.0000000  0 15
R06  20833423.860   111171143.800 6      3171.724          39.062    20833423.800   111171143.784 6      3171.724          37.562
G06  20364889.500   107018228.639 8      2579.235          49.125    20364888.600   107018228.643 8      2579.235          51.062    20364896.400    83390843.341 8      2009.794          51.562    20364897.080    83390849.342 8      2009.794          52.000
G04  24506764.640   128783912.132 6      -649.659          41.062    24506763.420   128783912.145 4      -649.659          25.500    24506774.080   100351132.251 4      -506.228          25.187    24506774.800   100351145.244 6      -506.228          40.625
G11  22034452.520   115791820.737 7      5098.340          45.750    22034451.540   115791820.744 6      5098.340          37.562    22034456.980    90227418.903 6      3972.733          37.312    22034457.540    90227421.900 8      3972.733          49.812
R21  20733834.240   110950934.486 7      5260.806          46.312    20733833.620   110950934.498 7      5260.806          46.312    20733845.980    86295220.458 8      4091.738          49.500    20733845.900    86295222.460 8      4091.738          49.000
R15  23566390.200   125931653.827 6      4520.254          41.125    23566389.060   125931653.831 6      4520.254          40.312    23566413.300    97946936.242 7      3515.753          44.375    23566412.720    97946933.234 7      3515.753          45.437
G07  22022812.400   115730667.182 7      3449.645          47.437    22022811.320   115730667.192 7      3449.645          45.937    22022820.680    90179760.587 7      2688.035          46.125    22022821.560    90179774.591 7      2688.035          47.562
R07  23714469.140   126945412.692 7      4938.361          43.250    23714469.000   126945412.710 7      4938.361          42.687    23714492.620    98735425.992 7      3840.948          44.687    23714492.480    98735426.996 7      3840.948          43.812
R05  21481510.400   114830979.574 7       152.286          46.312    21481510.280   114830979.572 7       152.286          46.437    21481522.880    89313032.418 8       118.445          48.187    21481522.780    89313033.421 8       118.445          48.500
G09  21562209.560   113310170.417 7       222.233          46.437    21562208.700   113310170.422 7       222.233          47.437    21562216.480    88293668.253 7       173.169          47.937    21562216.960    88293673.257 7       173.169          47.875
G13  24483321.900   128660726.652 7      5993.839          44.375    24483320.880   128660726.659 5      5993.839          31.437    24483339.040   100255114.218 5      4670.524          31.312
G20  23236523.640   122108746.349 7      4761.575          42.812    23236522.260   122108746.356 5      4761.575          30.812    23236525.960    95149684.541 5      3710.318          30.750
G30  22530960.300   118400988.266 7      5199.072          45.437    22530958.920   118400988.276 7      5199.072          43.625    22530974.500    92260576.141 7      4051.225          43.625    22530975.520    92260585.141 7      4051.225          44.687
G17  23771854.240   124921936.433 7      -487.515          44.187    23771853.240   124921936.436 6      -487.515          41.812    23771867.900    97341823.733 6      -379.882          41.687    23771868.260    97341823.733 7      -379.882          44.812
G19  22519346.960   118339960.217 7      -473.197          44.625    22519344.740   118339960.217 6      -473.197          36.750    22519358.100    92212994.130 6      -368.725          37.437
> 2024 07 31 14 46 49.0000000  0 15
R06  20832829.240   111167972.474 6      3171.440          39.062    20832829.280   111167972.464 6      3171.440          37.562
G06  20364398.720   107015649.664 8      2578.826          49.312    20364397.700   107015649.666 8      2578.826          51.125    20364405.640    83388833.745 8      2009.475          51.562    20364406.300    83388839.742 8      2009.475          52.375
G04  24506888.580   128784561.881 6      -649.453          40.312    24506887.280   128784561.891 4      -649.453          25.187    24506897.900   100351638.545 4      -506.067          25.187    24506898.560   100351651.515 7      -506.067          43.562
G11  22033482.080   115786722.661 7      5098.065          45.187    22033481.460   115786722.671 6      5098.065          37.312    22033486.940    90223446.379 6      3972.518          37.125    22033487.560    90223449.378 8      3972.518          50.187
R21  20732851.160   110945674.070 7      5260.169          46.312    20732850.500   110945674.082 7      5260.169          46.500    20732862.940    86291129.031 8      4091.242          49.750    20732862.920    86291131.029 8      4091.242          49.687
R15  23565544.660   125927134.006 6      4519.743          41.125    23565542.480   125927134.007 6      4519.743          40.312    23565567.900    97943420.844 7      3515.355          45.000    23565567.060    97943417.844 7      3515.355          44.875
G07  22022155.920   115727217.698 7      3449.549          47.250    22022154.920   115727217.706 7      3449.549          46.375    22022164.400    90177072.677 7      2687.960          46.125    22022164.960    90177086.678 7      2687.960          47.375
R07  23713546.740   126940474.515 7      4938.170          43.875    23713546.260   126940474.538 7      4938.170          42.875    23713569.920    98731585.206 7      3840.799          45.125    23713569.600    98731586.210 7      3840.799          44.062
R05  21481482.100   114830827.431 7       152.254          46.812    21481481.680   114830827.435 7       152.254          46.125    21481494.320    89312914.087 8       118.420          48.500    21481494.200    89312915.087 8       118.420          48.500
G09  21562167.360   113309948.418 7       221.990          46.437    21562166.500   113309948.423 7       221.990          47.937    21562174.240    88293495.264 8       172.979          48.062    21562174.780    88293500.266 8       172.979          48.125
G13  24482181.280   128654732.924 7      5993.804          44.250    24482180.340   128654732.931 5      5993.804          31.437    24482198.400   100250443.778 5      4670.497          31.437
G20  23235617.700   122103984.850 7      4761.670          44.000    23235616.060   122103984.855 5      4761.670          30.812    23235619.940    95145974.282 5      3710.392          30.750
G30  22529970.780   118395789.362 7      5198.920          45.625    22529969.700   118395789.369 7      5198.920          43.875    22529985.180    92256525.051 7      4051.106          43.250    22529985.920    92256534.056 7      4051.106          44.812
G17  23771947.400   124922423.972 7      -487.391          44.312    23771946.040   124922423.972 7      -487.391          42.125    23771960.900    97342203.629 7      -379.785          42.062    23771961.320    97342203.631 7      -379.785          45.062
G19  22519437.060   118340433.562 7      -473.176          44.375    22519434.720   118340433.561 6      -473.176          36.500    22519448.120    92213362.960 6      -368.709          36.250
> 2024 07 31 14 46 50.0000000  0 15
R06  20832234.980   111164801.280 6      3171.270          39.062    20832234.480   111164801.278 6      3171.270          37.562
G06  20363908.140   107013071.084 8      2578.399          49.125    20363907.100   107013071.084 8      2578.399          50.750    20363915.000    83386824.455 8      2009.142          51.437    20363915.740    83386830.452 8      2009.142          51.937
G04  24507011.660   128785211.411 6      -649.400          41.125    24507010.820   128785211.424 4      -649.400          25.187    24507021.440   100352144.672 4      -506.026          25.187    24507021.900   100352157.678 7      -506.026          42.687
G11  22032512.120   115781624.728 7      5097.860          46.312    22032511.380   115781624.738 6      5097.860          37.562    22032516.920    90219473.965 6      3972.359          37.250    22032517.320    90219476.964 8      3972.359          49.437
R21  20731867.920   110940414.173 7      5259.604          47.375    20731867.860   110940414.185 7      5259.604          47.125    20731880.040    86287037.996 8      4090.803          49.125    20731879.760    86287039.996 8      4090.803          49.437
R15  23564698.660   125922614.478 6      4519.295          40.750    23564697.200   125922614.463 6      4519.295          40.312    23564722.520    97939905.670 7      3515.007          45.312    23564721.520    97939902.670 7      3515.007          45.687
G07  22021499.520   115723768.550 7      3448.961          47.437    22021498.500   115723768.558 7      3448.961          45.937    22021508.020    90174385.064 7      2687.502          46.312    22021508.420    90174399.065 7      2687.502          47.625
R07  23712624.300   126935536.404 7      4938.065          43.875    23712624.180   126935536.433 7      4938.065          42.875    23712647.300    98727744.473 7      3840.717          44.312    23712647.480    98727745.476 7      3840.717          43.750
R05  21481453.700   114830675.154 7       152.337          46.312    21481453.620   114830675.155 7       152.337          45.125    21481466.020    89312795.641 8       118.485          48.187    21481465.780    89312796.640 8       118.485          48.937
G09  21562125.040   113309726.471 7       221.912          46.375    21562124.220   113309726.476 7       221.912          47.875    21562131.980    88293322.317 7       172.918          47.687    21562132.560    88293327.319 7       172.918          47.937
G13  24481040.640   128648739.241 7      5993.621          44.437    24481039.840   128648739.248 5      5993.621          31.437    24481057.840   100245773.374 5      4670.354          31.437
G20  23234711.280   122099223.176 7      4761.747          43.437    23234709.900   122099223.184 5      4761.747          30.812    23234713.800    95142263.891 5      3710.452          31.062
G30  22528981.320   118390590.566 7      5198.753          45.500    22528980.380   118390590.568 7      5198.753          43.500    22528995.940    92252474.041 7      4050.976          43.437    22528996.780    92252483.044 7      4050.976          44.937
G17  23772040.080   124922911.334 7      -487.231          43.812    23772038.800   124922911.334 6      -487.231          41.437    23772053.580    97342583.390 6      -379.660          41.750    23772054.340    97342583.394 7      -379.660          45.187
G19  22519527.100   118340906.993 7      -473.489          44.750    22519524.900   118340906.993 6      -473.489          36.562    22519538.300    92213731.861 6      -368.952          36.625
> 2024 07 31 14 46 51.0000000  0 15
R06  20831640.380   111161630.328 6      3171.268          39.187    20831640.460   111161630.321 6      3171.268          37.562
G06  20363417.420   107010492.953 8      2578.181          49.250    20363416.500   107010492.950 8      2578.181          51.250    20363424.360    83384815.516 8      2008.972          52.000    20363425.080    83384821.515 8      2008.972          51.562
G04  24507134.980   128785860.836 6      -649.087          40.812    24507134.580   128785860.846 4      -649.087          25.187    24507145.060   100352650.714 4      -505.782          25.187    24507145.400   100352663.703 7      -505.782          42.375
G11  22031541.980   115776526.978 7      5097.869          46.250    22031541.180   115776526.991 6      5097.869          37.687    22031546.880    90215501.694 6      3972.365          37.187    22031547.420    90215504.694 8      3972.365          49.687
R21  20730884.900   110935154.776 7      5259.309          47.125    20730884.980   110935154.785 7      5259.309          46.687    20730897.240    86282947.352 8      4090.574          49.750    20730896.960    86282949.354 8      4090.574          49.312
R15  23563852.960   125918095.300 6      4519.084          40.750    23563851.660   125918095.274 6      4519.084          40.187    23563876.720    97936390.758 7      3514.843          45.312    23563875.880    97936387.756 7      3514.843          46.062
G07  22020843.320   115720319.791 7      3448.773          47.437    22020842.300   115720319.794 7      3448.773          46.125    22020851.780    90171697.714 7      2687.356          46.312    22020852.340    90171711.714 7      2687.356          47.500
R07  23711702.020   126930598.433 7      4938.056          44.437    23711701.440   126930598.461 7      4938.056          42.937    23711724.900    98723903.841 7      3840.710          44.500    23711724.960    98723904.842 7      3840.710          44.250
R05  21481425.240   114830522.781 7       152.544          46.750    21481424.680   114830522.785 7       152.544          46.375    21481437.520    89312677.127 8       118.646          48.812    21481437.340    89312678.127 8       118.646          48.625
G09  21562082.920   113309504.635 7       222.032          46.750    21562081.960   113309504.637 7       222.032          47.812    21562089.820    88293149.452 7       173.012          47.687    21562090.400    88293154.456 7       173.012          47.750
G13  24479899.940   128642745.592 7      5993.858          44.937    24479899.280   128642745.604 5      5993.858          31.437    24479917.200   100241102.998 5      4670.539          31.437
G20  23233805.100   122094461.334 7      4762.110          44.187    23233803.740   122094461.341 5      4762.110          30.812    23233807.720    95138553.364 5      3710.735          31.062
G30  22527991.840   118385391.898 7      5198.761          45.437    22527991.100   118385391.906 7      5198.761          43.687    22528006.660    92248423.138 7      4050.982          43.750    22528007.600    92248432.148 7      4050.982          44.812
G17  23772132.660   124923398.555 7      -486.943          44.062    23772131.580   124923398.560 6      -486.943          41.687    23772146.220    97342963.047 6      -379.436          41.812    23772147.040    97342963.049 7      -379.436          44.937
G19  22519616.900   118341380.498 7      -473.353          45.187    22519615.020   118341380.498 6      -473.353          37.062    22519628.340    92214100.820 6      -368.847          37.187
> 2024 07 31 14 46 52.0000000  0 15
R06  20831046.220   111158459.611 6      3170.278          39.187    20831046.540   111158459.601 6      3170.278          37.875
G06  20362926.820   107007915.274 8      2577.064          48.812    20362925.920   107007915.276 8      2577.064          51.312    20362933.840    83382806.935 8      2008.102          51.687    20362934.720    83382812.934 8      2008.102          51.875
G04  24507258.600   128786510.122 6      -649.712          40.312    24507258.040   128786510.137 4      -649.712          25.187    24507268.800   100353156.649 4      -506.269          25.187    24507268.940   100353169.613 7      -506.269          43.187
G11  22030572.000   115771429.449 7      5097.028          46.375    22030571.060   115771429.459 6      5097.028          37.312    22030576.720    90211529.592 6      3971.710          36.812    22030577.220    90211532.590 8      3971.710          49.562
R21  20729902.080   110929895.904 7      5258.199          46.625    20729902.080   110929895.918 7      5258.199          46.437    20729914.560    86278857.124 8      4089.710          49.750    20729914.200    86278859.124 8      4089.710          49.312
R15  23563007.480   125913576.392 6      4518.442          41.750    23563007.360   125913576.364 6      4518.442          40.187    23563030.700    97932876.058 7      3514.344          45.250    23563030.200    97932873.058 7      3514.344          45.312
G07  22020187.300   115716871.387 7      3447.824          47.187    22020186.080   115716871.395 7      3447.824          46.437    22020195.600    90169010.656 7      2686.616          46.500    22020196.020    90169024.656 7      2686.616          47.625
R07  23710779.200   126925660.593 7      4937.374          43.812    23710779.160   126925660.624 7      4937.374          42.937    23710802.560    98720063.322 7      3840.180          44.625    23710802.460    98720064.319 7      3840.180          44.625
R05  21481396.880   114830370.301 7       152.155          46.562    21481396.180   114830370.300 7       152.155          46.000    21481408.920    89312558.523 8       118.343          48.812    21481408.620    89312559.522 8       118.343          48.562
G09  21562040.560   113309282.944 7       221.224          46.687    21562039.760   113309282.951 7       221.224          47.812    21562047.680    88292976.703 7       172.383          47.750    21562048.020    88292981.709 7       172.383          47.750
G13  24478759.520   128636752.045 7      5993.108          44.687    24478758.740   128636752.053 5      5993.108          31.437    24478776.660   100236432.700 5      4669.954          31.625
G20  23232899.060   122089699.373 7      4761.593          43.937    23232897.480   122089699.378 5      4761.593          30.812    23232901.640    95134842.748 5      3710.332          31.062
G30  22527002.920   118380193.378 7      5198.121          45.062    22527001.780   118380193.386 7      5198.121          44.000    22527017.300    92244372.349 7      4050.484          43.562    22527018.720    92244381.353 7      4050.484          44.687
G17  23772225.540   124923885.650 7      -487.337          44.125    23772224.200   124923885.652 7      -487.337          42.062    23772238.800    97343342.597 6      -379.743          41.937    23772239.720    97343342.599 7      -379.743          44.750
G19  22519707.220   118341854.137 7      -474.112          45.000    22519705.020   118341854.137 6      -474.112          36.625    22519718.460    92214469.885 6      -369.438          36.687
> 2024 07 31 14 46 53.0000000  0 15
R06  20830451.720   111155289.241 6      3170.434          39.187    20830452.140   111155289.236 6      3170.434          37.875
G06  20362436.440   107005338.207 8      2576.882          49.937    20362435.520   107005338.212 8      2576.882          50.812    20362443.460    83380798.829 8      2007.960          51.500    20362444.300    83380804.826 8      2007.960          51.937
G04  24507382.080   128787159.395 6      -649.088          38.187    24507381.620   128787159.410 4      -649.088          25.187    24507392.180   100353662.571 4      -505.783          25.187    24507391.980   100353675.560 7      -505.783          43.187
G11  22029601.740   115766332.259 7      5097.189          46.250    22029601.220   115766332.264 6      5097.189          37.437    22029606.780    90207557.756 6      3971.835          37.812    22029606.940    90207560.753 8      3971.835          49.812
R21  20728919.620   110924637.740 7      5257.989          46.437    20728919.500   110924637.758 7      5257.989          46.562    20728931.900    86274767.446 8      4089.547          49.562    20728931.880    86274769.444 8      4089.547          49.625
R15  23562162.660   125909057.997 6      4518.235          41.750    23562162.020   125909057.988 6      4518.235          41.000    23562184.920    97929361.770 7      3514.183          45.125    23562184.580    97929358.776 7      3514.183          45.312
G07  22019530.940   115713423.516 7      3447.834          46.750    22019529.940   115713423.519 7      3447.834          46.250    22019539.440    90166324.003 7      2686.624          46.375    22019540.060    90166338.008 7      2686.624          47.375
R07  23709857.100   126920723.082 7      4937.612          43.437    23709856.740   126920723.105 7      4937.612          43.687    23709880.320    98716223.044 7      3840.365          44.937    23709880.480    98716224.043 7      3840.365          44.937
R05  21481367.980   114830217.891 7       152.610          46.375    21481367.620   114830217.892 7       152.610          46.062    21481380.240    89312439.982 7       118.696          47.812    21481380.680    89312440.974 8       118.696          48.437
G09  21561998.580   113309061.507 7       221.472          46.312    21561997.680   113309061.509 8       221.472          48.125    21562005.440    88292804.151 7       172.576          47.875    21562005.820    88292809.155 7       172.576          47.937
G13  24477619.400   128630758.706 7      5993.383          44.062    24477618.160   128630758.711 5      5993.383          31.687    24477636.220   100231762.565 5      4670.168          31.625
G20  23231993.020   122084937.415 7      4762.120          44.187    23231991.420   122084937.417 5      4762.120          30.687    23231995.280    95131132.133 5      3710.743          30.562
G30  22526013.620   118374995.189 7      5198.155          45.937    22526012.600   118374995.199 7      5198.155          43.687    22526028.200    92240321.818 7      4050.510          43.500    22526029.080    92240330.823 7      4050.510          44.937
G17  23772318.300   124924372.783 7      -487.024          43.625    23772316.880   124924372.788 6      -487.024          41.875    23772331.500    97343722.182 6      -379.499          41.687    23772332.260    97343722.188 7      -379.499          44.437
G19  22519797.440   118342328.031 7      -473.941          45.000    22519795.100   118342328.028 6      -473.941          36.687    22519808.620    92214839.149 6      -369.305          36.687
> 2024 07 31 14 46 54.0000000  0 15
R06  20829858.080   111152119.156 6      3169.915          39.187    20829858.480   111152119.159 6      3169.915          37.875
G06  20361946.100   107002761.635 8      2576.167          49.812    20361945.220   107002761.634 8      2576.167          51.062    20361953.100    83378791.104 8      2007.403          51.562    20361954.140    83378797.103 8      2007.403          52.000
G04  24507505.560   128787808.597 6      -649.363          41.062    24507505.260   128787808.615 4      -649.363          25.187    24507515.660   100354168.439 4      -505.997          25.187    24507514.900   100354181.459 6      -505.997          40.875
G11  22028632.200   115761235.314 7      5096.715          46.687    22028631.220   115761235.318 6      5096.715          37.250    22028636.940    90203586.110 6      3971.466          37.125    22028637.240    90203589.111 8      3971.466          50.062
R21  20727936.780   110919380.192 7      5257.154          47.500    20727937.080   110919380.207 7      5257.154          47.187    20727949.340    86270678.240 8      4088.898          49.937    20727949.140    86270680.242 8      4088.898          49.625
R15  23561316.500   125904539.931 7      4517.754          42.312    23561316.320   125904539.929 6      4517.754          41.000    23561338.620    97925847.737 7      3513.809          44.437    23561339.200    97925844.743 7      3513.809          44.562
G07  22018874.920   115709976.074 7      3447.093          46.500    22018873.980   115709976.076 7      3447.093          45.937    22018883.480    90163637.688 7      2686.047          46.000    22018883.760    90163651.693 7      2686.047          47.562
R07  23708934.360   126915785.783 7      4937.108          43.437    23708934.740   126915785.809 7      4937.108          43.187    23708958.280    98712382.941 7      3839.973          44.500    23708957.540    98712383.942 7      3839.973          44.812
R05  21481339.660   114830065.483 7       152.256          46.375    21481339.160   114830065.487 7       152.256          45.562    21481351.860    89312321.436 8       118.421          48.875    21481351.980    89312322.430 8       118.421          49.125
G09  21561956.360   113308840.262 7       220.948          46.375    21561955.500   113308840.270 7       220.948          47.187    21561963.360    88292631.752 7       172.167          47.375    21561963.720    88292636.756 8       172.167          48.250
G13  24476478.740   128624765.490 7      5993.035          44.625    24476477.760   128624765.495 5      5993.035          31.687    24476495.700   100227092.525 5      4669.897          31.437
G20  23231086.860   122080175.367 7      4762.026          43.312    23231085.300   122080175.375 5      4762.026          30.687    23231088.940    95127421.451 5      3710.670          30.562
G30  22525024.740   118369797.184 7      5197.764          45.687    22525023.560   118369797.191 7      5197.764          43.437    22525039.120    92236271.428 7      4050.205          44.062    22525039.900    92236280.433 7      4050.205          44.812
G17  23772410.740   124924859.831 7      -487.163          44.000    23772409.620   124924859.833 6      -487.163          41.937    23772424.280    97344101.695 7      -379.607          42.062    23772424.940    97344101.699 7      -379.607          44.687
G19  22519887.920   118342802.077 7      -474.284          45.562    22519885.440   118342802.077 6      -474.284          36.500    22519898.800    92215208.530 6      -369.572          36.187
> 2024 07 31 14 46 55.0000000  0 15
R06  20829264.680   111148949.397 6      3169.939          39.062    20829264.440   111148949.403 6      3169.939          37.875
G06  20361455.860   107000185.632 8      2575.881          49.250    20361455.060   107000185.637 8      2575.881          51.062    20361462.940    83376783.831 8      2007.180          51.187    20361463.880    83376789.832 8      2007.180          51.625
G04  24507629.320   128788457.801 6      -649.101          40.312    24507628.740   128788457.814 4      -649.101          25.250    24507639.280   100354674.306 4      -505.793          25.187    24507639.860   100354687.289 7      -505.793          42.750
G11  22027662.120   115756138.712 7      5096.562          47.000    22027661.540   115756138.714 6      5096.562          37.250    22027666.940    90199614.734 6      3971.347          37.125    22027667.340    90199617.732 8      3971.347          49.750
R21  20726954.640   110914123.335 7      5256.714          45.937    20726954.800   110914123.347 7      5256.714          46.187    20726966.960    86266589.571 8      4088.555          49.375    20726966.780    86266591.571 8      4088.555          49.625
R15  23560471.380   125900022.340 7      4517.538          42.312    23560470.220   125900022.358 6      4517.538          41.000    23560493.060    97922334.066 7      3513.640          44.500    23560493.600    97922331.064 7      3513.640          44.250
G07  22018219.080   115706529.110 7      3446.912          46.437    22018218.000   115706529.114 7      3446.912          46.000    22018227.540    90160951.750 7      2685.905          46.062    22018227.700    90160965.755 7      2685.905          47.562
R07  23708012.020   126910848.781 7      4936.961          43.812    23708012.320   126910848.812 7      4936.961          43.187    23708035.680    98708543.073 7      3839.859          44.687    23708035.500    98708544.077 7      3839.859          44.250
R05  21481311.100   114829913.121 7       152.467          46.750    21481310.620   114829913.131 7       152.467          45.687    21481323.440    89312202.932 8       118.586          48.625    21481323.020    89312203.933 8       118.586          48.562
G09  21561914.380   113308619.251 7       220.974          46.562    21561913.480   113308619.256 7       220.974          47.625    21561921.420    88292459.532 7       172.188          47.562    21561921.800    88292464.534 8       172.188          48.187
G13  24475338.340   128618772.451 7      5993.127          45.000    24475337.340   128618772.456 5      5993.127          31.437    24475355.060   100222422.624 5      4669.969          31.437
G20  23230180.760   122075413.320 7      4762.149          43.750    23230179.080   122075413.327 5      4762.149          30.687    23230182.900    95123710.768 5      3710.765          30.562
G30  22524035.600   118364599.462 7      5197.668          45.437    22524034.380   118364599.470 7      5197.668          44.312    22524050.020    92232221.258 7      4050.131          43.500    22524050.880    92232230.259 7      4050.131          45.000
G17  23772503.320   124925346.875 7      -486.982          44.375    23772502.340   124925346.883 7      -486.982          42.062    23772516.980    97344481.212 6      -379.466          41.937    23772517.320    97344481.216 7      -379.466          44.437
G19  22519978.120   118343276.362 7      -474.252          44.875    22519975.700   118343276.367 6      -474.252          36.375    22519989.100    92215578.098 6      -369.547          36.562
> 2024 07 31 14 46 56.0000000  0 15
R06  20828670.540   111145779.699 6      3169.544          39.062    20828669.900   111145779.697 6      3169.544          38.000
G06  20360965.600   106997609.887 8      2575.514          48.437    20360964.860   106997609.886 8      2575.514          51.625    20360972.800    83374776.749 8      2006.894          52.187    20360973.800    83374782.746 8      2006.894          51.812
G04  24507752.700   128789106.656 6      -648.904          40.625    24507752.120   128789106.671 4      -648.904          25.250    24507762.720   100355179.908 4      -505.639          25.187    24507762.860   100355192.874 7      -505.639          43.125
G11  22026692.200   115751042.085 7      5096.441          46.687    22026691.640   115751042.087 6      5096.441          38.000    22026697.060    90195643.338 6      3971.253          37.437    22026697.720    90195646.335 8      3971.253          49.750
R21  20725972.640   110908866.830 7      5256.169          46.812    20725972.480   110908866.837 7      5256.169          46.625    20725984.720    86262501.178 8      4088.131          49.437    20725984.240    86262503.176 8      4088.131          49.812
R15  23559625.420   125895504.950 6      4516.964          41.312    23559624.120   125895504.949 6      4516.964          41.000    23559647.480    97918820.553 7      3513.195          44.750    23559648.200    97918817.548 7      3513.195          45.125
G07  22017563.140   115703082.316 7      3446.567          46.375    22017562.100   115703082.321 7      3446.567          45.937    22017571.520    90158265.941 7      2685.637          46.000    22017572.040    90158279.944 7      2685.637          47.937
R07  23707089.960   126905911.722 7      4936.897          44.125    23707089.700   126905911.748 7      4936.897          43.437    23707113.440    98704703.151 7      3839.809          44.812    23707113.060    98704704.153 7      3839.809          44.375
R05  21481282.640   114829760.468 7       152.701          45.687    21481282.000   114829760.466 7       152.701          45.937    21481294.720    89312084.189 8       118.767          48.437    21481294.660    89312085.188 8       118.767          48.062
G09  21561872.160   113308398.148 7       220.948          46.562    21561871.360   113308398.156 7       220.948          47.687    21561879.380    88292287.242 7       172.167          47.500    21561879.860    88292292.244 7       172.167          47.875
G13  24474197.880   128612779.293 7      5993.089          44.625    24474196.840   128612779.301 5      5993.089          31.437    24474214.600   100217752.627 5      4669.940          31.437
G20  23229274.400   122070650.912 7      4762.501          43.250    23229272.880   122070650.920 5      4762.501          30.937    23229276.520    95119999.802 5      3711.040          30.875
G30  22523046.320   118359401.675 7      5197.645          45.687    22523045.220   118359401.683 7      5197.645          44.375    22523060.800    92228171.042 7      4050.113          43.750    22523061.580    92228180.043 7      4050.113          44.875
G17  23772595.820   124925833.560 7      -486.595          43.750    23772594.820   124925833.562 6      -486.595          41.937    23772609.560    97344860.443 6      -379.165          41.812    23772610.260    97344860.443 7      -379.165          44.750
G19  22520068.240   118343750.556 7      -474.345          43.687    22520066.020   118343750.558 6      -474.345          36.500    22520079.380    92215947.592 6      -369.619          36.562
> 2024 07 31 14 46 57.0000000  0 15
R06  20828076.720   111142610.492 6      3169.303          39.062    20828076.680   111142610.495 6      3169.303          38.000
G06  20360475.880   106995034.909 8      2574.942          49.187    20360474.880   106995034.914 8      2574.942          51.000    20360482.760    83372770.274 8      2006.448          51.687    20360483.700    83372776.274 8      2006.448          52.062
G04  24507876.420   128789755.684 6      -648.834          40.375    24507875.640   128789755.695 4      -648.834          25.250    24507886.420   100355685.638 4      -505.585          25.187    24507885.780   100355698.617 7      -505.585          43.125
G11  22025722.700   115745945.982 7      5096.131          46.437    22025721.760   115745945.990 6      5096.131          37.375    22025727.340    90191672.351 6      3971.011          37.062    22025727.940    90191675.353 8      3971.011          49.562
R21  20724990.880   110903611.233 7      5255.470          46.375    20724990.320   110903611.240 7      5255.470          46.500    20725002.620    86258413.489 8      4087.588          49.250    20725002.480    86258415.492 8      4087.588          49.687
R15  23558780.400   125890988.190 6      4516.777          41.312    23558778.820   125890988.170 6      4516.777          41.000    23558802.660    97915307.511 7      3513.049          44.625    23558802.780    97915304.501 7      3513.049          45.000
G07  22016907.020   115699636.237 7      3446.053          47.687    22016906.300   115699636.237 7      3446.053          45.750    22016915.820    90155580.685 7      2685.236          45.875    22016916.440    90155594.685 8      2685.236          48.125
R07  23706167.740   126900975.140 7      4936.687          43.937    23706167.480   126900975.163 7      4936.687          43.437    23706190.980    98700863.600 7      3839.646          44.062    23706191.020    98700864.608 7      3839.646          44.687
R05  21481254.280   114829608.033 7       152.658          46.312    21481253.240   114829608.035 7       152.658          46.187    21481266.100    89311965.629 8       118.734          48.312    21481266.360    89311966.626 8       118.734          48.937
G09  21561830.180   113308177.505 7       220.646          46.375    21561829.360   113308177.512 7       220.646          47.937    21561837.340    88292115.308 7       171.932          47.625    21561837.720    88292120.310 8       171.932          48.000
G13  24473057.480   128606786.548 7      5992.796          44.062    24473056.520   128606786.555 5      5992.796          31.437    24473074.160   100213082.953 5      4669.711          31.562
G20  23228368.200   122065888.713 7      4762.346          43.687    23228366.660   122065888.723 5      4762.346          30.937    23228370.380    95116288.999 5      3710.919          30.875
G30  22522057.400   118354204.364 7      5197.366          45.625    22522056.220   118354204.374 7      5197.366          43.562    22522071.860    92224121.195 7      4049.896          43.812    22522072.080    92224130.200 7      4049.896          44.875
G17  23772688.340   124926320.494 7      -486.841          44.250    23772687.580   124926320.496 7      -486.841          42.125    23772702.420    97345239.870 6      -379.356          41.687    23772703.200    97345239.872 7      -379.356          44.500
G19  22520158.240   118344225.183 7      -474.551          45.437    22520156.280   118344225.188 5      -474.551          35.812    22520169.580    92216317.427 5      -369.780          35.937
> 2024 07 31 14 46 58.0000000  0 15
R06  20827482.440   111139441.584 6      3168.667          39.250    20827482.380   111139441.582 6      3168.667          38.000
G06  20359985.980   106992460.456 8      2574.144          49.250    20359984.940   106992460.464 8      2574.144          50.812    20359992.880    83370764.206 8      2005.826          51.437    20359993.780    83370770.205 8      2005.826          51.625
G04  24508000.060   128790404.639 6      -648.982          40.312    24507999.080   128790404.649 4      -648.982          25.250    24508009.880   100356191.315 4      -505.701          25.187    24508009.040   100356204.316 6      -505.701          41.937
G11  22024753.040   115740850.161 7      5095.579          46.312    22024752.020   115740850.166 6      5095.579          37.562    22024757.700    90187701.582 6      3970.581          37.312    22024758.100    90187704.575 8      3970.581          48.625
R21  20724008.820   110898356.237 7      5254.581          46.500    20724008.340   110898356.250 7      5254.581          46.312    20724020.700    86254326.275 8      4086.896          48.000    20724020.420    86254328.277 8      4086.896          49.812
R15  23557935.020   125886471.815 6      4516.172          40.875    23557933.940   125886471.800 6      4516.172          40.312    23557958.200    97911794.790 7      3512.579          44.500    23557957.660    97911791.783 7      3512.579          44.562
G07  22016251.500   115696190.584 7      3445.335          47.187    22016250.640   115696190.586 7      3445.335          46.000    22016260.140    90152895.767 7      2684.676          45.937    22016260.620    90152909.765 7      2684.676          46.875
R07  23705245.600   126896038.778 7      4936.237          43.937    23705245.460   126896038.801 7      4936.237          43.437    23705269.060    98697024.221 7      3839.296          43.812    23705268.780    98697025.227 7      3839.296          43.375
R05  21481225.560   114829455.551 7       152.399          47.250    21481224.860   114829455.557 7       152.399          45.687    21481237.680    89311847.030 8       118.533          48.687    21481237.520    89311848.026 7       118.533          47.250
G09  21561788.380   113307957.025 7       220.397          46.812    21561787.460   113307957.027 7       220.397          46.625    21561795.380    88291943.497 7       171.738          46.250    21561795.720    88291948.499 7       171.738          47.812
G13  24471916.840   128600793.903 7      5992.609          44.687    24471916.040   128600793.907 5      5992.609          31.687    24471933.860   100208413.360 5      4669.565          31.562
G20  23227461.900   122061126.421 7      4762.249          43.437    23227460.460   122061126.431 5      4762.249          30.937    23227464.100    95112578.122 5      3710.844          30.875
G30  22521068.460   118349007.278 7      5196.919          46.062    22521067.260   118349007.283 7      5196.919          43.000    22521082.760    92220071.520 7      4049.547          43.312    22521083.340    92220080.521 7      4049.547          44.312
G17  23772781.100   124926807.344 7      -487.110          44.687    23772780.160   124926807.346 6      -487.110          41.562    23772794.920    97345619.230 6      -379.566          41.437    23772795.620    97345619.236 7      -379.566          44.312
G19  22520248.940   118344699.980 7      -474.911          45.437    22520246.660   118344699.980 6      -474.911          36.312    22520260.000    92216687.389 6      -370.060          36.250
> 2024 07 31 14 46 59.0000000  0 15
R06  20826889.160   111136272.772 6      3168.819          39.250    20826888.680   111136272.775 6      3168.819          38.000
G06  20359496.160   106989886.346 8      2574.046          48.875    20359495.160   106989886.348 8      2574.046          50.562    20359503.020    83368758.399 8      2005.750          51.312    20359504.120    83368764.398 8      2005.750          51.937
G04  24508123.440   128791053.360 6      -648.616          39.812    24508122.560   128791053.370 4      -648.616          25.250    24508133.160   100356696.808 4      -505.415          25.187    24508132.820   100356709.805 7      -505.415          42.125
G11  22023783.080   115735754.419 7      5095.696          46.250    22023782.320   115735754.421 6      5095.696          37.625    22023787.960    90183730.871 6      3970.672          37.062    22023788.720    90183733.871 8      3970.672          50.000
R21  20723026.980   110893101.646 7      5254.452          47.000    20723026.420   110893101.661 7      5254.452          47.000    20723038.560    86250239.375 8      4086.796          49.187    20723038.360    86250241.375 8      4086.796          49.687
R15  23557089.920   125881955.684 6      4516.144          40.875    23557089.760   125881955.666 6      4516.144          40.312    23557113.100    97908282.257 7      3512.556          44.687    23557112.500    97908279.247 7      3512.556          45.000
G07  22015595.980   115692745.180 7      3445.332          47.437    22015594.960   115692745.185 7      3445.332          46.187    22015604.560    90150211.043 7      2684.674          46.312    22015604.860    90150225.043 7      2684.674          47.937
R07  23704323.360   126891102.487 7      4936.338          44.375    23704323.520   126891102.508 7      4936.338          43.437    23704346.420    98693184.897 7      3839.374          44.312    23704346.660    98693185.907 7      3839.374          44.187
R05  21481196.940   114829302.865 7       152.811          46.687    21481196.240   114829302.875 7       152.811          46.187    21481209.120    89311728.270 8       118.853          48.187    21481209.020    89311729.266 8       118.853          48.500
G09  21561746.160   113307736.584 7       220.524          46.875    21561745.500   113307736.583 7       220.524          47.937    21561753.420    88291771.718 7       171.837          47.625    21561753.540    88291776.723 8       171.837          48.875
G13  24470777.020   128594801.241 7      5992.819          45.062    24470775.660   128594801.246 5      5992.819          31.687    24470793.440   100203743.752 5      4669.729          31.562
G20  23226555.600   122056363.882 7      4762.760          44.000    23226554.120   122056363.889 5      4762.760          30.625    23226557.740    95108867.053 5      3711.242          30.875
G30  22520079.440   118343810.227 7      5197.148          45.375    22520078.260   118343810.229 7      5197.148          43.875    22520093.880    92216021.876 7      4049.726          44.125    22520094.740    92216030.879 7      4049.726          44.875
G17  23772873.540   124927293.908 7      -486.368          44.687    23772872.740   124927293.913 6      -486.368          41.937    23772887.600    97345998.364 6      -378.988          41.625    23772887.640    97345998.366 7      -378.988          44.250
G19  22520339.300   118345174.794 7      -474.800          44.625    22520337.100   118345174.796 6      -474.800          36.375    22520350.440    92217057.369 6      -369.974          36.062
> 2024 07 31 14 47  0.0000000  0 15
R06  20826295.080   111133104.160 6      3168.549          39.250    20826295.340   111133104.155 6      3168.549          38.000
G06  20359006.400   106987312.671 8      2573.500          48.437    20359005.480   106987312.671 8      2573.500          50.937    20359013.300    83366752.930 8      2005.325          51.375    20359014.340    83366758.931 8      2005.325          52.125
G04  24508246.600   128791701.918 6      -648.506          40.312    24508245.980   128791701.926 4      -648.506          25.250    24508256.580   100357202.180 4      -505.329          25.187    24508256.280   100357215.191 7      -505.329          42.125
G11  22022813.460   115730658.853 7      5095.399          46.562    22022812.660   115730658.858 6      5095.399          37.187    22022818.460    90179760.300 6      3970.441          37.375    22022818.960    90179763.298 8      3970.441          49.875
R21  20722045.380   110887847.643 7      5253.663          46.750    20722044.560   110887847.653 7      5253.663          46.562    20722056.880    86246152.924 8      4086.182          49.562    20722056.520    86246154.926 8      4086.182          49.875
R15  23556245.080   125877439.864 7      4515.641          42.437    23556245.320   125877439.852 6      4515.641          41.062    23556268.560    97904769.953 7      3512.165          44.875    23556267.460    97904766.951 7      3512.165          45.437
G07  22014940.660   115689300.139 7      3444.884          46.750    22014939.400   115689300.142 7      3444.884          46.062    22014948.880    90147526.593 7      2684.325          46.312    22014949.400    90147540.596 7      2684.325          47.125
R07  23703400.860   126886166.317 7      4936.256          44.250    23703401.780   126886166.343 7      4936.256          43.437    23703424.120    98689345.672 7      3839.310          44.250    23703424.580    98689346.680 7      3839.310          43.875
R05  21481168.360   114829150.083 7       152.814          46.500    21481167.840   114829150.085 7       152.814          46.000    21481180.440    89311609.434 8       118.855          48.187    21481180.320    89311610.432 8       118.855          48.187
G09  21561704.460   113307516.240 7       220.277          46.562    21561703.620   113307516.240 7       220.277          47.812    21561711.540    88291600.022 7       171.644          47.562    21561711.600    88291605.020 8       171.644          48.250
G13  24469636.440   128588808.654 7      5992.422          45.062    24469635.360   128588808.661 5      5992.422          31.687    24469653.140   100199074.197 5      4669.420          31.500
G20  23225649.320   122051601.204 7      4762.657          43.250    23225647.920   122051601.211 5      4762.657          30.625    23225651.420    95105155.879 5      3711.161          30.500
G30  22519090.340   118338613.328 7      5196.719          45.312    22519089.220   118338613.335 7      5196.719          43.875    22519105.000    92211972.348 7      4049.392          43.750    22519105.980    92211981.353 7      4049.392          44.812
G17  23772966.280   124927780.361 7      -486.296          43.937    23772965.260   124927780.364 6      -486.296          41.562    23772980.180    97346377.414 6      -378.932          41.812    23772980.520    97346377.413 7      -378.932          44.125
G19  22520429.580   118345649.678 7      -474.988          44.937    22520427.400   118345649.678 6      -474.988          36.875    22520440.700    92217427.395 6      -370.121          36.437
> 2024 07 31 14 47  1.0000000  0 15
R06  20825701.320   111129935.860 6      3168.120          39.250    20825700.940   111129935.858 6      3168.120          38.000
G06  20358516.720   106984739.509 8      2572.811          48.875    20358515.780   106984739.511 8      2572.811          50.937    20358523.640    83364747.868 8      2004.788          51.125    20358524.660    83364753.869 8      2004.788          52.125
G04  24508370.380   128792350.406 6      -648.604          41.187    24508369.580   128792350.418 4      -648.604          25.000    24508380.020   100357707.496 4      -505.405          25.187    24508381.080   100357720.481 6      -505.405          41.937
G11  22021843.860   115725563.542 7      5095.178          46.562    22021843.200   115725563.547 6      5095.178          37.375    22021848.920    90175789.930 6      3970.269          36.875    22021849.180    90175792.927 8      3970.269          50.000
R21  20721063.520   110882594.269 8      5253.002          48.187    20721062.840   110882594.281 7      5253.002          46.250    20721075.020    86242066.968 8      4085.668          49.875    20721075.060    86242068.969 8      4085.668          49.687
R15  23555400.040   125872924.382 7      4515.367          42.437    23555400.640   125872924.383 6      4515.367          41.062    23555423.480    97901257.944 7      3511.952          45.437    23555422.640    97901254.951 7      3511.952          45.500
G07  22014285.160   115685855.527 7      3444.410          46.875    22014283.880   115685855.532 7      3444.410          45.375    22014293.460    90144842.488 7      2683.956          45.562    22014294.180    90144856.490 7      2683.956          47.750
R07  23702478.640   126881230.415 7      4935.854          44.812    23702479.080   126881230.441 7      4935.854          43.562    23702502.120    98685506.654 7      3838.997          44.250    23702502.180    98685507.653 7      3838.997          43.812
R05  21481139.720   114828997.286 7       152.782          46.062    21481139.200   114828997.290 7       152.782          46.000    21481151.740    89311490.585 7       118.830          47.812    21481151.920    89311491.587 8       118.830          48.250
G09  21561662.520   113307296.073 7       220.080          46.687    21561661.720   113307296.072 7       220.080          47.562    21561669.580    88291428.455 7       171.491          47.562    21561670.040    88291433.457 7       171.491          47.750
G13  24468496.000   128582816.132 7      5992.514          43.812    24468495.020   128582816.139 5      5992.514          31.625    24468512.720   100194404.699 5      4669.491          31.500
G20  23224743.280   122046838.421 7      4762.815          43.375    23224741.660   122046838.426 5      4762.815          30.625    23224745.220    95101444.615 5      3711.284          30.500
G30  22518101.700   118333416.621 7      5196.524          44.937    22518100.480   118333416.625 7      5196.524          43.500    22518116.140    92207922.968 7      4049.239          43.312    22518116.980    92207931.975 7      4049.239          44.875
G17  23773058.860   124928266.752 7      -486.410          44.250    23773057.860   124928266.756 6      -486.410          41.750    23773072.740    97346756.422 6      -379.021          41.562    23773073.020    97346756.426 7      -379.021          44.500
G19  22520519.880   118346124.736 7      -475.196          45.000    22520517.800   118346124.738 6      -475.196          36.187    22520531.280    92217797.567 5      -370.283          35.937
> 2024 07 31 14 47  2.0000000  0 15
R06  20825107.680   111126767.777 6      3168.065          39.312    20825107.360   111126767.775 6      3168.065          38.000
G06  20358027.180   106982166.804 8      2572.514          48.437    20358026.180   106982166.811 8      2572.514          50.437    20358034.100    83362743.165 8      2004.556          51.062    20358035.100    83362749.166 8      2004.556          52.125
G04  24508493.580   128792998.751 6      -648.041          40.500    24508492.940   128792998.758 4      -648.041          25.000    24508503.300   100358212.690 4      -504.967          25.187    24508504.360   100358225.647 7      -504.967          43.312
G11  22020874.340   115720468.459 7      5095.025          46.187    22020873.580   115720468.466 6      5095.025          37.312    22020879.340    90171819.738 6      3970.150          37.000    22020879.640    90171822.735 8      3970.150          49.625
R21  20720082.000   110877341.473 7      5252.565          47.250    20720081.200   110877341.485 7      5252.565          46.375    20720093.440    86237981.462 8      4085.328          49.750    20720093.380    86237983.465 8      4085.328          49.312
R15  23554555.140   125868409.345 6      4514.912          41.812    23554555.540   125868409.346 6      4514.912          41.000    23554578.220    97897746.256 7      3511.598          45.437    23554577.740    97897743.256 7      3511.598          45.562
G07  22013629.740   115682411.311 7      3443.964          46.562    22013628.500   115682411.316 7      3443.964          46.062    22013638.020    90142158.689 7      2683.609          45.937    22013638.620    90142172.692 7      2683.609          47.562
R07  23701556.700   126876294.655 7      4935.755          44.312    23701557.220   126876294.683 7      4935.755          43.062    23701580.020    98681667.750 7      3838.921          43.875    23701580.080    98681668.754 7      3838.921          43.812
R05  21481110.880   114828844.408 7       153.035          45.937    21481110.480   114828844.414 7       153.035          45.812    21481123.060    89311371.679 8       119.028          48.125    21481123.180    89311372.676 8       119.028          48.312
G09  21561620.740   113307076.065 7       219.906          46.375    21561619.880   113307076.062 7       219.906          47.937    21561627.780    88291257.018 7       171.356          47.812    21561628.220    88291262.014 7       171.356          47.875
G13  24467355.820   128576823.749 7      5992.367          43.500    24467354.720   128576823.754 5      5992.367          31.625    24467372.560   100189735.308 5      4669.377          31.500
G20  23223836.560   122042075.527 7      4763.016          43.250    23223835.340   122042075.535 5      4763.016          30.625    23223838.940    95097733.274 5      3711.441          30.500
G30  22517112.500   118328220.081 7      5196.449          45.625    22517111.580   118328220.092 7      5196.449          43.625    22517127.280    92203873.737 7      4049.181          43.750    22517128.060    92203882.744 7      4049.181          44.750
G17  23773151.400   124928753.024 7      -486.165          44.500    23773150.540   124928753.026 6      -486.165          41.375    23773165.180    97347135.331 6      -378.830          41.312    23773165.600    97347135.325 7      -378.830          44.250
G19  22520610.460   118346599.915 7      -475.121          45.062    22520608.260   118346599.917 6      -475.121          36.062    22520621.560    92218167.830 6      -370.224          36.312
> 2024 07 31 14 47  3.0000000  0 15
R06  20824513.880   111123600.088 6      3167.664          39.312    20824513.680   111123600.086 6      3167.664          38.000
G06  20357537.680   106979594.690 8      2571.989          49.312    20357536.620   106979594.697 8      2571.989          50.562    20357544.620    83360738.916 8      2004.147          51.187    20357545.620    83360744.916 8      2004.147          51.937
G04  24508616.960   128793647.125 6      -648.198          41.125    24508616.420   128793647.132 4      -648.198          25.000    24508626.800   100358717.915 4      -505.090          25.187    24508626.980   100358730.922 6      -505.090          41.312
G11  22019904.920   115715373.710 7      5094.748          46.312    22019904.080   115715373.715 6      5094.748          37.437    22019909.840    90167849.805 6      3969.934          37.250    22019910.260    90167852.807 8      3969.934          49.875
R21  20719100.240   110872089.349 7      5251.974          46.875    20719099.640   110872089.364 7      5251.974          46.500    20719112.000    86233896.479 8      4084.869          49.875    20719111.720    86233898.481 8      4084.869          49.125
R15  23553710.200   125863894.747 6      4514.578          41.812    23553709.140   125863894.751 6      4514.578          41.000    23553732.700    97894234.920 7      3511.339          45.062    23553732.960    97894231.914 7      3511.339          45.000
G07  22012974.300   115678967.589 7      3443.619          47.375    22012973.180   115678967.594 7      3443.619          46.312    22012982.720    90139475.267 7      2683.339          46.562    22012983.260    90139489.270 7      2683.339          47.750
R07  23700634.860   126871359.221 7      4935.462          44.312    23700635.160   126871359.247 7      4935.462          43.062    23700658.560    98677829.096 7      3838.692          43.812    23700658.100    98677830.100 7      3838.692          44.250
R05  21481082.220   114828691.588 7       153.019          45.625    21481082.100   114828691.592 7       153.019          45.750    21481094.480    89311252.808 8       119.015          48.187    21481094.800    89311253.802 8       119.015          48.812
G09  21561579.000   113306856.271 7       219.812          46.625    21561578.120   113306856.273 7       219.812          47.687    21561585.940    88291085.756 7       171.282          47.687    21561586.660    88291090.754 7       171.282          47.875
G13  24466215.740   128570831.553 7      5992.211          44.187    24466214.360   128570831.563 5      5992.211          31.875    24466232.100   100185066.062 5      4669.256          31.687
G20  23222930.180   122037312.642 7      4762.984          43.500    23222928.960   122037312.649 5      4762.984          30.625    23222932.620    95094021.932 5      3711.416          30.625
G30  22516123.740   118323023.839 7      5196.326          45.250    22516122.740   118323023.847 7      5196.326          43.750    22516138.520    92199824.711 7      4049.085          43.562    22516139.140    92199833.710 7      4049.085          45.937
G17  23773243.940   124929239.272 7      -486.032          43.687    23773242.860   124929239.277 6      -486.032          40.375    23773257.700    97347514.242 6      -378.726          39.875    23773258.160    97347514.253 7      -378.726          43.875
G19  22520700.820   118347075.388 7      -475.481          44.500    22520698.520   118347075.387 6      -475.481          36.250    22520712.160    92218538.319 6      -370.505          36.125
> 2024 07 31 14 47  4.0000000  0 15
R06  20823920.860   111120432.543 6      3167.404          39.312    20823920.240   111120432.552 6      3167.404          38.000
G06  20357048.280   106977022.996 8      2571.539          49.375    20357047.320   106977022.999 8      2571.539          50.937    20357055.300    83358734.991 8      2003.796          51.250    20357056.180    83358740.988 8      2003.796          52.187
G04  24508740.080   128794295.305 6      -648.143          40.062    24508739.740   128794295.315 4      -648.143          25.000    24508750.280   100359222.990 4      -505.047          25.187    24508750.640   100359235.983 6      -505.047          41.750
G11  22018935.460   115710279.116 7      5094.528          45.812    22018934.560   115710279.121 6      5094.528          37.312    22018940.260    90163879.992 6      3969.762          37.375    22018940.760    90163882.992 8      3969.762          50.000
R21  20718118.860   110866837.727 7      5251.413          45.375    20718118.280   110866837.742 7      5251.413          46.375    20718130.560    86229811.880 8      4084.432          49.187    20718130.080    86229813.887 8      4084.432          49.375
R15  23552865.720   125859380.419 6      4514.236          40.812    23552863.360   125859380.431 6      4514.236          41.000    23552887.440    97890723.803 7      3511.073          44.687    23552888.040    97890720.797 7      3511.073          44.500
G07  22012318.920   115675524.206 7      3443.226          46.687    22012317.960   115675524.208 7      3443.226          45.937    22012327.440    90136792.114 7      2683.033          46.062    22012327.820    90136806.118 7      2683.033          47.875
R07  23699713.120   126866423.886 7      4935.349          43.625    23699712.980   126866423.912 7      4935.349          43.312    23699736.660    98673990.494 7      3838.605          44.750    23699736.420    98673991.502 7      3838.605          44.250
R05  21481053.640   114828538.614 7       153.001          46.500    21481053.720   114828538.623 7       153.001          45.562    21481065.920    89311133.823 8       119.001          48.375    21481065.980    89311134.822 8       119.001          48.437
G09  21561537.240   113306636.581 7       219.574          46.687    21561536.280   113306636.586 7       219.574          47.562    21561544.220    88290914.568 7       171.096          47.437    21561544.840    88290919.568 8       171.096          48.500
G13  24465075.500   128564839.376 7      5992.166          42.812    24465074.220   128564839.386 5      5992.166          31.875    24465092.020   100180396.839 5      4669.221          31.687
G20  23222024.060   122032549.556 7      4763.140          42.187    23222022.520   122032549.564 5      4763.140          30.625    23222026.180    95090310.443 5      3711.537          30.625
G30  22515134.960   118317827.700 7      5196.082          45.000    22515133.940   118317827.707 7      5196.082          44.250    22515149.620    92195775.774 7      4048.895          44.062    22515150.080    92195784.770 7      4048.895          45.000
G17  23773336.400   124929725.387 7      -486.010          43.500    23773335.340   124929725.386 6      -486.010          41.500    23773350.120    97347893.031 6      -378.709          41.187    23773350.700    97347893.031 7      -378.709          43.937
G19  22520791.380   118347550.871 7      -475.536          46.000    22520789.080   118347550.871 6      -475.536          36.500    22520802.660    92218908.813 6      -370.547          37.062
> 2024 07 31 14 47  5.0000000  0 15
R06  20823327.040   111117265.369 6      3167.144          39.500    20823326.460   111117265.389 6      3167.144          38.062
G06  20356559.060   106974451.928 8      2570.891          49.187    20356557.940   106974451.930 8      2570.891          50.625    20356566.100    83356731.561 8      2003.292          51.062    20356566.860    83356737.561 8      2003.292          51.812
G04  24508863.740   128794943.542 6      -648.116          40.125    24508863.180   128794943.550 4      -648.116          25.000    24508873.560   100359728.106 4      -505.026          25.187    24508873.180   100359741.095 6      -505.026          41.750
G11  22017966.000   115705184.906 7      5094.167          46.687    22017965.100   115705184.913 6      5094.167          37.625    22017970.940    90159910.483 6      3969.481          37.375    22017971.260    90159913.479 8      3969.481          49.937
R21  20717137.540   110861586.842 7      5250.674          47.187    20717137.240   110861586.851 7      5250.674          46.625    20717149.340    86225727.860 8      4083.858          49.687    20717149.040    86225729.862 8      4083.858          49.437
R15  23552020.560   125854866.627 6      4513.722          40.812    23552018.460   125854866.610 6      4513.722          40.250    23552042.220    97887213.074 7      3510.672          44.250    23552042.780    97887210.074 7      3510.672          44.250
G07  22011663.840   115672081.367 7      3442.728          47.562    22011662.740   115672081.372 7      3442.728          46.562    22011672.440    90134109.394 7      2682.645          46.437    22011672.780    90134123.397 7      2682.645          47.500
R07  23698791.100   126861488.878 7      4934.997          45.062    23698791.100   126861488.907 7      4934.997          43.937    23698814.640    98670152.181 7      3838.331          44.250    23698814.420    98670153.191 7      3838.331          44.437
R05  21481025.300   114828385.707 7       153.042          46.500    21481024.780   114828385.713 7       153.042          45.500    21481037.300    89311014.904 8       119.033          48.125    21481037.240    89311015.902 8       119.033          48.000
G09  21561495.820   113306417.163 7       219.439          46.687    21561494.520   113306417.170 7       219.439          47.187    21561502.380    88290743.584 7       170.991          47.187    21561503.160    88290748.588 7       170.991          47.500
G13  24463935.240   128558847.474 7      5991.883          43.687    24463934.140   128558847.479 5      5991.883          31.875    24463951.940   100175727.820 5      4669.000          31.687
G20  23221117.480   122027786.513 7      4763.206          43.437    23221116.000   122027786.523 5      4763.206          30.437    23221119.820    95086598.985 5      3711.589          30.625
G30  22514146.240   118312631.910 7      5195.692          45.562    22514145.040   118312631.914 7      5195.692          44.250    22514160.820    92191727.116 7      4048.591          43.687    22514161.740    92191736.115 7      4048.591          45.187
G17  23773428.840   124930211.559 7      -486.113          44.000    23773427.820   124930211.564 6      -486.113          41.750    23773442.720    97348271.854 6      -378.789          41.875    23773443.000    97348271.854 7      -378.789          43.875
G19  22520881.760   118348026.660 7      -475.698          45.125    22520879.600   118348026.662 6      -475.698          36.937    22520893.180    92219279.551 6      -370.674          37.250
> 2024 07 31 14 47  6.0000000  0 15
R06  20822733.680   111114098.510 6      3166.589          39.500    20822733.000   111114098.533 6      3166.589          38.062
G06  20356069.820   106971881.396 8      2570.144          49.187    20356068.800   106971881.396 8      2570.144          51.187    20356076.880    83354728.541 8      2002.709          51.562    20356077.640    83354734.542 8      2002.709          51.937
G04  24508987.020   128795591.688 6      -648.151          40.875    24508986.560   128795591.693 4      -648.151          25.000    24508996.920   100360233.150 4      -505.053          25.187    24508996.720   100360246.162 6      -505.053          41.875
G11  22016996.580   115700090.974 7      5093.668          46.437    22016995.820   115700090.981 6      5093.668          38.000    22017001.620    90155941.186 6      3969.092          37.312    22017001.840    90155944.186 8      3969.092          50.375
R21  20716156.440   110856336.574 7      5249.922          46.187    20716155.980   110856336.583 7      5249.922          46.937    20716168.120    86221644.321 8      4083.272          50.000    20716167.860    86221646.323 8      4083.272          49.187
R15  23551175.860   125850353.290 6      4512.900          40.937    23551175.240   125850353.276 6      4512.900          40.250    23551197.080    97883702.701 7      3510.034          44.187    23551198.080    97883699.701 7      3510.034          43.875
G07  22011008.760   115668638.998 7      3442.021          47.750    22011007.680   115668639.003 7      3442.021          46.250    22011017.260    90131427.031 7      2682.094          46.437    22011017.520    90131441.031 8      2682.094          48.125
R07  23697869.380   126856554.130 7      4934.479          45.625    23697869.220   126856554.145 7      4934.479          43.937    23697892.240    98666314.060 7      3837.928          44.687    23697892.720    98666315.066 7      3837.928          44.437
R05  21480996.380   114828232.837 7       152.731          46.937    21480996.260   114828232.843 7       152.731          46.375    21481008.620    89310896.001 8       118.791          49.000    21481008.740    89310896.997 8       118.791          48.312
G09  21561453.880   113306197.986 7       218.899          46.687    21561452.740   113306197.990 7       218.899          47.125    21561460.600    88290572.792 7       170.571          47.000    21561461.020    88290577.794 7       170.571          47.937
G13  24462794.900   128552855.703 7      5991.610          43.250    24462793.880   128552855.708 5      5991.610          31.875    24462811.620   100171058.906 5      4668.787          30.250
G20  23220211.300   122023023.425 7      4763.056          43.250    23220209.600   122023023.435 5      4763.056          30.437    23220213.340    95082887.488 5      3711.473          30.687
G30  22513157.680   118307436.343 7      5195.266          45.562    22513156.500   118307436.350 7      5195.266          43.562    22513172.280    92187678.627 7      4048.259          43.812    22513173.300    92187687.627 7      4048.259          45.125
G17  23773521.400   124930697.655 7      -486.160          44.375    23773520.460   124930697.657 6      -486.160          41.812    23773535.120    97348650.626 7      -378.826          42.000    23773535.560    97348650.624 7      -378.826          43.937
G19  22520972.500   118348502.642 7      -476.172          45.312    22520970.260   118348502.642 6      -476.172          36.875    22520983.860    92219650.438 6      -371.043          37.125
> 2024 07 31 14 47  7.0000000  0 15
R06  20822139.640   111110931.966 6      3166.534          39.500    20822139.760   111110931.980 6      3166.534          38.062
G06  20355580.720   106969311.395 8      2569.888          48.937    20355579.720   106969311.400 8      2569.888          51.312    20355587.780    83352725.943 8      2002.510          51.375    20355588.800    83352731.944 8      2002.510          51.750
G04  24509110.560   128796239.807 6      -647.866          41.062    24509109.860   128796239.815 4      -647.866          25.187    24509120.140   100360738.180 4      -504.830          25.187    24509120.580   100360751.165 7      -504.830          42.625
G11  22016027.360   115694997.331 7      5093.715          46.500    22016026.620   115694997.336 6      5093.715          37.562    22016032.300    90151972.112 6      3969.129          37.562    22016032.640    90151975.107 8      3969.129          49.812
R21  20715175.220   110851086.999 7      5249.434          47.375    20715174.940   110851087.011 7      5249.434          47.062    20715187.100    86217561.320 8      4082.893          49.312    20715186.920    86217563.322 8      4082.893          49.062
R15  23550331.260   125845840.383 6      4512.808          40.937    23550332.260   125845840.366 6      4512.808          40.312    23550353.380    97880192.660 7      3509.962          44.437    23550353.440    97880189.654 7      3509.962          43.812
G07  22010353.500   115665197.081 8      3441.893          48.312    22010352.680   115665197.081 7      3441.893          45.875    22010362.300    90128745.018 7      2681.994          46.250    22010362.760    90128759.020 7      2681.994          47.625
R07  23696947.960   126851619.606 7      4934.587          45.375    23696947.360   126851619.626 7      4934.587          44.062    23696970.740    98662476.110 7      3838.012          44.000    23696970.920    98662477.118 7      3838.012          44.000
R05  21480967.960   114828079.980 7       152.958          46.437    21480967.340   114828079.978 7       152.958          45.500    21480980.100    89310777.104 8       118.967          48.437    21480980.040    89310778.100 8       118.967          48.625
G09  21561412.220   113305978.995 7       219.030          47.562    21561411.140   113305978.995 7       219.030          47.375    21561419.160    88290402.142 7       170.673          47.625    21561419.600    88290407.144 8       170.673          48.375
G13  24461654.500   128546864.091 7      5991.784          44.125    24461653.740   128546864.098 5      5991.784          30.187    24461671.680   100166390.113 5      4668.923          30.250
G20  23219304.940   122018260.284 7      4763.413          43.062    23219303.200   122018260.295 5      4763.413          30.437    23219306.920    95079175.950 5      3711.750          30.687
G30  22512169.120   118302241.010 7      5195.375          45.875    22512167.760   118302241.015 7      5195.375          44.125    22512183.580    92183630.317 7      4048.344          44.125    22512184.740    92183639.314 7      4048.344          45.125
G17  23773613.960   124931183.704 7      -485.739          44.750    23773612.980   124931183.708 6      -485.739          41.875    23773627.580    97349029.361 7      -378.498          42.062    23773628.220    97349029.359 7      -378.498          44.000
G19  22521063.200   118348978.812 7      -476.110          44.812    22521060.760   118348978.819 6      -476.110          36.687    22521074.400    92220021.475 6      -370.995          36.750
> 2024 07 31 14 47  8.0000000  0 15
R06  20821546.720   111107765.622 6      3166.071          39.500    20821546.100   111107765.642 6      3166.071          38.062
G06  20355091.920   106966741.829 8      2569.158          49.500    20355090.740   106966741.834 8      2569.158          50.812    20355098.840    83350723.682 8      2001.941          50.812    20355099.720    83350729.683 8      2001.941          51.750
G04  24509233.780   128796887.761 6      -647.970          40.625    24509233.180   128796887.768 4      -647.970          25.187    24509243.420   100361243.080 4      -504.912          25.187    24509243.840   100361256.060 7      -504.912          43.062
G11  22015058.080   115689903.875 7      5093.226          46.375    22015057.420   115689903.877 6      5093.226          37.437    22015063.000    90148003.189 6      3968.748          37.500    22015063.460    90148006.186 8      3968.748          49.625
R21  20714194.280   110845837.973 7      5248.595          47.687    20714194.200   110845837.983 7      5248.595          46.812    20714206.220    86213478.740 8      4082.241          49.812    20714205.940    86213480.742 8      4082.241          50.000
R15  23549486.960   125841327.789 6      4512.373          41.375    23549488.360   125841327.777 6      4512.373          40.312    23549509.520    97876682.871 7      3509.623          44.875    23549509.340    97876679.865 7      3509.623          45.000
G07  22009698.960   115661755.522 7      3441.166          47.125    22009697.780   115661755.524 7      3441.166          46.125    22009707.460    90126063.293 7      2681.428          46.000    22009707.900    90126077.294 7      2681.428          47.437
R07  23696026.140   126846685.216 7      4934.215          45.437    23696025.720   126846685.241 7      4934.215          44.375    23696048.940    98658638.278 7      3837.723          43.937    23696049.140    98658639.282 7      3837.723          44.125
R05  21480939.100   114827926.995 7       152.889          46.687    21480938.940   114827926.994 7       152.889          45.562    21480951.660    89310658.107 8       118.914          48.000    21480951.740    89310659.103 8       118.914          48.937
G09  21561370.480   113305760.118 7       218.592          47.000    21561369.500   113305760.120 7       218.592          47.187    21561377.400    88290231.586 7       170.331          47.187    21561377.860    88290236.588 8       170.331          48.187
G13  24460514.460   128540872.538 7      5991.344          43.375    24460513.420   128540872.546 5      5991.344          30.187    24460531.460   100161721.369 5      4668.579          30.250
G20  23218398.500   122013496.976 7      4763.316          42.937    23218396.760   122013496.986 5      4763.316          30.562    23218400.480    95075464.283 5      3711.675          30.687
G30  22511180.500   118297045.797 7      5195.003          45.187    22511179.100   118297045.810 7      5195.003          44.000    22511194.980    92179582.110 7      4048.054          43.500    22511195.820    92179591.109 7      4048.054          45.250
G17  23773706.360   124931669.618 7      -485.927          45.000    23773705.460   124931669.623 7      -485.927          42.187    23773720.040    97349407.990 7      -378.644          42.062    23773720.700    97349407.990 7      -378.644          44.125
G19  22521153.820   118349455.078 7      -476.507          44.937    22521151.320   118349455.086 6      -476.507          36.687    22521164.940    92220392.590 6      -371.304          36.687
> 2024 07 31 14 47  9.0000000  0 15
R06  20820953.480   111104599.417 6      3166.131          39.062    20820953.440   111104599.447 6      3166.131          38.250
G06  20354602.860   106964172.648 8      2568.904          49.062    20354601.880   106964172.655 8      2568.904          50.500    20354609.940    83348721.718 8      2001.743          50.937    20354610.940    83348727.720 8      2001.743          51.750
G04  24509356.640   128797535.544 6      -647.590          38.625    24509356.500   128797535.546 4      -647.590          25.187    24509366.520   100361747.841 4      -504.616          25.187    24509366.960   100361760.814 7      -504.616          42.375
G11  22014089.040   115684810.550 7      5093.201          46.375    22014088.260   115684810.552 6      5093.201          37.562    22014093.940    90144034.362 6      3968.728          37.312    22014094.260    90144037.362 8      3968.728          49.875
R21  20713213.540   110840589.418 7      5248.328          46.375    20713213.120   110840589.427 7      5248.328          47.312    20713225.420    86209396.535 8      4082.033          49.875    20713225.100    86209398.539 8      4082.033          49.937
R15  23548642.640   125836815.454 7      4512.175          43.375    23548643.420   125836815.453 6      4512.175          41.625    23548666.040    97873173.300 7      3509.469          45.125    23548664.900    97873170.300 7      3509.469          45.562
G07  22009043.980   115658314.264 7      3441.061          46.500    22009042.900   115658314.264 7      3441.061          46.500    22009052.500    90123381.792 7      2681.346          46.125    22009052.840    90123395.791 7      2681.346          47.500
R07  23695103.700   126841750.973 7      4934.122          45.000    23695104.140   126841751.001 7      4934.122          44.812    23695127.240    98654800.546 7      3837.650          44.062    23695127.120    98654801.546 7      3837.650          44.062
R05  21480910.500   114827773.879 7       153.151          45.937    21480909.940   114827773.872 7       153.151          45.625    21480922.740    89310539.005 8       119.117          48.500    21480922.840    89310540.001 8       119.117          48.625
G09  21561328.620   113305541.280 7       218.736          47.250    21561327.840   113305541.284 8       218.736          48.250    21561335.720    88290061.063 7       170.444          47.750    21561336.480    88290066.063 7       170.444          47.812
G13  24459374.280   128534880.967 7      5991.535          44.437    24459373.200   128534880.975 5      5991.535          30.187    24459391.300   100157052.613 5      4668.729          30.250
G20  23217491.900   122008733.478 7      4763.559          43.000    23217490.300   122008733.485 5      4763.559          30.562    23217494.060    95071752.464 5      3711.864          30.750
G30  22510191.760   118291850.688 7      5195.063          46.187    22510190.680   118291850.690 7      5195.063          43.937    22510206.360    92175533.971 7      4048.101          44.187    22510206.940    92175542.975 7      4048.101          44.875
G17  23773799.040   124932155.312 7      -485.488          44.750    23773797.900   124932155.312 6      -485.488          41.625    23773812.440    97349786.459 6      -378.302          41.250    23773813.040    97349786.459 7      -378.302          43.812
G19  22521244.560   118349931.379 7      -476.444          44.812    22521242.020   118349931.384 6      -476.444          36.562    22521255.580    92220763.723 6      -371.255          36.312
> 2024 07 31 14 47 10.0000000  0 15
R06  20820360.340   111101433.532 6      3165.724          39.062    20820360.780   111101433.567 6      3165.724          38.250
G06  20354114.140   106961603.958 8      2568.547          49.562    20354113.040   106961603.965 8      2568.547          49.125    20354121.140    83346720.142 8      2001.466          49.062    20354122.120    83346726.143 8      2001.466          51.000
G04  24509479.960   128798183.203 6      -647.611          40.687    24509479.720   128798183.213 4      -647.611          25.187    24509489.820   100362252.509 4      -504.632          25.187    24509489.860   100362265.500 7      -504.632          42.375
G11  22013119.760   115679717.467 7      5092.993          45.625    22013119.120   115679717.471 6      5092.993          37.125    22013124.560    90140065.732 6      3968.566          36.937    22013125.060    90140068.732 8      3968.566          48.812
R21  20712233.000   110835341.465 7      5247.747          46.812    20712232.520   110835341.477 7      5247.747          46.875    20712244.580    86205314.800 8      4081.581          48.500    20712244.320    86205316.802 7      4081.581          47.937
R15  23547798.540   125832303.474 7      4511.853          43.375    23547798.780   125832303.467 6      4511.853          41.625    23547821.920    97869663.991 7      3509.219          44.750    23547820.840    97869660.986 7      3509.219          45.187
G07  22008389.380   115654873.419 7      3440.798          46.875    22008388.260   115654873.424 7      3440.798          45.437    22008397.740    90120700.623 7      2681.141          45.187    22008398.380    90120714.625 7      2681.141          47.125
R07  23694182.040   126836816.942 7      4933.912          44.937    23694182.220   126836816.973 7      4933.912          43.875    23694205.620    98650962.977 7      3837.487          44.500    23694205.640    98650963.986 7      3837.487          44.812
R05  21480881.860   114827620.686 7       153.245          46.250    21480881.560   114827620.695 7       153.245          45.312    21480894.100    89310419.862 7       119.190          46.875    21480894.020    89310420.865 7       119.190          47.687
G09  21561287.020   113305322.604 7       218.693          47.250    21561286.280   113305322.607 7       218.693          46.812    21561294.200    88289890.663 7       170.410          46.500    21561294.680    88289895.669 7       170.410          47.437
G13  24458234.320   128528889.531 7      5991.537          44.000    24458232.960   128528889.536 5      5991.537          30.250    24458251.140   100152383.961 5      4668.730          30.000
G20  23216585.460   122003969.878 7      4763.685          43.000    23216583.800   122003969.885 5      4763.685          30.562    23216587.640    95068040.568 5      3711.963          30.750
G30  22509203.180   118286655.775 7      5194.922          46.437    22509202.040   118286655.785 7      5194.922          43.562    22509217.840    92171485.995 7      4047.991          43.062    22509218.560    92171494.998 7      4047.991          44.562
G17  23773891.400   124932640.946 7      -485.442          44.250    23773890.240   124932640.951 6      -485.442          40.562    23773904.960    97350164.879 6      -378.267          40.625    23773905.600    97350164.879 7      -378.267          43.500
G19  22521335.020   118350407.837 7      -476.510          45.562    22521332.700   118350407.839 6      -476.510          36.687    22521346.220    92221134.983 6      -371.307          36.937
> 2024 07 31 14 47 11.0000000  0 15
R06  20819766.820   111098267.948 6      3165.435          39.062    20819767.300   111098267.970 6      3165.435          38.250
G06  20353625.320   106959035.859 8      2567.924          48.125    20353624.340   106959035.861 8      2567.924          50.125    20353632.460    83344719.017 8      2000.980          50.937    20353633.400    83344725.016 8      2000.980          52.062
G04  24509603.020   128798830.865 6      -647.513          39.187    24509602.960   128798830.873 4      -647.513          25.187    24509613.020   100362757.175 4      -504.556          25.187    24509613.040   100362770.145 7      -504.556          42.062
G11  22012150.740   115674624.704 7      5092.681          45.500    22012149.900   115674624.712 6      5092.681          37.187    22012155.420    90136097.348 6      3968.323          36.750    22012155.920    90136100.345 8      3968.323          50.187
R21  20711252.400   110830094.210 7      5246.929          46.312    20711251.940   110830094.219 7      5246.929          45.750    20711264.120    86201233.601 8      4080.945          49.250    20711263.920    86201235.603 8      4080.945          49.312
R15  23546954.340   125827791.906 6      4511.450          41.750    23546952.480   125827791.907 6      4511.450          40.437    23546977.800    97866155.032 7      3508.906          45.500    23546976.720    97866152.030 7      3508.906          45.937
G07  22007734.800   115651433.092 7      3440.188          46.250    22007733.460   115651433.100 7      3440.188          46.000    22007743.100    90118019.852 7      2680.666          46.250    22007743.720    90118033.857 7      2680.666          47.875
R07  23693260.320   126831883.186 7      4933.602          45.187    23693260.480   126831883.209 7      4933.602          43.875    23693283.400    98647125.628 7      3837.246          44.500    23693283.800    98647126.636 7      3837.246          44.937
R05  21480853.620   114827467.540 7       153.254          45.812    21480852.960   114827467.536 7       153.254          45.750    21480865.480    89310300.735 8       119.198          48.687    21480865.480    89310301.733 8       119.198          48.687
G09  21561245.660   113305104.176 7       218.381          47.062    21561244.660   113305104.181 7       218.381          47.562    21561252.600    88289720.459 7       170.167          47.750    21561253.160    88289725.461 8       170.167          48.312
G13  24457094.500   128522898.299 7      5991.196          44.000    24457092.920   128522898.304 5      5991.196          30.250    24457111.020   100147715.466 5      4668.464          30.000
G20  23215679.200   121999206.254 7      4763.761          43.687    23215677.220   121999206.266 5      4763.761          30.687    23215681.200    95064328.660 5      3712.021          30.750
G30  22508214.600   118281461.146 7      5194.560          45.437    22508213.440   118281461.151 7      5194.560          43.312    22508229.300    92167438.234 7      4047.709          43.437    22508229.800    92167447.241 7      4047.709          45.125
G17  23773983.880   124933126.580 7      -485.625          45.000    23773982.560   124933126.584 6      -485.625          40.812    23773997.400    97350543.291 6      -378.409          41.000    23773997.760    97350543.293 7      -378.409          43.500
G19  22521425.800   118350884.529 7      -476.798          44.687    22521423.500   118350884.531 6      -476.798          36.187    22521436.880    92221506.425 6      -371.531          36.437
> 2024 07 31 14 47 12.0000000  0 15
R06  20819173.280   111095102.746 6      3165.103          39.062    20819173.860   111095102.760 6      3165.103          38.250
G06  20353136.720   106956468.374 8      2567.312          49.312    20353135.800   106956468.377 8      2567.312          50.500    20353143.800    83342718.376 8      2000.503          50.875    20353144.840    83342724.377 8      2000.503          51.750
G04  24509726.020   128799478.512 6      -647.419          40.000    24509726.200   128799478.519 4      -647.419          25.187    24509736.320   100363261.830 4      -504.482          25.187    24509735.600   100363274.844 6      -504.482          41.875
G11  22011181.720   115669532.325 7      5092.334          46.250    22011180.920   115669532.330 6      5092.334          37.312    22011186.360    90132129.258 6      3968.052          36.687    22011186.760    90132132.256 8      3968.052          50.125
R21  20710271.700   110824847.672 7      5246.319          47.562    20710271.220   110824847.692 7      5246.319          46.312    20710283.520    86197152.963 8      4080.470          49.625    20710283.400    86197154.965 8      4080.470          49.562
R15  23546110.160   125823280.888 6      4510.926          41.750    23546107.240   125823280.894 6      4510.926          40.437    23546133.160    97862646.490 7      3508.498          45.812    23546132.520    97862643.496 7      3508.498          45.562
G07  22007080.040   115647993.288 7      3439.777          47.062    22007078.900   115647993.295 7      3439.777          45.937    22007088.540    90115339.493 7      2680.345          46.125    22007088.780    90115353.496 8      2680.345          48.250
R07  23692338.840   126826949.765 7      4933.350          44.562    23692338.920   126826949.788 7      4933.350          43.937    23692361.840    98643288.529 7      3837.050          44.375    23692362.280    98643289.537 7      3837.050          44.125
R05  21480825.080   114827314.464 7       153.173          46.625    21480824.060   114827314.460 7       153.173          45.875    21480836.720    89310181.672 8       119.135          48.625    21480837.140    89310182.670 8       119.135          48.000
G09  21561204.000   113304886.040 7       218.144          46.062    21561203.180   113304886.047 8       218.144          48.000    21561211.120    88289550.480 8       169.982          48.187    21561211.360    88289555.483 8       169.982          48.375
G13  24455954.280   128516907.293 7      5991.114          43.312    24455952.900   128516907.298 5      5991.114          30.250    24455971.140   100143047.146 5      4668.401          30.000
G20  23214772.560   121994442.677 7      4763.717          43.187    23214770.740   121994442.690 5      4763.717          30.687    23214774.760    95060616.784 5      3711.987          30.750
G30  22507226.600   118276266.835 7      5194.198          45.437    22507224.940   118276266.848 7      5194.198          44.062    22507240.900    92163390.725 7      4047.427          43.812    22507241.460    92163399.728 7      4047.427          45.000
G17  23774076.340   124933612.234 7      -485.583          44.062    23774075.120   124933612.236 6      -485.583          41.250    23774089.740    97350921.717 6      -378.376          41.187    23774090.060    97350921.723 7      -378.376          43.250
G19  22521516.440   118351361.481 7      -476.893          44.812    22521514.160   118351361.481 6      -476.893          36.625    22521527.720    92221878.070 6      -371.605          36.625
> 2024 07 31 14 47 13.0000000  0 15
R06  20818580.740   111091937.835 6      3164.569          39.062    20818580.700   111091937.849 6      3164.569          37.937
G06  20352648.220   106953901.416 8      2566.598          49.500    20352647.280   106953901.418 8      2566.598          50.562    20352655.420    83340718.144 8      1999.946          51.250    20352656.440    83340724.146 8      1999.946          51.875
G04  24509849.780   128800126.126 6      -647.583          40.937    24509849.300   128800126.134 4      -647.583          25.125    24509859.600   100363766.463 4      -504.610          25.125    24509860.320   100363779.442 7      -504.610          43.625
G11  22010212.660   115664440.193 7      5091.972          46.250    22010211.900   115664440.201 6      5091.972          37.437    22010217.360    90128161.361 6      3967.770          37.187    22010217.840    90128164.361 8      3967.770          50.000
R21  20709291.360   110819601.782 7      5245.576          47.187    20709290.940   110819601.796 7      5245.576          46.687    20709303.280    86193072.818 8      4079.893          49.437    20709303.140    86193074.822 8      4079.893          49.062
R15  23545265.520   125818770.290 6      4510.316          40.875    23545263.580   125818770.285 6      4510.316          40.437    23545288.300    97859138.261 7      3508.024          45.562    23545288.520    97859135.261 7      3508.024          45.312
G07  22006425.560   115644553.943 7      3439.108          47.062    22006424.520   115644553.948 7      3439.108          46.187    22006434.040    90112659.485 7      2679.825          46.312    22006434.140    90112673.487 8      2679.825          48.250
R07  23691417.240   126822016.537 7      4932.957          44.562    23691417.400   126822016.562 7      4932.957          44.125    23691440.380    98639451.600 7      3836.744          43.625    23691440.600    98639452.604 7      3836.744          43.937
R05  21480796.680   114827161.367 7       153.009          46.437    21480795.440   114827161.360 7       153.009          45.937    21480808.160    89310062.594 8       119.007          48.250    21480808.320    89310063.594 8       119.007          48.375
G09  21561162.700   113304668.090 7       217.816          46.125    21561161.740   113304668.097 7       217.816          47.875    21561169.580    88289380.641 7       169.727          47.750    21561169.940    88289385.645 7       169.727          47.937
G13  24454814.220   128510916.432 7      5990.762          42.937    24454812.920   128510916.442 5      5990.762          30.750    24454830.960   100138378.944 5      4668.126          30.625
G20  23213866.200   121989679.029 7      4763.672          42.687    23213864.200   121989679.040 5      4763.672          30.687    23213868.260    95056904.852 5      3711.952          30.375
G30  22506237.840   118271072.727 7      5193.932          45.812    22506236.620   118271072.740 7      5193.932          44.687    22506252.480    92159343.376 7      4047.220          44.562    22506253.400    92159352.383 7      4047.220          45.125
G17  23774168.840   124934097.836 7      -485.699          44.812    23774167.500   124934097.841 6      -485.699          41.500    23774182.240    97351300.098 6      -378.467          40.937    23774182.360    97351300.098 7      -378.467          43.562
G19  22521607.260   118351838.620 7      -477.139          45.250    22521604.900   118351838.620 6      -477.139          36.500    22521618.640    92222249.859 6      -371.797          36.375
> 2024 07 31 14 47 14.0000000  0 15
R06  20817987.860   111088773.134 6      3164.645          39.062    20817987.400   111088773.135 6      3164.645          37.937
G06  20352160.000   106951334.922 8      2566.304          49.562    20352158.920   106951334.919 8      2566.304          51.000    20352166.980    83338718.269 8      1999.718          51.062    20352168.040    83338724.270 8      1999.718          52.125
G04  24509972.940   128800773.636 6      -647.544          40.375    24509972.480   128800773.649 4      -647.544          25.125    24509982.640   100364271.018 4      -504.580          25.125    24509983.560   100364283.991 7      -504.580          43.625
G11  22009243.740   115659348.295 7      5091.862          46.625    22009242.860   115659348.302 6      5091.862          37.562    22009248.420    90124193.650 6      3967.685          37.937    22009248.980    90124196.648 8      3967.685          50.250
R21  20708311.360   110814356.432 7      5245.137          47.437    20708310.600   110814356.447 7      5245.137          46.375    20708322.840    86188993.105 8      4079.551          49.375    20708322.940    86188995.109 8      4079.551          49.312
R15  23544421.080   125814260.054 6      4510.177          40.875    23544420.760   125814260.029 6      4510.177          39.875    23544443.360    97855630.288 7      3507.915          44.625    23544444.200    97855627.290 7      3507.915          45.125
G07  22005771.220   115641114.980 7      3438.833          47.750    22005770.020   115641114.979 7      3438.833          46.375    22005779.720    90109979.773 7      2679.610          46.187    22005779.900    90109993.773 7      2679.610          47.875
R07  23690495.860   126817083.480 7      4933.074          45.500    23690495.520   126817083.508 7      4933.074          44.125    23690518.760    98635614.791 7      3836.836          43.750    23690519.060    98635615.790 7      3836.836          43.875
R05  21480768.180   114827008.209 7       153.222          46.500    21480767.180   114827008.207 7       153.222          45.437    21480779.580    89309943.462 8       119.173          48.500    21480779.500    89309944.461 8       119.173          48.687
G09  21561121.120   113304450.292 7       217.773          47.187    21561120.260   113304450.294 7       217.773          47.812    21561128.200    88289210.921 7       169.693          47.437    21561128.500    88289215.919 7       169.693          47.750
G13  24453674.080   128504925.655 7      5990.774          43.437    24453672.800   128504925.665 5      5990.774          30.750    24453691.160   100133710.808 5      4668.136          30.625
G20  23212959.560   121984915.271 7      4763.722          43.562    23212957.780   121984915.282 5      4763.722          30.625    23212961.700    95053192.835 5      3711.991          30.375
G30  22505249.640   118265878.810 7      5193.849          45.812    22505248.320   118265878.820 7      5193.849          44.125    22505264.260    92155296.168 7      4047.155          44.250    22505264.920    92155305.169 7      4047.155          45.062
G17  23774261.120   124934583.278 7      -485.318          45.375    23774259.880   124934583.280 7      -485.318          42.125    23774274.720    97351678.366 7      -378.170          42.000    23774275.020    97351678.368 7      -378.170          43.937
G19  22521698.080   118352315.891 7      -477.254          45.687    22521695.740   118352315.893 6      -477.254          36.562    22521709.380    92222621.749 6      -371.886          36.437
> 2024 07 31 14 47 15.0000000  0 15
R06  20817394.640   111085608.666 6      3164.354          39.062    20817393.960   111085608.675 6      3164.354          37.937
G06  20351671.760   106948768.867 8      2565.867          49.187    20351670.620   106948768.875 8      2565.867          50.875    20351678.680    83336718.754 8      1999.377          51.062    20351679.660    83336724.755 8      1999.377          52.000
G04  24510096.060   128801420.946 6      -647.141          40.625    24510095.560   128801420.959 4      -647.141          25.125    24510105.640   100364775.415 4      -504.266          25.125    24510105.700   100364788.437 6      -504.266          41.375
G11  22008274.680   115654256.583 7      5091.776          46.750    22008273.920   115654256.588 6      5091.776          37.750    22008279.560    90120226.085 6      3967.618          37.687    22008280.140    90120229.078 8      3967.618          50.000
R21  20707331.120   110809111.649 7      5244.645          47.312    20707330.840   110809111.659 7      5244.645          47.250    20707342.800    86184913.830 8      4079.169          49.500    20707342.780    86184915.832 8      4079.169          49.312
R15  23543577.180   125809750.148 6      4509.657          41.562    23543577.760   125809750.136 6      4509.657          39.875    23543598.800    97852122.587 7      3507.511          44.250    23543599.760    97852119.589 7      3507.511          44.187
G07  22005116.920   115637676.363 7      3438.537          47.687    22005115.660   115637676.368 7      3438.537          46.375    22005125.320    90107300.344 7      2679.379          46.312    22005125.800    90107314.346 7      2679.379          47.875
R07  23689574.580   126812150.562 7      4932.950          44.812    23689573.840   126812150.590 7      4932.950          44.125    23689597.660    98631778.096 7      3836.739          43.500    23689597.600    98631779.099 7      3836.739          44.125
R05  21480739.240   114826854.927 7       153.458          46.437    21480738.240   114826854.928 7       153.458          45.250    21480750.680    89309824.245 8       119.356          48.312    21480750.860    89309825.239 8       119.356          48.562
G09  21561079.740   113304232.587 7       217.770          47.500    21561078.800   113304232.589 7       217.770          47.375    21561086.720    88289041.278 7       169.691          47.375    21561087.100    88289046.278 8       169.691          48.375
G13  24452534.140   128498934.940 7      5990.801          43.812    24452532.880   128498934.951 5      5990.801          30.750    24452551.020   100129042.715 5      4668.156          30.625
G20  23212052.800   121980151.343 7      4763.986          43.250    23212051.300   121980151.350 5      4763.986          30.625    23212055.120    95049480.685 5      3712.197          30.375
G30  22504261.320   118260685.035 7      5193.781          45.687    22504259.840   118260685.043 7      5193.781          44.312    22504275.800    92151249.079 7      4047.102          43.875    22504276.680    92151258.078 7      4047.102          45.500
G17  23774353.360   124935068.620 7      -485.166          45.000    23774352.280   124935068.625 6      -485.166          41.875    23774366.900    97352056.557 6      -378.052          41.937    23774367.340    97352056.555 7      -378.052          43.875
G19  22521788.940   118352793.276 7      -477.417          45.187    22521786.660   118352793.279 6      -477.417          36.375    22521800.140    92222993.734 6      -372.013          36.437
> 2024 07 31 14 47 16.0000000  0 15
R06  20816801.780   111082444.358 6      3164.310          39.062    20816801.360   111082444.367 6      3164.310          37.937
G06  20351183.460   106946203.206 8      2565.551          49.500    20351182.420   106946203.211 8      2565.551          50.500    20351190.500    83334719.536 8      1999.131          51.125    20351191.300    83334725.535 8      1999.131          51.625
G04  24510219.200   128802068.120 6      -647.069          41.375    24510218.800   128802068.132 4      -647.069          25.125    24510228.780   100365279.708 4      -504.210          25.125    24510229.360   100365292.706 6      -504.210          41.875
G11  22007305.800   115649165.042 7      5091.571          46.125    22007305.120   115649165.047 6      5091.571          38.000    22007310.600    90116258.648 6      3967.458          37.062    22007311.140    90116261.642 8      3967.458          49.812
R21  20706350.960   110803867.407 7      5244.062          46.812    20706350.860   110803867.419 7      5244.062          46.687    20706362.860    86180834.971 8      4078.715          49.687    20706362.500    86180836.975 8      4078.715          48.937
R15  23542733.840   125805240.482 7      4509.494          42.625    23542734.400   125805240.470 6      4509.494          41.375    23542754.660    97848615.067 7      3507.384          44.250    23542755.700    97848612.065 7      3507.384          43.812
G07  22004462.600   115634238.093 7      3438.134          47.312    22004461.420   115634238.098 7      3438.134          45.437    22004471.040    90104621.174 7      2679.066          45.687    22004471.560    90104635.177 8      2679.066          48.375
R07  23688652.900   126807217.764 7      4932.794          44.875    23688652.620   126807217.790 7      4932.794          44.312    23688676.360    98627941.490 7      3836.618          43.812    23688675.860    98627942.500 7      3836.618          43.812
R05  21480710.680   114826701.536 7       153.416          46.375    21480709.700   114826701.545 7       153.416          45.437    21480722.200    89309704.941 8       119.323          48.000    21480722.100    89309705.948 8       119.323          48.000
G09  21561038.280   113304014.962 7       217.628          46.937    21561037.460   113304014.970 7       217.628          47.437    21561045.300    88288871.703 7       169.580          47.562    21561045.580    88288876.707 8       169.580          48.125
G13  24451393.960   128492944.250 7      5990.734          44.250    24451392.800   128492944.260 5      5990.734          30.375    24451410.900   100124374.645 5      4668.105          30.625
G20  23211146.420   121975387.246 7      4764.160          43.187    23211144.740   121975387.253 5      4764.160          30.625    23211148.480    95045768.404 5      3712.332          30.687
G30  22503272.560   118255491.360 7      5193.737          45.375    22503271.540   118255491.362 7      5193.737          43.812    22503287.380    92147202.062 7      4047.068          43.750    22503288.540    92147211.063 7      4047.068          45.750
G17  23774445.720   124935553.786 7      -484.991          45.125    23774444.660   124935553.788 6      -484.991          41.437    23774459.300    97352434.602 6      -377.915          41.750    23774459.800    97352434.608 7      -377.915          43.812
G19  22521879.520   118353270.704 7      -477.522          45.062    22521877.520   118353270.709 6      -477.522          36.875    22521891.080    92223365.752 6      -372.095          36.562
> 2024 07 31 14 47 17.0000000  0 15
R06  20816208.620   111079280.444 6      3163.489          39.250    20816208.680   111079280.461 6      3163.489          37.750
G06  20350695.360   106943638.150 8      2564.572          49.500    20350694.280   106943638.155 8      2564.572          50.750    20350702.320    83332720.784 8      1998.368          51.437    20350703.200    83332726.784 8      1998.368          52.500
G04  24510342.620   128802715.296 6      -647.538          40.687    24510341.860   128802715.311 4      -647.538          25.125    24510351.980   100365784.001 4      -504.575          25.125    24510352.660   100365796.999 7      -504.575          42.562
G11  22006336.960   115644073.830 7      5090.772          46.125    22006336.380   115644073.835 6      5090.772          37.750    22006341.760    90112291.468 6      3966.835          37.625    22006342.380    90112294.467 8      3966.835          50.062
R21  20705371.180   110798623.826 7      5242.971          46.312    20705370.880   110798623.840 7      5242.971          46.562    20705382.800    86176756.634 8      4077.866          49.437    20705382.740    86176758.638 8      4077.866          49.625
R15  23541890.180   125800731.300 7      4508.689          42.625    23541890.760   125800731.298 6      4508.689          41.375    23541911.500    97845107.932 7      3506.758          44.562    23541911.880    97845104.925 7      3506.758          44.375
G07  22003808.460   115630800.317 7      3437.329          46.812    22003807.240   115630800.320 7      3437.329          46.000    22003816.780    90101942.386 7      2678.439          45.687    22003817.440    90101956.390 7      2678.439          47.812
R07  23687731.680   126802285.261 7      4932.190          44.750    23687731.440   126802285.282 7      4932.190          44.187    23687754.460    98624105.111 7      3836.148          43.437    23687754.500    98624106.117 7      3836.148          43.437
R05  21480682.140   114826548.177 7       153.091          46.625    21480681.120   114826548.178 7       153.091          45.687    21480693.520    89309585.657 8       119.071          48.187    21480693.540    89309586.656 8       119.071          48.562
G09  21560996.800   113303797.580 7       217.027          46.500    21560996.060   113303797.585 7       217.027          47.687    21561003.940    88288702.312 7       169.112          47.812    21561004.260    88288707.314 8       169.112          48.062
G13  24450253.960   128486953.764 7      5990.188          43.562    24450253.060   128486953.777 5      5990.188          30.375    24450270.960   100119706.734 5      4667.679          30.250
G20  23210239.840   121970623.128 7      4763.842          43.250    23210238.140   121970623.138 5      4763.842          30.562    23210241.880    95042056.106 5      3712.084          30.687
G30  22502284.400   118250297.972 7      5193.100          45.562    22502283.280   118250297.979 7      5193.100          44.375    22502299.200    92143155.270 7      4046.572          44.250    22502300.020    92143164.270 7      4046.572          45.312
G17  23774537.960   124936038.954 7      -485.413          45.562    23774537.000   124936038.954 6      -485.413          41.812    23774551.540    97352812.649 6      -378.244          41.875    23774551.860    97352812.649 7      -378.244          43.750
G19  22521970.540   118353748.361 7      -477.963          44.875    22521968.360   118353748.366 6      -477.963          36.187    22521981.820    92223737.946 6      -372.439          36.375
> 2024 07 31 14 47 18.0000000  0 15
R06  20815615.640   111076116.939 6      3163.244          39.250    20815615.740   111076116.924 6      3163.244          37.750
G06  20350207.400   106941073.680 8      2564.187          48.937    20350206.280   106941073.685 8      2564.187          51.125    20350214.400    83330722.494 8      1998.067          51.125    20350215.120    83330728.493 8      1998.067          51.750
G04  24510465.520   128803362.427 6      -647.116          40.750    24510464.960   128803362.437 4      -647.116          25.125    24510474.820   100366288.251 4      -504.246          25.125    24510475.900   100366301.236 7      -504.246          42.562
G11  22005368.060   115638982.959 7      5090.608          46.187    22005367.640   115638982.967 6      5090.608          38.000    22005372.840    90108324.555 6      3966.708          37.562    22005373.640    90108327.553 8      3966.708          49.437
R21  20704391.220   110793380.932 7      5242.582          47.312    20704391.220   110793380.947 7      5242.582          46.000    20704403.180    86172678.828 8      4077.564          49.375    20704402.920    86172680.830 8      4077.564          48.875
R15  23541046.420   125796222.620 6      4508.397          41.750    23541046.260   125796222.626 6      4508.397          41.187    23541068.760    97841601.191 7      3506.531          44.750    23541068.040    97841598.187 7      3506.531          45.000
G07  22003154.280   115627363.056 7      3437.018          46.187    22003153.120   115627363.056 7      3437.018          45.812    22003162.800    90099264.003 7      2678.196          45.625    22003163.240    90099278.009 7      2678.196          47.625
R07  23686810.280   126797353.074 7      4932.047          45.250    23686810.020   126797353.105 7      4932.047          44.187    23686832.780    98620268.982 7      3836.037          43.562    23686833.060    98620269.988 7      3836.037          43.187
R05  21480653.500   114826394.887 7       153.306          46.625    21480652.560   114826394.883 7       153.306          45.625    21480664.620    89309466.413 7       119.238          47.812    21480665.120    89309467.408 7       119.238          47.750
G09  21560955.660   113303580.445 7       217.053          46.187    21560954.800   113303580.452 7       217.053          47.500    21560962.600    88288533.113 7       169.132          47.250    21560963.060    88288538.117 8       169.132          48.062
G13  24449113.720   128480963.489 7      5990.184          43.437    24449113.140   128480963.499 5      5990.184          30.375    24449131.100   100115038.985 5      4667.676          30.250
G20  23209333.380   121965859.007 7      4764.162          42.875    23209331.560   121965859.012 5      4764.162          30.562    23209335.240    95038343.809 5      3712.334          30.687
G30  22501296.220   118245104.896 7      5192.869          45.000    22501295.040   118245104.898 7      5192.869          44.000    22501310.960    92139108.719 7      4046.391          44.187    22501311.580    92139117.722 7      4046.391          45.062
G17  23774630.300   124936524.123 7      -485.222          45.562    23774629.260   124936524.125 6      -485.222          41.625    23774643.920    97353190.700 6      -378.095          41.875    23774644.280    97353190.701 7      -378.095          43.875
G19  22522061.740   118354226.272 7      -478.035          45.312    22522059.400   118354226.272 6      -478.035          36.062    22522072.720    92224110.336 6      -372.495          36.437
> 2024 07 31 14 47 19.0000000  0 15
R06  20815022.800   111072953.802 6      3162.991          39.250    20815022.740   111072953.814 6      3162.991          37.750
G06  20349719.580   106938509.879 8      2563.723          49.312    20349718.460   106938509.881 8      2563.723          51.312    20349726.500    83328724.721 8      1997.706          51.875    20349727.460    83328730.720 8      1997.706          52.250
G04  24510588.700   128804009.695 6      -647.318          40.187    24510588.220   128804009.708 4      -647.318          25.500    24510597.940   100366792.618 4      -504.404          25.687    24510599.620   100366805.593 7      -504.404          43.187
G11  22004399.100   115633892.491 7      5090.452          46.125    22004398.880   115633892.495 6      5090.452          37.437    22004404.240    90104357.956 6      3966.586          37.000    22004404.860    90104360.958 8      3966.586          49.687
R21  20703412.120   110788138.828 7      5241.972          47.187    20703411.220   110788138.848 7      5241.972          46.625    20703423.620    86168601.646 8      4077.090          49.437    20703423.040    86168603.648 8      4077.090          49.062
R15  23540203.040   125791714.487 6      4508.211          41.750    23540201.340   125791714.505 6      4508.211          41.187    23540226.000    97838094.901 7      3506.386          45.625    23540224.600    97838091.895 7      3506.386          45.812
G07  22002500.500   115623926.387 7      3436.597          47.625    22002499.120   115623926.389 7      3436.597          46.062    22002508.840    90096586.084 7      2677.868          45.875    22002509.260    90096600.091 7      2677.868          47.875
R07  23685889.300   126792421.273 7      4931.763          45.500    23685888.540   126792421.298 7      4931.763          43.937    23685911.520    98616433.149 7      3835.816          43.062    23685912.120    98616434.153 7      3835.816          42.500
R05  21480625.040   114826241.701 7       153.345          46.812    21480623.880   114826241.705 7       153.345          46.562    21480636.000    89309347.269 8       119.269          48.500    21480635.900    89309348.266 8       119.269          48.375
G09  21560914.180   113303363.677 7       216.857          46.000    21560913.500   113303363.679 8       216.857          48.125    21560921.380    88288364.197 8       168.979          48.125    21560921.700    88288369.201 7       168.979          47.937
G13  24447973.820   128474973.503 7      5990.028          43.000    24447973.340   128474973.508 5      5990.028          30.375    24447991.220   100110371.461 5      4667.554          30.250
G20  23208426.800   121961094.976 7      4764.227          42.750    23208425.040   121961094.984 5      4764.227          30.562    23208428.680    95034631.578 5      3712.385          30.187
G30  22500307.860   118239912.166 7      5192.725          45.250    22500306.820   118239912.174 7      5192.725          43.812    22500322.820    92135062.447 7      4046.279          43.937    22500323.540    92135071.441 7      4046.279          44.812
G17  23774722.580   124937009.357 7      -485.099          45.312    23774721.580   124937009.362 6      -485.099          41.812    23774736.220    97353568.807 6      -377.999          41.812    23774736.440    97353568.811 7      -377.999          43.625
G19  22522152.800   118354704.530 7      -478.420          44.562    22522150.340   118354704.538 5      -478.420          35.875    22522163.720    92224483.000 5      -372.795          35.750
> 2024 07 31 14 47 20.0000000  0 15
R06  20814430.420   111069791.015 6      3162.613          39.562    20814430.020   111069791.024 6      3162.613          37.750
G06  20349231.780   106935946.649 8      2562.923          49.437    20349230.700   106935946.649 8      2562.923          50.437    20349238.760    83326727.395 8      1997.083          51.187    20349239.620    83326733.396 8      1997.083          52.062
G04  24510711.940   128804656.887 6      -647.301          39.312    24510711.380   128804656.894 4      -647.301          25.500    24510721.180   100367296.919 4      -504.391          25.687    24510722.280   100367309.888 7      -504.391          43.125
G11  22003430.740   115628802.353 7      5089.910          46.250    22003430.220   115628802.358 6      5089.910          38.000    22003435.660    90100391.619 6      3966.164          37.687    22003436.260    90100394.619 8      3966.164          50.000
R21  20702432.520   110782897.408 7      5240.969          47.437    20702431.740   110782897.428 7      5240.969          46.562    20702444.000    86164524.982 8      4076.309          49.125    20702443.620    86164526.986 8      4076.309          49.250
R15  23539358.360   125787206.900 6      4507.246          41.250    23539357.580   125787206.888 6      4507.246          40.625    23539382.980    97834589.012 7      3505.636          45.312    23539381.300    97834586.012 7      3505.636          46.062
G07  22001846.480   115620490.216 7      3435.826          47.625    22001845.220   115620490.219 7      3435.826          46.375    22001854.920    90093908.553 7      2677.267          45.937    22001855.180    90093922.558 7      2677.267          47.687
R07  23684967.820   126787489.725 7      4931.294          44.562    23684967.300   126787489.748 7      4931.294          43.937    23684990.520    98612597.518 7      3835.451          43.062    23684990.640    98612598.519 7      3835.451          42.750
R05  21480595.820   114826088.543 7       153.020          47.625    21480595.180   114826088.549 7       153.020          46.125    21480607.420    89309228.148 7       119.016          47.687    21480607.500    89309229.146 8       119.016          48.187
G09  21560872.920   113303147.146 7       216.313          46.937    21560872.340   113303147.151 7       216.313          47.562    21560880.100    88288195.470 7       168.556          47.437    21560880.700    88288200.474 7       168.556          47.937
G13  24446834.240   128468983.687 7      5989.645          43.937    24446833.360   128468983.692 5      5989.645          30.250    24446851.180   100105704.070 5      4667.256          30.187
G20  23207520.100   121956330.945 7      4763.908          43.187    23207518.440   121956330.947 4      4763.908          29.875    23207522.160    95030919.346 5      3712.136          30.187
G30  22499320.000   118234719.711 7      5192.291          45.250    22499318.780   118234719.718 7      5192.291          44.125    22499334.860    92131016.383 7      4045.941          44.062    22499335.920    92131025.382 7      4045.941          45.375
G17  23774814.920   124937494.594 7      -485.295          44.562    23774813.960   124937494.599 6      -485.295          41.437    23774828.600    97353946.912 6      -378.152          41.812    23774829.340    97353946.914 7      -378.152          43.750
G19  22522243.620   118355182.983 7      -478.792          44.625    22522241.400   118355182.990 6      -478.792          36.000    22522254.740    92224855.817 5      -373.084          35.937
> 2024 07 31 14 47 21.0000000  0 15
R06  20813837.880   111066628.516 6      3162.469          39.562    20813837.620   111066628.519 6      3162.469          38.375
G06  20348744.000   106933383.939 8      2562.556          49.937    20348742.960   106933383.944 8      2562.556          51.750    20348751.060    83324730.480 8      1996.797          51.375    20348751.880    83324736.481 8      1996.797          51.500
G04  24510835.060   128805304.023 6      -647.091          41.875    24510834.500   128805304.036 4      -647.091          25.500    24510844.260   100367801.179 4      -504.227          25.687    24510845.140   100367814.175 7      -504.227          42.437
G11  22002462.020   115623712.491 7      5089.772          46.125    22002461.700   115623712.499 6      5089.772          37.375    22002467.140    90096425.491 6      3966.056          37.625    22002467.660    90096428.495 8      3966.056          50.125
R21  20701453.200   110777656.620 8      5240.581          48.875    20701452.700   110777656.630 8      5240.581          48.000    20701464.540    86160448.803 8      4076.008          49.500    20701464.520    86160450.807 8      4076.008          48.875
R15  23538514.680   125782699.628 6      4507.160          41.250    23538514.160   125782699.619 6      4507.160          40.625    23538539.600    97831083.383 7      3505.569          46.000    23538538.240    97831080.381 7      3505.569          46.687
G07  22001192.740   115617054.487 7      3435.533          47.875    22001191.440   115617054.495 7      3435.533          46.250    22001201.080    90091231.370 7      2677.038          46.062    22001201.580    90091245.370 7      2677.038          47.562
R07  23684046.460   126782558.405 7      4931.307          46.125    23684045.940   126782558.428 7      4931.307          44.250    23684069.740    98608762.059 7      3835.461          43.312    23684069.500    98608763.069 7      3835.461          42.625
R05  21480567.280   114825935.349 8       153.311          48.000    21480566.580   114825935.351 7       153.311          47.312    21480578.800    89309108.987 7       119.242          47.750    21480578.860    89309109.983 8       119.242          48.312
G09  21560831.800   113302930.783 7       216.389          46.750    21560831.060   113302930.790 7       216.389          47.562    21560839.020    88288026.871 7       168.615          46.812    21560839.340    88288031.873 8       168.615          48.062
G13  24445694.420   128462994.045 7      5989.581          44.437    24445693.540   128462994.053 5      5989.581          30.250    24445711.480   100101036.815 5      4667.206          30.187
G20  23206613.420   121951566.806 7      4764.338          42.812    23206611.900   121951566.811 4      4764.338          29.875    23206615.620    95027207.032 5      3712.471          30.187
G30  22498331.860   118229527.494 7      5192.235          45.312    22498330.820   118229527.499 7      5192.235          44.187    22498346.820    92126970.498 7      4045.897          44.000    22498348.060    92126979.501 7      4045.897          45.187
G17  23774907.060   124937979.776 7      -485.058          45.125    23774906.240   124937979.775 6      -485.058          41.687    23774920.900    97354324.969 7      -377.967          42.000    23774921.480    97354324.973 7      -377.967          43.500
G19  22522334.740   118355661.622 7      -478.705          44.375    22522332.460   118355661.621 5      -478.705          35.875    22522345.980    92225228.772 5      -373.017          35.875
> 2024 07 31 14 47 22.0000000  0 15
R06  20813245.360   111063466.184 6      3162.305          39.562    20813244.680   111063466.199 6      3162.305          38.375
G06  20348256.680   106930821.662 8      2562.134          50.000    20348255.380   106930821.667 8      2562.134          49.812    20348263.480    83322733.895 8      1996.468          49.250    20348264.480    83322739.896 8      1996.468          50.062
G04  24510958.040   128805951.007 6      -646.732          39.937    24510957.640   128805951.015 4      -646.732          25.500    24510967.420   100368305.317 4      -503.947          25.687    24510968.640   100368318.300 7      -503.947          42.312
G11  22001493.540   115618622.795 7      5089.689          46.437    22001493.340   115618622.797 6      5089.689          37.187    22001498.480    90092459.494 6      3965.991          37.437    22001499.120    90092462.496 8      3965.991          48.562
R21  20700473.900   110772416.365 8      5240.081          48.937    20700473.260   110772416.377 8      5240.081          48.000    20700485.240    86156373.053 8      4075.619          48.625    20700485.280    86156375.055 7      4075.619          47.750
R15  23537671.280   125778192.661 7      4506.884          42.250    23537671.640   125778192.656 6      4506.884          40.625    23537695.520    97827577.983 7      3505.354          45.000    23537694.940    97827574.981 7      3505.354          45.437
G07  22000538.980   115613619.094 7      3435.338          47.062    22000537.700   115613619.097 7      3435.338          46.312    22000547.380    90088554.438 7      2676.886          45.875    22000547.980    90088568.441 7      2676.886          46.875
R07  23683125.420   126777627.262 7      4931.132          46.125    23683124.680   126777627.274 7      4931.132          44.687    23683148.140    98604926.734 7      3835.325          42.812    23683148.260    98604927.737 7      3835.325          43.187
R05  21480538.640   114825782.065 7       153.351          47.937    21480537.940   114825782.069 7       153.351          46.812    21480549.860    89308989.760 7       119.273          46.937    21480550.120    89308990.758 7       119.273          46.875
G09  21560790.600   113302714.533 7       216.265          47.125    21560790.020   113302714.538 7       216.265          46.937    21560797.880    88287858.358 7       168.519          46.750    21560798.420    88287863.360 7       168.519          47.500
G13  24444554.660   128457004.419 7      5989.673          43.937    24444553.900   128457004.426 5      5989.673          30.250    24444571.720   100096369.569 5      4667.278          30.187
G20  23205706.680   121946802.533 7      4764.445          42.937    23205705.300   121946802.538 4      4764.445          29.875    23205709.060    95023494.616 5      3712.554          30.187
G30  22497343.900   118224335.393 7      5192.102          45.875    22497342.840   118224335.403 7      5192.102          43.625    22497358.780    92122924.711 7      4045.794          43.437    22497359.620    92122933.716 7      4045.794          44.875
G17  23774999.440   124938464.786 7      -484.876          45.500    23774998.500   124938464.789 6      -484.876          41.062    23775013.200    97354702.900 6      -377.825          41.375    23775013.840    97354702.904 7      -377.825          43.562
G19  22522425.740   118356140.332 7      -478.627          45.000    22522423.540   118356140.334 5      -478.627          35.562    22522437.160    92225601.787 5      -372.956          35.437
> 2024 07 31 14 47 23.0000000  0 15
R06  20812652.280   111060304.000 6      3161.772          40.062    20812652.140   111060304.006 6      3161.772          38.375
G06  20347768.980   106928259.764 8      2561.398          49.187    20347767.900   106928259.764 8      2561.398          52.000    20347775.900    83320737.604 8      1995.894          51.625    20347777.160    83320743.605 8      1995.894          51.875
G04  24511080.920   128806597.768 6      -646.999          40.375    24511080.760   128806597.781 4      -646.999          25.500    24511090.680   100368809.286 4      -504.155          25.687    24511091.480   100368822.277 7      -504.155          42.312
G11  22000525.200   115613533.225 7      5089.183          46.062    22000524.840   115613533.232 6      5089.183          37.437    22000529.920    90088493.599 6      3965.597          37.562    22000530.500    90088496.597 8      3965.597          49.562
R21  20699494.460   110767176.591 7      5239.248          47.500    20699494.080   110767176.598 7      5239.248          46.750    20699506.080    86152297.673 8      4074.971          49.125    20699505.940    86152299.673 8      4074.971          48.875
R15  23536827.600   125773685.939 7      4506.342          42.250    23536829.120   125773685.938 6      4506.342          41.187    23536851.500    97824072.761 7      3504.933          45.187    23536851.420    97824069.767 7      3504.933          45.875
G07  21999885.100   115610184.020 7      3434.628          46.500    21999884.100   115610184.025 7      3434.628          46.375    21999893.740    90085877.763 7      2676.333          45.875    21999894.360    90085891.765 7      2676.333          47.562
R07  23682204.200   126772696.148 7      4930.861          46.125    23682203.140   126772696.171 7      4930.861          44.687    23682226.900    98601091.448 7      3835.114          42.687    23682227.040    98601092.458 7      3835.114          42.875
R05  21480509.960   114825628.588 7       153.262          47.937    21480509.200   114825628.600 7       153.262          47.500    21480521.240    89308870.393 7       119.204          47.937    21480521.420    89308871.389 8       119.204          48.375
G09  21560749.380   113302498.301 7       215.973          47.312    21560748.820   113302498.301 8       215.973          48.062    21560756.660    88287689.860 7       168.291          47.625    21560757.380    88287694.864 8       168.291          48.375
G13  24443414.920   128451014.782 7      5989.433          44.625    24443414.340   128451014.789 5      5989.433          30.687    24443432.040   100091702.318 5      4667.091          30.875
G20  23204800.040   121942038.031 7      4764.360          43.500    23204798.700   121942038.041 5      4764.360          30.187    23204802.440    95019782.017 4      3712.488          29.937
G30  22496355.680   118219143.360 7      5191.696          44.687    22496354.800   118219143.370 7      5191.696          43.750    22496370.680    92118878.981 7      4045.477          44.000    22496371.020    92118887.986 7      4045.477          45.437
G17  23775091.800   124938949.595 7      -485.017          45.687    23775090.720   124938949.597 6      -485.017          41.062    23775105.500    97355080.668 6      -377.936          41.062    23775105.880    97355080.667 7      -377.936          43.312
G19  22522517.040   118356619.081 7      -479.013          45.062    22522514.600   118356619.084 5      -479.013          35.562    22522528.160    92225974.832 5      -373.257          35.437
> 2024 07 31 14 47 24.0000000  0 15
R06  20812060.260   111057142.224 6      3161.694          40.062    20812060.040   111057142.224 6      3161.694          38.375
G06  20347281.420   106925698.515 8      2561.038          49.625    20347280.500   106925698.520 8      2561.038          50.625    20347288.520    83318741.828 8      1995.614          50.812    20347289.660    83318747.829 8      1995.614          52.000
G04  24511204.480   128807244.592 6      -646.737          39.625    24511203.940   128807244.605 4      -646.737          25.500    24511213.880   100369313.301 4      -503.951          25.687    24511214.340   100369326.315 7      -503.951          42.250
G11  21999556.680   115608444.059 7      5089.106          46.875    21999556.360   115608444.064 6      5089.106          37.437    21999561.420    90084528.018 6      3965.537          37.312    21999562.300    90084531.018 8      3965.537          49.625
R21  20698515.360   110761937.550 7      5238.827          47.437    20698515.000   110761937.562 7      5238.827          46.687    20698526.960    86148222.864 8      4074.643          49.187    20698527.000    86148224.866 8      4074.643          48.812
R15  23535984.940   125769179.821 7      4505.963          43.375    23535986.100   125769179.812 6      4505.963          41.187    23536007.140    97820567.995 7      3504.638          44.375    23536007.940    97820565.001 7      3504.638          44.187
G07  21999231.580   115606749.507 7      3434.392          46.750    21999230.440   115606749.512 7      3434.392          45.750    21999240.120    90083201.525 7      2676.150          45.750    21999240.640    90083215.530 8      2676.150          48.187
R07  23681283.040   126767765.436 7      4930.683          45.625    23681282.180   126767765.456 7      4930.683          44.312    23681305.780    98597256.470 7      3834.976          43.000    23681305.780    98597257.476 7      3834.976          42.687
R05  21480481.520   114825475.245 7       153.418          47.312    21480480.560   114825475.254 7       153.418          45.875    21480492.560    89308751.124 8       119.325          48.187    21480492.700    89308752.116 7       119.325          47.937
G09  21560708.240   113302282.406 7       215.848          46.312    21560707.760   113302282.411 7       215.848          47.625    21560715.580    88287521.630 7       168.193          47.500    21560716.380    88287526.634 8       168.193          48.125
G13  24442275.120   128445025.458 7      5989.375          44.125    24442274.560   128445025.462 5      5989.375          30.687    24442292.300   100087035.310 5      4667.046          30.875
G20  23203893.260   121937273.614 7      4764.467          43.937    23203892.060   121937273.621 5      4764.467          30.187    23203895.720    95016069.486 4      3712.571          29.937
G30  22495367.840   118213951.692 7      5191.650          45.062    22495366.800   118213951.702 7      5191.650          43.937    22495382.720    92114833.530 7      4045.442          44.000    22495383.540    92114842.533 7      4045.442          44.687
G17  23775184.120   124939434.461 7      -484.737          45.687    23775183.120   124939434.461 6      -484.737          41.187    23775197.740    97355458.486 6      -377.717          41.500    23775198.100    97355458.485 7      -377.717          43.750
G19  22522608.220   118357098.157 7      -479.188          44.500    22522605.660   118357098.156 5      -479.188          35.687    22522619.360    92226348.131 5      -373.393          35.750
> 2024 07 31 14 47 25.0000000  0 15
R06  20811467.740   111053980.752 6      3161.296          40.062    20811467.280   111053980.755 6      3161.296          38.875
G06  20346794.360   106923137.805 8      2560.341          48.812    20346793.240   106923137.810 8      2560.341          50.437    20346801.280    83316746.463 8      1995.071          51.500    20346802.160    83316752.466 8      1995.071          52.187
G04  24511327.500   128807891.353 6      -646.774          41.062    24511327.080   128807891.366 4      -646.774          25.562    24511336.840   100369817.272 4      -503.979          25.562    24511338.360   100369830.262 7      -503.979          43.062
G11  21998588.240   115603355.193 7      5088.546          46.062    21998587.940   115603355.201 6      5088.546          37.750    21998593.140    90080562.668 6      3965.101          37.625    21998593.700    90080565.674 8      3965.101          50.187
R21  20697536.440   110756699.159 7      5237.930          47.687    20697536.100   110756699.171 7      5237.930          46.562    20697548.200    86144148.562 8      4073.946          49.312    20697548.020    86144150.566 8      4073.946          49.250
R15  23535142.040   125764674.110 7      4505.397          42.375    23535141.960   125764674.106 6      4505.397          41.875    23535163.260    97817063.557 7      3504.197          44.437    23535164.560    97817060.561 7      3504.197          44.125
G07  21998577.940   115603315.452 7      3433.835          47.125    21998577.060   115603315.457 7      3433.835          46.125    21998586.620    90080525.640 7      2675.715          46.187    21998587.180    90080539.643 7      2675.715          47.937
R07  23680362.080   126762834.953 7      4930.325          44.187    23680361.380   126762834.979 7      4930.325          43.875    23680384.660    98593421.663 7      3834.697          42.875    23680384.880    98593422.669 7      3834.697          43.000
R05  21480452.880   114825321.918 7       153.199          46.750    21480451.800   114825321.911 7       153.199          45.875    21480464.060    89308631.851 8       119.155          48.312    21480464.300    89308632.847 7       119.155          47.812
G09  21560667.620   113302066.703 7       215.576          46.937    21560666.660   113302066.705 7       215.576          47.437    21560674.540    88287353.545 7       167.981          47.750    21560675.080    88287358.549 8       167.981          48.125
G13  24441135.540   128439036.254 7      5989.132          43.562    24441134.880   128439036.259 5      5989.132          30.687    24441152.620   100082368.398 5      4666.856          30.875
G20  23202986.580   121932509.120 7      4764.438          43.062    23202985.160   121932509.128 5      4764.438          30.187    23202989.100    95012356.894 4      3712.549          29.937
G30  22494379.980   118208760.274 7      5191.189          44.875    22494378.940   118208760.284 7      5191.189          44.250    22494394.940    92110788.274 7      4045.082          44.250    22494395.580    92110797.274 7      4045.082          45.187
G17  23775276.400   124939919.280 7      -484.805          45.687    23775275.440   124939919.283 6      -484.805          41.000    23775289.860    97355836.265 6      -377.770          41.312    23775290.720    97355836.266 7      -377.770          43.312
G19  22522699.360   118357577.400 7      -479.507          44.562    22522696.820   118357577.402 5      -479.507          35.375    22522710.640    92226721.564 5      -373.642          35.312
> 2024 07 31 14 47 26.0000000  0 15
R06  20810875.120   111050819.674 6      3160.833          40.062    20810874.500   111050819.673 6      3160.833          38.875
G06  20346307.240   106920577.678 8      2559.815          48.812    20346306.100   106920577.683 8      2559.815          50.875    20346314.120    83314751.558 8      1994.661          51.312    20346314.920    83314757.560 8      1994.661          52.125
G04  24511450.520   128808538.164 6      -646.886          40.625    24511450.140   128808538.174 4      -646.886          25.562    24511460.020   100370321.275 4      -504.067          25.562    24511461.180   100370334.256 7      -504.067          43.312
G11  21997620.060   115598266.653 7      5088.279          46.312    21997619.580   115598266.663 6      5088.279          37.750    21997624.880    90076597.576 6      3964.893          37.687    21997625.280    90076600.573 8      3964.893          50.062
R21  20696557.660   110751461.478 7      5237.300          47.937    20696557.380   110751461.487 7      5237.300          46.812    20696569.420    86140074.812 8      4073.455          49.625    20696569.280    86140076.814 8      4073.455          48.625
R15  23534299.060   125760168.890 7      4504.921          42.375    23534297.660   125760168.894 6      4504.921          41.875    23534320.360    97813559.509 7      3503.827          44.187    23534321.200    97813556.511 7      3503.827          44.125
G07  21997924.420   115599881.917 7      3433.217          46.937    21997923.760   115599881.927 7      3433.217          46.062    21997933.240    90077850.167 7      2675.234          46.062    21997933.600    90077864.171 7      2675.234          47.812
R07  23679441.260   126757904.800 7      4929.920          45.437    23679440.140   126757904.829 7      4929.920          43.812    23679463.900    98589587.121 7      3834.382          42.875    23679463.560    98589588.120 7      3834.382          43.312
R05  21480424.260   114825168.615 7       153.223          46.437    21480423.360   114825168.614 7       153.223          46.187    21480435.300    89308512.611 8       119.173          48.375    21480435.560    89308513.614 8       119.173          48.187
G09  21560626.620   113301851.270 7       215.242          46.562    21560625.640   113301851.277 7       215.242          47.500    21560633.520    88287185.680 7       167.721          47.562    21560634.100    88287190.684 7       167.721          47.875
G13  24439996.000   128433047.287 7      5988.807          43.375    24439995.100   128433047.297 5      5988.807          30.937    24440012.960   100077701.675 5      4666.603          30.875
G20  23202080.120   121927744.645 7      4764.431          43.562    23202078.620   121927744.655 5      4764.431          30.562    23202082.540    95008644.320 5      3712.544          30.500
G30  22493392.260   118203569.137 7      5190.935          44.562    22493391.180   118203569.145 7      5190.935          44.125    22493407.100    92106743.234 7      4044.885          43.875    22493407.580    92106752.235 7      4044.885          45.187
G17  23775368.480   124940404.120 7      -484.952          45.750    23775367.600   124940404.125 6      -484.952          41.500    23775382.160    97356214.067 6      -377.885          41.625    23775382.540    97356214.069 7      -377.885          43.437
G19  22522790.380   118358056.872 7      -479.533          44.437    22522788.060   118358056.872 5      -479.533          35.000    22522801.660    92227095.168 5      -373.662          35.375
> 2024 07 31 14 47 27.0000000  0 15
R06  20810283.100   111047658.808 6      3160.691          39.500    20810282.580   111047658.814 6      3160.691          38.875
G06  20345820.160   106918018.029 8      2559.387          48.937    20345819.000   106918018.028 8      2559.387          51.000    20345827.100    83312757.019 8      1994.328          50.937    20345827.800    83312763.022 8      1994.328          51.812
G04  24511574.060   128809184.812 6      -646.791          40.312    24511573.120   128809184.819 4      -646.791          25.562    24511583.140   100370825.154 4      -503.993          25.562    24511584.320   100370838.135 7      -503.993          42.875
G11  21996651.860   115593178.344 7      5088.041          46.437    21996651.180   115593178.351 6      5088.041          38.000    21996656.740    90072632.655 6      3964.708          37.437    21996656.900    90072635.655 8      3964.708          49.875
R21  20695579.060   110746224.395 7      5236.782          46.062    20695578.560   110746224.408 7      5236.782          46.750    20695590.620    86136001.526 8      4073.053          49.437    20695590.680    86136003.526 8      4073.053          48.437
R15  23533455.680   125755664.001 6      4504.504          41.312    23533454.240   125755664.015 6      4504.504          40.562    23533478.000    97810055.734 7      3503.503          44.437    23533478.000    97810052.727 7      3503.503          44.062
G07  21997271.100   115596448.776 7      3432.822          47.250    21997270.320   115596448.781 7      3432.822          45.937    21997280.000    90075174.994 7      2674.927          45.875    21997280.640    90075188.996 7      2674.927          47.687
R07  23678520.320   126752974.824 7      4929.859          44.625    23678519.440   126752974.839 7      4929.859          43.812    23678543.100    98585752.699 7      3834.334          42.937    23678542.800    98585753.709 7      3834.334          43.062
R05  21480395.440   114825015.240 7       153.265          47.062    21480394.480   114825015.247 7       153.265          45.937    21480406.620    89308393.324 7       119.206          47.937    21480407.000    89308394.320 8       119.206          48.375
G09  21560585.640   113301635.966 7       215.187          47.125    21560584.680   113301635.971 7       215.187          47.625    21560592.680    88287017.900 7       167.679          47.625    21560592.900    88287022.902 8       167.679          48.562
G13  24438856.280   128427058.407 7      5988.778          43.625    24438855.500   128427058.417 5      5988.778          30.937    24438873.220   100073035.009 5      4666.580          30.812
G20  23201173.600   121922980.044 7      4764.582          43.812    23201172.040   121922980.054 5      4764.582          30.562    23201175.940    95004931.643 5      3712.662          30.500
G30  22492404.260   118198378.169 7      5190.782          44.687    22492403.280   118198378.176 7      5190.782          44.750    22492419.300    92102698.331 7      4044.765          44.687    22492419.980    92102707.332 7      4044.765          45.625
G17  23775460.700   124940888.848 7      -484.821          44.750    23775459.760   124940888.845 6      -484.821          41.437    23775474.400    97356591.768 6      -377.783          41.375    23775475.040    97356591.770 7      -377.783          43.000
G19  22522881.860   118358536.499 7      -479.730          44.125    22522879.400   118358536.499 6      -479.730          36.125    22522893.020    92227468.895 5      -373.816          35.375
> 2024 07 31 14 47 28.0000000  0 15
R06  20809690.680   111044498.230 6      3160.684          39.500    20809690.100   111044498.236 6      3160.684          38.875
G06  20345333.100   106915458.892 8      2559.106          49.187    20345331.960   106915458.894 8      2559.106          51.312    20345340.020    83310762.884 8      1994.109          51.000    20345340.960    83310768.885 8      1994.109          51.562
G04  24511696.880   128809831.349 6      -646.226          40.687    24511696.040   128809831.357 4      -646.226          25.562    24511706.120   100371328.948 4      -503.553          25.562    24511706.620   100371341.949 7      -503.553          42.875
G11  21995683.860   115588090.287 7      5088.101          46.750    21995682.920   115588090.292 6      5088.101          37.500    21995688.420    90068667.936 6      3964.754          37.875    21995688.900    90068670.936 8      3964.754          50.312
R21  20694600.860   110740987.937 7      5236.317          46.562    20694599.900   110740987.949 7      5236.317          46.750    20694612.140    86131928.726 8      4072.691          49.812    20694611.940    86131930.726 8      4072.691          48.875
R15  23532612.580   125751159.460 6      4504.598          41.312    23532610.960   125751159.461 6      4504.598          40.562    23532635.680    97806552.210 7      3503.576          44.812    23532635.260    97806549.206 7      3503.576          45.625
G07  21996617.880   115593016.053 7      3432.693          47.250    21996617.120   115593016.058 7      3432.693          45.812    21996626.760    90072500.147 7      2674.826          45.562    21996627.080    90072514.155 7      2674.826          47.812
R07  23677598.840   126748045.054 7      4929.887          44.500    23677598.260   126748045.079 7      4929.887          44.000    23677622.140    98581918.452 7      3834.357          42.500    23677621.900    98581919.464 7      3834.357          42.812
R05  21480366.260   114824861.838 7       153.644          46.625    21480366.000   114824861.847 7       153.644          46.625    21480377.940    89308274.009 8       119.501          48.187    21480378.200    89308275.005 7       119.501          47.937
G09  21560544.660   113301420.830 7       215.364          46.562    21560543.720   113301420.835 7       215.364          47.812    21560551.740    88286850.258 7       167.816          47.625    21560552.300    88286855.260 8       167.816          48.125
G13  24437716.600   128421069.635 7      5988.945          43.562    24437715.800   128421069.642 5      5988.945          30.937    24437733.520   100068368.435 5      4666.711          30.812
G20  23200266.860   121918215.355 7      4764.969          43.187    23200265.360   121918215.371 5      4764.969          30.562    23200269.100    95001218.901 5      3712.963          30.500
G30  22491416.520   118193187.426 7      5190.811          45.312    22491415.520   118193187.431 7      5190.811          44.187    22491431.600    92098653.599 7      4044.788          44.125    22491432.240    92098662.602 7      4044.788          45.437
G17  23775553.000   124941373.475 7      -484.457          45.187    23775552.120   124941373.474 6      -484.457          41.687    23775566.600    97356969.398 6      -377.499          41.687    23775567.280    97356969.410 7      -377.499          43.000
G19  22522973.160   118359016.268 7      -479.533          44.062    22522970.720   118359016.273 5      -479.533          35.500    22522984.420    92227842.737 5      -373.662          35.750
> 2024 07 31 14 47 29.0000000  0 15
R06  20809098.240   111041337.881 6      3160.123          39.500    20809098.320   111041337.887 6      3160.123          38.125
G06  20344846.300   106912900.236 8      2558.279          48.812    20344845.140   106912900.241 8      2558.279          51.187    20344853.120    83308769.126 8      1993.464          51.562    20344854.120    83308775.128 8      1993.464          52.500
G04  24511819.540   128810477.826 6      -646.537          40.125    24511819.080   128810477.834 4      -646.537          25.562    24511829.020   100371832.692 4      -503.795          25.562    24511829.500   100371845.697 7      -503.795          42.250
G11  21994715.600   115583002.443 7      5087.659          46.875    21994714.920   115583002.448 6      5087.659          37.812    21994720.340    90064703.384 6      3964.409          37.312    21994720.800    90064706.386 8      3964.409          50.187
R21  20693622.420   110735752.037 7      5235.458          46.062    20693621.860   110735752.044 7      5235.458          46.375    20693633.740    86127856.356 8      4072.023          49.750    20693633.660    86127858.358 8      4072.023          48.562
R15  23531769.340   125746655.303 6      4503.975          41.375    23531768.760   125746655.291 6      4503.975          40.125    23531793.500    97803048.987 7      3503.092          45.125    23531792.700    97803045.981 7      3503.092          46.125
G07  21995964.960   115589583.739 7      3432.043          47.625    21995963.940   115589583.742 7      3432.043          46.375    21995973.600    90069825.619 7      2674.319          46.062    21995974.060    90069839.625 7      2674.319          47.937
R07  23676677.800   126743115.474 7      4929.382          44.750    23676677.540   126743115.497 7      4929.382          43.875    23676700.500    98578084.353 7      3833.964          42.500    23676701.000    98578085.360 7      3833.964          42.750
R05  21480337.460   114824708.391 7       153.380          47.125    21480337.260   114824708.397 7       153.380          46.750    21480349.300    89308154.657 8       119.296          48.187    21480349.300    89308155.657 8       119.296          48.187
G09  21560503.960   113301205.873 7       214.792          46.625    21560502.780   113301205.878 7       214.792          47.500    21560510.760    88286682.756 7       167.370          47.875    21560511.260    88286687.763 8       167.370          48.562
G13  24436576.960   128415080.991 7      5988.431          43.500    24436576.100   128415081.001 5      5988.431          30.875    24436594.040   100063701.957 5      4666.310          30.812
G20  23199360.040   121913450.565 7      4764.783          43.375    23199358.660   121913450.575 5      4764.783          30.562    23199362.320    94997506.078 5      3712.818          30.437
G30  22490428.640   118187996.859 7      5190.341          45.875    22490427.880   118187996.861 7      5190.341          44.687    22490443.800    92094609.008 7      4044.421          44.250    22490444.540    92094618.006 7      4044.421          45.687
G17  23775645.300   124941858.000 7      -484.521          45.375    23775644.340   124941857.999 6      -484.521          41.375    23775658.780    97357346.950 6      -377.549          41.250    23775659.460    97357346.946 7      -377.549          43.312
G19  22523064.500   118359496.198 7      -480.016          44.375    22523062.060   118359496.200 5      -480.016          35.500    22523075.600    92228216.700 5      -374.038          35.625
> 2024 07 31 14 47 30.0000000  0 15
R06  20808506.080   111038177.916 6      3159.929          39.875    20808505.600   111038177.933 6      3159.929          38.125
G06  20344359.360   106910342.198 8      2557.874          48.812    20344358.280   106910342.203 8      2557.874          51.187    20344366.340    83306775.846 8      1993.149          51.500    20344367.480    83306781.847 8      1993.149          52.312
G04  24511942.760   128811124.296 6      -646.334          40.250    24511942.080   128811124.306 4      -646.334          25.937    24511952.140   100372336.434 4      -503.637          25.562    24511953.400   100372349.425 7      -503.637          42.937
G11  21993747.540   115577915.001 7      5087.444          47.062    21993746.720   115577915.009 6      5087.444          37.875    21993752.120    90060739.146 6      3964.242          37.750    21993752.680    90060742.144 8      3964.242          49.750
R21  20692643.980   110730516.833 7      5235.020          46.062    20692643.020   110730516.848 7      5235.020          46.687    20692655.400    86123784.537 8      4071.682          49.562    20692655.220    86123786.539 8      4071.682          48.687
R15  23530926.580   125742151.732 6      4503.470          41.375    23530926.840   125742151.714 6      4503.470          40.125    23530950.820    97799546.212 7      3502.699          45.875    23530950.000    97799543.214 7      3502.699          46.125
G07  21995311.840   115586151.973 7      3431.669          47.875    21995310.880   115586151.972 7      3431.669          46.187    21995320.460    90067151.519 7      2674.028          46.250    21995320.880    90067165.522 7      2674.028          47.437
R07  23675757.200   126738186.220 7      4929.210          45.125    23675756.800   126738186.243 7      4929.210          43.875    23675779.840    98574250.503 7      3833.830          43.000    23675780.400    98574251.509 7      3833.830          42.687
R05  21480308.760   114824555.026 7       153.555          46.250    21480308.420   114824555.017 7       153.555          46.625    21480320.560    89308035.357 7       119.432          47.937    21480320.760    89308036.359 8       119.432          48.437
G09  21560463.100   113300991.165 7       214.781          46.937    21560461.900   113300991.173 7       214.781          47.437    21560469.900    88286515.450 7       167.361          47.375    21560470.500    88286520.452 8       167.361          48.500
G13  24435437.720   128409092.550 7      5988.599          44.000    24435436.560   128409092.563 5      5988.599          30.875    24435454.500   100059035.637 5      4666.441          30.875
G20  23198453.320   121908685.822 7      4764.869          43.812    23198452.040   121908685.829 5      4764.869          30.375    23198455.580    94993793.289 5      3712.885          30.437
G30  22489441.320   118182806.613 7      5190.301          44.937    22489440.060   118182806.618 7      5190.301          44.562    22489456.120    92090564.666 7      4044.390          44.250    22489457.000    92090573.663 7      4044.390          45.562
G17  23775737.520   124942342.593 7      -484.475          45.562    23775736.440   124942342.600 6      -484.475          41.312    23775751.040    97357724.557 6      -377.513          41.625    23775751.100    97357724.559 7      -377.513          43.250
G19  22523155.880   118359976.382 7      -480.047          44.125    22523153.500   118359976.384 5      -480.047          35.375    22523167.000    92228590.863 5      -374.062          35.250
> 2024 07 31 14 47 31.0000000  0 15
R06  20807914.160   111035018.219 6      3159.579          39.875    20807913.720   111035018.225 6      3159.579          38.125
G06  20343872.800   106907784.659 8      2557.239          50.000    20343871.640   106907784.664 8      2557.239          51.312    20343879.700    83304782.954 8      1992.654          51.000    20343880.520    83304788.955 8      1992.654          51.937
G04  24512065.500   128811770.710 6      -646.342          39.875    24512065.060   128811770.717 4      -646.342          25.937    24512075.380   100372840.127 4      -503.643          25.875    24512075.960   100372853.090 7      -503.643          43.937
G11  21992779.420   115572827.807 7      5086.967          46.375    21992778.780   115572827.811 6      5086.967          37.750    21992783.920    90056775.096 6      3963.870          37.250    21992784.620    90056778.096 8      3963.870          49.812
R21  20691665.700   110725282.276 7      5234.228          46.687    20691665.120   110725282.283 7      5234.228          46.562    20691677.200    86119713.209 8      4071.066          49.875    20691677.140    86119715.209 8      4071.066          48.375
R15  23530083.980   125737648.545 7      4503.014          42.250    23530085.320   125737648.525 6      4503.014          40.125    23530108.380    97796043.741 7      3502.344          45.625    23530107.300    97796040.741 7      3502.344          46.062
G07  21994658.740   115582720.632 7      3430.988          47.625    21994657.880   115582720.636 7      3430.988          45.750    21994667.640    90064477.751 7      2673.497          45.937    21994667.940    90064491.753 8      2673.497          48.250
R07  23674836.060   126733257.151 7      4928.942          45.125    23674835.700   126733257.177 7      4928.942          43.750    23674859.560    98570416.802 7      3833.621          42.812    23674859.440    98570417.805 7      3833.621          42.062
R05  21480280.080   114824401.598 7       153.343          46.875    21480279.920   114824401.604 7       153.343          46.125    21480291.840    89307916.029 8       119.267          48.375    21480292.180    89307917.030 8       119.267          48.250
G09  21560422.260   113300776.655 7       214.383          46.375    21560421.140   113300776.657 7       214.383          47.500    21560429.060    88286348.291 7       167.052          47.500    21560429.760    88286353.295 8       167.052          48.187
G13  24434297.880   128403104.271 7      5988.122          43.062    24434297.280   128403104.284 5      5988.122          30.875    24434314.940   100054369.444 5      4666.069          30.875
G20  23197546.500   121903920.973 7      4764.860          43.750    23197545.340   121903920.978 5      4764.860          30.375    23197548.860    94990080.418 5      3712.878          30.437
G30  22488453.760   118177616.572 7      5189.904          45.062    22488452.520   118177616.574 7      5189.904          44.187    22488468.420    92086520.482 7      4044.081          44.250    22488469.620    92086529.485 7      4044.081          45.750
G17  23775829.820   124942827.104 7      -484.623          45.187    23775828.660   124942827.107 6      -484.623          41.375    23775843.320    97358102.094 6      -377.628          41.437    23775843.780    97358102.094 7      -377.628          43.125
G19  22523247.520   118360456.731 7      -480.433          44.687    22523244.840   118360456.736 5      -480.433          35.375    22523258.460    92228965.159 5      -374.363          35.750
> 2024 07 31 14 47 32.0000000  0 15
R06  20807322.060   111031858.764 6      3159.435          39.875    20807321.040   111031858.754 6      3159.435          38.125
G06  20343386.040   106905227.603 8      2556.893          49.812    20343385.100   106905227.608 8      2556.893          51.437    20343393.080    83302790.441 8      1992.384          51.437    20343394.040    83302796.440 8      1992.384          51.812
G04  24512189.000   128812417.024 6      -646.268          40.437    24512188.020   128812417.029 4      -646.268          25.937    24512198.320   100373343.745 4      -503.586          25.875    24512198.500   100373356.740 7      -503.586          42.125
G11  21991811.280   115567740.824 7      5086.979          46.687    21991810.700   115567740.832 6      5086.979          37.625    21991815.860    90052811.214 6      3963.880          37.437    21991816.620    90052814.216 8      3963.880          50.062
R21  20690687.660   110720048.357 7      5233.621          46.500    20690686.940   110720048.366 7      5233.621          46.687    20690699.060    86115642.384 8      4070.594          49.375    20690698.940    86115644.387 8      4070.594          49.250
R15  23529241.420   125733145.711 7      4502.735          42.250    23529242.120   125733145.709 6      4502.735          41.000    23529265.400    97792541.558 7      3502.128          45.437    23529264.760    97792538.564 7      3502.128          46.375
G07  21994005.840   115579289.658 7      3430.905          47.625    21994005.000   115579289.661 7      3430.905          46.437    21994014.700    90061804.267 7      2673.432          46.187    21994014.960    90061818.274 8      2673.432          48.000
R07  23673915.280   126728328.301 7      4928.880          44.937    23673915.080   126728328.330 7      4928.880          43.875    23673938.720    98566583.266 7      3833.573          43.000    23673938.660    98566584.266 7      3833.573          42.625
R05  21480251.600   114824248.113 7       153.580          47.500    21480251.280   114824248.117 7       153.580          46.062    21480263.320    89307796.644 8       119.451          48.312    21480263.360    89307797.638 8       119.451          48.562
G09  21560381.300   113300562.270 7       214.447          46.812    21560380.380   113300562.272 7       214.447          47.625    21560388.240    88286181.234 7       167.101          47.812    21560388.680    88286186.240 8       167.101          48.187
G13  24433158.440   128397116.056 7      5988.307          44.000    24433157.860   128397116.069 5      5988.307          30.875    24433175.340   100049703.306 5      4666.213          30.875
G20  23196639.980   121899156.012 7      4765.115          43.812    23196638.400   121899156.009 5      4765.115          30.375    23196642.220    94986367.463 5      3713.077          30.437
G30  22487466.140   118172426.722 7      5189.845          45.000    22487464.820   118172426.727 7      5189.845          44.812    22487480.920    92082476.450 7      4044.035          44.562    22487481.880    92082485.453 7      4044.035          46.187
G17  23775921.940   124943311.474 7      -484.305          45.625    23775920.840   124943311.484 6      -484.305          41.375    23775935.440    97358479.527 6      -377.381          41.250    23775936.060    97358479.529 7      -377.381          43.125
G19  22523338.900   118360937.204 7      -480.451          44.562    22523336.460   118360937.207 5      -480.451          35.312    22523349.820    92229339.546 5      -374.378          35.750
> 2024 07 31 14 47 33.0000000  0 15
R06  20806729.980   111028699.749 6      3158.917          39.812    20806729.760   111028699.734 6      3158.917          38.187
G06  20342899.620   106902671.226 8      2556.125          49.187    20342898.580   106902671.231 8      2556.125          51.125    20342906.580    83300798.454 8      1991.785          51.437    20342907.580    83300804.454 8      1991.785          51.312
G04  24512311.900   128813063.367 6      -646.256          40.625    24512310.980   128813063.374 4      -646.256          25.937    24512321.340   100373847.386 4      -503.576          25.875    24512321.680   100373860.394 7      -503.576          42.000
G11  21990843.360   115562654.281 7      5086.446          46.625    21990842.740   115562654.286 6      5086.446          37.875    21990847.960    90048847.674 6      3963.465          37.375    21990848.760    90048850.673 8      3963.465          49.812
R21  20689709.800   110714815.184 7      5232.882          47.437    20689709.020   110714815.196 7      5232.882          46.437    20689721.000    86111572.141 8      4070.019          49.187    20689721.100    86111574.143 8      4070.019          49.187
R15  23528399.220   125728643.406 7      4502.244          42.312    23528398.860   125728643.412 6      4502.244          41.000    23528422.660    97789039.790 7      3501.746          45.500    23528422.260    97789036.794 7      3501.746          45.937
G07  21993353.200   115575859.308 7      3430.181          47.562    21993352.240   115575859.310 7      3430.181          45.750    21993361.900    90059131.273 7      2672.868          45.937    21993362.020    90059145.278 7      2672.868          47.625
R07  23672994.780   126723399.864 7      4928.329          45.562    23672994.260   126723399.884 7      4928.329          44.250    23673018.340    98562750.050 7      3833.145          42.500    23673018.000    98562751.056 7      3833.145          43.000
R05  21480222.720   114824094.740 7       153.388          47.812    21480222.560   114824094.747 7       153.388          45.812    21480234.520    89307677.352 8       119.302          48.312    21480234.760    89307678.347 8       119.302          48.500
G09  21560340.600   113300348.238 7       213.931          46.625    21560339.600   113300348.237 7       213.931          47.750    21560347.580    88286014.451 7       166.700          47.875    21560348.060    88286019.453 7       166.700          47.812
G13  24432018.880   128391128.161 7      5987.851          44.062    24432018.220   128391128.171 5      5987.851          30.875    24432035.900   100045037.410 5      4665.858          30.687
G20  23195733.180   121894391.134 7      4764.857          43.187    23195731.580   121894391.137 5      4764.857          30.125    23195735.360    94982654.573 5      3712.875          30.125
G30  22486478.500   118167237.249 7      5189.370          45.250    22486477.280   118167237.251 7      5189.370          44.375    22486493.380    92078432.708 7      4043.665          44.312    22486494.240    92078441.711 7      4043.665          46.062
G17  23776014.080   124943795.938 7      -484.285          46.000    23776013.020   124943795.941 6      -484.285          41.187    23776027.640    97358857.028 6      -377.365          41.250    23776028.020    97358857.032 7      -377.365          43.062
G19  22523430.060   118361418.022 7      -480.948          44.312    22523427.880   118361418.027 5      -480.948          35.437    22523441.440    92229714.207 5      -374.765          35.000
> 2024 07 31 14 47 34.0000000  0 15
R06  20806136.920   111025540.947 6      3158.779          39.812    20806137.940   111025540.959 6      3158.779          38.187
G06  20342413.300   106900115.310 8      2555.805          49.125    20342412.240   106900115.315 8      2555.805          49.500    20342420.280    83298806.826 8      1991.536          49.562    20342421.120    83298812.829 8      1991.536          50.250
G04  24512434.940   128813709.613 6      -646.024          40.812    24512433.960   128813709.620 4      -646.024          25.937    24512444.460   100374350.955 4      -503.395          25.875    24512445.700   100374363.952 7      -503.395          43.875
G11  21989875.420   115557567.959 7      5086.293          46.000    21989874.940   115557567.966 6      5086.293          37.375    21989880.000    90044884.307 6      3963.345          37.625    21989880.680    90044887.307 8      3963.345          48.562
R21  20688731.940   110709582.575 7      5232.458          47.000    20688731.380   110709582.587 7      5232.458          47.187    20688743.340    86107502.332 8      4069.690          49.437    20688743.320    86107504.334 7      4069.690          47.937
R15  23527556.840   125724141.483 7      4501.813          42.312    23527555.600   125724141.479 6      4501.813          40.875    23527579.540    97785538.307 7      3501.410          45.312    23527579.480    97785535.309 7      3501.410          45.437
G07  21992700.620   115572429.341 7      3429.871          47.312    21992699.540   115572429.348 7      3429.871          45.500    21992709.240    90056458.580 7      2672.627          45.375    21992709.480    90056472.584 7      2672.627          47.375
R07  23672073.840   126718471.585 7      4928.347          44.312    23672073.520   126718471.597 7      4928.347          44.250    23672097.500    98558916.956 7      3833.159          42.375    23672097.440    98558917.962 7      3833.159          42.375
R05  21480193.920   114823941.317 7       153.601          46.000    21480193.960   114823941.313 7       153.601          46.375    21480205.820    89307558.013 7       119.467          47.062    21480205.940    89307559.009 7       119.467          47.187
G09  21560299.920   113300134.334 7       213.845          46.625    21560298.880   113300134.339 7       213.845          47.250    21560306.860    88285847.773 7       166.632          47.125    21560307.680    88285852.773 7       166.632          47.250
G13  24430879.540   128385140.358 7      5987.783          43.500    24430878.760   128385140.366 5      5987.783          30.875    24430896.560   100040371.586 5      4665.805          30.687
G20  23194826.360   121889626.136 7      4765.122          42.625    23194824.780   121889626.141 5      4765.122          30.125    23194828.800    94978941.590 5      3713.082          30.125
G30  22485491.000   118162047.935 7      5189.385          45.312    22485489.860   118162047.940 7      5189.385          44.687    22485505.880    92074389.092 7      4043.676          43.875    22485506.960    92074398.094 7      4043.676          45.562
G17  23776106.160   124944280.316 7      -484.212          45.312    23776105.240   124944280.324 6      -484.212          40.562    23776119.740    97359234.465 6      -377.308          40.625    23776120.200    97359234.465 7      -377.308          43.062
G19  22523521.680   118361898.931 7      -480.792          45.000    22523519.280   118361898.931 5      -480.792          35.437    22523532.960    92230088.931 5      -374.643          35.250
> 2024 07 31 14 47 35.0000000  0 15
R06  20805545.140   111022382.498 6      3158.251          39.812    20805546.080   111022382.504 6      3158.251          38.187
G06  20341927.120   106897559.944 8      2554.948          49.250    20341925.880   106897559.947 8      2554.948          51.062    20341933.880    83296815.628 8      1990.869          50.687    20341935.040    83296821.629 8      1990.869          52.250
G04  24512557.880   128814355.809 6      -646.301          41.562    24512556.780   128814355.816 4      -646.301          25.937    24512567.440   100374854.482 4      -503.611          25.875    24512568.700   100374867.475 7      -503.611          43.750
G11  21988907.800   115552481.917 7      5085.827          47.187    21988907.080   115552481.925 6      5085.827          37.562    21988912.160    90040921.158 6      3962.982          37.312    21988912.820    90040924.160 8      3962.982          50.000
R21  20687753.820   110704350.606 7      5231.564          46.062    20687753.500   110704350.610 7      5231.564          46.812    20687765.580    86103433.020 8      4068.994          49.625    20687765.340    86103435.023 8      4068.994          48.812
R15  23526714.200   125719639.977 6      4501.107          41.687    23526713.160   125719639.978 6      4501.107          40.875    23526736.740    97782037.144 7      3500.861          45.125    23526737.080    97782034.141 7      3500.861          45.562
G07  21992048.040   115568999.847 7      3429.155          46.812    21992046.940   115568999.857 7      3429.155          46.187    21992056.660    90053786.249 7      2672.069          45.750    21992056.580    90053800.251 7      2672.069          47.750
R07  23671153.580   126713543.533 7      4927.870          45.062    23671152.480   126713543.556 7      4927.870          43.937    23671176.780    98555084.048 7      3832.788          42.437    23671176.580    98555085.056 7      3832.788          42.062
R05  21480165.060   114823787.859 7       153.381          47.375    21480165.300   114823787.860 7       153.381          46.625    21480177.260    89307438.652 7       119.296          47.937    21480177.160    89307439.653 8       119.296          48.000
G09  21560259.220   113299920.622 7       213.514          47.187    21560258.200   113299920.625 7       213.514          47.687    21560266.140    88285681.234 7       166.375          47.500    21560266.860    88285686.236 8       166.375          48.625
G13  24429740.180   128379152.700 7      5987.410          43.937    24429739.280   128379152.707 5      5987.410          30.875    24429757.200   100035705.874 5      4665.514          30.687
G20  23193919.720   121884861.080 7      4764.990          44.250    23193917.960   121884861.088 5      4764.990          30.125    23193922.140    94975228.563 5      3712.979          30.125
G30  22484503.540   118156858.869 7      5188.901          44.687    22484502.460   118156858.876 7      5188.901          45.125    22484518.560    92070345.669 7      4043.299          44.125    22484519.500    92070354.672 7      4043.299          46.062
G17  23776198.480   124944764.633 7      -484.408          45.250    23776197.340   124944764.636 6      -484.408          41.562    23776211.980    97359611.849 6      -377.461          41.562    23776212.500    97359611.853 7      -377.461          42.562
G19  22523613.100   118362380.064 7      -481.281          44.375    22523610.780   118362380.066 5      -481.281          35.000    22523624.400    92230463.825 5      -375.024          35.437
> 2024 07 31 14 47 36.0000000  0 15
R06  20804953.420   111019224.393 6      3158.215          39.812    20804954.320   111019224.405 6      3158.215          38.187
G06  20341440.800   106895005.172 8      2554.614          48.812    20341439.740   106895005.174 8      2554.614          51.000    20341447.800    83294824.894 8      1990.609          51.187    20341448.820    83294830.897 8      1990.609          51.687
G04  24512680.880   128815002.020 6      -646.009          40.750    24512679.600   128815002.028 4      -646.009          25.875    24512690.360   100375358.022 4      -503.384          25.875    24512691.400   100375370.998 7      -503.384          44.062
G11  21987939.900   115547396.233 7      5085.669          47.000    21987939.400   115547396.238 6      5085.669          38.000    21987944.460    90036958.288 6      3962.859          37.312    21987945.160    90036961.289 8      3962.859          49.875
R21  20686776.300   110699119.380 7      5231.029          47.312    20686776.060   110699119.382 7      5231.029          46.625    20686787.960    86099364.287 8      4068.578          49.687    20686788.000    86099366.290 8      4068.578          49.062
R15  23525872.020   125715138.981 6      4500.872          41.687    23525871.460   125715138.974 6      4500.872          40.250    23525894.640    97778536.373 7      3500.678          45.187    23525894.780    97778533.379 7      3500.678          45.250
G07  21991395.580   115565570.873 7      3428.901          47.875    21991394.420   115565570.878 7      3428.901          46.437    21991404.120    90051114.321 7      2671.871          46.437    21991404.440    90051128.324 7      2671.871          47.687
R07  23670232.780   126708615.802 7      4927.587          45.125    23670232.360   126708615.828 7      4927.587          44.125    23670256.120    98551251.383 7      3832.568          42.437    23670256.000    98551252.395 7      3832.568          42.062
R05  21480136.500   114823634.438 7       153.637          46.625    21480136.380   114823634.440 7       153.637          46.125    21480148.740    89307319.325 8       119.496          48.250    21480148.380    89307320.324 8       119.496          48.562
G09  21560218.700   113299707.189 7       213.370          46.625    21560217.760   113299707.197 7       213.370          47.312    21560225.620    88285514.924 7       166.262          47.250    21560226.080    88285519.931 8       166.262          48.125
G13  24428600.980   128373165.249 7      5987.513          43.625    24428599.820   128373165.254 5      5987.513          30.875    24428617.940   100031040.330 5      4665.595          30.812
G20  23193012.760   121880096.066 7      4765.090          43.562    23193011.260   121880096.074 5      4765.090          30.062    23193015.360    94971515.565 5      3713.057          30.062
G30  22483516.160   118151670.113 7      5188.822          45.562    22483515.080   118151670.115 7      5188.822          45.250    22483531.100    92066302.487 7      4043.238          44.625    22483532.220    92066311.487 7      4043.238          45.812
G17  23776290.640   124945248.964 7      -484.248          45.750    23776289.600   124945248.971 6      -484.248          41.125    23776304.140    97359989.249 6      -377.336          41.187    23776304.840    97359989.249 7      -377.336          42.875
G19  22523704.840   118362861.441 7      -481.394          43.937    22523702.480   118362861.440 5      -481.394          35.562    22523715.980    92230838.922 5      -375.112          35.437
> 2024 07 31 14 47 37.0000000  0 15
R06  20804362.160   111016066.598 6      3157.669          39.500    20804362.300   111016066.599 6      3157.669          38.000
G06  20340954.700   106892450.915 8      2553.939          48.875    20340953.760   106892450.920 8      2553.939          51.000    20340961.740    83292834.561 8      1990.082          51.437    20340962.640    83292840.565 8      1990.082          51.937
G04  24512803.460   128815648.114 6      -645.969          40.875    24512802.640   128815648.124 4      -645.969          25.875    24512813.380   100375861.471 4      -503.353          25.875    24512814.480   100375874.456 7      -503.353          44.062
G11  21986972.000   115542310.814 7      5085.281          47.375    21986971.600   115542310.819 6      5085.281          37.437    21986976.880    90032995.622 6      3962.556          37.437    21986977.480    90032998.625 8      3962.556          49.562
R21  20685798.700   110693888.786 7      5230.305          46.375    20685798.680   110693888.796 7      5230.305          46.625    20685810.640    86095296.054 8      4068.015          49.687    20685810.500    86095298.056 8      4068.015          48.937
R15  23525029.360   125710638.412 6      4500.365          41.687    23525029.700   125710638.403 6      4500.365          40.250    23525052.560    97775035.935 7      3500.284          45.125    23525052.500    97775032.937 7      3500.284          45.187
G07  21990743.060   115562142.325 7      3428.404          47.375    21990742.020   115562142.327 7      3428.404          46.187    21990751.700    90048442.729 7      2671.484          46.187    21990752.080    90048456.734 7      2671.484          47.687
R07  23669312.160   126703688.269 7      4927.324          44.937    23669312.040   126703688.298 7      4927.324          44.062    23669335.360    98547418.876 7      3832.363          42.312    23669335.760    98547419.882 6      3832.363          41.875
R05  21480107.940   114823481.015 7       153.448          46.687    21480107.780   114823481.014 7       153.448          46.375    21480119.820    89307199.990 8       119.349          48.250    21480119.840    89307200.986 8       119.349          48.312
G09  21560178.120   113299493.924 7       213.159          45.312    21560177.060   113299493.924 7       213.159          47.937    21560185.060    88285348.740 7       166.098          47.375    21560185.400    88285353.742 8       166.098          48.312
G13  24427461.360   128367177.945 7      5987.176          43.625    24427460.620   128367177.950 5      5987.176          30.875    24427478.520   100026374.898 5      4665.332          30.812
G20  23192105.980   121875330.940 7      4765.109          42.875    23192104.600   121875330.950 5      4765.109          30.062    23192108.540    94967802.482 5      3713.072          30.062
G30  22482528.700   118146481.572 7      5188.427          45.812    22482527.720   118146481.579 7      5188.427          45.000    22482543.780    92062259.478 7      4042.930          44.500    22482545.100    92062268.483 7      4042.930          46.000
G17  23776382.820   124945733.220 7      -484.184          45.375    23776381.880   124945733.223 6      -484.184          41.250    23776396.360    97360366.588 6      -377.287          41.437    23776397.160    97360366.590 7      -377.287          42.750
G19  22523796.480   118363342.954 7      -481.534          44.437    22523794.220   118363342.959 5      -481.534          35.125    22523807.720    92231214.126 5      -375.222          35.312
> 2024 07 31 14 47 38.0000000  0 15
R06  20803770.860   111012909.104 6      3157.286          39.500    20803770.700   111012909.115 6      3157.286          38.000
G06  20340468.740   106889897.238 8      2553.441          49.000    20340467.860   106889897.240 8      2553.441          50.875    20340475.820    83290844.680 8      1989.694          51.375    20340476.640    83290850.681 8      1989.694          51.625
G04  24512926.520   128816294.270 6      -646.082          40.812    24512925.620   128816294.283 4      -646.082          25.875    24512936.440   100376364.972 4      -503.441          25.937    24512936.780   100376377.961 7      -503.441          43.312
G11  21986004.520   115537225.729 7      5084.936          47.562    21986003.720   115537225.734 6      5084.936          37.625    21986009.200    90029033.218 6      3962.288          37.312    21986009.500    90029036.226 8      3962.288          50.062
R21  20684821.580   110688658.893 7      5229.650          47.437    20684821.240   110688658.906 7      5229.650          46.687    20684833.180    86091228.361 8      4067.506          49.562    20684833.180    86091230.362 8      4067.506          49.250
R15  23524187.340   125706138.277 7      4500.082          42.625    23524187.140   125706138.270 6      4500.082          40.687    23524210.760    97771535.847 7      3500.064          45.312    23524210.240    97771532.847 7      3500.064          45.562
G07  21990090.920   115558714.289 7      3427.860          47.000    21990089.600   115558714.289 7      3427.860          46.750    21990099.320    90045771.537 7      2671.060          46.875    21990099.880    90045785.539 8      2671.060          48.125
R07  23668391.880   126698761.031 7      4927.128          44.937    23668391.640   126698761.059 7      4927.128          44.062    23668415.260    98543586.596 7      3832.211          42.250    23668415.340    98543587.602 7      3832.211          42.375
R05  21480079.100   114823327.629 7       153.500          47.250    21480079.160   114823327.625 7       153.500          46.750    21480091.220    89307080.681 7       119.389          47.875    21480091.280    89307081.673 8       119.389          48.562
G09  21560137.400   113299280.916 7       212.897          46.562    21560136.580   113299280.924 7       212.897          47.437    21560144.520    88285182.760 7       165.894          47.687    21560144.960    88285187.760 8       165.894          48.312
G13  24426322.260   128361190.826 7      5987.110          43.562    24426321.200   128361190.825 5      5987.110          30.437    24426339.180   100021709.610 5      4665.281          30.812
G20  23191199.380   121870565.813 7      4765.224          43.312    23191197.720   121870565.825 5      4765.224          30.062    23191201.540    94964089.398 5      3713.162          30.062
G30  22481541.680   118141293.312 7      5188.108          45.437    22481540.400   118141293.320 7      5188.108          44.812    22481556.420    92058216.684 7      4042.682          44.687    22481557.260    92058225.689 7      4042.682          45.625
G17  23776474.620   124946217.480 7      -484.299          45.187    23776473.820   124946217.482 6      -484.299          41.187    23776488.420    97360743.937 6      -377.376          41.625    23776488.880    97360743.939 7      -377.376          42.875
G19  22523888.120   118363824.736 7      -481.815          44.250    22523885.900   118363824.741 5      -481.815          35.375    22523899.400    92231589.530 5      -375.440          34.875
> 2024 07 31 14 47 39.0000000  0 15
R06  20803178.760   111009751.687 6      3157.427          39.500    20803178.300   111009751.691 6      3157.427          38.000
G06  20339982.900   106887343.901 8      2553.165          49.062    20339982.000   106887343.903 8      2553.165          50.625    20339989.960    83288855.062 8      1989.479          51.062    20339990.840    83288861.065 8      1989.479          51.812
G04  24513049.380   128816940.114 6      -645.685          39.750    24513048.600   128816940.124 4      -645.685          25.875    24513059.460   100376868.222 4      -503.131          25.937    24513060.080   100376881.191 7      -503.131          42.625
G11  21985037.040   115532140.713 7      5085.005          47.562    21985036.120   115532140.718 6      5085.005          37.937    21985041.580    90025070.869 6      3962.342          37.500    21985042.080    90025073.871 8      3962.342          50.000
R21  20683844.520   110683429.407 7      5229.336          46.875    20683844.120   110683429.422 7      5229.336          46.750    20683856.060    86087160.985 8      4067.261          49.687    20683855.960    86087162.990 8      4067.261          48.937
R15  23523345.320   125701638.323 7      4499.875          42.625    23523344.800   125701638.335 6      4499.875          40.687    23523368.760    97768035.912 7      3499.902          45.187    23523368.320    97768032.912 7      3499.902          45.875
G07  21989438.520   115555286.493 7      3427.744          46.250    21989437.320   115555286.500 7      3427.744          45.687    21989447.000    90043100.533 7      2670.969          45.750    21989447.340    90043114.535 8      2670.969          48.437
R07  23667470.760   126693833.812 7      4927.222          44.812    23667471.360   126693833.843 7      4927.222          44.062    23667494.680    98539754.327 7      3832.284          42.000    23667494.480    98539755.335 7      3832.284          42.187
R05  21480050.760   114823174.067 7       153.653          46.625    21480050.300   114823174.065 7       153.653          46.875    21480062.500    89306961.244 8       119.508          48.187    21480062.420    89306962.238 8       119.508          48.125
G09  21560096.940   113299067.893 7       213.124          46.437    21560096.080   113299067.895 7       213.124          47.125    21560104.020    88285016.759 7       166.070          47.437    21560104.500    88285021.761 8       166.070          48.125
G13  24425182.760   128355203.685 7      5987.137          43.687    24425181.820   128355203.687 5      5987.137          30.437    24425199.820   100017044.300 5      4665.301          30.812
G20  23190292.440   121865800.441 7      4765.403          43.125    23190290.880   121865800.451 5      4765.403          30.187    23190294.700    94960376.121 5      3713.301          30.062
G30  22480554.380   118136105.071 7      5188.203          45.625    22480553.040   118136105.076 7      5188.203          44.750    22480569.080    92054173.903 7      4042.756          44.687    22480569.620    92054182.906 7      4042.756          45.875
G17  23776566.760   124946701.442 7      -483.816          45.062    23776565.920   124946701.445 6      -483.816          40.500    23776580.480    97361121.046 6      -376.999          41.312    23776581.240    97361121.055 7      -376.999          42.875
G19  22523979.980   118364306.476 7      -481.677          44.125    22523977.500   118364306.481 5      -481.677          35.375    22523990.920    92231964.911 5      -375.332          35.125
> 2024 07 31 14 47 40.0000000  0 15
R06  20802587.440   111006594.575 6      3156.946          39.500    20802587.140   111006594.581 6      3156.946          38.000
G06  20339497.220   106884791.075 8      2552.532          48.437    20339496.180   106884791.080 8      2552.532          51.062    20339504.120    83286865.845 8      1988.986          51.187    20339505.100    83286871.848 8      1988.986          52.125
G04  24513172.040   128817585.892 6      -645.769          40.625    24513171.500   128817585.900 4      -645.769          25.875    24513182.400   100377371.422 4      -503.197          25.937    24513182.220   100377384.417 7      -503.197          43.187
G11  21984069.160   115527055.975 7      5084.621          46.562    21984068.580   115527055.980 6      5084.621          37.937    21984073.940    90021108.737 6      3962.043          37.062    21984074.560    90021111.739 8      3962.043          49.312
R21  20682867.240   110678200.544 7      5228.563          47.437    20682866.840   110678200.559 7      5228.563          46.125    20682878.880    86083094.092 8      4066.660          49.562    20682878.800    86083096.092 8      4066.660          48.750
R15  23522503.400   125697138.749 6      4499.420          41.875    23522502.440   125697138.753 6      4499.420          40.687    23522526.420    97764536.251 7      3499.549          45.187    23522526.300    97764533.255 7      3499.549          45.250
G07  21988786.260   115551859.146 7      3427.231          46.187    21988785.120   115551859.150 7      3427.231          45.937    21988794.780    90040429.875 7      2670.569          46.312    21988795.320    90040443.877 7      2670.569          47.687
R07  23666550.940   126688906.814 7      4926.974          45.187    23666551.300   126688906.840 7      4926.974          43.937    23666574.160    98535922.226 7      3832.091          42.312    23666574.240    98535923.236 7      3832.091          42.125
R05  21480021.920   114823020.478 7       153.583          47.750    21480021.480   114823020.484 7       153.583          46.062    21480033.660    89306841.786 8       119.454          48.250    21480033.520    89306842.786 8       119.454          48.250
G09  21560056.340   113298855.067 7       212.779          46.625    21560055.620   113298855.069 7       212.779          47.562    21560063.460    88284850.917 7       165.802          47.562    21560063.940    88284855.917 8       165.802          48.000
G13  24424043.600   128349216.647 7      5986.985          44.375    24424042.500   128349216.654 5      5986.985          30.437    24424060.500   100012379.073 5      4665.183          30.750
G20  23189385.820   121861034.962 7      4765.615          43.125    23189384.100   121861034.972 5      4765.615          30.187    23189387.860    94956662.759 5      3713.466          30.250
G30  22479566.920   118130917.058 7      5187.905          45.250    22479565.800   118130917.065 7      5187.905          45.062    22479581.880    92050131.300 7      4042.523          44.750    22479582.040    92050140.305 7      4042.523          45.687
G17  23776658.820   124947185.368 7      -483.877          45.312    23776658.020   124947185.373 6      -483.877          41.187    23776672.560    97361498.131 6      -377.047          41.625    23776673.120    97361498.136 7      -377.047          42.625
G19  22524071.600   118364788.405 7      -481.933          44.437    22524069.320   118364788.409 5      -481.933          35.250    22524082.660    92232340.426 5      -375.532          35.125
> 2024 07 31 14 47 41.0000000  0 15
R06  20801995.620   111003437.681 6      3156.697          39.500    20801995.600   111003437.696 6      3156.697          38.125
G06  20339011.540   106882238.705 8      2552.098          49.062    20339010.540   106882238.707 8      2552.098          50.750    20339018.400    83284876.981 8      1988.648          51.187    20339019.480    83284882.980 8      1988.648          51.562
G04  24513295.300   128818231.550 6      -645.721          40.375    24513294.180   128818231.557 4      -645.721          25.875    24513305.180   100377874.530 4      -503.159          25.937    24513305.600   100377887.537 7      -503.159          42.500
G11  21983101.600   115521971.452 7      5084.361          45.687    21983101.140   115521971.457 6      5084.361          37.625    21983106.300    90017146.774 6      3961.840          37.375    21983106.840    90017149.776 8      3961.840          49.500
R21  20681890.020   110672972.238 7      5227.945          47.625    20681889.820   110672972.256 7      5227.945          46.687    20681901.780    86079027.640 8      4066.180          49.312    20681901.860    86079029.638 8      4066.180          49.000
R15  23521661.540   125692639.567 6      4498.873          41.875    23521660.540   125692639.566 6      4498.873          40.625    23521684.140    97761036.902 7      3499.123          45.500    23521684.300    97761033.902 7      3499.123          45.250
G07  21988134.060   115548432.200 7      3426.681          46.125    21988133.020   115548432.200 7      3426.681          46.250    21988142.660    90037759.528 7      2670.141          46.062    21988143.180    90037773.532 8      2670.141          48.062
R07  23665630.640   126683980.007 7      4926.722          45.187    23665630.280   126683980.025 7      4926.722          44.250    23665653.680    98532090.273 7      3831.895          42.312    23665654.060    98532091.277 6      3831.895          41.750
R05  21479992.820   114822866.798 7       153.768          46.250    21479992.760   114822866.799 7       153.768          46.562    21480004.900    89306722.247 7       119.597          47.875    21480004.880    89306723.247 8       119.597          48.062
G09  21560016.100   113298642.364 7       212.604          47.500    21560015.200   113298642.371 7       212.604          47.125    21560022.940    88284685.176 7       165.666          47.250    21560023.360    88284690.180 7       165.666          47.750
G13  24422904.460   128343229.721 7      5986.751          42.562    24422903.320   128343229.726 5      5986.751          30.937    24422921.340   100007713.934 5      4665.001          30.750
G20  23188478.880   121856269.384 7      4765.615          43.000    23188477.180   121856269.391 5      4765.615          30.187    23188480.980    94952949.321 5      3713.466          30.250
G30  22478579.460   118125729.227 7      5187.652          45.437    22478578.620   118125729.237 7      5187.652          44.812    22478594.720    92046088.840 7      4042.326          44.375    22478595.100    92046097.843 7      4042.326          46.437
G17  23776750.960   124947669.154 7      -483.691          45.812    23776750.120   124947669.157 6      -483.691          41.125    23776764.580    97361875.106 6      -376.902          41.437    23776765.060    97361875.104 7      -376.902          42.812
G19  22524163.180   118365270.459 7      -482.236          44.187    22524160.940   118365270.467 5      -482.236          34.875    22524174.440    92232716.049 5      -375.768          34.875
> 2024 07 31 14 47 42.0000000  0 15
R06  20801404.480   111000281.231 6      3156.411          39.500    20801403.900   111000281.239 6      3156.411          38.125
G06  20338525.880   106879687.022 8      2551.482          49.625    20338524.920   106879687.024 8      2551.482          50.562    20338532.900    83282888.651 8      1988.168          51.125    20338533.800    83282894.654 8      1988.168          52.062
G04  24513418.260   128818877.257 6      -645.568          41.375    24513417.240   128818877.267 4      -645.568          25.812    24513428.220   100378377.672 4      -503.040          25.937    24513428.820   100378390.651 7      -503.040          44.062
G11  21982134.060   115516887.347 7      5084.071          46.812    21982133.640   115516887.352 6      5084.071          37.625    21982138.720    90013185.132 6      3961.614          37.750    21982139.300    90013188.133 8      3961.614          49.750
R21  20680913.420   110667744.734 7      5227.336          46.437    20680912.980   110667744.752 7      5227.336          46.750    20680924.880    86074961.800 8      4065.706          49.750    20680924.820    86074963.804 8      4065.706          49.312
R15  23520819.500   125688140.957 7      4498.445          42.250    23520819.620   125688140.956 6      4498.445          40.625    23520842.160    97757537.990 7      3498.791          44.562    23520842.160    97757534.987 7      3498.791          45.312
G07  21987481.920   115545005.828 7      3426.276          47.437    21987481.060   115545005.825 7      3426.276          46.437    21987490.660    90035089.629 7      2669.826          46.187    21987491.220    90035103.632 7      2669.826          47.687
R07  23664710.320   126679053.572 7      4926.525          45.187    23664709.960   126679053.597 7      4926.525          44.250    23664733.400    98528258.622 7      3831.742          42.562    23664733.540    98528259.630 6      3831.742          41.687
R05  21479964.320   114822713.230 7       153.710          46.812    21479963.940   114822713.234 7       153.710          46.000    21479976.260    89306602.803 8       119.552          48.125    21479976.340    89306603.799 8       119.552          48.437
G09  21559975.640   113298429.995 7       212.420          47.000    21559974.800   113298429.997 7       212.420          47.812    21559982.600    88284519.686 8       165.522          48.125    21559982.840    88284524.692 8       165.522          48.437
G13  24421765.020   128337243.059 7      5986.742          43.937    24421764.260   128337243.069 5      5986.742          30.937    24421781.980   100003049.002 5      4664.993          30.750
G20  23187571.920   121851503.878 7      4765.686          43.312    23187570.500   121851503.883 5      4765.686          30.187    23187574.260    94949235.940 5      3713.521          30.250
G30  22477592.380   118120541.739 7      5187.514          45.875    22477591.440   118120541.749 7      5187.514          44.875    22477607.500    92042046.648 7      4042.219          44.562    22477608.340    92042055.651 7      4042.219          46.312
G17  23776843.360   124948153.049 7      -483.767          45.437    23776842.260   124948153.054 6      -483.767          41.375    23776856.780    97362252.162 6      -376.961          41.187    23776857.260    97362252.164 7      -376.961          42.750
G19  22524255.000   118365752.806 7      -482.307          43.562    22524252.680   118365752.803 5      -482.307          34.750    22524266.260    92233091.899 5      -375.823          34.750
> 2024 07 31 14 47 43.0000000  0 15
R06  20800813.060   110997124.905 6      3156.227          39.500    20800812.680   110997124.909 6      3156.227          38.125
G06  20338040.380   106877135.687 8      2551.089          49.562    20338039.400   106877135.692 8      2551.089          50.562    20338047.380    83280900.597 8      1987.861          51.250    20338048.340    83280906.598 8      1987.861          51.937
G04  24513541.240   128819522.759 6      -645.397          41.125    24513540.260   128819522.769 4      -645.397          25.812    24513550.980   100378880.657 4      -502.907          25.937    24513551.160   100378893.631 7      -502.907          43.812
G11  21981166.640   115511803.345 7      5083.939          46.750    21981166.080   115511803.349 6      5083.939          37.750    21981171.280    90009223.571 6      3961.511          37.187    21981171.900    90009226.575 8      3961.511          50.000
R21  20679936.380   110662517.702 7      5226.823          46.500    20679936.360   110662517.719 7      5226.823          46.500    20679948.160    86070896.332 8      4065.306          49.562    20679948.140    86070898.332 8      4065.306          48.562
R15  23519977.560   125683642.607 7      4498.183          42.250    23519978.440   125683642.610 6      4498.183          40.937    23520000.120    97754039.281 7      3498.587          44.812    23520000.440    97754036.281 7      3498.587          45.062
G07  21986830.100   115541579.729 7      3425.971          47.125    21986829.000   115541579.728 7      3425.971          46.562    21986838.660    90032419.945 7      2669.588          46.437    21986839.320    90032433.948 8      2669.588          48.437
R07  23663790.140   126674127.227 7      4926.301          45.125    23663789.620   126674127.264 7      4926.301          44.375    23663813.360    98524427.044 7      3831.568          42.250    23663813.440    98524428.048 6      3831.568          41.687
R05  21479935.440   114822559.465 7       153.838          46.812    21479935.140   114822559.463 7       153.838          46.562    21479947.580    89306483.199 7       119.652          47.687    21479947.700    89306484.196 8       119.652          48.250
G09  21559935.040   113298217.639 7       212.363          46.125    21559934.460   113298217.644 7       212.363          47.875    21559942.220    88284354.213 7       165.477          47.500    21559942.520    88284359.215 8       165.477          48.187
G13  24420625.900   128331256.399 7      5986.602          42.687    24420624.900   128331256.409 5      5986.602          30.937    24420642.720    99998384.075 5      4664.885          30.812
G20  23186665.060   121846738.150 7      4765.771          43.875    23186663.680   121846738.157 4      4765.771          29.750    23186667.480    94945522.388 4      3713.588          29.937
G30  22476605.420   118115354.339 7      5187.306          45.437    22476604.340   118115354.349 7      5187.306          45.000    22476620.460    92038004.524 7      4042.056          44.750    22476621.100    92038013.527 7      4042.056          46.312
G17  23776935.520   124948636.688 7      -483.475          45.312    23776934.340   124948636.685 6      -483.475          40.937    23776948.720    97362629.020 6      -376.734          41.437    23776949.160    97362629.014 7      -376.734          42.562
G19  22524346.780   118366235.174 7      -482.435          43.187    22524344.480   118366235.176 5      -482.435          34.750    22524357.980    92233467.760 5      -375.923          34.750
> 2024 07 31 14 47 44.0000000  0 15
R06  20800221.620   110993968.823 6      3155.898          39.312    20800220.720   110993968.824 6      3155.898          38.125
G06  20337554.900   106874584.816 8      2550.637          49.312    20337554.020   106874584.819 8      2550.637          51.250    20337561.960    83278912.902 8      1987.509          51.750    20337562.800    83278918.901 8      1987.509          51.875
G04  24513663.900   128820168.135 6      -645.298          39.312    24513663.140   128820168.143 4      -645.298          25.812    24513673.800   100379383.537 4      -502.829          26.125    24513673.580   100379396.538 7      -502.829          42.500
G11  21980199.380   115506719.576 7      5083.660          46.812    21980198.680   115506719.581 6      5083.660          37.750    21980203.820    90005262.195 6      3961.294          37.500    21980204.280    90005265.197 8      3961.294          50.125
R21  20678959.720   110657291.234 7      5226.228          47.250    20678959.720   110657291.251 7      5226.228          46.750    20678971.500    86066831.297 8      4064.844          49.687    20678971.460    86066833.299 8      4064.844          49.125
R15  23519136.060   125679144.643 7      4497.841          42.375    23519136.680   125679144.658 6      4497.841          40.937    23519158.620    97750540.875 7      3498.321          45.062    23519158.640    97750537.879 7      3498.321          45.375
G07  21986178.380   115538154.029 7      3425.486          47.687    21986177.100   115538154.034 7      3425.486          46.125    21986186.780    90029750.575 7      2669.210          46.062    21986186.980    90029764.580 7      2669.210          47.750
R07  23662869.740   126669201.068 7      4926.099          44.375    23662869.500   126669201.099 7      4926.099          43.875    23662893.320    98520595.599 7      3831.410          42.062    23662893.040    98520596.605 6      3831.410          41.437
R05  21479906.700   114822405.609 7       153.880          46.250    21479906.140   114822405.613 7       153.880          45.875    21479918.780    89306363.535 8       119.684          48.375    21479918.940    89306364.532 8       119.684          48.187
G09  21559894.860   113298005.443 7       212.087          47.375    21559894.040   113298005.448 8       212.087          48.125    21559901.860    88284188.860 7       165.262          47.437    21559902.180    88284193.864 8       165.262          48.250
G13  24419486.620   128325269.823 7      5986.509          42.312    24419485.620   128325269.833 5      5986.509          30.937    24419503.440    99993719.208 5      4664.812          30.812
G20  23185758.100   121841972.287 7      4765.906          43.312    23185756.720   121841972.295 4      4765.906          29.750    23185760.580    94941808.728 4      3713.693          29.937
G30  22475618.340   118110167.104 7      5187.175          45.375    22475617.240   118110167.106 7      5187.175          45.187    22475633.400    92033962.523 7      4041.955          44.625    22475633.860    92033971.528 7      4041.955          46.187
G17  23777027.440   124949120.248 7      -483.647          45.250    23777026.260   124949120.245 6      -483.647          40.812    23777040.780    97363005.816 6      -376.868          40.812    23777041.320    97363005.818 7      -376.868          42.562
G19  22524438.620   118366717.670 7      -482.517          44.250    22524436.280   118366717.672 5      -482.517          35.062    22524449.900    92233843.723 5      -375.987          35.062
> 2024 07 31 14 47 45.0000000  0 15
R06  20799629.900   110990813.199 6      3155.461          39.312    20799629.740   110990813.195 6      3155.461          38.000
G06  20337069.560   106872034.661 8      2549.872          49.187    20337068.760   106872034.663 8      2549.872          51.062    20337076.680    83276925.761 8      1986.913          51.625    20337077.580    83276931.762 8      1986.913          51.750
G04  24513786.240   128820813.627 6      -645.704          40.812    24513785.900   128820813.635 4      -645.704          25.812    24513796.760   100379886.518 4      -503.146          26.125    24513797.100   100379899.505 7      -503.146          43.875
G11  21979232.060   115501636.257 7      5083.120          47.062    21979231.380   115501636.264 6      5083.120          37.562    21979236.620    90001301.167 6      3960.873          37.687    21979236.780    90001304.167 8      3960.873          49.812
R21  20677983.180   110652065.606 8      5225.303          48.000    20677983.220   110652065.618 7      5225.303          47.312    20677995.000    86062766.917 8      4064.125          49.500    20677994.980    86062768.918 8      4064.125          48.500
R15  23518294.280   125674647.284 7      4497.164          42.312    23518294.820   125674647.288 6      4497.164          41.437    23518317.220    97747042.935 7      3497.794          45.437    23518316.780    97747039.939 7      3497.794          44.875
G07  21985526.340   115534728.947 7      3424.824          46.750    21985525.360   115534728.946 7      3424.824          46.187    21985534.980    90027081.686 7      2668.694          46.125    21985535.860    90027095.688 7      2668.694          47.875
R07  23661949.520   126664275.323 7      4925.518          44.437    23661949.280   126664275.341 7      4925.518          44.125    23661973.140    98516764.475 7      3830.958          42.062    23661972.480    98516765.481 6      3830.958          41.500
R05  21479878.360   114822251.937 7       153.611          46.000    21479877.640   114822251.943 7       153.611          46.625    21479890.200    89306244.011 7       119.475          47.875    21479889.740    89306245.011 8       119.475          48.625
G09  21559854.320   113297793.594 7       211.662          47.000    21559853.740   113297793.599 7       211.662          47.312    21559861.500    88284023.779 7       164.932          47.312    21559861.960    88284028.783 7       164.932          47.812
G13  24418347.520   128319283.568 7      5986.154          43.375    24418346.480   128319283.578 5      5986.154          30.437    24418364.180    99989054.594 5      4664.536          30.812
G20  23184851.200   121837206.545 7      4765.629          43.875    23184849.780   121837206.555 4      4765.629          29.750    23184853.760    94938095.168 4      3713.477          29.937
G30  22474631.220   118104980.284 7      5186.561          45.375    22474630.200   118104980.289 7      5186.561          44.937    22474646.260    92029920.855 7      4041.476          44.437    22474647.320    92029929.860 7      4041.476          46.625
G17  23777119.680   124949603.898 7      -483.652          44.687    23777118.220   124949603.898 6      -483.652          40.687    23777132.840    97363382.688 6      -376.871          40.625    23777133.320    97363382.686 7      -376.871          42.812
G19  22524530.480   118367200.516 7      -482.990          44.250    22524528.200   118367200.510 5      -482.990          34.125    22524541.920    92234219.960 5      -376.356          34.062
> 2024 07 31 14 47 46.0000000  0 15
R06  20799038.780   110987657.744 6      3155.153          39.312    20799038.540   110987657.744 6      3155.153          38.000
G06  20336584.520   106869484.925 8      2549.254          49.250    20336583.540   106869484.930 8      2549.254          51.000    20336591.480    83274938.955 8      1986.432          51.187    20336592.240    83274944.956 8      1986.432          49.875
G04  24513908.820   128821458.893 6      -645.306          39.687    24513908.680   128821458.898 4      -645.306          25.812    24513919.660   100380389.316 4      -502.835          26.125    24513920.020   100380402.291 7      -502.835          44.125
G11  21978264.560   115496553.092 7      5082.944          46.500    21978264.060   115496553.097 6      5082.944          37.437    21978269.220    89997340.264 6      3960.736          37.062    21978269.720    89997343.262 8      3960.736          49.187
R21  20677006.900   110646840.537 7      5224.549          47.437    20677006.460   110646840.546 7      5224.549          47.187    20677018.520    86058702.977 8      4063.538          48.312    20677018.280    86058704.977 8      4063.538          49.062
R15  23517453.080   125670150.192 7      4496.772          42.312    23517452.260   125670150.187 6      4496.772          41.437    23517475.720    97743545.205 7      3497.489          45.000    23517475.620    97743542.209 7      3497.489          45.437
G07  21984874.860   115531304.198 7      3424.419          47.562    21984873.580   115531304.200 7      3424.419          45.750    21984883.280    90024413.053 7      2668.378          45.750    21984884.100    90024427.057 7      2668.378          47.437
R07  23661029.860   126659349.656 7      4925.353          44.937    23661029.340   126659349.679 7      4925.353          44.125    23661053.140    98512933.421 6      3830.830          41.875    23661052.720    98512934.427 6      3830.830          41.437
R05  21479849.600   114822098.145 7       153.602          47.125    21479848.780   114822098.151 7       153.602          46.875    21479861.240    89306124.393 7       119.468          47.812    21479861.160    89306125.391 7       119.468          47.250
G09  21559814.020   113297581.822 7       211.532          46.562    21559813.440   113297581.829 7       211.532          46.812    21559821.140    88283858.759 7       164.830          46.937    21559821.680    88283863.763 8       164.830          48.125
G13  24417208.220   128313297.352 7      5985.950          43.250    24417207.200   128313297.362 5      5985.950          30.437    24417225.080    99984390.006 5      4664.376          30.812
G20  23183944.180   121832440.622 7      4765.819          43.875    23183942.800   121832440.632 5      4765.819          30.062    23183946.680    94934381.461 4      3713.625          29.937
G30  22473644.280   118099793.564 7      5186.474          45.750    22473643.240   118099793.571 7      5186.474          44.375    22473659.400    92025879.259 7      4041.409          44.250    22473660.000    92025888.254 7      4041.409          46.000
G17  23777211.520   124950087.388 7      -483.552          45.375    23777210.240   124950087.390 6      -483.552          40.687    23777224.940    97363759.429 6      -376.794          41.125    23777225.280    97363759.427 7      -376.794          42.562
G19  22524622.700   118367683.417 7      -483.123          43.125    22524620.100   118367683.408 5      -483.123          34.125    22524633.680    92234596.245 5      -376.459          34.062
> 2024 07 31 14 47 47.0000000  0 15
R06  20798447.740   110984502.814 6      3154.735          39.312    20798446.660   110984502.817 6      3154.735          38.000
G06  20336099.480   106866935.941 8      2548.627          49.187    20336098.460   106866935.946 8      2548.627          51.125    20336106.380    83272952.731 8      1985.943          51.562    20336107.200    83272958.732 8      1985.943          52.125
G04  24514031.820   128822104.351 6      -645.413          41.062    24514031.420   128822104.361 4      -645.413          26.187    24514042.540   100380892.276 4      -502.919          26.125    24514042.420   100380905.284 7      -502.919          43.125
G11  21977297.400   115491470.461 7      5082.415          47.125    21977296.920   115491470.464 6      5082.415          37.562    21977302.200    89993379.772 6      3960.324          37.500    21977302.360    89993382.776 8      3960.324          49.937
R21  20676030.340   110641616.343 7      5223.833          47.312    20676030.160   110641616.355 7      5223.833          46.562    20676042.180    86054639.717 8      4062.981          49.625    20676042.220    86054641.717 8      4062.981          49.000
R15  23516611.560   125665653.719 6      4496.226          41.375    23516610.000   125665653.726 6      4496.226          41.000    23516634.640    97740047.974 7      3497.065          45.437    23516634.080    97740044.974 7      3497.065          45.312
G07  21984223.240   115527880.156 8      3423.711          48.000    21984222.080   115527880.161 7      3423.711          45.937    21984231.820    90021744.976 7      2667.827          46.687    21984232.220    90021758.979 7      2667.827          47.687
R07  23660109.500   126654424.471 7      4925.007          45.187    23660108.760   126654424.494 7      4925.007          44.250    23660132.460    98509102.734 6      3830.561          41.687    23660132.620    98509103.746 6      3830.561          41.125
R05  21479820.480   114821944.582 7       153.540          47.312    21479819.800   114821944.592 7       153.540          46.625    21479832.560    89306004.955 8       119.420          48.500    21479832.620    89306005.950 8       119.420          48.687
G09  21559773.880   113297370.488 7       211.232          46.437    21559773.100   113297370.482 7       211.232          47.437    21559780.980    88283694.071 7       164.597          47.500    21559781.500    88283699.073 8       164.597          48.062
G13  24416069.180   128307311.512 7      5985.775          43.375    24416068.080   128307311.522 5      5985.775          30.437    24416086.060    99979725.713 4      4664.240          29.937
G20  23183037.220   121827674.881 7      4765.699          43.187    23183035.940   121827674.888 5      4765.699          30.062    23183039.680    94930667.898 5      3713.531          30.000
G30  22472657.260   118094607.330 7      5185.969          44.937    22472656.340   118094607.340 7      5185.969          45.125    22472672.440    92021838.044 7      4041.014          45.062    22472673.220    92021847.053 7      4041.014          46.437
G17  23777303.440   124950571.053 7      -483.673          45.750    23777302.320   124950571.064 6      -483.673          40.937    23777317.000    97364136.311 6      -376.888          41.125    23777317.480    97364136.322 7      -376.888          42.250
G19  22524714.420   118368166.746 7      -483.509          44.312    22524711.960   118368166.738 5      -483.509          34.937    22524725.720    92234972.859 5      -376.761          34.687
> 2024 07 31 14 47 48.0000000  0 15
R06  20797856.400   110981348.201 6      3154.484          39.250    20797855.440   110981348.210 6      3154.484          38.000
G06  20335614.620   106864387.499 8      2548.112          49.500    20335613.560   106864387.498 8      2548.112          51.250    20335621.520    83270966.924 8      1985.542          51.562    20335622.320    83270972.923 8      1985.542          52.125
G04  24514154.540   128822749.811 6      -645.452          39.937    24514154.280   128822749.816 4      -645.452          26.187    24514165.280   100381395.228 4      -502.950          26.125    24514165.220   100381408.203 7      -502.950          43.687
G11  21976330.320   115486388.109 7      5082.150          47.187    21976329.720   115486388.114 6      5082.150          37.875    21976335.020    89989419.496 6      3960.117          37.375    21976335.440    89989422.497 8      3960.117          49.687
R21  20675054.180   110636392.762 7      5223.195          46.875    20675054.040   110636392.779 7      5223.195          46.750    20675066.100    86050576.936 8      4062.485          49.187    20675066.140    86050578.938 8      4062.485          49.000
R15  23515770.300   125661157.682 6      4495.854          41.375    23515768.620   125661157.681 6      4495.854          41.000    23515793.200    97736551.067 7      3496.775          45.562    23515792.960    97736548.064 7      3496.775          46.000
G07  21983571.700   115524456.542 7      3423.343          47.625    21983570.520   115524456.547 7      3423.343          46.375    21983580.220    90019077.230 7      2667.540          46.750    21983580.580    90019091.232 8      2667.540          48.125
R07  23659189.660   126649499.556 7      4924.691          45.312    23659189.160   126649499.581 7      4924.691          43.937    23659212.400    98505272.261 6      3830.315          41.750    23659212.540    98505273.263 6      3830.315          41.562
R05  21479791.940   114821791.020 7       153.535          46.312    21479791.280   114821791.021 7       153.535          46.125    21479803.920    89305885.503 8       119.416          48.000    21479803.740    89305886.498 8       119.416          49.000
G09  21559733.520   113297159.346 7       211.011          47.187    21559733.060   113297159.348 7       211.011          47.875    21559740.800    88283529.543 7       164.424          47.562    21559741.340    88283534.547 8       164.424          48.437
G13  24414930.000   128301325.843 7      5985.525          43.375    24414929.160   128301325.850 5      5985.525          30.000    24414947.020    99975061.557 4      4664.045          29.937
G20  23182130.340   121822909.073 7      4765.811          43.125    23182129.180   121822909.081 5      4765.811          30.062    23182132.780    94926954.284 5      3713.619          30.000
G30  22471670.720   118089421.312 7      5185.836          45.062    22471669.440   118089421.322 7      5185.836          44.750    22471685.620    92017796.999 7      4040.911          44.562    22471686.460    92017806.000 7      4040.911          46.500
G17  23777395.540   124951054.685 7      -483.668          44.875    23777394.340   124951054.687 6      -483.668          40.875    23777408.900    97364513.165 6      -376.884          41.000    23777409.680    97364513.167 7      -376.884          42.250
G19  22524806.360   118368650.254 7      -483.729          43.500    22524803.840   118368650.248 5      -483.729          34.937    22524817.740    92235349.614 5      -376.932          34.875
> 2024 07 31 14 47 49.0000000  0 15
R06  20797264.900   110978193.744 6      3154.392          39.250    20797264.980   110978193.734 6      3154.392          38.125
G06  20335129.700   106861839.416 8      2547.989          49.000    20335128.720   106861839.418 8      2547.989          50.562    20335136.580    83268981.403 8      1985.446          51.187    20335137.520    83268987.404 8      1985.446          52.187
G04  24514277.680   128823394.974 6      -645.014          38.687    24514276.900   128823394.979 4      -645.014          26.187    24514288.040   100381897.949 4      -502.608          26.125    24514288.060   100381910.934 7      -502.608          43.625
G11  21975363.180   115481305.872 7      5082.263          46.562    21975362.660   115481305.877 6      5082.263          37.500    21975367.800    89985459.315 6      3960.205          37.437    21975368.380    89985462.309 8      3960.205          50.062
R21  20674078.220   110631169.635 7      5222.865          45.937    20674078.060   110631169.650 7      5222.865          46.812    20674090.000    86046514.505 8      4062.228          49.250    20674089.920    86046516.505 8      4062.228          48.875
R15  23514929.140   125656661.929 6      4495.630          41.812    23514927.640   125656661.935 6      4495.630          40.625    23514951.660    97733054.398 7      3496.601          45.750    23514951.580    97733051.398 7      3496.601          45.812
G07  21982920.240   115521033.223 7      3423.348          47.750    21982918.940   115521033.225 7      3423.348          46.312    21982928.780    90016409.708 7      2667.544          46.000    21982928.920    90016423.710 7      2667.544          47.875
R07  23658269.680   126644574.724 7      4924.788          45.187    23658269.220   126644574.739 7      4924.788          43.937    23658292.680    98501441.843 6      3830.391          41.750    23658292.640    98501442.846 6      3830.391          41.562
R05  21479762.660   114821637.247 7       153.927          46.000    21479762.440   114821637.248 7       153.927          46.250    21479775.100    89305765.900 8       119.721          48.812    21479775.040    89305766.898 8       119.721          48.625
G09  21559693.560   113296948.238 7       211.115          46.312    21559692.800   113296948.240 7       211.115          47.375    21559700.620    88283365.041 7       164.505          47.187    21559700.940    88283370.045 8       164.505          48.250
G13  24413791.060   128295340.155 7      5985.650          43.437    24413790.100   128295340.165 5      5985.650          30.000    24413807.980    99970397.383 4      4664.143          29.937
G20  23181223.480   121818143.050 7      4766.235          43.187    23181222.260   121818143.058 5      4766.235          30.375    23181225.800    94923240.498 5      3713.950          30.000
G30  22470683.620   118084235.372 7      5186.063          46.125    22470682.460   118084235.377 7      5186.063          45.125    22470698.700    92013756.007 7      4041.088          44.875    22470699.580    92013765.014 7      4041.088          46.812
G17  23777487.460   124951538.096 7      -483.373          45.500    23777486.380   124951538.098 6      -483.373          40.750    23777501.080    97364889.845 6      -376.654          40.875    23777501.100    97364889.845 7      -376.654          42.375
G19  22524898.380   118369133.772 7      -483.502          44.187    22524895.940   118369133.767 5      -483.502          35.500    22524909.740    92235726.373 5      -376.755          35.125
> 2024 07 31 14 47 50.0000000  0 15
R06  20796674.340   110975039.548 6      3153.850          39.250    20796673.580   110975039.532 6      3153.850          38.125
G06  20334645.000   106859291.872 8      2547.203          48.500    20334643.920   106859291.877 8      2547.203          50.375    20334651.800    83266996.301 8      1984.834          51.187    20334652.760    83267002.303 8      1984.834          51.750
G04  24514400.860   128824040.127 6      -645.292          40.187    24514399.680   128824040.135 4      -645.292          26.187    24514410.760   100382400.663 4      -502.825          26.062    24514410.780   100382413.662 7      -502.825          43.625
G11  21974396.120   115476223.917 7      5081.723          46.562    21974395.640   115476223.927 6      5081.723          37.750    21974400.840    89981499.350 6      3959.784          37.500    21974401.320    89981502.354 8      3959.784          49.250
R21  20673102.340   110625947.149 7      5222.087          46.750    20673101.940   110625947.161 7      5222.087          46.562    20673114.080    86042452.564 8      4061.623          49.375    20673113.680    86042454.566 8      4061.623          49.500
R15  23514087.500   125652166.616 6      4495.022          41.812    23514086.880   125652166.612 6      4495.022          40.625    23514110.300    97729558.046 7      3496.128          45.375    23514110.240    97729555.048 7      3496.128          45.875
G07  21982268.840   115517610.393 7      3422.418          46.000    21982267.760   115517610.395 7      3422.418          46.187    21982277.500    90013742.573 7      2666.819          46.187    21982277.860    90013756.578 8      2666.819          48.062
R07  23657350.240   126639650.122 7      4924.298          44.500    23657348.940   126639650.139 7      4924.298          43.937    23657372.880    98497611.611 6      3830.009          41.625    23657372.520    98497612.621 6      3830.009          41.500
R05  21479733.960   114821483.479 7       153.694          46.187    21479733.680   114821483.472 7       153.694          46.187    21479746.200    89305646.290 8       119.540          48.625    21479746.280    89305647.288 8       119.540          48.750
G09  21559653.120   113296737.324 7       210.651          46.312    21559652.640   113296737.329 7       210.651          47.437    21559660.460    88283200.691 7       164.144          47.812    21559661.000    88283205.693 8       164.144          48.125
G13  24412651.980   128289354.609 7      5985.360          43.125    24412651.200   128289354.617 5      5985.360          30.000    24412669.080    99965733.321 4      4663.917          29.562
G20  23180316.480   121813376.972 7      4765.954          43.125    23180315.220   121813376.982 5      4765.954          30.375    23180318.880    94919526.677 5      3713.730          30.437
G30  22469696.940   118079049.687 7      5185.515          45.812    22469695.740   118079049.687 7      5185.515          45.375    22469711.960    92009715.216 7      4040.661          44.812    22469712.440    92009724.217 7      4040.661          46.687
G17  23777579.820   124952021.409 7      -483.411          44.562    23777578.320   124952021.409 6      -483.411          40.500    23777592.960    97365266.448 6      -376.684          40.687    23777593.140    97365266.459 7      -376.684          42.437
G19  22524990.400   118369617.483 7      -483.912          43.625    22524987.980   118369617.477 5      -483.912          35.500    22525001.780    92236103.288 5      -377.075          35.125
> 2024 07 31 14 47 51.0000000  0 15
R06  20796083.160   110971885.469 6      3153.753          39.250    20796082.520   110971885.486 6      3153.753          38.125
G06  20334160.180   106856744.736 8      2546.794          49.250    20334159.240   106856744.738 8      2546.794          50.812    20334167.140    83265011.511 8      1984.514          51.312    20334168.140    83265017.511 8      1984.514          52.187
G04  24514523.360   128824685.049 6      -645.044          38.312    24514522.320   128824685.056 4      -645.044          26.187    24514533.220   100382903.193 4      -502.632          26.062    24514533.920   100382916.193 7      -502.632          43.375
G11  21973429.340   115471142.116 7      5081.655          47.000    21973428.640   115471142.124 6      5081.655          38.000    21973433.900    89977539.507 6      3959.731          37.625    21973434.320    89977542.505 8      3959.731          49.625
R21  20672126.380   110620725.181 7      5221.586          47.312    20672126.320   110620725.196 7      5221.586          46.937    20672138.240    86038391.036 8      4061.233          49.187    20672138.000    86038393.038 8      4061.233          49.125
R15  23513245.900   125647671.570 7      4494.832          42.250    23513246.160   125647671.569 6      4494.832          40.937    23513268.540    97726061.904 7      3495.980          45.250    23513269.040    97726058.908 7      3495.980          45.312
G07  21981617.540   115514187.854 7      3422.186          45.687    21981616.400   115514187.856 7      3422.186          46.250    21981626.140    90011075.660 7      2666.638          46.250    21981626.360    90011089.660 8      2666.638          48.062
R07  23656430.360   126634725.589 7      4924.378          44.500    23656429.480   126634725.610 7      4924.378          43.875    23656453.060    98493781.438 6      3830.071          41.875    23656452.680    98493782.448 7      3830.071          42.250
R05  21479705.220   114821329.555 7       153.807          46.812    21479704.840   114821329.557 7       153.807          46.562    21479717.540    89305526.572 8       119.628          48.437    21479717.560    89305527.572 8       119.628          48.375
G09  21559613.100   113296526.463 7       210.672          46.687    21559612.480   113296526.468 7       210.672          47.625    21559620.380    88283036.379 7       164.160          47.625    21559621.060    88283041.384 7       164.160          47.875
G13  24411513.020   128283369.103 7      5985.294          42.625    24411512.200   128283369.113 4      5985.294          29.750    24411530.080    99961069.290 4      4663.865          29.562
G20  23179409.600   121808610.697 7      4766.166          43.187    23179408.280   121808610.707 5      4766.166          30.375    23179412.040    94915812.699 5      3713.895          30.437
G30  22468710.200   118073864.079 7      5185.447          45.812    22468708.980   118073864.086 7      5185.447          44.937    22468725.140    92005674.492 7      4040.608          44.937    22468725.740    92005683.495 7      4040.608          46.312
G17  23777671.320   124952504.567 7      -483.174          44.875    23777670.220   124952504.570 6      -483.174          40.687    23777684.980    97365642.933 6      -376.499          40.687    23777685.200    97365642.932 7      -376.499          42.437
G19  22525082.680   118370101.243 7      -484.022          44.562    22525079.980   118370101.240 5      -484.022          34.812    22525093.800    92236480.240 5      -377.160          34.500
> 2024 07 31 14 47 52.0000000  0 15
R06  20795492.000   110968731.731 6      3153.679          39.250    20795491.140   110968731.743 6      3153.679          38.125
G06  20333675.720   106854198.145 8      2546.320          49.500    20333674.620   106854198.150 8      2546.320          51.125    20333682.480    83263027.155 8      1984.145          51.375    20333683.600    83263033.155 8      1984.145          51.750
G04  24514645.700   128825329.912 6      -644.785          40.625    24514645.140   128825329.925 4      -644.785          26.187    24514656.020   100383405.680 4      -502.430          26.062    24514656.960   100383418.682 7      -502.430          44.062
G11  21972462.180   115466060.626 7      5081.394          46.375    21972461.540   115466060.636 6      5081.394          37.562    21972466.740    89973579.904 6      3959.528          37.625    21972467.300    89973582.904 8      3959.528          49.812
R21  20671150.980   110615503.911 7      5220.921          47.125    20671150.400   110615503.923 7      5220.921          46.937    20671162.440    86034330.050 8      4060.716          49.562    20671162.540    86034332.053 8      4060.716          49.187
R15  23512405.200   125643176.944 7      4494.522          42.250    23512404.960   125643176.951 6      4494.522          40.937    23512427.360    97722566.098 7      3495.739          44.937    23512427.640    97722563.094 7      3495.739          45.125
G07  21980966.440   115510765.780 7      3421.890          47.625    21980965.300   115510765.782 7      3421.890          46.187    21980974.860    90008409.117 7      2666.407          46.250    21980975.460    90008423.118 7      2666.407          47.875
R07  23655510.120   126629801.338 7      4924.217          44.937    23655509.400   126629801.356 7      4924.217          43.750    23655533.140    98489951.482 6      3829.947          41.875    23655532.680    98489952.487 6      3829.947          41.625
R05  21479676.460   114821175.608 7       154.064          47.187    21479676.340   114821175.612 7       154.064          46.000    21479688.800    89305406.829 8       119.828          48.375    21479688.880    89305407.827 8       119.828          48.562
G09  21559573.180   113296315.815 7       210.592          47.375    21559572.420   113296315.817 7       210.592          47.812    21559580.320    88282872.236 8       164.098          48.000    21559580.820    88282877.236 8       164.098          48.437
G13  24410374.080   128277383.754 7      5985.248          43.312    24410373.180   128277383.761 4      5985.248          29.750    24410390.980    99956405.378 4      4663.830          29.562
G20  23178502.580   121803844.375 7      4766.402          43.187    23178501.080   121803844.382 5      4766.402          30.187    23178504.980    94912098.683 5      3714.080          30.437
G30  22467723.260   118068678.756 7      5185.160          45.625    22467722.160   118068678.764 7      5185.160          45.375    22467738.440    92001633.985 7      4040.384          45.062    22467739.340    92001642.990 7      4040.384          46.750
G17  23777763.300   124952987.687 7      -483.196          44.687    23777762.080   124952987.691 6      -483.196          40.375    23777776.800    97366019.394 6      -376.517          40.687    23777777.120    97366019.402 7      -376.517          42.437
G19  22525174.980   118370585.197 7      -483.947          44.250    22525172.320   118370585.197 5      -483.947          34.125    22525185.920    92236857.331 5      -377.101          34.500
> 2024 07 31 14 47 53.0000000  0 15
R06  20794901.660   110965578.397 6      3153.097          39.250    20794900.620   110965578.395 6      3153.097          38.062
G06  20333191.200   106851652.157 8      2545.639          49.437    20333190.200   106851652.159 8      2545.639          50.875    20333198.060    83261043.264 8      1983.615          51.187    20333199.160    83261049.263 8      1983.615          52.000
G04  24514768.540   128825974.850 6      -644.950          38.375    24514767.960   128825974.863 4      -644.950          25.687    24514778.840   100383908.223 4      -502.559          26.062    24514780.060   100383921.187 7      -502.559          44.750
G11  21971495.320   115460979.479 7      5080.985          47.375    21971494.720   115460979.484 6      5080.985          37.562    21971499.900    89969620.569 6      3959.209          37.500    21971500.500    89969623.565 8      3959.209          49.625
R21  20670175.500   110610283.351 7      5220.237          47.312    20670174.700   110610283.366 7      5220.237          46.625    20670186.880    86030269.612 8      4060.184          49.312    20670186.620    86030271.613 8      4060.184          49.500
R15  23511564.300   125638682.823 7      4493.945          42.125    23511563.700   125638682.824 6      4493.945          40.937    23511586.380    97719070.668 7      3495.290          44.937    23511586.820    97719067.664 7      3495.290          44.812
G07  21980315.400   115507344.242 7      3421.235          47.125    21980314.080   115507344.250 7      3421.235          46.437    21980323.840    90005742.992 7      2665.897          46.625    21980324.320    90005756.994 8      2665.897          48.312
R07  23654590.460   126624877.400 7      4923.809          44.500    23654589.460   126624877.421 7      4923.809          43.750    23654613.140    98486121.767 6      3829.629          41.562    23654613.000    98486122.772 6      3829.629          41.625
R05  21479647.880   114821021.744 7       153.932          45.937    21479647.380   114821021.737 7       153.932          45.937    21479660.040    89305287.144 8       119.725          48.437    21479660.200    89305288.137 8       119.725          48.750
G09  21559533.160   113296105.435 7       210.318          47.312    21559532.420   113296105.437 7       210.318          47.750    21559540.200    88282708.297 7       163.884          47.937    21559540.700    88282713.299 7       163.884          47.937
G13  24409235.020   128271398.623 7      5985.035          43.125    24409234.240   128271398.631 4      5985.035          29.750    24409252.100    99951741.638 4      4663.664          29.562
G20  23177595.540   121799078.076 7      4766.243          43.562    23177594.280   121799078.083 5      4766.243          30.187    23177597.880    94908384.688 5      3713.956          30.250
G30  22466736.380   118063493.700 7      5184.879          46.062    22466735.500   118063493.710 7      5184.879          45.375    22466751.780    91997593.692 7      4040.165          44.812    22466752.580    91997602.694 7      4040.165          46.375
G17  23777855.240   124953470.800 7      -483.111          45.437    23777854.160   124953470.797 6      -483.111          40.937    23777868.680    97366395.840 6      -376.450          40.937    23777869.340    97366395.840 7      -376.450          42.250
G19  22525266.800   118371069.407 7      -484.314          43.812    22525264.300   118371069.414 5      -484.314          34.125    22525278.000    92237234.625 5      -377.387          33.875
> 2024 07 31 14 47 54.0000000  0 15
R06  20794311.140   110962425.378 6      3153.079          39.250    20794309.860   110962425.384 6      3153.079          38.062
G06  20332706.720   106849106.770 8      2545.208          49.375    20332705.760   106849106.770 8      2545.208          51.312    20332713.580    83259059.838 8      1983.279          51.562    20332714.640    83259065.837 8      1983.279          51.687
G04  24514891.180   128826619.785 6      -645.102          39.437    24514890.620   128826619.803 4      -645.102          25.687    24514901.420   100384410.765 4      -502.677          26.062    24514902.740   100384423.717 7      -502.677          43.437
G11  21970528.360   115455898.701 7      5080.664          46.937    21970527.840   115455898.708 6      5080.664          37.875    21970533.020    89965661.525 6      3958.959          37.437    21970533.680    89965664.523 8      3958.959          49.437
R21  20669199.540   110605063.505 7      5219.543          47.750    20669199.660   110605063.520 7      5219.543          46.562    20669211.480    86026209.738 8      4059.644          49.062    20669211.380    86026211.741 8      4059.644          49.062
R15  23510722.940   125634189.210 7      4493.439          42.125    23510722.260   125634189.219 6      4493.439          40.937    23510745.600    97715575.646 7      3494.897          45.562    23510745.660    97715572.642 7      3494.897          45.625
G07  21979664.360   115503923.235 7      3420.817          46.875    21979663.080   115503923.242 7      3420.817          46.062    21979672.940    90003077.276 7      2665.572          46.125    21979673.240    90003091.281 7      2665.572          47.875
R07  23653670.480   126619953.789 7      4923.562          44.312    23653669.460   126619953.809 7      4923.562          43.562    23653692.940    98482292.312 6      3829.437          41.125    23653692.780    98482293.313 6      3829.437          41.937
R05  21479619.500   114820867.930 7       153.945          46.500    21479618.560   114820867.924 7       153.945          46.500    21479631.200    89305167.501 8       119.735          48.250    21479631.220    89305168.498 8       119.735          48.250
G09  21559493.040   113295895.328 7       210.060          46.625    21559492.480   113295895.338 7       210.060          47.937    21559500.300    88282544.580 7       163.683          47.875    21559500.600    88282549.582 8       163.683          48.500
G13  24408096.040   128265413.737 7      5984.908          45.000    24408095.500   128265413.747 5      5984.908          30.687    24408113.240    99947078.078 5      4663.565          30.125
G20  23176688.900   121794311.782 7      4766.406          43.187    23176687.220   121794311.790 5      4766.406          30.187    23176690.920    94904670.695 5      3714.083          30.250
G30  22465750.040   118058308.979 7      5184.662          45.687    22465748.940   118058308.984 7      5184.662          45.062    22465765.140    91993553.650 7      4039.997          44.500    22465766.140    91993562.648 7      4039.997          46.625
G17  23777947.240   124953953.933 7      -483.032          45.687    23777946.160   124953953.935 6      -483.032          40.125    23777960.660    97366772.309 6      -376.389          40.750    23777960.980    97366772.311 6      -376.389          41.875
G19  22525358.920   118371553.871 7      -484.539          42.562    22525356.440   118371553.881 5      -484.539          33.875    22525369.960    92237612.140 5      -377.563          34.062
> 2024 07 31 14 47 55.0000000  0 15
R06  20793719.980   110959272.574 6      3152.870          39.562    20793718.960   110959272.583 6      3152.870          38.062
G06  20332222.600   106846561.783 8      2544.949          49.437    20332221.520   106846561.785 8      2544.949          51.562    20332229.280    83257076.729 8      1983.077          51.500    20332230.200    83257082.730 8      1983.077          52.000
G04  24515013.880   128827264.483 6      -644.470          38.875    24515013.380   128827264.490 4      -644.470          25.687    24515024.080   100384913.119 4      -502.185          26.062    24515024.120   100384926.113 7      -502.185          43.437
G11  21969561.600   115450818.075 7      5080.552          47.562    21969561.040   115450818.085 6      5080.552          37.312    21969566.240    89961702.594 6      3958.872          37.250    21969566.740    89961705.596 8      3958.872          50.187
R21  20668224.080   110599844.132 7      5219.106          47.125    20668224.180   110599844.150 7      5219.106          46.500    20668235.880    86022150.231 8      4059.304          49.625    20668235.960    86022152.231 8      4059.304          49.437
R15  23509881.720   125629695.893 6      4493.329          41.937    23509880.980   125629695.894 6      4493.329          40.937    23509905.060    97712080.854 7      3494.811          45.187    23509904.740    97712077.852 7      3494.811          45.562
G07  21979013.560   115500502.548 7      3420.716          46.437    21979012.180   115500502.553 7      3420.716          46.125    21979021.980    90000411.804 7      2665.493          46.062    21979022.320    90000425.809 8      2665.493          48.312
R07  23652750.940   126615030.255 7      4923.692          44.312    23652749.460   126615030.270 7      4923.692          43.250    23652773.400    98478462.907 6      3829.538          41.125    23652773.140    98478463.909 6      3829.538          41.125
R05  21479590.600   114820713.965 7       154.111          46.187    21479589.820   114820713.971 7       154.111          46.312    21479602.500    89305047.758 7       119.864          47.750    21479602.660    89305048.750 8       119.864          48.625
G09  21559453.040   113295685.311 7       210.024          45.812    21559452.480   113295685.316 7       210.024          47.937    21559460.360    88282380.928 7       163.655          47.937    21559460.600    88282385.928 7       163.655          47.750
G13  24406957.240   128259428.856 7      5984.967          44.437    24406956.560   128259428.863 5      5984.967          30.687    24406974.520    99942414.530 5      4663.611          30.125
G20  23175781.740   121789545.313 7      4766.629          43.750    23175780.060   121789545.320 5      4766.629          30.312    23175783.640    94900956.567 5      3714.257          30.250
G30  22464763.480   118053124.372 7      5184.598          44.375    22464762.240   118053124.382 7      5184.598          44.812    22464778.600    91989513.704 7      4039.947          44.625    22464779.620    91989522.709 7      4039.947          47.062
G17  23778039.320   124954436.894 7      -482.784          44.500    23778038.100   124954436.899 6      -482.784          39.562    23778052.620    97367148.642 6      -376.195          39.812    23778052.720    97367148.649 6      -376.195          41.875
G19  22525451.200   118372038.399 7      -484.473          43.125    22525448.700   118372038.403 5      -484.473          33.875    22525462.240    92237989.698 5      -377.511          34.062
> 2024 07 31 14 47 56.0000000  0 15
R06  20793128.620   110956119.992 6      3152.372          39.562    20793127.680   110956120.009 6      3152.372          38.062
G06  20331738.380   106844017.289 8      2544.072          48.375    20331737.300   106844017.289 8      2544.072          50.437    20331745.100    83255094.004 8      1982.393          51.125    20331746.060    83255100.004 8      1982.393          52.312
G04  24515136.800   128827909.060 6      -644.691          39.000    24515135.980   128827909.070 4      -644.691          25.687    24515146.800   100385415.383 4      -502.356          25.562    24515147.320   100385428.409 6      -502.356          41.750
G11  21968595.000   115445737.664 7      5080.079          46.687    21968594.160   115445737.666 6      5080.079          37.687    21968599.500    89957743.832 6      3958.503          37.562    21968600.120    89957746.832 8      3958.503          49.187
R21  20667248.860   110594625.332 7      5218.280          47.187    20667248.740   110594625.345 7      5218.280          46.062    20667260.760    86018091.158 8      4058.662          49.375    20667260.640    86018093.160 8      4058.662          49.250
R15  23509040.920   125625202.974 6      4492.512          41.937    23509040.080   125625202.972 6      4492.512          40.625    23509064.960    97708586.383 7      3494.176          45.500    23509064.120    97708583.376 7      3494.176          46.125
G07  21978362.640   115497082.264 7      3419.951          47.125    21978361.340   115497082.269 7      3419.951          46.250    21978371.000    89997746.656 7      2664.897          46.375    21978371.260    89997760.660 8      2664.897          48.000
R07  23651830.960   126610106.927 7      4923.029          43.312    23651829.700   126610106.937 7      4923.029          43.250    23651853.480    98474633.660 6      3829.023          40.562    23651853.720    98474634.668 6      3829.023          41.125
R05  21479562.000   114820559.940 7       153.857          45.687    21479561.380   114820559.944 7       153.857          45.937    21479573.480    89304927.953 8       119.667          48.250    21479573.420    89304928.953 7       119.667          47.937
G09  21559413.200   113295475.409 7       209.638          47.062    21559412.600   113295475.411 7       209.638          47.375    21559420.400    88282217.360 7       163.354          47.500    21559420.840    88282222.362 8       163.354          48.437
G13  24405818.520   128253444.064 7      5984.606          44.500    24405817.600   128253444.077 5      5984.606          30.687    24405835.700    99937751.056 5      4663.330          32.437
G20  23174874.660   121784778.712 7      4766.501          43.187    23174872.960   121784778.719 5      4766.501          30.312    23174876.720    94897242.333 5      3714.157          30.250
G30  22463776.760   118047939.930 7      5184.234          45.062    22463775.740   118047939.932 7      5184.234          44.750    22463792.100    91985473.879 7      4039.663          44.375    22463792.860    91985482.882 7      4039.663          46.687
G17  23778131.220   124954919.708 7      -482.894          45.625    23778129.920   124954919.710 6      -482.894          39.625    23778144.300    97367524.863 6      -376.281          39.875    23778144.980    97367524.868 6      -376.281          41.937
G19  22525543.420   118372523.042 7      -484.867          43.000    22525540.760   118372523.046 5      -484.867          32.687    22525554.580    92238367.328 5      -377.818          34.062
> 2024 07 31 14 47 57.0000000  0 15
R06  20792537.600   110952967.682 6      3152.273          39.562    20792536.860   110952967.691 6      3152.273          37.937
G06  20331254.060   106841473.271 8      2543.786          49.625    20331253.260   106841473.274 8      2543.786          51.187    20331261.020    83253111.649 8      1982.171          51.687    20331262.060    83253117.650 8      1982.171          52.062
G04  24515259.200   128828553.580 6      -644.274          39.312    24515258.600   128828553.593 4      -644.274          25.687    24515269.500   100385917.598 4      -502.032          25.562    24515270.740   100385930.569 7      -502.032          44.062
G11  21967628.200   115440657.490 7      5080.079          46.250    21967627.580   115440657.495 6      5080.079          37.625    21967632.740    89953785.257 6      3958.503          37.750    21967633.320    89953788.257 8      3958.503          49.875
R21  20666274.140   110589407.172 7      5217.948          47.312    20666273.620   110589407.184 7      5217.948          46.125    20666285.600    86014032.589 8      4058.404          49.312    20666285.620    86014034.593 8      4058.404          48.875
R15  23508200.020   125620710.381 6      4492.524          40.812    23508199.620   125620710.385 6      4492.524          40.625    23508224.260    97705092.160 7      3494.185          45.812    23508223.460    97705089.162 7      3494.185          46.000
G07  21977711.760   115493662.400 7      3419.672          47.625    21977710.560   115493662.407 7      3419.672          46.125    21977720.160    89995081.831 7      2664.679          46.312    21977720.740    89995095.835 7      2664.679          47.750
R07  23650910.840   126605183.765 7      4923.106          43.562    23650909.860   126605183.783 7      4923.106          42.875    23650933.780    98470804.549 6      3829.082          40.562    23650933.900    98470805.553 6      3829.082          40.875
R05  21479532.800   114820405.864 7       154.151          46.250    21479532.580   114820405.876 7       154.151          45.937    21479544.680    89304808.119 8       119.895          48.437    21479544.760    89304809.121 8       119.895          48.500
G09  21559373.520   113295265.657 7       209.729          47.000    21559372.640   113295265.662 7       209.729          47.437    21559380.480    88282053.914 7       163.425          47.625    21559380.840    88282058.916 8       163.425          48.125
G13  24404679.620   128247459.414 7      5984.587          43.812    24404678.720   128247459.422 5      5984.587          32.375    24404696.860    99933087.686 5      4663.314          32.437
G20  23173967.680   121780012.027 7      4766.813          43.687    23173965.920   121780012.032 5      4766.813          30.312    23173969.600    94893528.033 5      3714.400          30.250
G30  22462790.240   118042755.687 7      5184.150          45.000    22462789.180   118042755.698 7      5184.150          44.500    22462805.480    91981434.218 7      4039.598          44.062    22462806.540    91981443.223 7      4039.598          46.625
G17  23778223.160   124955402.449 7      -482.695          45.250    23778221.740   124955402.456 6      -482.695          39.500    23778236.160    97367901.021 6      -376.126          39.687    23778237.200    97367901.023 6      -376.126          41.812
G19  22525635.600   118373007.824 7      -484.845          42.250    22525633.140   118373007.824 5      -484.845          32.687    22525646.800    92238745.078 5      -377.801          32.750
> 2024 07 31 14 47 58.0000000  0 15
R06  20791946.760   110949815.773 6      3151.630          39.437    20791946.840   110949815.787 6      3151.630          37.937
G06  20330770.320   106838929.908 8      2542.929          49.187    20330769.280   106838929.913 8      2542.929          50.562    20330777.020    83251129.807 8      1981.503          51.000    20330778.020    83251135.808 8      1981.503          50.312
G04  24515382.000   128829198.139 6      -644.911          40.812    24515381.200   128829198.154 4      -644.911          25.687    24515392.060   100386419.854 4      -502.528          25.562    24515392.800   100386432.839 7      -502.528          44.750
G11  21966661.540   115435577.739 7      5079.453          46.437    21966660.940   115435577.744 6      5079.453          37.312    21966666.220    89949827.010 6      3958.016          37.437    21966666.460    89949830.003 8      3958.016          48.937
R21  20665298.820   110584189.836 7      5216.741          46.062    20665298.900   110584189.843 7      5216.741          46.187    20665310.760    86009974.656 7      4057.465          47.937    20665310.460    86009976.658 8      4057.465          49.187
R15  23507359.640   125616218.363 6      4491.523          40.812    23507359.280   125616218.364 6      4491.523          40.625    23507383.760    97701598.389 7      3493.406          45.125    23507383.160    97701595.393 7      3493.406          45.875
G07  21977061.040   115490243.124 7      3418.776          47.437    21977059.720   115490243.119 7      3418.776          45.937    21977069.580    89992417.452 7      2663.981          45.625    21977070.140    89992431.456 7      2663.981          47.062
R07  23649991.180   126600260.986 7      4922.511          43.625    23649990.360   126600261.001 7      4922.511          42.875    23650014.100    98466975.737 6      3828.620          40.312    23650014.440    98466976.741 6      3828.620          40.875
R05  21479503.900   114820251.936 7       153.700          46.750    21479503.780   114820251.943 7       153.700          46.375    21479515.960    89304688.386 8       119.544          48.312    21479516.280    89304689.380 7       119.544          47.250
G09  21559333.440   113295056.241 7       209.092          46.875    21559332.800   113295056.249 7       209.092          46.875    21559340.640    88281890.731 7       162.929          46.687    21559341.020    88281895.733 8       162.929          48.062
G13  24403540.960   128241475.011 7      5984.164          44.500    24403539.720   128241475.019 5      5984.164          32.375    24403558.120    99928424.509 5      4662.985          32.562
G20  23173060.660   121775245.400 7      4766.424          43.000    23173058.820   121775245.407 5      4766.424          30.187    23173062.680    94889813.778 5      3714.096          30.250
G30  22461803.820   118037571.792 7      5183.635          44.375    22461802.660   118037571.805 7      5183.635          44.312    22461819.040    91977394.827 7      4039.196          44.625    22461819.780    91977403.834 7      4039.196          46.437
G17  23778314.660   124955885.234 7      -482.966          45.125    23778313.540   124955885.237 6      -482.966          39.625    23778328.120    97368277.211 6      -376.337          40.000    23778329.000    97368277.211 6      -376.337          41.812
G19  22525727.800   118373492.906 7      -485.432          43.562    22525725.520   118373492.913 5      -485.432          32.812    22525739.220    92239123.058 5      -378.259          32.750
> 2024 07 31 14 47 59.0000000  0 15
R06  20791356.300   110946664.127 6      3151.634          39.437    20791356.500   110946664.152 6      3151.634          37.937
G06  20330286.260   106836387.070 8      2542.733          49.625    20330285.440   106836387.072 8      2542.733          51.562    20330293.200    83249148.369 8      1981.351          51.312    20330294.060    83249154.370 8      1981.351          51.750
G04  24515504.820   128829842.632 6      -644.221          38.375    24515503.820   128829842.642 4      -644.221          25.437    24515514.780   100386922.046 4      -501.990          25.562    24515514.980   100386935.046 7      -501.990          42.500
G11  21965694.780   115430498.253 7      5079.504          46.500    21965694.300   115430498.260 6      5079.504          37.562    21965699.620    89945868.969 6      3958.055          37.125    21965699.860    89945871.962 8      3958.055          49.187
R21  20664324.200   110578973.072 7      5216.648          46.687    20664323.580   110578973.082 7      5216.648          46.375    20664336.000    86005917.175 8      4057.393          49.375    20664335.740    86005919.178 8      4057.393          49.250
R15  23506519.480   125611726.678 6      4491.730          41.625    23506518.580   125611726.674 6      4491.730          41.000    23506542.700    97698104.865 7      3493.567          45.562    23506542.680    97698101.867 7      3493.567          46.187
G07  21976410.380   115486824.253 7      3418.785          47.000    21976409.200   115486824.258 7      3418.785          45.812    21976418.960    89989753.411 7      2663.989          45.937    21976419.460    89989767.415 8      2663.989          48.375
R07  23649072.160   126595338.416 7      4922.602          43.625    23649070.880   126595338.439 7      4922.602          42.750    23649094.260    98463147.090 6      3828.691          40.312    23649094.680    98463148.096 6      3828.691          40.437
R05  21479475.320   114820097.933 7       154.302          46.750    21479475.060   114820097.945 7       154.302          45.875    21479487.160    89304568.604 8       120.013          48.062    21479487.380    89304569.602 8       120.013          48.250
G09  21559293.600   113294846.980 7       209.338          47.750    21559292.920   113294846.982 7       209.338          47.937    21559300.860    88281727.661 7       163.120          47.937    21559301.080    88281732.667 8       163.120          48.187
G13  24402402.040   128235490.745 7      5984.401          45.062    24402400.940   128235490.750 5      5984.401          32.375    24402419.400    99923761.446 5      4663.169          32.562
G20  23172153.600   121770478.693 7      4766.920          42.750    23172151.700   121770478.698 5      4766.920          30.187    23172155.660    94886099.468 5      3714.483          30.250
G30  22460817.520   118032388.130 7      5183.719          45.312    22460816.180   118032388.143 7      5183.719          44.687    22460832.540    91973355.619 7      4039.262          44.062    22460833.540    91973364.623 7      4039.262          46.687
G17  23778406.640   124956367.951 7      -482.468          45.500    23778405.380   124956367.954 6      -482.468          39.937    23778420.040    97368653.350 6      -375.949          39.812    23778420.640    97368653.348 6      -375.949          41.562
G19  22525820.040   118373978.143 7      -485.099          42.750    22525817.820   118373978.145 5      -485.099          32.812    22525831.520    92239501.156 5      -377.999          32.812
> 2024 07 31 14 48  0.0000000  0 15
R06  20790765.360   110943512.805 6      3151.208          39.437    20790765.880   110943512.805 6      3151.208          37.937
G06  20329802.520   106833844.778 8      2541.973          48.937    20329801.540   106833844.780 8      2541.973          51.062    20329809.360    83247167.360 8      1980.758          51.437    20329810.460    83247173.357 8      1980.758          51.750
G04  24515627.780   128830487.049 6      -644.368          38.687    24515626.580   128830487.057 4      -644.368          25.437    24515637.340   100387424.184 4      -502.105          25.562    24515639.140   100387437.158 7      -502.105          42.875
G11  21964728.160   115425419.080 7      5078.982          46.875    21964727.800   115425419.082 6      5078.982          37.687    21964733.020    89941911.169 6      3957.648          37.562    21964733.280    89941914.165 8      3957.648          49.375
R21  20663349.440   110573756.969 7      5215.705          46.875    20663349.080   110573756.984 7      5215.705          47.062    20663360.980    86001860.213 8      4056.659          49.312    20663361.080    86001862.213 8      4056.659          48.750
R15  23505679.220   125607235.485 6      4490.974          41.687    23505677.960   125607235.476 6      4490.974          41.000    23505701.960    97694611.717 7      3492.980          45.562    23505701.980    97694608.719 7      3492.980          45.875
G07  21975759.800   115483405.882 7      3418.046          46.625    21975758.740   115483405.887 7      3418.046          46.250    21975768.600    89987089.747 7      2663.412          46.750    21975768.840    89987103.751 7      2663.412          47.375
R07  23648152.540   126590416.126 7      4922.116          43.750    23648151.160   126590416.155 7      4922.116          42.750    23648175.340    98459318.654 6      3828.313          40.125    23648175.200    98459319.661 6      3828.313          40.125
R05  21479446.100   114819943.970 7       153.977          46.437    21479446.320   114819943.984 7       153.977          45.750    21479458.360    89304448.852 8       119.760          48.250    21479458.240    89304449.849 8       119.760          48.437
G09  21559253.840   113294637.945 7       208.872          46.875    21559253.040   113294637.950 7       208.872          47.625    21559261.020    88281564.774 7       162.757          47.625    21559261.360    88281569.778 8       162.757          48.062
G13  24401263.180   128229506.676 7      5983.963          44.187    24401262.240   128229506.684 5      5983.963          32.375    24401280.600    99919098.537 5      4662.828          32.562
G20  23171246.640   121765711.964 7      4766.720          43.187    23171244.820   121765711.971 5      4766.720          30.187    23171248.760    94882385.133 5      3714.327          30.312
G30  22459830.840   118027204.742 7      5183.235          45.187    22459829.820   118027204.747 7      5183.235          44.875    22459846.260    91969316.613 7      4038.884          44.562    22459846.960    91969325.617 7      4038.884          47.000
G17  23778498.660   124956850.642 7      -482.701          45.187    23778497.140   124956850.642 6      -482.701          39.625    23778511.940    97369029.471 6      -376.131          39.812    23778512.620    97369029.473 6      -376.131          41.562
G19  22525912.440   118374463.603 7      -485.606          42.687    22525910.200   118374463.610 5      -485.606          32.687    22525923.860    92239879.424 5      -378.394          32.812
