     3.05           OBSERVATION DATA    MIXED               RINEX VERSION / TYPE
TPS2RIN 1.0.29.3920 TPS-USER            20240801 093645 UTC PGM / RUN BY / DATE
Win64 build Feb 23, 2024 (c) Topcon Positioning Systems     COMMENT
SRC: 20240731_CAMI3.tps                                     COMMENT
OPT: -S -v 3.05                                             COMMENT
Observer            Agency                                  OBSERVER / AGENCY
O0M3X53SBGM         TPS HIPER_SR        4.8 HSR Jul,08,2022 REC # / TYPE / VERS
FW: 4.8 HSR Jul,08,2022 p3                                  COMMENT
SN: HiPer SR 1212-12575                                     COMMENT
000                 TPSHIPER_SR     NONE                    ANT # / TYPE
        1.8000        0.0000        0.0000                  ANTENNA: DELTA H/E/N
CAMI3                                                       MARKER NAME
  5388115.0156 -1596624.6589  3010283.0578                  APPROX POSITION XYZ
  2024     7    31    12    50   19.0000000     GPS         TIME OF FIRST OBS
  2024     7    31    13     5   52.0000000     GPS         TIME OF LAST OBS
     1.000                                                  INTERVAL
   934 EPOCHS                                               COMMENT
G   16 C1C L1C D1C S1C C1W L1W D1W S1W C2W L2W D2W S2W C2X  SYS / # / OBS TYPES
       L2X D2X S2X                                          SYS / # / OBS TYPES
R   16 C1C L1C D1C S1C C1P L1P D1P S1P C2P L2P D2P S2P C2C  SYS / # / OBS TYPES
       L2C D2C S2C                                          SYS / # / OBS TYPES
    10                                                      # OF SATELLITES
   G03   866   866   866   866   861   861   861   861   861PRN / # OF OBS
         861   861   861   857   857   857   857            PRN / # OF OBS
   G04   934   934   934   934   934   934   934   934   934PRN / # OF OBS
         934   934   934   934   934   934   934            PRN / # OF OBS
   G06   934   934   934   934   934   934   934   934   934PRN / # OF OBS
         934   934   934   934   934   934   934            PRN / # OF OBS
   G09   934   934   934   934   934   934   934   934   934PRN / # OF OBS
         934   934   934   934   934   934   934            PRN / # OF OBS
   G11   323   323   323   323   323   323   323   323   323PRN / # OF OBS
         323   323   323   323   323   323   323            PRN / # OF OBS
   G17   934   934   934   934   934   934   934   934   934PRN / # OF OBS
         934   934   934   934   934   934   934            PRN / # OF OBS
   G19   830   830   830   830   818   818   818   818   819PRN / # OF OBS
         819   819   819     0     0     0     0            PRN / # OF OBS
   R04   934   934   934   934   934   934   934   934   934PRN / # OF OBS
         934   934   934   934   934   934   934            PRN / # OF OBS
   R05   934   934   934   934   934   934   934   934   934PRN / # OF OBS
         934   934   934   934   934   934   934            PRN / # OF OBS
   R19   821   821   821   821   815   815   815   815   815PRN / # OF OBS
         815   815   815   814   814   814   814            PRN / # OF OBS
G L1C                                                       SYS / PHASE SHIFT
G L1W -0.25000                                              SYS / PHASE SHIFT
G L2W  0.00000                                              SYS / PHASE SHIFT
G L2X  0.25000                                              SYS / PHASE SHIFT
R L1C                                                       SYS / PHASE SHIFT
R L1P -0.25000                                              SYS / PHASE SHIFT
R L2P -0.25000                                              SYS / PHASE SHIFT
R L2C                                                       SYS / PHASE SHIFT
  3 R04  6 R05  1 R19  3                                    GLONASS SLOT / FRQ #
                                                            GLONASS COD/PHS/BIS
    18    18  1929     7GPS                                 LEAP SECONDS
                                                            END OF HEADER
> 2024 07 31 12 50 19.0000000  0  8
G09  20328621.420   106827630.131 7      3844.665          47.875    20328619.900   106827630.133 8      3844.665          49.625    20328627.020    83242339.978 8      2995.843          50.125    20328627.500    83242335.978 8      2995.843          50.437
G06  22249326.820   116920997.986 7      5093.390          42.750    22249325.780   116920997.991 6      5093.390          39.187    22249334.000    91107285.402 6      3968.875          39.312    22249334.740    91107311.402 7      3968.875          44.500
G04  20924652.620   109959796.830 8      1436.685          48.000    20924652.300   109959796.838 6      1436.685          39.125    20924656.680    85682974.867 6      1119.495          38.687    20924656.860    85682971.871 8      1119.495          50.937
G17  20693491.600   108745019.980 7      2049.892          47.000    20693490.540   108745019.985 7      2049.892          46.937    20693495.120    84736404.231 7      1597.319          46.437    20693495.640    84736410.234 8      1597.319          49.500
R04  20732353.780   111020825.969 7      -301.393          46.437    20732356.300   111020826.022 7      -301.393          45.250    20732366.740    86349574.281 8      -234.417          49.937    20732366.580    86349574.281 8      -234.417          49.812
G19  20636063.100   108443234.118 7      3670.448          42.500    20636059.420   108443234.118 4      3670.448          26.625    20636060.680    84501222.865 4      2860.089          26.687
R05  19370439.620   103546042.288 7      3033.360          44.312    19370437.960   103546042.281 7      3033.360          43.812    19370449.780    80535894.231 8      2359.280          49.375    19370449.320    80535895.219 8      2359.280          49.750
G03  22624318.280   118891585.896 7       455.689          43.187    22624318.220   118891585.898 6       455.689          37.375    22624327.860    92642824.873 6       355.083          37.000    22624328.560    92642834.871 6       355.083          41.062
> 2024 07 31 12 50 20.0000000  0  8
G09  20327889.780   106823785.731 8      3844.008          48.250    20327888.320   106823785.736 8      3844.008          50.000    20327895.480    83239344.342 8      2995.331          50.375    20327895.880    83239340.339 8      2995.331          50.375
G06  22248357.640   116915904.651 7      5093.319          42.562    22248356.680   116915904.650 6      5093.319          40.000    22248364.680    91103316.565 6      3968.820          39.687    22248365.280    91103342.567 7      3968.820          44.625
G04  20924379.220   109958360.550 8      1435.934          48.500    20924378.980   109958360.563 6      1435.934          39.125    20924383.480    85681855.691 6      1118.909          39.062    20924383.780    85681852.692 8      1118.909          51.312
G17  20693101.620   108742970.471 8      2049.083          49.000    20693100.500   108742970.471 7      2049.083          47.250    20693105.060    84734807.203 7      1596.688          47.000    20693105.880    84734813.204 8      1596.688          49.250
R04  20732409.680   111021127.670 7      -301.909          46.000    20732412.940   111021127.723 7      -301.909          44.562    20732423.180    86349808.935 8      -234.818          49.500    20732422.860    86349808.933 8      -234.818          50.250
G19  20635364.440   108439563.952 7      3669.816          42.000    20635361.020   108439563.951 4      3669.816          26.625    20635362.240    84498362.993 4      2859.597          26.687
R05  19369872.280   103543009.320 7      3032.584          44.437    19369870.740   103543009.316 7      3032.584          44.687    19369882.500    80533535.255 8      2358.676          49.437    19369881.960    80533536.245 8      2358.676          50.062
G03  22624231.460   118891130.198 7       455.611          43.250    22624231.540   118891130.197 6       455.611          37.250    22624241.180    92642469.779 6       355.022          37.062    22624241.440    92642479.785 6       355.022          40.750
> 2024 07 31 12 50 21.0000000  0  8
G09  20327158.220   106819942.090 8      3843.175          48.500    20327157.020   106819942.095 8      3843.175          50.312    20327164.080    83236349.301 8      2994.682          50.437    20327164.420    83236345.299 8      2994.682          50.562
G06  22247388.500   116910811.531 7      5092.982          42.625    22247387.520   116910811.538 6      5092.982          39.125    22247395.560    91099347.910 6      3968.558          39.000    22247396.300    91099373.917 7      3968.558          44.187
G04  20924105.900   109956924.977 8      1435.115          48.125    20924105.840   109956924.990 6      1435.115          39.500    20924110.220    85680737.059 6      1118.271          38.812    20924110.260    85680734.066 8      1118.271          50.812
G17  20692711.760   108740921.688 7      2048.236          47.812    20692710.680   108740921.685 7      2048.236          46.875    20692715.200    84733210.748 7      1596.028          46.875    20692716.060    84733216.747 8      1596.028          49.312
R04  20732466.880   111021429.853 7      -302.503          46.000    20732469.160   111021429.905 7      -302.503          45.250    20732479.500    86350043.962 8      -235.280          49.687    20732479.420    86350043.962 8      -235.280          50.437
G19  20634666.300   108435894.657 7      3668.860          42.187    20634662.600   108435894.654 4      3668.860          26.625    20634663.980    84495503.800 4      2858.852          26.687
R05  19369305.060   103539977.238 7      3031.508          44.625    19369303.200   103539977.234 7      3031.508          44.625    19369315.200    80531176.974 8      2357.839          49.375    19369314.880    80531177.964 8      2357.839          50.000
G03  22624144.900   118890674.657 7       455.322          43.687    22624144.940   118890674.659 6       455.322          37.250    22624154.400    92642114.813 6       354.796          37.250    22624154.660    92642124.817 6       354.796          40.750
> 2024 07 31 12 50 22.0000000  0  8
G09  20326427.020   106816099.162 8      3842.594          49.187    20326425.620   106816099.167 8      3842.594          49.375    20326432.760    83233354.813 8      2994.229          49.000    20326433.000    83233350.813 8      2994.229          49.687
G06  22246419.640   116905718.610 7      5092.800          43.187    22246418.400   116905718.626 6      5092.800          39.125    22246426.220    91095379.409 6      3968.416          39.187    22246426.820    91095405.412 7      3968.416          43.937
G04  20923832.780   109955490.055 7      1434.703          47.812    20923832.840   109955490.071 6      1434.703          39.187    20923837.160    85679618.942 6      1117.951          38.500    20923837.320    85679615.943 8      1117.951          50.562
G17  20692322.000   108738873.575 7      2047.847          47.687    20692320.800   108738873.572 7      2047.847          47.125    20692325.560    84731614.812 7      1595.725          46.625    20692326.360    84731620.811 8      1595.725          48.250
R04  20732523.180   111021732.437 7      -302.744          45.687    20732525.320   111021732.490 7      -302.744          44.812    20732536.020    86350279.306 8      -235.467          49.125    20732535.840    86350279.304 8      -235.467          49.062
G19  20633968.040   108432226.135 7      3668.125          42.187    20633964.320   108432226.132 4      3668.125          26.625    20633966.220    84492645.212 4      2858.279          26.687
R05  19368738.240   103536945.932 7      3030.952          44.625    19368736.360   103536945.931 7      3030.952          44.500    19368748.140    80528819.298 8      2357.407          48.875    19368747.840    80528820.292 8      2357.407          48.625
G03  22624058.080   118890219.211 7       455.463          43.500    22624058.200   118890219.213 6       455.463          37.187    22624067.780    92641759.920 6       354.906          36.937    22624067.640    92641769.924 6       354.906          40.437
> 2024 07 31 12 50 23.0000000  0  8
G09  20325695.720   106812257.037 8      3841.643          48.875    20325694.660   106812257.039 8      3841.643          48.000    20325701.660    83230360.946 8      2993.488          49.375    20325701.860    83230356.945 8      2993.488          48.812
G06  22245450.480   116900625.937 7      5092.485          43.125    22245449.560   116900625.950 6      5092.485          38.937    22245457.060    91091411.092 6      3968.170          38.750    22245457.660    91091437.087 7      3968.170          43.625
G04  20923559.940   109954055.925 7      1433.699          47.562    20923559.900   109954055.938 6      1433.699          38.625    20923564.400    85678501.436 6      1117.168          38.812    20923564.420    85678498.438 8      1117.168          49.812
G17  20691932.360   108736826.281 7      2046.810          47.812    20691931.220   108736826.284 7      2046.810          45.875    20691935.960    84730019.518 7      1594.917          46.000    20691936.680    84730025.515 8      1594.917          48.375
R04  20732579.580   111022035.533 7      -303.440          45.750    20732582.200   111022035.580 7      -303.440          44.812    20732592.680    86350515.036 7      -236.009          47.750    20732592.440    86350515.032 7      -236.009          47.687
G19  20633269.980   108428558.486 7      3667.187          42.062    20633266.440   108428558.483 4      3667.187          26.187    20633268.240    84489787.301 4      2857.548          26.250
R05  19368170.780   103533915.554 7      3029.827          44.750    19368169.460   103533915.550 7      3029.827          44.750    19368181.200    80526462.337 7      2356.532          47.875    19368180.720    80526463.329 7      2356.532          47.875
G03  22623971.960   118889763.970 7       455.010          43.062    22623971.800   118889763.970 6       455.010          37.125    22623981.060    92641405.184 6       354.553          37.187    22623980.820    92641415.190 6       354.553          40.437
> 2024 07 31 12 50 24.0000000  0  8
G09  20324964.980   106808415.517 8      3841.214          49.062    20324963.700   106808415.514 8      3841.214          49.500    20324970.620    83227367.549 8      2993.154          49.500    20324970.880    83227363.551 8      2993.154          50.187
G06  22244481.480   116895533.358 7      5092.516          44.062    22244480.660   116895533.371 6      5092.516          39.250    22244488.120    91087442.845 6      3968.195          39.875    22244488.820    91087468.839 7      3968.195          43.812
G04  20923287.120   109952622.351 8      1433.258          48.250    20923287.140   109952622.361 6      1433.258          39.125    20923291.500    85677384.363 6      1116.825          38.750    20923291.400    85677381.362 8      1116.825          50.250
G17  20691542.940   108734779.579 7      2046.373          47.187    20691541.800   108734779.573 7      2046.373          46.625    20691546.420    84728424.675 7      1594.576          46.187    20691547.080    84728430.674 8      1594.576          48.500
R04  20732636.740   111022338.926 7      -303.504          46.187    20732638.960   111022338.970 7      -303.504          45.125    20732649.100    86350751.005 8      -236.059          48.875    20732649.120    86350751.003 8      -236.059          49.437
G19  20632572.460   108424891.551 7      3666.482          42.562    20632568.620   108424891.553 4      3666.482          26.187    20632570.320    84486929.951 4      2856.999          26.250
R05  19367604.140   103530885.865 7      3029.359          44.750    19367602.860   103530885.863 7      3029.359          44.750    19367614.520    80524105.912 8      2356.168          49.062    19367614.180    80524106.906 8      2356.168          49.000
G03  22623885.540   118889308.755 7       455.090          43.750    22623885.220   118889308.760 6       455.090          36.812    22623894.540    92641050.471 6       354.616          37.500    22623893.800    92641060.475 6       354.616          40.000
> 2024 07 31 12 50 25.0000000  0  8
G09  20324234.280   106804574.845 8      3840.401          49.500    20324232.900   106804574.848 8      3840.401          50.312    20324239.700    83224374.824 8      2992.520          49.875    20324240.200    83224370.828 8      2992.520          50.375
G06  22243512.260   116890441.095 7      5092.237          42.812    22243511.780   116890441.103 6      5092.237          39.875    22243519.000    91083474.846 6      3967.977          40.062    22243519.740    91083500.838 7      3967.977          44.187
G04  20923014.520   109951189.581 8      1432.564          48.062    20923014.560   109951189.592 6      1432.564          39.562    20923019.000    85676267.915 6      1116.283          39.375    20923019.000    85676264.912 8      1116.283          51.000
G17  20691153.640   108732733.686 7      2045.676          47.687    20691152.460   108732733.686 7      2045.676          47.500    20691157.120    84726830.473 7      1594.034          46.812    20691157.700    84726836.474 8      1594.034          48.937
R04  20732693.340   111022642.921 7      -304.067          46.187    20732695.580   111022642.966 7      -304.067          45.125    20732706.040    86350987.437 8      -236.497          49.437    20732705.960    86350987.437 8      -236.497          50.000
G19  20631875.060   108421225.525 6      3665.775          41.937    20631870.980   108421225.525 4      3665.775          26.187    20631872.720    84484073.310 4      2856.448          26.250
R05  19367037.460   103527857.138 7      3028.349          44.437    19367036.060   103527857.144 7      3028.349          44.687    19367048.040    80521750.250 8      2355.382          49.000    19367047.420    80521751.246 8      2355.382          49.375
G03  22623799.080   118888853.745 7       455.024          43.062    22623798.500   118888853.748 6       455.024          37.687    22623808.040    92640695.914 6       354.564          37.375    22623807.600    92640705.922 6       354.564          40.000
> 2024 07 31 12 50 26.0000000  0  8
G09  20323503.540   106800734.555 8      3839.786          48.750    20323502.080   106800734.557 8      3839.786          50.312    20323508.920    83221382.390 8      2992.041          50.312    20323509.280    83221378.390 8      2992.041          50.500
G06  22242543.100   116885348.643 7      5092.303          42.375    22242542.660   116885348.650 6      5092.303          39.187    22242549.780    91079506.703 6      3968.028          39.500    22242550.620    91079532.697 7      3968.028          44.000
G04  20922741.980   109949757.135 8      1432.075          48.125    20922741.940   109949757.142 6      1432.075          39.437    20922746.400    85675151.721 6      1115.903          39.687    20922746.420    85675148.720 8      1115.903          51.375
G17  20690764.120   108730688.161 7      2045.079          47.187    20690763.300   108730688.163 7      2045.079          46.875    20690767.960    84725236.557 7      1593.568          46.750    20690768.440    84725242.554 8      1593.568          49.187
R04  20732750.200   111022947.005 7      -304.384          45.500    20732751.900   111022947.050 7      -304.384          44.562    20732762.760    86351223.943 8      -236.743          49.750    20732762.660    86351223.938 8      -236.743          50.500
G19  20631177.460   108417559.959 7      3665.136          42.125    20631173.320   108417559.956 4      3665.136          26.187    20631175.240    84481217.023 4      2855.950          26.250
R05  19366471.060   103524828.889 7      3027.765          44.375    19366469.780   103524828.890 7      3027.765          44.125    19366481.600    80519394.939 8      2354.928          49.500    19366480.960    80519395.936 8      2354.928          50.062
G03  22623712.440   118888398.517 7       455.018          43.250    22623712.080   118888398.522 6       455.018          37.875    22623721.440    92640341.193 6       354.560          37.937    22623721.240    92640351.199 6       354.560          40.000
> 2024 07 31 12 50 27.0000000  0  8
G09  20322772.720   106796894.884 8      3839.485          49.312    20322771.620   106796894.884 8      3839.485          49.937    20322778.140    83218390.437 8      2991.807          50.312    20322778.500    83218386.437 8      2991.807          50.687
G06  22241574.260   116880256.324 7      5092.369          43.937    22241573.660   116880256.342 6      5092.369          39.312    22241580.520    91075538.671 6      3968.080          39.312    22241581.080    91075564.665 7      3968.080          43.875
G04  20922469.520   109948325.322 8      1431.599          48.500    20922469.380   109948325.332 6      1431.599          39.250    20922473.900    85674036.023 6      1115.531          39.000    20922474.040    85674033.021 8      1115.531          51.250
G17  20690375.260   108728643.261 7      2044.775          47.437    20690374.160   108728643.258 7      2044.775          47.312    20690378.840    84723643.122 7      1593.331          47.062    20690379.200    84723649.121 8      1593.331          48.625
R04  20732806.860   111023251.440 7      -304.485          45.062    20732808.620   111023251.489 7      -304.485          44.875    20732819.320    86351460.729 8      -236.822          49.562    20732819.320    86351460.727 8      -236.822          50.375
G19  20630479.920   108413895.113 7      3664.690          42.687    20630475.820   108413895.105 4      3664.690          26.187    20630477.900    84478361.295 4      2855.603          26.250
R05  19365905.020   103521801.448 7      3027.156          44.875    19365903.420   103521801.441 7      3027.156          44.625    19365915.140    80517040.259 8      2354.455          49.875    19365914.680    80517041.255 8      2354.455          49.937
G03  22623625.980   118887943.326 7       455.420          43.562    22623625.400   118887943.331 6       455.420          37.750    22623634.980    92639986.495 6       354.873          37.812    22623635.120    92639996.503 6       354.873          40.437
> 2024 07 31 12 50 28.0000000  0  8
G09  20322042.140   106793055.763 8      3838.823          49.125    20322041.000   106793055.768 8      3838.823          50.000    20322047.640    83215398.918 8      2991.291          50.125    20322048.040    83215394.914 8      2991.291          50.250
G06  22240605.000   116875164.013 7      5092.223          43.125    22240604.760   116875164.026 6      5092.223          39.125    22240611.360    91071570.636 6      3967.966          39.312    22240612.420    91071596.624 7      3967.966          43.875
G04  20922197.060   109946893.984 7      1430.995          47.812    20922197.000   109946893.997 6      1430.995          39.125    20922201.520    85672920.694 6      1115.061          39.187    20922201.580    85672917.695 8      1115.061          51.437
G17  20689986.220   108726598.897 8      2044.038          48.187    20689985.140   108726598.899 7      2044.038          46.625    20689989.700    84722050.116 7      1592.757          46.937    20689989.940    84722056.115 8      1592.757          48.687
R04  20732863.940   111023556.166 7      -304.876          45.562    20732866.040   111023556.210 7      -304.876          44.875    20732876.460    86351697.724 8      -237.126          49.437    20732876.300    86351697.720 8      -237.126          50.125
G19  20629782.600   108410230.885 6      3663.970          41.875    20629778.580   108410230.882 4      3663.970          26.125    20629780.460    84475506.056 4      2855.042          26.250
R05  19365339.000   103518774.637 7      3026.427          45.312    19365337.100   103518774.631 7      3026.427          44.687    19365349.040    80514686.075 8      2353.888          50.062    19365348.480    80514687.075 8      2353.888          50.000
G03  22623539.680   118887488.122 7       455.198          43.562    22623538.960   118887488.124 6       455.198          38.375    22623548.520    92639631.780 6       354.700          38.187    22623548.780    92639641.790 6       354.700          40.437
> 2024 07 31 12 50 29.0000000  0  8
G09  20321311.600   106789217.325 8      3838.109          49.312    20321310.600   106789217.324 8      3838.109          49.937    20321317.240    83212407.925 8      2990.734          50.312    20321317.660    83212403.929 8      2990.734          50.312
G06  22239636.140   116870071.847 7      5092.037          44.187    22239635.780   116870071.855 6      5092.037          39.937    22239642.400    91067602.715 6      3967.821          39.812    22239643.400    91067628.697 7      3967.821          43.875
G04  20921924.880   109945463.290 7      1430.325          47.750    20921924.620   109945463.303 6      1430.325          39.312    20921929.320    85671805.868 6      1114.539          38.937    20921929.600    85671802.869 8      1114.539          51.187
G17  20689597.400   108724555.188 8      2043.390          48.937    20689596.260   108724555.187 7      2043.390          47.062    20689600.900    84720457.606 7      1592.252          46.687    20689601.180    84720463.608 8      1592.252          49.375
R04  20732920.900   111023861.275 7      -305.374          45.625    20732922.660   111023861.325 7      -305.374          44.875    20732933.360    86351935.033 8      -237.513          49.687    20732933.140    86351935.033 8      -237.513          50.312
G19  20629085.340   108406567.445 6      3663.122          41.562    20629081.260   108406567.439 4      3663.122          26.125    20629083.340    84472651.427 4      2854.381          26.250
R05  19364772.700   103515748.623 7      3025.650          45.437    19364771.540   103515748.609 7      3025.650          45.000    19364782.880    80512332.506 8      2353.283          50.000    19364782.320    80512333.505 8      2353.283          49.625
G03  22623452.780   118887032.952 7       455.118          43.625    22623452.420   118887032.951 6       455.118          38.062    22623462.100    92639277.096 6       354.637          37.937    22623462.360    92639287.114 6       354.637          40.750
> 2024 07 31 12 50 30.0000000  0  8
G09  20320581.480   106785379.714 8      3837.039          49.062    20320580.320   106785379.719 8      3837.039          50.375    20320586.920    83209417.583 8      2989.900          50.187    20320587.480    83209413.583 8      2989.900          50.375
G06  22238666.920   116864979.941 7      5091.774          43.750    22238666.980   116864979.949 6      5091.774          40.062    22238673.500    91063634.998 6      3967.616          40.000    22238674.540    91063660.978 7      3967.616          43.625
G04  20921652.680   109944033.379 7      1429.410          47.812    20921652.440   109944033.392 6      1429.410          38.937    20921657.060    85670691.648 6      1113.826          39.125    20921657.440    85670688.646 8      1113.826          51.250
G17  20689208.560   108722512.290 8      2042.371          48.937    20689207.520   108722512.295 7      2042.371          47.062    20689211.920    84718865.740 7      1591.458          47.125    20689212.580    84718871.741 8      1591.458          48.937
R04  20732978.380   111024166.933 7      -306.138          45.187    20732979.420   111024166.986 7      -306.138          44.437    20732990.320    86352172.774 8      -238.108          49.937    20732990.260    86352172.774 8      -238.108          50.687
G19  20628388.580   108402904.887 7      3662.117          42.125    20628384.220   108402904.879 4      3662.117          26.125    20628386.420    84469797.488 4      2853.598          26.250
R05  19364206.580   103512723.556 7      3024.536          45.250    19364205.820   103512723.538 7      3024.536          44.562    19364217.020    80509979.676 8      2352.417          49.937    19364216.480    80509980.674 8      2352.417          49.687
G03  22623365.860   118886578.008 7       454.734          43.187    22623365.940   118886578.015 6       454.734          38.375    22623375.640    92638922.594 6       354.338          38.187    22623375.820    92638932.612 6       354.338          40.750
> 2024 07 31 12 50 31.0000000  0  8
G09  20319851.400   106781542.797 8      3836.752          49.125    20319850.200   106781542.800 8      3836.752          50.062    20319856.780    83206427.776 8      2989.677          49.687    20319857.140    83206423.776 8      2989.677          50.500
G06  22237697.860   116859888.253 7      5091.889          44.687    22237698.060   116859888.261 6      5091.889          39.625    22237704.440    91059667.445 6      3967.705          39.250    22237705.720    91059693.424 7      3967.705          43.812
G04  20921380.700   109942604.130 7      1429.133          47.812    20921380.540   109942604.143 6      1429.133          38.937    20921385.120    85669577.947 6      1113.610          38.625    20921385.560    85669574.948 8      1113.610          51.187
G17  20688819.920   108720470.088 8      2042.039          48.625    20688818.920   108720470.091 7      2042.039          47.250    20688823.440    84717274.410 7      1591.199          46.000    20688823.820    84717280.409 8      1591.199          48.687
R04  20733035.560   111024472.982 7      -306.029          45.500    20733037.200   111024473.032 7      -306.029          44.750    20733047.680    86352410.803 8      -238.022          49.312    20733047.440    86352410.806 8      -238.022          49.750
G19  20627691.600   108399243.136 6      3661.538          41.812    20627687.240   108399243.128 4      3661.538          26.125    20627689.680    84466944.168 4      2853.146          26.250
R05  19363641.240   103509699.303 7      3024.028          44.812    19363640.180   103509699.283 7      3024.028          44.750    19363651.240    80507627.473 8      2352.022          49.500    19363650.820    80507628.476 8      2352.022          49.937
G03  22623279.400   118886123.166 7       455.081          42.750    22623279.500   118886123.168 6       455.081          38.187    22623289.180    92638568.167 6       354.608          38.062    22623289.160    92638578.188 6       354.608          41.250
> 2024 07 31 12 50 32.0000000  0  8
G09  20319121.400   106777706.553 8      3835.824          48.750    20319120.120   106777706.558 8      3835.824          50.687    20319126.720    83203438.499 8      2988.953          50.125    20319126.980    83203434.497 8      2988.953          50.062
G06  22236729.320   116854796.699 7      5091.365          43.562    22236729.160   116854796.709 6      5091.365          40.125    22236735.560    91055700.002 6      3967.297          40.250    22236736.460    91055725.984 7      3967.297          43.812
G04  20921108.960   109941175.531 7      1428.128          47.500    20921108.620   109941175.541 6      1428.128          39.187    20921113.320    85668464.749 6      1112.827          38.875    20921113.820    85668461.741 8      1112.827          51.937
G17  20688431.440   108718428.547 8      2041.007          48.562    20688430.540   108718428.546 7      2041.007          47.500    20688434.820    84715683.592 7      1590.395          47.562    20688435.440    84715689.589 8      1590.395          48.375
R04  20733092.460   111024779.422 7      -306.761          45.500    20733094.340   111024779.472 7      -306.761          44.687    20733104.940    86352649.148 8      -238.592          49.812    20733104.520    86352649.148 8      -238.592          50.187
G19  20626994.800   108395582.137 6      3660.363          41.812    20626990.540   108395582.132 4      3660.363          26.125    20626993.200    84464091.441 4      2852.231          26.250
R05  19363075.180   103506675.817 7      3022.901          45.062    19363074.980   103506675.797 7      3022.901          44.500    19363085.520    80505275.875 8      2351.145          49.750    19363085.200    80505276.874 8      2351.145          49.062
G03  22623192.820   118885668.393 7       454.707          42.937    22623193.100   118885668.400 6       454.707          38.000    22623202.660    92638213.801 6       354.317          38.062    22623202.340    92638223.823 6       354.317          41.312
> 2024 07 31 12 50 33.0000000  0  8
G09  20318391.420   106773870.976 8      3835.151          49.000    20318390.260   106773870.984 8      3835.151          49.875    20318396.920    83200449.742 8      2988.430          50.250    20318397.280    83200445.739 8      2988.430          50.562
G06  22235760.820   116849705.242 7      5091.369          44.187    22235760.580   116849705.253 6      5091.369          39.625    22235766.840    91051732.633 6      3967.301          39.375    22235767.420    91051758.617 7      3967.301          44.187
G04  20920837.140   109939747.522 7      1427.616          47.687    20920836.840   109939747.535 6      1427.616          38.687    20920841.680    85667352.017 6      1112.428          38.875    20920841.920    85667349.011 8      1112.428          51.750
G17  20688042.980   108716387.609 8      2040.580          48.500    20688042.160   108716387.611 7      2040.580          46.812    20688046.500    84714093.249 7      1590.062          46.750    20688046.760    84714099.251 7      1590.062          47.875
R04  20733149.840   111025086.251 7      -307.192          45.875    20733151.880   111025086.300 7      -307.192          45.000    20733162.300    86352887.788 8      -238.927          49.562    20733162.120    86352887.790 8      -238.927          50.250
G19  20626298.120   108391921.839 6      3659.903          41.750    20626293.800   108391921.834 4      3659.903          25.875    20626296.700    84461239.259 4      2851.872          26.250
R05  19362509.720   103503653.072 7      3022.307          45.312    19362509.480   103503653.057 7      3022.307          45.000    19362520.080    80502924.857 8      2350.683          49.437    19362519.820    80502925.858 8      2350.683          49.562
G03  22623106.240   118885213.677 7       454.752          42.937    22623106.640   118885213.679 6       454.752          38.187    22623116.320    92637859.473 6       354.352          38.687    22623116.140    92637869.495 6       354.352          41.312
> 2024 07 31 12 50 34.0000000  0  8
G09  20317661.680   106770036.080 8      3834.766          49.062    20317660.500   106770036.085 8      3834.766          49.187    20317667.040    83197461.509 8      2988.130          48.937    20317667.680    83197457.507 8      2988.130          49.812
G06  22234791.760   116844613.972 7      5091.437          44.625    22234791.860   116844613.982 6      5091.437          39.625    22234797.900    91047765.410 6      3967.353          39.625    22234798.400    91047791.391 7      3967.353          43.875
G04  20920565.460   109938320.176 7      1427.230          47.250    20920565.140   109938320.191 6      1427.230          38.562    20920570.000    85666239.799 6      1112.128          38.500    20920570.580    85666236.795 8      1112.128          50.937
G17  20687654.640   108714347.394 8      2040.031          48.437    20687653.940   108714347.399 7      2040.031          46.250    20687658.260    84712503.471 7      1589.635          45.812    20687658.300    84712509.471 8      1589.635          48.062
R04  20733207.300   111025393.491 7      -307.293          45.812    20733208.680   111025393.544 7      -307.293          45.187    20733219.660    86353126.755 8      -239.006          48.500    20733219.360    86353126.759 8      -239.006          48.562
G19  20625602.040   108388262.348 6      3659.429          40.625    20625597.420   108388262.343 4      3659.429          25.875    20625600.320    84458387.707 4      2851.503          25.687
R05  19361944.320   103500631.177 7      3021.662          45.062    19361944.420   103500631.168 7      3021.662          44.187    19361954.840    80500574.501 8      2350.182          48.562    19361954.480    80500575.499 8      2350.182          48.750
G03  22623020.040   118884759.082 7       454.720          43.312    22623020.200   118884759.090 6       454.720          37.937    22623029.820    92637505.241 6       354.327          38.187    22623029.700    92637515.261 6       354.327          41.312
> 2024 07 31 12 50 35.0000000  0  8
G09  20316932.200   106766201.909 8      3833.824          48.812    20316930.880   106766201.914 7      3833.824          47.937    20316937.480    83194473.843 7      2987.396          47.812    20316938.100    83194469.843 8      2987.396          49.187
G06  22233823.080   116839522.870 7      5091.069          44.500    22233823.040   116839522.880 6      5091.069          39.437    22233828.940    91043798.317 6      3967.067          39.625    22233829.640    91043824.303 7      3967.067          43.500
G04  20920294.100   109936893.504 7      1426.388          46.812    20920293.700   109936893.520 6      1426.388          38.500    20920298.420    85665128.103 6      1111.471          38.250    20920299.260    85665125.097 8      1111.471          50.437
G17  20687266.720   108712307.854 8      2039.211          48.875    20687265.900   108712307.857 7      2039.211          45.875    20687270.080    84710914.216 7      1588.995          46.125    20687270.200    84710920.217 7      1588.995          47.375
R04  20733264.580   111025701.176 7      -307.991          46.250    20733266.220   111025701.237 7      -307.991          45.500    20733277.240    86353366.067 8      -239.549          48.437    20733276.920    86353366.071 7      -239.549          47.625
G19  20624905.960   108384603.669 6      3658.273          41.437    20624901.040   108384603.666 4      3658.273          25.875    20624904.080    84455536.788 4      2850.602          25.687
R05  19361378.980   103497610.105 7      3020.729          45.625    19361379.420   103497610.096 7      3020.729          44.687    19361389.700    80498224.778 7      2349.456          47.625    19361389.400    80498225.781 7      2349.456          47.875
G03  22622933.260   118884304.558 7       454.538          43.187    22622933.740   118884304.563 6       454.538          38.437    22622943.480    92637151.060 6       354.186          38.000    22622943.680    92637161.072 6       354.186          41.312
> 2024 07 31 12 50 36.0000000  0  8
G09  20316202.860   106762368.371 8      3833.237          48.500    20316201.400   106762368.376 8      3833.237          49.437    20316207.880    83191486.671 8      2986.938          49.250    20316208.680    83191482.670 8      2986.938          50.250
G06  22232854.260   116834431.889 7      5090.946          44.625    22232854.160   116834431.905 6      5090.946          40.000    22232860.060    91039831.325 6      3966.971          39.625    22232861.260    91039857.313 7      3966.971          43.875
G04  20920022.600   109935467.453 7      1425.720          47.562    20920022.220   109935467.463 6      1425.720          38.625    20920027.040    85664016.894 6      1110.951          38.437    20920027.840    85664013.889 8      1110.951          50.937
G17  20686878.620   108710268.964 8      2038.575          49.187    20686877.860   108710268.961 7      2038.575          46.875    20686882.000    84709325.466 7      1588.500          46.187    20686882.200    84709331.463 8      1588.500          48.750
R04  20733321.820   111026009.260 7      -308.320          45.687    20733323.680   111026009.313 7      -308.320          45.500    20733334.600    86353605.682 8      -239.804          49.000    20733334.360    86353605.684 8      -239.804          48.750
G19  20624209.800   108380945.710 6      3657.544          41.437    20624204.920   108380945.704 4      3657.544          25.875    20624207.820    84452686.431 4      2850.034          25.687
R05  19360814.020   103494589.837 7      3019.818          45.187    19360814.400   103494589.831 7      3019.818          44.625    19360824.640    80495875.687 8      2348.747          48.500    19360824.240    80495876.686 8      2348.747          49.000
G03  22622847.040   118883850.098 7       454.464          43.812    22622847.580   118883850.103 6       454.464          37.937    22622856.960    92636796.935 6       354.128          38.187    22622857.300    92636806.955 6       354.128          41.312
> 2024 07 31 12 50 37.0000000  0  8
G09  20315473.340   106758535.409 8      3832.596          48.250    20315472.120   106758535.416 8      3832.596          50.687    20315478.560    83188499.947 8      2986.438          50.625    20315479.340    83188495.946 8      2986.438          50.687
G06  22231885.280   116829340.940 7      5090.870          43.687    22231885.240   116829340.952 6      5090.870          39.562    22231891.300    91035864.351 6      3966.912          39.812    22231892.380    91035890.343 7      3966.912          43.875
G04  20919751.300   109934041.901 7      1425.289          47.562    20919750.680   109934041.909 6      1425.289          39.125    20919755.820    85662906.068 6      1110.615          38.562    20919756.500    85662903.067 8      1110.615          51.500
G17  20686490.760   108708230.620 8      2037.959          48.437    20686489.920   108708230.619 7      2037.959          47.062    20686494.100    84707737.143 7      1588.020          47.062    20686494.520    84707743.138 8      1588.020          48.812
R04  20733379.320   111026317.646 7      -308.630          45.937    20733381.160   111026317.699 7      -308.630          45.500    20733392.400    86353845.536 8      -240.046          49.812    20733392.180    86353845.540 8      -240.046          50.250
G19  20623513.820   108377288.347 6      3657.093          41.937    20623508.960   108377288.347 4      3657.093          25.875    20623511.760    84449836.540 4      2849.683          25.687
R05  19360249.080   103491570.244 7      3019.210          45.125    19360249.580   103491570.229 7      3019.210          44.812    19360259.740    80493527.110 8      2348.275          49.437    19360259.480    80493528.108 8      2348.275          49.500
G03  22622760.520   118883395.608 7       454.433          44.562    22622761.180   118883395.610 6       454.433          38.500    22622770.500    92636442.781 6       354.104          38.500    22622770.940    92636452.799 6       354.104          41.312
> 2024 07 31 12 50 38.0000000  0  8
G09  20314744.140   106754703.319 8      3831.818          48.375    20314742.920   106754703.323 8      3831.818          50.375    20314749.280    83185513.907 8      2985.832          50.437    20314750.180    83185509.906 8      2985.832          50.625
G06  22230916.860   116824250.342 7      5090.523          43.875    22230916.680   116824250.350 6      5090.523          39.875    22230922.780    91031897.654 6      3966.642          39.687    22230923.660    91031923.644 7      3966.642          43.812
G04  20919480.180   109932617.201 7      1424.459          46.875    20919479.560   109932617.211 6      1424.459          38.750    20919484.860    85661795.916 6      1109.968          38.437    20919485.400    85661792.909 8      1109.968          51.250
G17  20686103.000   108706193.121 7      2037.219          47.687    20686102.280   108706193.121 7      2037.219          47.312    20686106.460    84706149.480 7      1587.444          47.187    20686107.000    84706155.476 8      1587.444          48.500
R04  20733437.160   111026626.609 7      -308.980          45.312    20733438.420   111026626.656 7      -308.980          45.687    20733450.000    86354085.833 8      -240.318          50.125    20733449.640    86354085.840 8      -240.318          50.062
G19  20622817.880   108373632.001 6      3656.108          41.062    20622813.100   108373632.006 4      3656.108          25.875    20622816.020    84446987.443 4      2848.915          25.687
R05  19359684.340   103488551.622 7      3018.370          44.937    19359685.020   103488551.621 7      3018.370          45.500    19359695.060    80491179.302 8      2347.621          50.250    19359694.740    80491180.304 8      2347.621          49.812
G03  22622674.300   118882941.384 7       454.283          44.062    22622675.060   118882941.381 6       454.283          38.937    22622684.100    92636088.834 6       353.987          39.187    22622684.300    92636098.838 6       353.987          41.500
> 2024 07 31 12 50 39.0000000  0  8
G09  20314014.960   106750871.754 8      3831.164          48.312    20314013.760   106750871.759 8      3831.164          50.187    20314020.240    83182528.270 8      2985.323          50.687    20314021.080    83182524.272 8      2985.323          50.562
G06  22229947.880   116819159.708 7      5090.381          43.687    22229947.820   116819159.726 6      5090.381          39.625    22229954.220    91027930.936 6      3966.531          39.500    22229954.980    91027956.924 7      3966.531          44.000
G04  20919209.220   109931192.971 7      1423.778          47.562    20919208.580   109931192.983 6      1423.778          39.062    20919213.740    85660686.128 6      1109.437          38.812    20919214.280    85660683.123 8      1109.437          51.187
G17  20685715.260   108704156.128 8      2036.612          48.812    20685714.580   108704156.130 7      2036.612          47.125    20685718.860    84704562.209 7      1586.971          47.000    20685719.220    84704568.202 8      1586.971          48.937
R04  20733495.340   111026935.772 7      -309.381          46.312    20733496.080   111026935.813 7      -309.381          44.812    20733507.720    86354326.289 8      -240.629          50.187    20733507.640    86354326.292 8      -240.629          50.562
G19  20622122.180   108369976.236 6      3655.389          40.062    20622117.260   108369976.238 4      3655.389          25.812    20622120.300    84444138.793 4      2848.355          25.687
R05  19359119.880   103485533.662 7      3017.491          45.187    19359120.480   103485533.647 7      3017.491          45.125    19359130.520    80488831.995 8      2346.937          50.000    19359130.280    80488832.993 8      2346.937          49.750
G03  22622587.740   118882487.065 7       454.205          42.875    22622588.680   118882487.065 6       454.205          38.937    22622597.660    92635734.817 6       353.926          38.625    22622597.540    92635744.825 6       353.926          41.500
> 2024 07 31 12 50 40.0000000  0  8
G09  20313286.040   106747040.941 8      3830.389          49.062    20313284.800   106747040.948 8      3830.389          50.437    20313291.280    83179543.225 8      2984.719          50.000    20313291.940    83179539.226 8      2984.719          50.562
G06  22228979.460   116814069.328 7      5090.170          43.562    22228979.200   116814069.341 6      5090.170          40.000    22228985.420    91023964.403 6      3966.366          39.625    22228986.460    91023990.391 7      3966.366          44.125
G04  20918938.220   109929769.466 7      1423.094          47.437    20918937.560   109929769.476 6      1423.094          38.687    20918942.880    85659576.898 6      1108.904          38.562    20918943.220    85659573.890 8      1108.904          51.750
G17  20685327.860   108702119.901 8      2035.796          48.875    20685327.180   108702119.901 7      2035.796          46.875    20685331.280    84702975.537 7      1586.335          46.812    20685331.560    84702981.530 8      1586.335          48.187
R04  20733552.820   111027245.379 7      -309.884          46.062    20733553.940   111027245.429 7      -309.884          45.375    20733565.520    86354567.095 8      -241.021          49.812    20733565.380    86354567.104 8      -241.021          50.437
G19  20621426.500   108366321.327 6      3654.453          39.937    20621421.640   108366321.327 4      3654.453          25.812    20621425.160    84441290.812 4      2847.626          25.500
R05  19358555.640   103482516.545 7      3016.519          45.062    19358556.320   103482516.536 7      3016.519          45.125    19358566.240    80486485.351 8      2346.181          49.625    19358565.800    80486486.351 8      2346.181          49.125
G03  22622501.480   118882032.925 7       453.936          43.937    22622502.480   118882032.930 6       453.936          38.437    22622511.360    92635380.938 6       353.716          38.562    22622511.060    92635390.946 6       353.716          41.000
> 2024 07 31 12 50 41.0000000  0  8
G09  20312557.180   106743210.879 8      3829.625          48.750    20312555.940   106743210.889 8      3829.625          50.500    20312562.400    83176558.765 8      2984.124          50.625    20312563.140    83176554.767 8      2984.124          50.937
G06  22228010.680   116808979.135 7      5090.018          44.875    22228010.540   116808979.151 6      5090.018          40.062    22228016.720    91019998.021 6      3966.248          40.125    22228017.600    91020024.015 7      3966.248          44.062
G04  20918667.700   109928346.665 7      1422.429          47.187    20918666.660   109928346.672 6      1422.429          38.687    20918672.180    85658468.219 6      1108.386          38.437    20918672.540    85658465.208 8      1108.386          51.562
G17  20684940.560   108700084.395 8      2035.112          48.250    20684939.840   108700084.395 7      2035.112          47.500    20684944.040    84701389.426 7      1585.801          46.937    20684944.280    84701395.417 8      1585.801          48.937
R04  20733610.620   111027555.444 7      -310.326          46.187    20733612.040   111027555.491 7      -310.326          45.312    20733623.680    86354808.253 8      -241.365          50.187    20733623.220    86354808.259 8      -241.365          50.562
G19  20620731.360   108362667.241 6      3653.627          40.062    20620726.020   108362667.241 4      3653.627          25.812    20620729.840    84438443.478 4      2846.982          25.500
R05  19357991.420   103479500.260 7      3015.768          45.437    19357991.760   103479500.248 7      3015.768          45.250    19358001.980    80484139.349 8      2345.597          49.625    19358001.540    80484140.352 8      2345.597          50.125
G03  22622414.940   118881578.903 7       453.848          43.812    22622416.140   118881578.905 6       453.848          38.812    22622425.000    92635027.148 6       353.648          38.500    22622425.040    92635037.165 6       353.648          41.000
> 2024 07 31 12 50 42.0000000  0  8
G09  20311828.380   106739381.377 8      3829.387          49.062    20311827.200   106739381.385 8      3829.387          50.250    20311833.700    83173574.734 8      2983.938          50.312    20311834.480    83173570.731 8      2983.938          51.125
G06  22227041.720   116803888.998 7      5090.243          44.125    22227041.940   116803889.005 6      5090.243          39.500    22227048.080    91016031.682 6      3966.423          39.750    22227048.740    91016057.668 7      3966.423          43.937
G04  20918397.000   109926924.371 7      1422.221          46.937    20918396.120   109926924.379 6      1422.221          39.000    20918401.520    85657359.939 6      1108.224          38.750    20918401.780    85657356.929 8      1108.224          51.437
G17  20684553.260   108698049.435 8      2034.846          48.937    20684552.580   108698049.432 7      2034.846          47.125    20684556.680    84699803.739 7      1585.595          47.062    20684557.120    84699809.732 8      1585.595          49.000
R04  20733668.880   111027865.839 7      -310.407          46.562    20733670.280   111027865.881 7      -310.407          45.687    20733681.540    86355049.663 8      -241.428          50.250    20733681.260    86355049.667 8      -241.428          50.187
G19  20620036.020   108359013.783 6      3653.297          40.000    20620030.640   108359013.780 4      3653.297          25.812    20620034.540    84435596.619 4      2846.725          25.500
R05  19357426.980   103476484.651 7      3015.434          45.687    19357428.060   103476484.642 7      3015.434          45.375    19357437.960    80481793.874 8      2345.337          49.500    19357437.360    80481794.876 8      2345.337          49.750
G03  22622328.620   118881124.849 7       454.141          44.187    22622329.840   118881124.857 6       454.141          38.625    22622338.520    92634673.341 6       353.876          38.750    22622338.860    92634683.357 6       353.876          41.312
> 2024 07 31 12 50 43.0000000  0  8
G09  20311099.640   106735552.572 8      3828.456          49.125    20311098.620   106735552.579 8      3828.456          50.375    20311105.120    83170591.249 8      2983.213          50.250    20311105.860    83170587.248 8      2983.213          50.312
G06  22226073.240   116798798.997 7      5089.925          44.125    22226073.460   116798799.007 6      5089.925          39.687    22226079.440    91012065.447 6      3966.175          39.875    22226080.480    91012091.443 7      3966.175          43.687
G04  20918126.480   109925502.750 7      1421.284          47.375    20918125.340   109925502.757 6      1421.284          38.687    20918131.020    85656252.180 6      1107.494          38.312    20918131.240    85656249.168 8      1107.494          51.125
G17  20684166.260   108696015.161 8      2033.900          49.187    20684165.460   108696015.158 7      2033.900          47.250    20684169.520    84698218.588 7      1584.857          46.875    20684170.140    84698224.579 8      1584.857          48.875
R04  20733727.440   111028176.656 7      -311.063          46.437    20733727.660   111028176.698 7      -311.063          45.187    20733739.640    86355291.412 8      -241.938          49.062    20733739.520    86355291.416 8      -241.938          50.250
G19  20619340.740   108355361.120 6      3652.404          39.937    20619335.460   108355361.120 4      3652.404          25.812    20619339.440    84432750.389 4      2846.029          25.500
R05  19356863.060   103473469.876 7      3014.386          45.187    19356863.780   103473469.859 7      3014.386          45.500    19356874.060    80479449.047 8      2344.523          49.562    19356873.400    80479450.049 8      2344.523          49.500
G03  22622242.120   118880670.885 7       453.884          44.062    22622243.600   118880670.895 6       453.884          38.562    22622252.160    92634319.602 6       353.676          39.125    22622252.540    92634329.612 6       353.676          41.312
> 2024 07 31 12 50 44.0000000  0  8
G09  20310371.200   106731724.588 8      3827.861          48.562    20310370.140   106731724.593 8      3827.861          50.125    20310376.660    83167608.403 8      2982.749          50.187    20310377.420    83167604.402 8      2982.749          51.062
G06  22225104.900   116793709.311 7      5089.816          43.875    22225104.700   116793709.326 6      5089.816          39.562    22225110.980    91008099.466 6      3966.090          39.625    22225112.180    91008125.450 7      3966.090          44.062
G04  20917856.180   109924081.915 7      1420.659          47.875    20917854.980   109924081.922 6      1420.659          38.437    20917860.760    85655145.035 6      1107.007          38.125    20917860.740    85655142.026 8      1107.007          51.437
G17  20683779.240   108693981.704 8      2033.247          48.000    20683778.300   108693981.701 7      2033.247          47.125    20683782.580    84696634.068 7      1584.349          46.937    20683783.060    84696640.061 8      1584.349          48.812
R04  20733785.460   111028488.036 7      -311.366          46.312    20733785.800   111028488.084 7      -311.366          45.187    20733797.720    86355533.592 8      -242.174          50.000    20733797.440    86355533.600 8      -242.174          50.375
G19  20618646.020   108351709.367 6      3651.496          39.562    20618640.540   108351709.367 4      3651.496          25.812    20618644.480    84429904.863 4      2845.322          25.500
R05  19356299.080   103470456.042 7      3013.576          45.437    19356300.180   103470456.041 7      3013.576          45.375    19356310.360    80477104.962 8      2343.893          50.187    19356309.800    80477105.966 8      2343.893          49.937
G03  22622155.860   118880217.171 7       453.744          43.625    22622157.220   118880217.173 6       453.744          38.437    22622165.720    92633966.050 6       353.567          39.062    22622165.880    92633976.058 6       353.567          41.500
> 2024 07 31 12 50 45.0000000  0  8
G09  20309642.880   106727897.204 8      3827.040          48.937    20309641.880   106727897.214 8      3827.040          50.500    20309648.320    83164626.029 8      2982.109          50.125    20309649.080    83164622.027 8      2982.109          50.750
G06  22224136.380   116788619.696 7      5089.457          43.750    22224136.140   116788619.717 6      5089.457          39.812    22224142.440    91004133.535 6      3965.811          40.000    22224143.660    91004159.527 7      3965.811          44.062
G04  20917585.820   109922661.628 7      1419.944          46.312    20917584.700   109922661.636 6      1419.944          38.937    20917590.460    85654038.317 6      1106.450          38.812    20917590.560    85654035.301 8      1106.450          51.437
G17  20683392.140   108691948.812 8      2032.539          48.625    20683391.500   108691948.809 7      2032.539          47.312    20683395.760    84695049.996 7      1583.797          46.875    20683396.160    84695055.985 8      1583.797          48.562
R04  20733843.860   111028799.738 7      -311.995          45.500    20733844.100   111028799.782 7      -311.995          45.437    20733855.980    86355776.024 8      -242.662          49.437    20733855.900    86355776.028 8      -242.662          50.500
G19  20617951.360   108348058.305 6      3650.616          40.187    20617945.560   108348058.308 4      3650.616          25.250    20617949.880    84427059.880 4      2844.636          25.500
R05  19355735.680   103467442.943 7      3012.653          45.875    19355736.540   103467442.939 7      3012.653          45.062    19355746.660    80474761.440 8      2343.174          49.687    19355746.300    80474762.441 8      2343.174          50.187
G03  22622069.280   118879763.414 7       453.651          44.312    22622070.980   118879763.414 6       453.651          38.875    22622079.260    92633612.468 6       353.494          38.750    22622078.960    92633622.469 6       353.494          41.500
> 2024 07 31 12 50 46.0000000  0  8
G09  20308914.680   106724070.663 8      3826.240          49.625    20308913.820   106724070.676 8      3826.240          49.812    20308920.080    83161644.311 8      2981.486          50.000    20308920.740    83161640.307 8      2981.486          50.312
G06  22223168.000   116783530.394 7      5089.194          44.687    22223167.740   116783530.409 6      5089.194          39.125    22223174.060    91000167.843 6      3965.605          39.312    22223175.280    91000193.833 7      3965.605          43.750
G04  20917315.520   109921242.141 7      1419.191          46.937    20917314.540   109921242.151 6      1419.191          38.937    20917320.220    85652932.220 6      1105.863          38.937    20917320.400    85652929.209 8      1105.863          50.312
G17  20683005.500   108689916.753 8      2031.802          48.062    20683004.840   108689916.752 7      2031.802          46.250    20683009.060    84693466.571 7      1583.222          45.750    20683009.480    84693472.562 8      1583.222          48.000
R04  20733902.080   111029111.969 7      -312.434          46.500    20733902.560   111029112.011 7      -312.434          45.187    20733914.080    86356018.860 8      -243.004          48.875    20733914.120    86356018.867 8      -243.004          49.375
G19  20617257.020   108344408.150 6      3649.809          40.062    20617251.040   108344408.152 4      3649.809          25.250    20617255.240    84424215.598 4      2844.007          25.500
R05  19355172.220   103464430.812 7      3011.742          45.750    19355173.200   103464430.808 7      3011.742          45.000    19355183.180    80472418.671 8      2342.466          49.125    19355182.660    80472419.672 8      2342.466          49.062
G03  22621983.060   118879309.915 7       453.530          43.250    22621984.720   118879309.915 6       453.530          38.312    22621993.120    92633259.088 6       353.400          39.125    22621993.260    92633269.096 6       353.400          41.500
> 2024 07 31 12 50 47.0000000  0  8
G09  20308186.760   106720244.764 8      3825.649          49.312    20308185.720   106720244.768 8      3825.649          48.187    20308192.120    83158663.087 7      2981.025          47.625    20308192.880    83158659.084 8      2981.025          49.187
G06  22222199.260   116778441.170 7      5089.204          44.812    22222199.380   116778441.181 6      5089.204          40.062    22222205.720    90996202.212 6      3965.613          39.812    22222207.020    90996228.200 7      3965.613          43.937
G04  20917045.640   109919823.255 7      1418.580          47.000    20917044.400   109919823.262 6      1418.580          38.562    20917050.240    85651826.595 6      1105.387          38.000    20917050.500    85651823.579 8      1105.387          49.875
G17  20682619.060   108687885.314 8      2031.175          48.187    20682618.240   108687885.311 7      2031.175          46.750    20682622.360    84691883.627 7      1582.734          45.625    20682622.740    84691889.621 7      1582.734          47.562
R04  20733960.060   111029424.570 7      -312.883          46.000    20733960.880   111029424.609 7      -312.883          45.687    20733972.500    86356261.994 7      -243.353          47.750    20733972.340    86356261.996 7      -243.353          47.937
G19  20616562.520   108340758.720 6      3649.176          40.187    20616556.760   108340758.722 4      3649.176          25.250    20616560.980    84421371.889 4      2843.514          25.500
R05  19354609.020   103461419.418 7      3011.024          46.062    19354609.600   103461419.406 7      3011.024          44.500    19354620.000    80470076.472 7      2341.907          47.812    19354619.300    80470077.474 8      2341.907          48.000
G03  22621896.940   118878856.432 7       453.623          44.312    22621898.420   118878856.432 6       453.623          38.187    22621906.940    92632905.722 6       353.472          38.125    22621906.860    92632915.724 6       353.472          41.562
> 2024 07 31 12 50 48.0000000  0  8
G09  20307458.760   106716419.618 8      3824.748          49.562    20307457.920   106716419.625 8      3824.748          49.562    20307464.240    83155682.456 8      2980.323          49.562    20307464.780    83155678.449 8      2980.323          50.437
G06  22221230.860   116773352.189 7      5088.908          45.000    22221230.940   116773352.194 6      5088.908          39.875    22221237.280    90992236.770 6      3965.383          40.000    22221238.340    90992262.758 7      3965.383          43.937
G04  20916775.860   109918405.070 7      1417.829          46.000    20916774.500   109918405.081 6      1417.829          38.375    20916780.320    85650721.516 6      1104.801          38.250    20916780.780    85650718.501 8      1104.801          50.875
G17  20682232.660   108685854.610 8      2030.382          48.000    20682231.700   108685854.610 7      2030.382          46.687    20682236.020    84690301.259 7      1582.116          46.062    20682236.600    84690307.254 8      1582.116          48.375
R04  20734018.780   111029737.615 7      -313.329          47.000    20734019.260   111029737.657 7      -313.329          45.437    20734030.940    86356505.476 8      -243.700          48.437    20734030.780    86356505.480 8      -243.700          49.000
G19  20615868.060   108337110.125 6      3648.118          39.687    20615862.360   108337110.130 4      3648.118          25.250    20615866.580    84418528.824 4      2842.689          25.500
R05  19354045.740   103458408.874 7      3010.104          45.437    19354046.260   103458408.870 7      3010.104          44.750    19354056.720    80467734.942 8      2341.192          48.437    19354056.160    80467735.942 8      2341.192          49.000
G03  22621810.620   118878403.122 7       453.292          44.187    22621811.880   118878403.124 6       453.292          39.187    22621820.680    92632552.493 6       353.214          38.812    22621820.780    92632562.495 6       353.214          41.562
> 2024 07 31 12 50 49.0000000  0  8
G09  20306730.920   106712595.053 8      3824.306          49.250    20306730.180   106712595.063 8      3824.306          50.250    20306736.500    83152702.277 8      2979.978          50.125    20306736.980    83152698.271 8      2979.978          50.937
G06  22220262.720   116768263.249 7      5089.013          44.625    22220262.580   116768263.254 6      5089.013          40.125    22220268.660    90988271.362 6      3965.464          39.937    22220269.780    90988297.348 7      3965.464          44.250
G04  20916506.080   109916987.443 7      1417.418          46.312    20916504.740   109916987.448 6      1417.418          38.312    20916510.700    85649616.866 6      1104.481          38.500    20916511.060    85649613.848 8      1104.481          51.125
G17  20681846.340   108683824.495 8      2029.848          48.312    20681845.480   108683824.492 7      2029.848          46.937    20681849.480    84688719.350 7      1581.700          47.062    20681850.160    84688725.338 8      1581.700          48.562
R04  20734077.360   111030050.992 7      -313.493          46.687    20734078.040   111030051.031 7      -313.493          45.500    20734089.640    86356749.206 8      -243.828          49.500    20734089.340    86356749.210 8      -243.828          49.875
G19  20615173.900   108333462.205 6      3647.566          39.625    20615168.020   108333462.213 4      3647.566          25.250    20615172.360    84415686.291 4      2842.259          25.500
R05  19353482.620   103455399.011 7      3009.615          45.500    19353482.940   103455399.013 7      3009.615          44.937    19353493.500    80465393.942 8      2340.812          49.625    19353493.160    80465394.945 8      2340.812          50.250
G03  22621724.280   118877949.802 7       453.404          43.562    22621725.560   118877949.801 6       453.404          39.062    22621734.480    92632199.251 6       353.302          39.000    22621734.540    92632209.253 6       353.302          41.812
> 2024 07 31 12 50 50.0000000  0  8
G09  20306003.300   106708771.276 8      3823.368          49.625    20306002.560   106708771.284 8      3823.368          50.187    20306008.820    83149722.709 8      2979.248          50.750    20306009.340    83149718.705 8      2979.248          50.500
G06  22219294.400   116763174.565 7      5088.540          44.937    22219294.400   116763174.575 6      5088.540          40.125    22219300.480    90984306.160 6      3965.096          40.125    22219301.340    90984332.146 7      3965.096          44.000
G04  20916236.360   109915570.557 7      1416.409          45.875    20916235.120   109915570.564 6      1416.409          38.500    20916240.880    85648512.798 6      1103.696          38.187    20916241.320    85648509.785 8      1103.696          51.000
G17  20681460.500   108681795.124 7      2028.944          47.687    20681459.200   108681795.126 7      2028.944          47.125    20681463.380    84687138.021 7      1580.995          46.562    20681463.980    84687144.012 8      1580.995          48.437
R04  20734136.240   111030364.843 7      -314.083          47.062    20734136.920   111030364.888 7      -314.083          45.875    20734148.120    86356993.316 8      -244.287          49.750    20734147.820    86356993.320 8      -244.287          50.062
G19  20614480.240   108329815.116 6      3646.704          38.812    20614473.800   108329815.121 4      3646.704          25.500    20614478.560    84412844.401 4      2841.588          25.500
R05  19352919.340   103452390.074 7      3008.492          45.437    19352920.120   103452390.072 7      3008.492          44.687    19352930.780    80463053.651 8      2339.938          49.750    19352930.420    80463054.656 8      2339.938          50.437
G03  22621637.960   118877496.660 7       452.942          43.937    22621639.440   118877496.662 6       452.942          38.187    22621648.080    92631846.151 6       352.942          38.250    22621648.980    92631856.157 6       352.942          41.812
> 2024 07 31 12 50 51.0000000  0  8
G09  20305275.800   106704948.183 8      3822.639          48.875    20305275.060   106704948.188 8      3822.639          50.312    20305281.340    83146743.675 8      2978.680          50.375    20305281.720    83146739.669 8      2978.680          51.000
G06  22218326.080   116758086.040 7      5088.335          46.062    22218326.200   116758086.053 6      5088.335          40.125    22218332.240    90980341.082 6      3964.936          40.437    22218333.220    90980367.062 7      3964.936          44.125
G04  20915966.860   109914154.288 7      1415.867          45.937    20915965.680   109914154.301 6      1415.867          38.687    20915971.440    85647409.214 6      1103.273          38.312    20915971.800    85647406.201 8      1103.273          51.750
G17  20681074.600   108679766.423 7      2028.304          47.812    20681073.160   108679766.420 7      2028.304          47.000    20681077.400    84685557.211 7      1580.497          46.687    20681078.040    84685563.202 8      1580.497          48.250
R04  20734194.620   111030679.091 7      -314.471          46.875    20734195.580   111030679.135 7      -314.471          46.000    20734206.960    86357237.723 8      -244.589          50.125    20734206.400    86357237.727 8      -244.589          49.500
G19  20613785.960   108326168.844 6      3645.763          40.000    20613779.960   108326168.851 4      3645.763          25.500    20613784.700    84410003.152 4      2840.855          25.500
R05  19352357.000   103449381.925 7      3007.715          44.875    19352357.340   103449381.921 7      3007.715          44.937    19352367.960    80460713.982 8      2339.334          49.625    19352367.600    80460714.988 8      2339.334          49.812
G03  22621551.820   118877043.571 7       452.982          43.562    22621553.440   118877043.576 6       452.982          38.500    22621561.760    92631493.099 6       352.973          38.312    22621562.840    92631503.101 6       352.973          41.937
> 2024 07 31 12 50 52.0000000  0  8
G09  20304548.320   106701125.896 8      3821.986          48.937    20304547.680   106701125.901 8      3821.986          50.562    20304553.960    83143765.272 8      2978.171          50.312    20304554.540    83143761.267 8      2978.171          50.625
G06  22217358.040   116752997.786 7      5088.265          45.625    22217358.020   116752997.789 6      5088.265          40.125    22217364.040    90976376.205 6      3964.882          40.312    22217365.180    90976402.191 7      3964.882          44.437
G04  20915697.600   109912738.805 7      1415.290          46.250    20915696.380   109912738.812 6      1415.290          38.687    20915702.080    85646306.238 6      1102.824          38.187    20915702.320    85646303.225 8      1102.824          51.375
G17  20680688.760   108677738.528 7      2027.576          47.250    20680687.200   108677738.531 7      2027.576          46.875    20680691.480    84683977.036 7      1579.929          47.187    20680691.960    84683983.027 8      1579.929          48.875
R04  20734253.840   111030993.847 7      -314.859          47.375    20734254.220   111030993.884 7      -314.859          46.062    20734265.580    86357482.531 8      -244.890          49.562    20734265.200    86357482.533 8      -244.890          50.250
G19  20613092.400   108322523.431 6      3645.160          40.000    20613086.400   108322523.439 4      3645.160          25.500    20613091.160    84407162.569 4      2840.385          25.625
R05  19351794.160   103446374.741 7      3006.758          45.312    19351794.460   103446374.736 7      3006.758          44.687    19351805.220    80458375.063 8      2338.589          49.437    19351804.940    80458376.065 8      2338.589          50.437
G03  22621465.620   118876590.715 7       452.898          42.812    22621467.200   118876590.710 6       452.898          38.375    22621475.420    92631140.218 6       352.908          38.687    22621476.480    92631150.218 6       352.908          41.937
> 2024 07 31 12 50 53.0000000  0  8
G09  20303821.080   106697304.245 8      3821.378          49.312    20303820.380   106697304.255 8      3821.378          50.125    20303826.760    83140787.366 8      2977.697          50.125    20303827.300    83140783.364 8      2977.697          50.875
G06  22216389.440   116747909.654 7      5088.111          45.312    22216389.660   116747909.661 6      5088.111          40.562    22216395.940    90972411.430 6      3964.762          40.312    22216396.960    90972437.410 7      3964.762          44.437
G04  20915428.160   109911323.955 7      1414.505          45.500    20915427.040   109911323.960 6      1414.505          38.312    20915432.820    85645203.754 6      1102.212          38.250    20915433.120    85645200.736 8      1102.212          51.312
G17  20680302.980   108675711.251 7      2026.999          47.812    20680301.240   108675711.251 7      2026.999          47.437    20680305.760    84682397.333 7      1579.480          47.187    20680306.260    84682403.324 8      1579.480          48.750
R04  20734312.860   111031308.981 7      -315.315          47.250    20734313.340   111031309.020 7      -315.315          45.625    20734324.520    86357727.631 8      -245.245          49.750    20734324.140    86357727.635 8      -245.245          49.937
G19  20612398.580   108318878.738 6      3644.496          39.812    20612392.760   108318878.748 4      3644.496          25.500    20612397.620    84404322.546 4      2839.867          25.625
R05  19351232.040   103443368.297 7      3006.081          45.312    19351231.780   103443368.293 7      3006.081          44.812    19351242.600    80456036.719 8      2338.063          49.500    19351242.800    80456037.722 8      2338.063          50.187
G03  22621379.380   118876137.902 7       452.809          43.062    22621381.000   118876137.897 6       452.809          37.937    22621389.280    92630787.373 6       352.838          38.375    22621390.420    92630797.369 6       352.838          41.375
> 2024 07 31 12 50 54.0000000  0  8
G09  20303093.880   106693483.188 8      3820.631          49.062    20303093.400   106693483.198 8      3820.631          50.312    20303099.700    83137809.917 8      2977.115          50.500    20303100.420    83137805.913 8      2977.115          50.937
G06  22215421.260   116742821.586 7      5087.781          45.125    22215421.400   116742821.591 6      5087.781          40.312    22215427.740    90968446.704 6      3964.504          40.250    22215428.980    90968472.680 7      3964.504          44.500
G04  20915159.060   109909909.588 7      1413.962          46.375    20915157.760   109909909.596 6      1413.962          38.500    20915163.700    85644101.652 6      1101.789          37.937    20915163.900    85644098.641 8      1101.789          50.812
G17  20679917.180   108673684.555 7      2026.268          47.125    20679915.540   108673684.549 7      2026.268          47.000    20679920.120    84680818.083 7      1578.910          46.812    20679920.720    84680824.076 8      1578.910          48.812
R04  20734371.680   111031624.425 7      -315.718          47.500    20734372.440   111031624.456 7      -315.718          45.875    20734383.420    86357972.966 8      -245.558          49.875    20734382.980    86357972.970 8      -245.558          50.000
G19  20611705.240   108315234.760 6      3643.445          39.187    20611699.280   108315234.770 4      3643.445          25.500    20611704.100    84401483.081 4      2839.048          25.625
R05  19350669.380   103440362.564 7      3005.278          45.312    19350669.700   103440362.565 7      3005.278          44.375    19350680.360    80453698.927 8      2337.438          49.312    19350680.540    80453699.930 8      2337.438          50.062
G03  22621293.380   118875685.044 7       452.775          43.562    22621294.800   118875685.041 6       452.775          37.750    22621302.940    92630434.490 6       352.812          37.875    22621304.040    92630444.494 6       352.812          41.375
> 2024 07 31 12 50 55.0000000  0  8
G09  20302366.860   106689662.798 8      3820.145          49.375    20302366.280   106689662.806 8      3820.145          50.437    20302372.680    83134832.990 8      2976.736          50.250    20302373.380    83134828.985 8      2976.736          50.312
G06  22214453.180   116737733.627 7      5087.983          44.937    22214453.100   116737733.634 6      5087.983          39.875    22214459.760    90964482.062 6      3964.662          40.000    22214460.440    90964508.042 7      3964.662          44.875
G04  20914890.120   109908495.881 7      1413.450          45.875    20914888.880   109908495.891 6      1413.450          38.062    20914894.620    85643000.064 6      1101.390          37.875    20914894.860    85642997.055 8      1101.390          51.312
G17  20679531.660   108671658.494 7      2025.862          47.812    20679529.920   108671658.489 7      2025.862          47.437    20679534.560    84679239.337 7      1578.594          46.812    20679535.280    84679245.327 8      1578.594          48.375
R04  20734430.980   111031940.252 7      -315.914          47.875    20734431.500   111031940.284 7      -315.914          45.937    20734442.480    86358218.607 8      -245.711          49.562    20734442.180    86358218.609 8      -245.711          50.125
G19  20611011.960   108311591.481 6      3643.089          40.562    20611005.960   108311591.488 4      3643.089          25.500    20611010.720    84398644.168 4      2838.771          25.625
R05  19350107.760   103437357.611 7      3004.655          45.125    19350107.180   103437357.610 7      3004.655          44.812    19350117.940    80451361.738 8      2336.954          49.312    19350118.360    80451362.740 8      2336.954          50.062
G03  22621207.140   118875232.260 7       452.889          44.187    22621208.400   118875232.260 6       452.889          38.437    22621216.780    92630081.671 6       352.900          38.687    22621217.380    92630091.673 6       352.900          41.375
> 2024 07 31 12 50 56.0000000  0  8
G09  20301640.180   106685843.100 8      3819.124          49.312    20301639.580   106685843.112 8      3819.124          50.500    20301645.860    83131856.601 8      2975.941          50.625    20301646.420    83131852.597 8      2975.941          51.062
G06  22213484.980   116732645.833 7      5087.520          44.562    22213484.800   116732645.838 6      5087.520          40.125    22213491.540    90960517.546 6      3964.302          40.187    22213492.180    90960543.525 7      3964.302          44.812
G04  20914621.020   109907082.802 7      1412.630          46.562    20914619.960   109907082.810 6      1412.630          38.562    20914625.840    85641898.962 6      1100.750          38.125    20914626.000    85641895.950 8      1100.750          51.250
G17  20679146.180   108669633.096 7      2024.940          47.750    20679144.500   108669633.098 7      2024.940          46.750    20679149.280    84677661.106 7      1577.876          46.562    20679150.000    84677667.099 8      1577.876          49.250
R04  20734489.820   111032256.468 7      -316.555          47.687    20734490.760   111032256.504 7      -316.555          46.000    20734501.780    86358464.550 8      -246.209          49.937    20734501.000    86358464.550 8      -246.209          49.812
G19  20610319.080   108307948.977 6      3642.101          40.812    20610312.900   108307948.987 4      3642.101          25.562    20610317.600    84395805.853 4      2838.001          25.625
R05  19349545.780   103434353.423 7      3003.660          44.500    19349545.080   103434353.419 7      3003.660          44.250    19349555.780    80449025.149 8      2336.180          49.062    19349556.260    80449026.152 8      2336.180          49.750
G03  22621120.860   118874779.562 7       452.570          44.250    22621122.200   118874779.562 6       452.570          38.687    22621130.660    92629728.916 6       352.652          38.437    22621131.280    92629738.914 6       352.652          41.250
> 2024 07 31 12 50 57.0000000  0  8
G09  20300913.320   106682024.034 8      3818.654          49.187    20300912.800   106682024.049 8      3818.654          50.250    20300919.080    83128880.710 8      2975.574          50.250    20300919.720    83128876.704 8      2975.574          50.937
G06  22212516.880   116727558.152 7      5087.587          45.062    22212516.600   116727558.151 6      5087.587          40.312    22212523.420    90956553.119 6      3964.353          40.062    22212524.800    90956579.101 7      3964.353          44.875
G04  20914352.300   109905670.351 7      1412.028          46.937    20914351.100   109905670.361 6      1412.028          38.062    20914357.120    85640798.348 6      1100.281          38.187    20914357.500    85640795.343 8      1100.281          50.812
G17  20678760.700   108667608.365 7      2024.314          46.937    20678759.060   108667608.365 7      2024.314          46.750    20678764.000    84676083.381 7      1577.388          46.437    20678764.580    84676089.376 8      1577.388          49.250
R04  20734548.820   111032573.055 8      -316.879          48.250    20734549.640   111032573.100 7      -316.879          46.062    20734560.780    86358710.789 8      -246.461          49.437    20734560.120    86358710.789 8      -246.461          49.687
G19  20609626.160   108304307.242 6      3641.491          40.750    20609619.900   108304307.250 4      3641.491          25.562    20609624.700    84392968.128 4      2837.525          25.625
R05  19348984.320   103431349.992 7      3003.059          44.437    19348983.280   103431349.993 7      3003.059          45.187    19348993.960    80446689.149 8      2335.713          49.312    19348994.240    80446690.149 8      2335.713          49.750
G03  22621034.600   118874326.938 7       452.481          44.687    22621035.920   118874326.935 6       452.481          37.812    22621044.480    92629376.218 6       352.582          38.125    22621045.000    92629386.209 6       352.582          41.250
> 2024 07 31 12 50 58.0000000  0  8
G09  20300186.900   106678205.925 8      3817.785          49.375    20300186.340   106678205.935 8      3817.785          50.000    20300192.560    83125905.556 8      2974.898          50.250    20300193.140    83125901.554 8      2974.898          50.437
G06  22211548.800   116722470.902 7      5087.132          44.437    22211548.420   116722470.909 6      5087.132          40.625    22211555.380    90952589.034 6      3963.999          40.625    22211556.680    90952615.012 7      3963.999          44.937
G04  20914083.720   109904258.783 7      1411.289          45.875    20914082.600   109904258.791 6      1411.289          38.125    20914088.360    85639698.423 6      1099.706          37.750    20914088.880    85639695.411 8      1099.706          51.000
G17  20678375.680   108665584.525 7      2023.525          47.312    20678374.040   108665584.522 7      2023.525          47.187    20678378.900    84674506.365 7      1576.773          46.750    20678379.400    84674512.360 8      1576.773          48.187
R04  20734608.000   111032890.280 8      -317.409          48.250    20734609.260   111032890.322 7      -317.409          46.312    20734620.080    86358957.516 8      -246.873          49.312    20734619.260    86358957.514 8      -246.873          49.312
G19  20608933.200   108300666.504 6      3640.408          39.937    20608927.220   108300666.509 4      3640.408          25.562    20608931.860    84390131.187 4      2836.682          25.500
R05  19348422.420   103428347.619 7      3001.934          44.750    19348421.760   103428347.628 7      3001.934          44.250    19348432.100    80444353.976 8      2334.837          48.250    19348432.540    80444354.974 8      2334.837          49.062
G03  22620948.340   118873874.608 7       452.311          44.750    22620949.760   118873874.605 6       452.311          37.750    22620958.300    92629023.749 6       352.450          37.500    22620958.460    92629033.749 6       352.450          40.625
> 2024 07 31 12 50 59.0000000  0  8
G09  20299460.420   106674388.404 8      3817.193          49.750    20299459.900   106674388.417 8      3817.193          49.625    20299466.140    83122930.869 8      2974.436          48.562    20299466.600    83122926.864 8      2974.436          48.875
G06  22210580.960   116717383.691 7      5087.237          44.875    22210580.480   116717383.696 6      5087.237          40.625    22210587.280    90948624.972 6      3964.081          40.500    22210588.880    90948650.947 7      3964.081          44.812
G04  20913815.160   109902847.769 7      1410.753          46.687    20913814.020   109902847.779 6      1410.753          38.000    20913819.940    85638598.930 6      1099.288          37.437    20913820.240    85638595.928 8      1099.288          49.375
G17  20677990.840   108663561.273 7      2023.001          47.187    20677989.020   108663561.267 7      2023.001          45.687    20677993.820    84672929.801 7      1576.365          45.625    20677994.700    84672935.796 7      1576.365          47.625
R04  20734667.320   111033207.792 8      -317.572          48.437    20734668.700   111033207.831 7      -317.572          46.312    20734679.540    86359204.461 7      -247.001          47.875    20734678.800    86359204.459 8      -247.001          49.250
G19  20608240.920   108297026.433 6      3639.912          39.500    20608234.500   108297026.437 4      3639.912          25.562    20608239.140    84387294.768 4      2836.295          25.500
R05  19347860.820   103425345.938 7      3001.288          44.250    19347860.180   103425345.941 7      3001.288          44.437    19347870.440    80442019.333 7      2334.335          47.312    19347870.720    80442020.332 7      2334.335          47.625
G03  22620862.560   118873422.281 7       452.404          44.875    22620863.620   118873422.276 6       452.404          37.250    22620872.180    92628671.286 6       352.522          37.500    22620872.220    92628681.288 6       352.522          40.625
> 2024 07 31 12 51  0.0000000  0  8
G09  20298734.020   106670571.646 8      3816.415          49.750    20298733.440   106670571.656 8      3816.415          49.687    20298739.820    83119956.769 8      2973.830          49.937    20298740.400    83119952.765 8      2973.830          50.812
G06  22209612.640   116712296.706 7      5086.947          44.000    22209612.460   116712296.711 6      5086.947          40.250    22209619.120    90944661.087 6      3963.855          40.125    22209620.320    90944687.071 7      3963.855          44.687
G04  20913546.960   109901437.483 7      1409.919          46.312    20913545.600   109901437.491 6      1409.919          38.312    20913551.460    85637500.003 6      1098.638          37.812    20913552.100    85637497.000 8      1098.638          50.937
G17  20677605.980   108661538.765 7      2022.195          47.562    20677604.080   108661538.762 7      2022.195          46.562    20677609.080    84671353.819 7      1575.737          46.312    20677609.740    84671359.814 8      1575.737          48.625
R04  20734726.800   111033525.817 8      -318.180          48.000    20734727.880   111033525.856 7      -318.180          46.250    20734738.600    86359451.809 8      -247.473          48.687    20734738.140    86359451.807 8      -247.473          49.500
G19  20607548.480   108293387.242 6      3638.703          39.937    20607542.000   108293387.249 4      3638.703          25.562    20607546.640    84384459.036 4      2835.353          25.500
R05  19347299.020   103422345.160 7      3000.351          44.312    19347298.840   103422345.156 7      3000.351          44.437    19347309.100    80439685.387 8      2333.607          48.625    19347309.320    80439686.383 8      2333.607          49.187
G03  22620776.460   118872970.138 7       452.015          43.687    22620777.380   118872970.132 6       452.015          36.812    22620786.080    92628318.963 6       352.219          36.937    22620785.820    92628328.966 6       352.219          40.625
> 2024 07 31 12 51  1.0000000  0  8
G09  20298007.840   106666755.576 8      3815.699          49.687    20298007.380   106666755.583 8      3815.699          50.687    20298013.720    83116983.206 8      2973.272          50.187    20298014.060    83116979.202 8      2973.272          51.312
G06  22208644.840   116707209.911 7      5086.643          43.812    22208644.340   116707209.918 6      5086.643          40.437    22208651.280    90940697.355 6      3963.618          40.562    22208652.320    90940723.329 7      3963.618          44.875
G04  20913278.740   109900027.836 7      1409.241          46.062    20913277.280   109900027.846 6      1409.241          38.062    20913283.140    85636401.577 6      1098.110          37.937    20913283.720    85636398.576 8      1098.110          51.312
G17  20677221.260   108659516.943 7      2021.453          47.687    20677219.400   108659516.942 7      2021.453          46.937    20677224.280    84669778.369 7      1575.158          46.687    20677225.140    84669784.370 8      1575.158          49.312
R04  20734786.520   111033844.273 8      -318.783          48.500    20734787.380   111033844.313 7      -318.783          46.375    20734798.100    86359699.496 8      -247.942          49.500    20734797.640    86359699.490 8      -247.942          50.250
G19  20606855.900   108289748.789 6      3638.078          40.375    20606849.720   108289748.797 4      3638.078          25.625    20606854.400    84381623.879 4      2834.866          25.500
R05  19346737.660   103419345.182 7      2999.471          44.437    19346737.440   103419345.188 7      2999.471          44.187    19346747.740    80437352.074 8      2332.922          48.875    19346748.120    80437353.069 8      2332.922          49.000
G03  22620690.580   118872518.045 7       452.096          43.500    22620691.360   118872518.036 6       452.096          37.062    22620699.800    92627966.670 6       352.282          37.437    22620699.580    92627976.674 6       352.282          39.750
> 2024 07 31 12 51  2.0000000  0  8
G09  20297281.960   106662940.094 8      3815.036          49.000    20297281.240   106662940.099 8      3815.036          50.875    20297287.640    83114010.104 8      2972.755          51.187    20297288.200    83114006.099 8      2972.755          51.000
G06  22207676.900   116702123.123 7      5086.664          44.312    22207676.380   116702123.131 6      5086.664          40.562    22207683.360    90936733.630 6      3963.634          40.312    22207684.200    90936759.610 7      3963.634          44.812
G04  20913010.400   109898618.722 7      1408.755          46.125    20913009.360   109898618.729 6      1408.755          38.500    20913015.060    85635303.564 6      1097.731          37.875    20913015.540    85635300.560 8      1097.731          51.250
G17  20676836.480   108657495.672 7      2020.897          47.375    20676834.760   108657495.672 7      2020.897          47.125    20676839.720    84668203.348 7      1574.725          47.187    20676840.240    84668209.346 8      1574.725          49.375
R04  20734845.840   111034162.982 8      -318.885          48.312    20734847.200   111034163.018 7      -318.885          46.500    20734857.540    86359947.374 8      -248.022          49.750    20734856.940    86359947.370 8      -248.022          49.500
G19  20606163.600   108286110.991 6      3637.441          40.500    20606157.460   108286110.998 4      3637.441          25.625    20606162.140    84378789.231 4      2834.370          25.500
R05  19346176.820   103416345.871 7      2998.804          44.437    19346176.460   103416345.881 7      2998.804          44.500    19346186.600    80435019.280 8      2332.403          48.937    19346186.980    80435020.274 8      2332.403          48.625
G03  22620604.440   118872065.949 7       451.955          44.687    22620605.520   118872065.946 6       451.955          36.687    22620613.540    92627614.389 6       352.173          37.250    22620613.800    92627624.395 6       352.173          39.750
> 2024 07 31 12 51  3.0000000  0  8
G09  20296555.820   106659125.338 8      3814.344          49.562    20296555.320   106659125.351 8      3814.344          50.437    20296561.800    83111037.574 8      2972.216          50.625    20296562.140    83111033.574 8      2972.216          51.000
G06  22206708.620   116697036.577 7      5086.361          43.937    22206708.420   116697036.588 6      5086.361          40.187    22206715.380    90932770.090 6      3963.398          40.062    22206716.420    90932796.072 7      3963.398          44.875
G04  20912742.380   109897210.309 7      1408.072          46.937    20912741.460   109897210.314 6      1408.072          38.437    20912747.000    85634206.095 6      1097.199          38.187    20912747.440    85634203.100 8      1097.199          51.125
G17  20676451.960   108655475.132 7      2020.216          47.687    20676450.300   108655475.126 7      2020.216          47.375    20676455.340    84666628.900 7      1574.195          47.000    20676455.880    84666634.895 8      1574.195          49.000
R04  20734905.520   111034482.166 8      -319.320          48.687    20734906.680   111034482.203 7      -319.320          46.562    20734916.880    86360195.628 8      -248.360          49.187    20734916.700    86360195.620 8      -248.360          50.000
G19  20605471.380   108282474.060 6      3636.463          40.562    20605465.340   108282474.064 4      3636.463          25.625    20605470.080    84375955.254 4      2833.608          25.500
R05  19345615.920   103413347.433 7      2998.047          43.812    19345615.560   103413347.434 7      2998.047          44.187    19345625.380    80432687.158 8      2331.815          48.625    19345625.860    80432688.155 8      2331.815          49.375
G03  22620518.560   118871613.979 7       451.972          44.625    22620519.580   118871613.973 6       451.972          36.937    22620527.440    92627262.197 6       352.186          36.875    22620526.920    92627272.217 6       352.186          39.750
> 2024 07 31 12 51  4.0000000  0  8
G09  20295830.160   106655311.378 8      3813.577          48.625    20295829.560   106655311.385 8      3813.577          51.187    20295835.940    83108065.653 8      2971.619          50.687    20295836.560    83108061.649 8      2971.619          50.562
G06  22205740.840   116691950.263 7      5086.270          43.562    22205740.400   116691950.265 6      5086.270          40.687    22205747.420    90928806.728 6      3963.327          40.625    22205748.600    90928832.712 7      3963.327          44.937
G04  20912474.560   109895802.640 7      1407.274          47.250    20912473.740   109895802.655 6      1407.274          38.312    20912479.020    85633109.219 6      1096.577          38.000    20912479.540    85633106.221 8      1096.577          50.937
G17  20676067.720   108653455.359 8      2019.418          48.250    20676066.000   108653455.356 7      2019.418          47.312    20676070.840    84665055.049 7      1573.573          46.875    20676071.540    84665061.044 8      1573.573          49.250
R04  20734965.300   111034801.876 8      -319.960          48.062    20734966.640   111034801.912 7      -319.960          46.625    20734976.680    86360444.287 8      -248.858          49.375    20734976.420    86360444.279 8      -248.858          49.562
G19  20604779.520   108278837.967 6      3635.698          41.250    20604773.560   108278837.974 4      3635.698          25.625    20604778.140    84373121.933 4      2833.012          26.125
R05  19345054.920   103410349.921 7      2997.050          44.312    19345054.940   103410349.922 7      2997.050          44.187    19345064.600    80430355.759 8      2331.039          49.125    19345065.040    80430356.757 8      2331.039          48.875
G03  22620432.660   118871162.190 7       451.749          44.312    22620433.640   118871162.193 6       451.749          36.812    22620441.580    92626910.154 6       352.012          37.000    22620441.320    92626920.172 6       352.012          39.125
> 2024 07 31 12 51  5.0000000  0  8
G09  20295104.400   106651498.090 8      3812.916          49.937    20295103.900   106651498.103 8      3812.916          51.312    20295110.360    83105094.264 8      2971.103          50.562    20295111.120    83105090.262 8      2971.103          51.312
G06  22204773.200   116686864.116 7      5086.022          44.500    22204772.340   116686864.118 6      5086.022          40.875    22204779.620    90924843.497 6      3963.134          40.750    22204780.420    90924869.483 7      3963.134          45.375
G04  20912206.940   109894395.604 7      1406.715          47.750    20912206.020   109894395.614 6      1406.715          38.250    20912211.180    85632012.825 6      1096.142          38.187    20912211.900    85632009.826 8      1096.142          50.812
G17  20675683.440   108651436.256 8      2018.721          48.625    20675681.800   108651436.256 7      2018.721          47.500    20675686.760    84663481.718 7      1573.029          47.250    20675687.480    84663487.717 8      1573.029          49.125
R04  20735024.940   111035121.947 8      -320.307          49.062    20735026.360   111035121.991 7      -320.307          47.562    20735036.460    86360693.233 8      -249.128          48.937    20735036.080    86360693.229 8      -249.128          50.312
G19  20604087.900   108275202.662 6      3634.750          41.187    20604081.760   108275202.669 4      3634.750          25.625    20604086.420    84370289.228 4      2832.272          26.125
R05  19344494.560   103407353.209 7      2996.271          45.375    19344494.600   103407353.202 7      2996.271          45.250    19344504.020    80428024.978 8      2330.433          49.062    19344504.540    80428025.970 8      2330.433          49.187
G03  22620346.520   118870710.486 7       451.675          43.937    22620347.620   118870710.488 6       451.675          37.187    22620355.680    92626558.174 6       351.954          37.250    22620355.440    92626568.190 6       351.954          39.125
> 2024 07 31 12 51  6.0000000  0  8
G09  20294379.000   106647685.551 8      3812.144          49.750    20294378.300   106647685.559 8      3812.144          50.875    20294384.940    83102123.455 8      2970.502          50.812    20294385.440    83102119.455 8      2970.502          51.312
G06  22203805.200   116681778.162 7      5085.885          43.937    22203804.440   116681778.174 6      5085.885          41.062    22203811.900    90920880.428 6      3963.027          41.000    22203812.900    90920906.410 7      3963.027          45.500
G04  20911939.040   109892989.281 7      1405.982          47.062    20911938.520   109892989.288 6      1405.982          38.687    20911943.520    85630916.984 6      1095.571          38.312    20911944.100    85630913.985 8      1095.571          51.062
G17  20675299.160   108649417.876 8      2017.999          49.625    20675297.760   108649417.875 7      2017.999          47.187    20675302.640    84661908.947 7      1572.467          47.000    20675303.600    84661914.945 8      1572.467          49.687
R04  20735084.540   111035442.462 8      -320.656          49.375    20735086.420   111035442.507 7      -320.656          47.500    20735096.160    86360942.519 8      -249.399          49.937    20735096.020    86360942.515 8      -249.399          50.062
G19  20603396.140   108271568.158 6      3634.090          40.875    20603390.380   108271568.166 4      3634.090          25.625    20603394.780    84367457.147 4      2831.758          26.125
R05  19343934.000   103404357.336 7      2995.467          45.562    19343934.000   103404357.334 7      2995.467          45.187    19343943.300    80425694.855 8      2329.808          49.000    19343943.840    80425695.855 8      2329.808          49.250
G03  22620260.540   118870258.923 7       451.451          44.812    22620261.620   118870258.926 6       451.451          36.875    22620269.640    92626206.303 6       351.780          36.687    22620269.420    92626216.317 6       351.780          39.125
> 2024 07 31 12 51  7.0000000  0  8
G09  20293653.480   106643873.738 8      3811.494          49.937    20293652.920   106643873.745 8      3811.494          50.250    20293659.540    83099153.215 8      2969.995          50.312    20293660.060    83099149.216 8      2969.995          50.687
G06  22202837.320   116676692.441 7      5085.633          43.937    22202836.640   116676692.446 6      5085.633          40.187    22202843.920    90916917.524 6      3962.831          40.437    22202845.100    90916943.510 7      3962.831          44.937
G04  20911671.740   109891583.627 7      1405.418          47.375    20911670.920   109891583.634 6      1405.418          38.062    20911676.180    85629821.668 6      1095.131          38.187    20911676.700    85629818.673 8      1095.131          51.187
G17  20674915.240   108647400.215 8      2017.344          48.375    20674913.780   108647400.215 7      2017.344          47.437    20674918.680    84660336.745 7      1571.957          47.187    20674919.860    84660342.742 8      1571.957          49.000
R04  20735144.480   111035763.454 8      -321.109          48.062    20735146.380   111035763.496 7      -321.109          47.000    20735156.040    86361192.173 8      -249.752          49.437    20735155.640    86361192.167 8      -249.752          49.875
G19  20602704.840   108267934.472 6      3633.277          41.062    20602698.980   108267934.485 4      3633.277          26.187    20602703.260    84364625.703 4      2831.125          26.125
R05  19343373.760   103401362.334 7      2994.617          45.250    19343373.680   103401362.325 7      2994.617          45.187    19343382.940    80423365.403 8      2329.146          48.937    19343383.560    80423366.399 8      2329.146          48.937
G03  22620174.620   118869807.484 7       451.375          44.000    22620175.700   118869807.486 6       451.375          36.625    22620183.860    92625854.530 6       351.721          36.687    22620184.260    92625864.553 6       351.721          38.812
> 2024 07 31 12 51  8.0000000  0  8
G09  20292928.380   106640062.768 8      3810.511          48.375    20292927.680   106640062.772 8      3810.511          50.000    20292934.260    83096183.622 8      2969.229          50.312    20292934.760    83096179.623 8      2969.229          50.750
G06  22201869.600   116671607.006 7      5085.124          44.062    22201868.860   116671607.011 6      5085.124          41.000    22201876.220    90912954.852 6      3962.434          40.750    22201877.360    90912980.826 7      3962.434          44.937
G04  20911404.340   109890178.772 7      1404.457          46.875    20911403.640   109890178.780 6      1404.457          38.625    20911408.880    85628726.974 6      1094.382          37.875    20911409.420    85628723.978 8      1094.382          51.187
G17  20674531.560   108645383.362 8      2016.421          48.875    20674530.080   108645383.361 7      2016.421          46.437    20674534.840    84658765.164 7      1571.237          46.750    20674535.500    84658771.163 8      1571.237          49.062
R04  20735204.680   111036084.958 8      -321.753          48.000    20735206.480   111036085.002 7      -321.753          46.500    20735216.060    86361442.234 8      -250.253          49.250    20735215.880    86361442.230 8      -250.253          49.562
G19  20602013.520   108264301.698 6      3632.236          40.687    20602007.740   108264301.708 4      3632.236          26.187    20602011.780    84361794.970 4      2830.314          26.125
R05  19342813.880   103398368.223 7      2993.599          44.062    19342813.300   103398368.232 7      2993.599          43.750    19342822.940    80421036.664 8      2328.355          49.187    19342823.320    80421037.662 8      2328.355          48.500
G03  22620088.960   118869356.279 7       450.950          43.937    22620089.900   118869356.281 6       450.950          36.500    22620097.880    92625502.938 6       351.390          36.625    22620098.340    92625512.956 6       351.390          38.812
> 2024 07 31 12 51  9.0000000  0  8
G09  20292203.500   106636252.486 8      3809.809          49.187    20292202.580   106636252.493 8      3809.809          50.437    20292209.220    83093214.577 8      2968.682          50.187    20292209.640    83093210.581 8      2968.682          51.312
G06  22200901.900   116666521.724 7      5085.041          43.250    22200901.120   116666521.726 6      5085.041          40.562    22200908.540    90908992.293 6      3962.370          40.625    22200909.780    90909018.268 7      3962.370          45.562
G04  20911137.120   109888774.571 7      1403.795          47.250    20911136.660   109888774.579 6      1403.795          38.000    20911141.640    85627632.793 6      1093.866          38.125    20911142.040    85627629.794 8      1093.866          51.312
G17  20674147.920   108643367.183 8      2015.801          48.125    20674146.500   108643367.188 7      2015.801          47.562    20674151.180    84657194.118 7      1570.754          47.312    20674151.840    84657200.119 8      1570.754          49.125
R04  20735264.960   111036406.887 8      -322.182          48.312    20735266.820   111036406.929 7      -322.182          46.937    20735276.140    86361692.615 8      -250.586          49.687    20735276.120    86361692.617 8      -250.586          49.375
G19  20601322.660   108260669.706 6      3631.513          40.437    20601316.580   108260669.714 4      3631.513          26.187    20601320.600    84358964.845 4      2829.751          26.125
R05  19342254.100   103395374.948 7      2992.826          44.500    19342253.240   103395374.941 7      2992.826          43.875    19342262.940    80418708.553 8      2327.754          49.125    19342263.340    80418709.551 8      2327.754          48.437
G03  22620002.980   118868905.147 7       450.999          44.250    22620003.820   118868905.155 6       450.999          36.000    22620012.040    92625151.401 6       351.428          36.250    22620011.880    92625161.419 6       351.428          38.812
> 2024 07 31 12 51 10.0000000  0  8
G09  20291478.580   106632442.735 8      3809.478          48.500    20291477.660   106632442.745 8      3809.478          50.062    20291484.200    83090245.942 8      2968.425          49.500    20291484.640    83090241.948 8      2968.425          50.062
G06  22199934.180   116661436.458 7      5085.188          43.937    22199933.580   116661436.455 6      5085.188          40.812    22199940.780    90905029.750 6      3962.484          40.500    22199942.240    90905055.725 7      3962.484          45.062
G04  20910870.020   109887370.854 7      1403.555          46.812    20910869.560   109887370.859 6      1403.555          38.562    20910874.420    85626538.984 6      1093.679          37.687    20910875.020    85626535.986 8      1093.679          50.250
G17  20673764.440   108641351.549 8      2015.427          48.062    20673762.980   108641351.554 7      2015.427          47.250    20673767.740    84655623.488 7      1570.462          46.812    20673768.220    84655629.491 8      1570.462          48.625
R04  20735325.080   111036729.087 8      -322.303          48.437    20735326.980   111036729.131 7      -322.303          47.187    20735336.460    86361943.214 8      -250.680          49.562    20735336.120    86361943.219 8      -250.680          49.000
G19  20600631.420   108257038.322 6      3631.131          41.000    20600625.540   108257038.329 4      3631.131          26.187    20600629.460    84356135.192 4      2829.453          26.125
R05  19341694.240   103392382.314 7      2992.334          44.500    19341693.280   103392382.313 7      2992.334          43.500    19341703.120    80416380.953 8      2327.371          48.125    19341703.420    80416381.949 8      2327.371          48.000
G03  22619917.080   118868453.974 7       451.218          44.562    22619918.120   118868453.976 6       451.218          36.125    22619926.080    92624799.826 6       351.598          36.250    22619925.620    92624809.847 6       351.598          38.812
> 2024 07 31 12 51 11.0000000  0  8
G09  20290753.640   106628633.628 8      3808.705          48.187    20290752.720   106628633.638 8      3808.705          48.062    20290759.400    83087277.809 8      2967.822          49.062    20290759.740    83087273.812 8      2967.822          49.125
G06  22198966.720   116656351.284 7      5085.074          43.937    22198965.760   116656351.281 6      5085.074          40.562    22198973.160    90901067.274 6      3962.395          40.625    22198974.700    90901093.256 7      3962.395          45.125
G04  20910603.000   109885967.752 7      1402.732          47.187    20910602.480   109885967.759 6      1402.732          37.937    20910607.220    85625445.659 6      1093.038          37.937    20910608.040    85625442.660 8      1093.038          49.437
G17  20673381.020   108639336.532 7      2014.628          46.875    20673379.500   108639336.534 7      2014.628          46.062    20673384.180    84654053.338 7      1569.840          45.937    20673384.760    84654059.335 7      1569.840          47.875
R04  20735385.120   111037051.640 8      -322.767          48.437    20735387.480   111037051.687 7      -322.767          47.125    20735396.560    86362194.087 7      -251.041          47.625    20735396.240    86362194.091 8      -251.041          48.062
G19  20599940.240   108253407.675 6      3630.375          41.125    20599934.720   108253407.680 4      3630.375          26.187    20599938.580    84353306.115 4      2828.863          26.125
R05  19341134.680   103389390.453 7      2991.390          44.750    19341133.320   103389390.443 7      2991.390          43.687    19341143.440    80414053.942 7      2326.637          47.687    19341143.760    80414054.938 7      2326.637          47.000
G03  22619831.240   118868002.816 7       451.066          44.687    22619832.260   118868002.821 6       451.066          36.000    22619840.040    92624448.275 5       351.480          35.937    22619839.640    92624458.301 6       351.480          37.750
> 2024 07 31 12 51 12.0000000  0  8
G09  20290028.920   106624825.348 8      3807.786          48.187    20290027.940   106624825.358 8      3807.786          49.937    20290034.600    83084310.322 8      2967.106          49.625    20290035.000    83084306.326 8      2967.106          50.687
G06  22197999.180   116651266.417 7      5084.612          43.937    22197998.140   116651266.421 6      5084.612          40.500    22198005.560    90897105.050 6      3962.035          40.250    22198006.880    90897131.030 7      3962.035          45.437
G04  20910335.960   109884565.419 7      1401.874          47.875    20910335.760   109884565.424 6      1401.874          38.000    20910340.440    85624352.933 6      1092.369          37.812    20910341.320    85624349.929 8      1092.369          50.500
G17  20672997.540   108637322.329 7      2013.661          47.562    20672996.300   108637322.331 7      2013.661          46.937    20673000.900    84652483.828 7      1569.087          46.625    20673001.480    84652489.829 8      1569.087          49.312
R04  20735445.640   111037374.733 7      -323.517          47.500    20735447.740   111037374.789 7      -323.517          47.312    20735456.920    86362445.386 8      -251.624          48.750    20735456.700    86362445.395 8      -251.624          48.562
G19  20599249.700   108249777.962 6      3629.225          40.750    20599243.980   108249777.970 4      3629.225          26.375    20599247.920    84350477.767 4      2827.967          26.125
R05  19340575.160   103386399.527 7      2990.367          43.812    19340573.600   103386399.520 7      2990.367          43.687    19340583.840    80411727.668 8      2325.841          48.500    19340584.160    80411728.667 8      2325.841          48.562
G03  22619745.340   118867551.889 7       450.745          44.562    22619746.740   118867551.894 5       450.745          35.750    22619754.240    92624096.907 5       351.230          35.937    22619753.420    92624106.934 6       351.230          37.750
> 2024 07 31 12 51 13.0000000  0  8
G09  20289304.380   106621017.710 7      3807.239          47.687    20289303.360   106621017.720 8      3807.239          49.937    20289310.140    83081343.331 8      2966.680          49.937    20289310.280    83081339.337 8      2966.680          50.437
G06  22197031.100   116646181.655 7      5084.661          43.750    22197030.480   116646181.660 6      5084.661          40.562    22197037.920    90893142.898 6      3962.073          40.500    22197039.240    90893168.874 7      3962.073          45.250
G04  20910069.200   109883163.681 7      1401.406          47.250    20910068.920   109883163.688 6      1401.406          38.250    20910073.920    85623260.667 6      1092.005          38.000    20910074.620    85623257.669 8      1092.005          51.062
G17  20672614.340   108635308.723 8      2013.285          48.500    20672613.200   108635308.723 7      2013.285          47.312    20672617.760    84650914.776 7      1568.793          47.250    20672618.260    84650920.777 8      1568.793          49.375
R04  20735505.980   111037698.135 8      -323.521          48.812    20735508.220   111037698.193 7      -323.521          47.000    20735517.340    86362696.915 8      -251.627          49.562    20735517.140    86362696.921 8      -251.627          48.812
G19  20598559.240   108246148.937 6      3628.696          40.875    20598553.340   108246148.947 4      3628.696          26.375    20598557.360    84347649.958 4      2827.555          26.125
R05  19340015.680   103383409.358 7      2989.815          44.312    19340014.860   103383409.351 7      2989.815          43.562    19340024.360    80409401.979 8      2325.411          49.250    19340024.680    80409402.971 8      2325.411          48.312
G03  22619659.620   118867100.978 7       450.998          43.937    22619660.860   118867100.983 5       450.998          35.812    22619668.440    92623745.540 5       351.427          35.625    22619666.700    92623755.558 6       351.427          37.750
> 2024 07 31 12 51 14.0000000  0  8
G09  20288580.040   106617210.615 8      3806.750          48.562    20288578.880   106617210.623 8      3806.750          50.187    20288585.640    83078376.760 8      2966.299          50.375    20288585.860    83078372.764 8      2966.299          50.687
G06  22196063.580   116641096.930 7      5084.647          44.562    22196062.840   116641096.935 6      5084.647          40.187    22196070.260    90889180.779 6      3962.063          39.937    22196071.940    90889206.747 7      3962.063          45.500
G04  20909802.780   109881762.462 7      1400.865          47.250    20909802.340   109881762.467 6      1400.865          38.250    20909806.960    85622168.806 6      1091.583          37.687    20909808.060    85622165.807 8      1091.583          51.000
G17  20672231.260   108633295.671 8      2012.729          48.437    20672230.180   108633295.674 7      2012.729          47.312    20672234.620    84649346.166 7      1568.360          46.750    20672235.240    84649352.169 8      1568.360          49.125
R04  20735566.080   111038021.823 8      -323.874          48.437    20735568.580   111038021.881 7      -323.874          47.312    20735577.860    86362948.672 8      -251.902          50.000    20735577.380    86362948.683 8      -251.902          49.687
G19  20597868.960   108242520.571 6      3628.063          40.500    20597862.880   108242520.579 4      3628.063          26.375    20597866.560    84344822.656 4      2827.062          26.125
R05  19339456.500   103380419.852 7      2989.118          44.437    19339455.420   103380419.853 7      2989.118          44.250    19339465.280    80407076.809 8      2324.870          48.937    19339465.660    80407077.801 8      2324.870          49.187
G03  22619573.760   118866650.057 7       450.838          43.937    22619574.960   118866650.059 5       450.838          35.812    22619582.640    92623394.171 5       351.302          35.812    22619581.380    92623404.185 6       351.302          37.750
> 2024 07 31 12 51 15.0000000  0  8
G09  20287855.560   106613404.283 8      3805.897          48.625    20287854.580   106613404.295 8      3805.897          50.687    20287861.280    83075410.793 8      2965.634          50.562    20287861.580    83075406.796 8      2965.634          51.187
G06  22195096.140   116636012.425 7      5084.478          43.312    22195095.320   116636012.425 6      5084.478          41.312    22195102.620    90885218.823 6      3961.931          41.125    22195104.100    90885244.795 7      3961.931          45.187
G04  20909536.200   109880361.945 7      1400.171          46.750    20909535.840   109880361.950 6      1400.171          38.250    20909540.460    85621077.496 6      1091.043          37.812    20909541.340    85621074.497 8      1091.043          50.875
G17  20671848.260   108631283.361 8      2011.957          48.562    20671847.180   108631283.360 7      2011.957          47.250    20671851.660    84647778.130 7      1567.759          46.750    20671852.220    84647784.135 8      1567.759          49.000
R04  20735626.720   111038345.953 8      -324.361          48.437    20735629.180   111038346.014 7      -324.361          46.812    20735638.380    86363200.771 8      -252.281          49.625    20735638.060    86363200.782 8      -252.281          49.937
G19  20597178.420   108238893.052 6      3627.081          41.125    20597172.720   108238893.062 4      3627.081          26.375    20597176.100    84341996.021 4      2826.297          26.062
R05  19338897.420   103377431.187 7      2988.239          44.125    19338896.720   103377431.183 7      2988.239          44.125    19338906.100    80404752.290 8      2324.186          48.687    19338906.660    80404753.283 8      2324.186          48.687
G03  22619488.140   118866199.261 7       450.762          44.187    22619488.980   118866199.261 5       450.762          35.125    22619496.860    92623042.899 6       351.243          36.000    22619495.700    92623052.914 6       351.243          36.937
> 2024 07 31 12 51 16.0000000  0  8
G09  20287131.620   106609598.770 8      3805.001          49.125    20287130.460   106609598.783 8      3805.001          50.187    20287137.160    83072445.460 8      2964.936          50.562    20287137.340    83072441.460 8      2964.936          50.687
G06  22194128.700   116630928.200 7      5084.102          44.125    22194127.760   116630928.199 6      5084.102          40.687    22194135.080    90881257.087 6      3961.638          40.812    22194136.980    90881283.061 7      3961.638          44.937
G04  20909269.960   109878962.217 7      1399.236          46.562    20909269.520   109878962.222 6      1399.236          38.312    20909274.100    85619986.797 6      1090.314          38.062    20909275.000    85619983.797 8      1090.314          50.500
G17  20671465.420   108629271.849 8      2011.041          48.812    20671464.500   108629271.848 7      2011.041          47.250    20671468.900    84646210.714 7      1567.045          47.187    20671469.200    84646216.717 8      1567.045          48.437
R04  20735687.440   111038670.632 7      -324.967          47.937    20735689.620   111038670.690 7      -324.967          47.062    20735699.020    86363453.295 8      -252.752          49.250    20735698.740    86363453.308 8      -252.752          49.062
G19  20596488.580   108235266.415 6      3626.140          41.625    20596482.760   108235266.426 4      3626.140          26.375    20596485.660    84339170.071 4      2825.564          26.062
R05  19338338.540   103374443.405 7      2987.374          44.125    19338337.360   103374443.403 7      2987.374          43.750    19338347.260    80402428.460 8      2323.513          49.000    19338347.520    80402429.450 8      2323.513          48.750
G03  22619402.500   118865748.681 7       450.388          44.187    22619403.160   118865748.681 5       450.388          35.375    22619411.220    92622691.792 6       350.952          36.000    22619409.400    92622701.806 6       350.952          36.937
> 2024 07 31 12 51 17.0000000  0  8
G09  20286407.580   106605793.901 8      3804.510          48.687    20286406.420   106605793.908 8      3804.510          50.875    20286413.100    83069480.625 8      2964.553          51.000    20286413.360    83069476.627 8      2964.553          50.687
G06  22193161.380   116625844.121 7      5083.884          43.062    22193160.360   116625844.121 6      5083.884          40.500    22193167.620    90877295.473 6      3961.468          40.687    22193169.380    90877321.453 7      3961.468          45.375
G04  20909003.480   109877563.074 7      1398.796          46.687    20909003.480   109877563.076 6      1398.796          38.125    20909007.880    85618896.551 6      1089.971          38.062    20909008.340    85618893.554 8      1089.971          50.875
G17  20671083.000   108627260.970 8      2010.506          48.437    20671081.920   108627260.970 7      2010.506          46.750    20671086.320    84644643.789 7      1566.628          46.750    20671086.560    84644649.792 8      1566.628          49.187
R04  20735748.500   111038995.724 7      -325.412          47.812    20735750.080   111038995.776 7      -325.412          46.875    20735759.640    86363706.136 8      -253.098          49.125    20735759.660    86363706.146 8      -253.098          49.625
G19  20595798.300   108231640.507 6      3625.506          41.500    20595792.820   108231640.517 4      3625.506          26.125    20595795.660    84336344.687 4      2825.069          26.062
R05  19337779.720   103371456.416 7      2986.614          44.125    19337778.880   103371456.409 7      2986.614          43.750    19337788.460    80400105.240 8      2322.922          48.937    19337788.660    80400106.230 8      2322.922          48.937
G03  22619316.620   118865298.136 7       450.415          43.125    22619317.360   118865298.135 5       450.415          35.000    22619325.520    92622340.717 5       350.973          34.937    22619324.120    92622350.732 6       350.973          36.937
> 2024 07 31 12 51 18.0000000  0  8
G09  20285683.440   106601989.797 7      3803.705          47.062    20285682.560   106601989.804 8      3803.705          50.500    20285689.180    83066516.388 8      2963.926          50.750    20285689.480    83066512.389 8      2963.926          51.125
G06  22192193.580   116620760.232 7      5083.629          44.125    22192192.880   116620760.234 6      5083.629          40.562    22192200.180    90873334.003 6      3961.269          40.562    22192201.820    90873359.979 7      3961.269          45.375
G04  20908737.520   109876164.649 7      1397.969          47.125    20908737.340   109876164.654 6      1397.969          37.937    20908741.720    85617806.869 6      1089.327          37.625    20908742.160    85617803.874 8      1089.327          51.000
G17  20670700.580   108625250.830 7      2009.679          47.187    20670699.400   108625250.832 7      2009.679          47.000    20670703.760    84643077.446 7      1565.984          46.750    20670703.900    84643083.451 8      1565.984          49.187
R04  20735808.900   111039321.265 7      -325.905          47.562    20735810.780   111039321.312 7      -325.905          46.937    20735820.480    86363959.332 8      -253.482          49.375    20735820.520    86363959.341 8      -253.482          49.812
G19  20595108.620   108228015.433 6      3624.664          41.375    20595103.000   108228015.446 4      3624.664          26.125    20595105.740    84333519.955 4      2824.414          26.062
R05  19337220.980   103368470.272 7      2985.687          43.750    19337219.840   103368470.268 7      2985.687          43.750    19337230.100    80397782.688 8      2322.201          49.000    19337230.160    80397783.678 8      2322.201          48.687
G03  22619230.900   118864847.766 7       450.148          43.312    22619231.760   118864847.766 5       450.148          35.000    22619239.980    92621989.776 5       350.764          35.687    22619238.740    92621999.790 6       350.764          36.937
> 2024 07 31 12 51 19.0000000  0  8
G09  20284959.680   106598186.407 8      3803.124          48.500    20284958.820   106598186.414 8      3803.124          50.125    20284965.460    83063552.707 8      2963.473          50.250    20284965.680    83063548.709 8      2963.473          51.062
G06  22191226.300   116615676.523 7      5083.743          44.250    22191225.640   116615676.526 6      5083.743          41.000    22191232.760    90869372.674 6      3961.358          40.937    22191234.560    90869398.646 7      3961.358          45.250
G04  20908471.600   109874766.888 7      1397.497          47.000    20908471.260   109874766.896 6      1397.497          37.875    20908475.760    85616717.711 6      1088.958          37.625    20908476.260    85616714.712 8      1088.958          50.875
G17  20670318.260   108623241.380 8      2009.170          48.062    20670316.980   108623241.382 7      2009.170          47.000    20670321.280    84641511.641 7      1565.587          46.875    20670321.300    84641517.640 8      1565.587          48.937
R04  20735870.000   111039647.215 7      -326.114          47.625    20735871.700   111039647.260 7      -326.114          46.687    20735881.400    86364212.843 8      -253.645          49.250    20735881.180    86364212.851 8      -253.645          49.437
G19  20594419.160   108224391.151 6      3624.079          41.312    20594413.440   108224391.166 4      3624.079          26.125    20594415.880    84330695.839 4      2823.957          26.062
R05  19336662.520   103365484.972 7      2984.968          43.937    19336661.180   103365484.971 7      2984.968          43.625    19336671.660    80395460.790 8      2321.642          48.812    19336671.700    80395461.782 8      2321.642          49.250
G03  22619144.960   118864397.467 7       450.352          43.812    22619145.820   118864397.467 5       450.352          35.375    22619154.220    92621638.886 5       350.924          35.687    22619152.400    92621648.896 6       350.924          36.937
> 2024 07 31 12 51 20.0000000  0  8
G09  20284236.020   106594383.700 8      3802.252          48.750    20284235.180   106594383.708 8      3802.252          51.000    20284241.760    83060589.562 8      2962.794          50.562    20284242.020    83060585.559 8      2962.794          51.000
G06  22190259.000   116610592.994 7      5083.345          44.437    22190258.140   116610592.999 6      5083.345          41.062    22190265.380    90865411.486 6      3961.048          41.250    22190266.960    90865437.452 7      3961.048          45.437
G04  20908205.760   109873369.774 7      1396.729          47.437    20908205.240   109873369.781 6      1396.729          37.875    20908209.940    85615629.047 6      1088.360          37.687    20908210.400    85615626.050 8      1088.360          50.625
G17  20669935.900   108621232.601 8      2008.367          49.187    20669934.820   108621232.603 7      2008.367          47.625    20669939.040    84639946.353 7      1564.961          47.562    20669939.260    84639952.354 8      1564.961          48.687
R04  20735931.140   111039973.512 7      -326.486          47.625    20735932.240   111039973.561 7      -326.486          46.750    20735942.340    86364466.629 8      -253.933          49.875    20735942.240    86364466.635 8      -253.933          50.312
G19  20593729.580   108220767.681 6      3622.974          40.875    20593724.120   108220767.693 4      3622.974          26.125    20593726.260    84327872.355 4      2823.097          26.062
R05  19336104.320   103362500.486 7      2983.961          43.937    19336102.600   103362500.489 7      2983.961          43.562    19336113.300    80393139.529 8      2320.858          49.000    19336113.320    80393140.523 8      2320.858          48.687
G03  22619059.340   118863947.274 7       450.060          43.125    22619060.220   118863947.281 5       450.060          34.750    22619068.760    92621288.081 5       350.696          34.750    22619067.340    92621298.098 6       350.696          36.812
> 2024 07 31 12 51 21.0000000  0  8
G09  20283512.560   106590581.724 8      3801.707          48.625    20283511.660   106590581.732 8      3801.707          50.312    20283518.320    83057626.991 8      2962.369          50.625    20283518.520    83057622.988 8      2962.369          51.000
G06  22189291.760   116605509.659 7      5083.320          44.000    22189291.060   116605509.661 6      5083.320          40.750    22189298.020    90861450.444 6      3961.029          40.812    22189299.240    90861476.414 7      3961.029          45.250
G04  20907939.900   109871973.361 7      1396.147          47.312    20907939.480   109871973.363 6      1396.147          38.125    20907944.260    85614540.929 6      1087.906          37.687    20907944.700    85614537.938 8      1087.906          50.750
G17  20669553.840   108619224.549 8      2007.780          49.187    20669552.840   108619224.552 7      2007.780          47.375    20669556.900    84638381.637 7      1564.504          47.375    20669557.240    84638387.640 8      1564.504          48.875
R04  20735991.720   111040300.295 7      -326.884          47.187    20735993.340   111040300.340 7      -326.884          46.750    20736003.200    86364720.788 8      -254.243          49.562    20736002.920    86364720.790 8      -254.243          49.625
G19  20593039.820   108217145.001 6      3622.264          40.875    20593034.840   108217145.011 4      3622.264          26.125    20593036.760    84325049.490 4      2822.544          26.625
R05  19335545.900   103359516.857 7      2983.342          42.750    19335544.980   103359516.858 7      2983.342          43.625    19335555.240    80390818.931 8      2320.377          48.937    19335555.460    80390819.923 8      2320.377          49.250
G03  22618973.620   118863497.217 7       450.063          42.062    22618974.540   118863497.219 5       450.063          34.750    22618982.920    92620937.386 5       350.699          34.625    22618982.060    92620947.416 6       350.699          36.812
> 2024 07 31 12 51 22.0000000  0  8
G09  20282789.180   106586780.387 8      3800.841          48.375    20282788.320   106586780.391 8      3800.841          50.562    20282794.960    83054664.910 8      2961.694          50.625    20282795.220    83054660.907 8      2961.694          50.562
G06  22188324.360   116600426.418 7      5083.135          44.187    22188323.680   116600426.415 6      5083.135          40.687    22188330.680    90857489.479 6      3960.884          40.937    22188331.760    90857515.445 7      3960.884          45.125
G04  20907674.420   109870577.506 7      1395.464          47.187    20907674.000   109870577.513 6      1395.464          38.062    20907678.540    85613453.255 6      1087.375          37.687    20907679.020    85613450.262 8      1087.375          50.125
G17  20669171.640   108617217.115 8      2006.973          48.875    20669170.860   108617217.118 7      2006.973          47.125    20669174.900    84636817.399 7      1563.875          46.937    20669175.340    84636823.402 8      1563.875          48.562
R04  20736052.740   111040627.435 7      -327.520          47.500    20736054.080   111040627.476 7      -327.520          47.187    20736064.140    86364975.225 8      -254.738          48.812    20736064.080    86364975.230 8      -254.738          49.312
G19  20592350.540   108213522.997 6      3621.633          41.500    20592345.720   108213523.007 4      3621.633          26.937    20592347.340    84322227.149 4      2822.052          26.625
R05  19334988.060   103356533.960 7      2982.465          43.312    19334987.240   103356533.953 7      2982.465          43.625    19334997.260    80388498.896 8      2319.695          48.812    19334997.260    80388499.890 8      2319.695          48.375
G03  22618888.140   118863047.173 7       449.960          43.187    22618888.920   118863047.178 5       449.960          34.500    22618897.080    92620586.702 5       350.618          34.625    22618895.980    92620596.732 6       350.618          36.812
> 2024 07 31 12 51 23.0000000  0  8
G09  20282065.820   106582979.624 8      3800.455          49.000    20282065.080   106582979.627 8      3800.455          48.687    20282071.720    83051703.271 8      2961.394          48.500    20282071.780    83051699.268 8      2961.394          50.687
G06  22187357.120   116595343.265 7      5082.972          43.687    22187356.480   116595343.269 6      5082.972          40.437    22187363.460    90853528.582 6      3960.757          40.625    22187365.160    90853554.550 7      3960.757          45.375
G04  20907408.820   109869182.225 7      1395.016          46.750    20907408.340   109869182.233 6      1395.016          37.062    20907412.900    85612366.018 6      1087.026          37.562    20907413.360    85612363.021 8      1087.026          48.562
G17  20668789.660   108615210.262 8      2006.522          48.875    20668789.060   108615210.264 7      2006.522          46.187    20668793.100    84635253.613 7      1563.523          46.687    20668793.380    84635259.618 8      1563.523          48.375
R04  20736113.860   111040954.909 7      -327.664          47.937    20736114.720   111040954.964 7      -327.664          46.937    20736125.200    86365229.932 7      -254.849          47.687    20736125.260    86365229.934 7      -254.849          47.750
G19  20591661.620   108209901.699 6      3620.930          41.375    20591656.560   108209901.709 4      3620.930          26.937    20591658.140    84319405.359 4      2821.504          26.625
R05  19334429.740   103353551.774 7      2981.721          43.312    19334429.060   103353551.784 7      2981.721          43.437    19334439.480    80386179.428 8      2319.116          48.062    19334439.340    80386180.418 8      2319.116          48.000
G03  22618802.520   118862597.124 7       450.012          43.187    22618803.380   118862597.126 5       450.012          34.500    22618811.580    92620236.014 5       350.658          34.312    22618811.040    92620246.037 6       350.658          36.812
> 2024 07 31 12 51 24.0000000  0  8
G09  20281342.740   106579179.595 8      3799.697          48.500    20281342.080   106579179.605 8      3799.697          50.437    20281348.520    83048742.215 8      2960.803          50.625    20281348.620    83048738.215 8      2960.803          50.875
G06  22186390.080   116590260.276 7      5082.828          44.000    22186389.220   116590260.279 6      5082.828          41.062    22186396.160    90849567.812 6      3960.645          40.750    22186398.020    90849593.772 7      3960.645          45.437
G04  20907143.540   109867787.610 7      1394.361          47.437    20907142.920   109867787.617 6      1394.361          37.500    20907147.460    85611279.302 6      1086.515          36.937    20907148.200    85611276.307 8      1086.515          50.437
G17  20668407.940   108613204.102 7      2005.879          47.312    20668407.300   108613204.102 7      2005.879          47.000    20668411.260    84633690.367 7      1563.023          46.937    20668411.720    84633696.371 8      1563.023          49.437
R04  20736175.060   111041282.822 7      -328.038          47.062    20736176.480   111041282.875 7      -328.038          46.750    20736186.560    86365484.971 8      -255.141          48.687    20736186.280    86365484.971 8      -255.141          48.750
G19  20590973.080   108206281.187 7      3620.189          42.062    20590967.620   108206281.195 4      3620.189          26.937    20590968.980    84316584.179 4      2820.926          26.625
R05  19333872.300   103350570.399 7      2981.104          43.187    19333871.740   103350570.400 7      2981.104          43.812    19333881.860    80383860.572 8      2318.636          48.875    19333881.760    80383861.564 8      2318.636          48.250
G03  22618716.840   118862147.180 7       449.935          43.625    22618717.520   118862147.192 5       449.935          34.125    22618725.980    92619885.411 5       350.599          34.312    22618725.780    92619895.443 6       350.599          36.812
> 2024 07 31 12 51 25.0000000  0  8
G09  20280619.820   106575380.294 8      3799.059          48.875    20280619.020   106575380.301 8      3799.059          50.687    20280625.620    83045781.719 8      2960.306          50.625    20280625.720    83045777.718 8      2960.306          51.062
G06  22185422.600   116585177.490 7      5082.781          44.625    22185421.920   116585177.490 6      5082.781          40.937    22185428.800    90845607.198 6      3960.609          40.750    22185430.480    90845633.164 7      3960.609          45.437
G04  20906878.120   109866393.699 7      1393.604          46.875    20906877.640   109866393.706 6      1393.604          37.500    20906882.320    85610193.136 6      1085.925          37.562    20906882.820    85610190.145 8      1085.925          51.062
G17  20668026.320   108611198.660 8      2005.227          48.375    20668025.680   108611198.665 7      2005.227          47.437    20668029.680    84632127.683 7      1562.515          47.187    20668030.000    84632133.688 8      1562.515          49.062
R04  20736236.520   111041611.158 7      -328.466          46.812    20736237.860   111041611.208 7      -328.466          47.062    20736247.760    86365740.336 8      -255.474          48.562    20736247.700    86365740.336 8      -255.474          49.125
G19  20590283.960   108202661.490 6      3619.489          41.437    20590278.920   108202661.498 4      3619.489          26.937    20590280.140    84313763.635 4      2820.381          26.625
R05  19333314.740   103347589.899 7      2980.156          43.500    19333314.200   103347589.906 7      2980.156          43.937    19333324.280    80381542.408 8      2317.899          49.375    19333324.300    80381543.400 8      2317.899          48.687
G03  22618630.980   118861697.388 7       449.856          43.375    22618631.840   118861697.395 5       449.856          34.062    22618640.460    92619534.916 5       350.537          34.312    22618641.020    92619544.940 6       350.537          36.812
> 2024 07 31 12 51 26.0000000  0  8
G09  20279897.020   106571581.613 8      3798.385          48.937    20279896.280   106571581.623 8      3798.385          50.437    20279902.760    83042821.709 8      2959.780          50.812    20279902.880    83042817.709 8      2959.780          51.062
G06  22184455.320   116580094.791 7      5082.660          43.750    22184454.660   116580094.793 6      5082.660          40.625    22184461.580    90841646.659 6      3960.515          40.937    22184463.780    90841672.619 7      3960.515          45.312
G04  20906613.140   109865000.347 7      1392.975          47.250    20906612.440   109865000.354 6      1392.975          38.062    20906617.380    85609107.405 6      1085.435          37.625    20906617.580    85609104.414 8      1085.435          50.312
G17  20667644.900   108609193.819 8      2004.613          48.562    20667644.240   108609193.816 7      2004.613          47.437    20667648.140    84630565.465 7      1562.036          47.062    20667648.540    84630571.475 8      1562.036          48.937
R04  20736298.140   111041939.771 7      -328.801          47.437    20736299.140   111041939.820 7      -328.801          46.875    20736309.080    86365995.919 8      -255.734          49.125    20736309.140    86365995.919 8      -255.734          49.312
G19  20589595.080   108199042.513 6      3618.592          40.812    20589590.320   108199042.518 4      3618.592          26.937    20589591.400    84310943.653 4      2819.682          26.625
R05  19332757.480   103344610.130 7      2979.417          43.687    19332756.940   103344610.118 7      2979.417          43.687    19332766.840    80379224.797 8      2317.324          49.187    19332766.980    80379225.790 8      2317.324          49.187
G03  22618545.760   118861247.581 7       449.843          42.375    22618546.180   118861247.588 5       449.843          34.062    22618554.740    92619184.414 5       350.527          34.312    22618555.300    92619194.439 6       350.527          36.812
> 2024 07 31 12 51 27.0000000  0  8
G09  20279174.260   106567783.717 8      3797.608          49.500    20279173.540   106567783.727 8      3797.608          50.562    20279180.040    83039862.310 8      2959.175          50.875    20279180.260    83039858.310 8      2959.175          50.937
G06  22183488.140   116575012.339 7      5082.572          43.687    22183487.500   116575012.341 6      5082.572          40.750    22183494.420    90837686.303 6      3960.446          40.687    22183496.360    90837712.266 7      3960.446          45.312
G04  20906348.180   109863607.723 7      1392.395          46.625    20906347.280   109863607.728 6      1392.395          37.625    20906352.180    85608022.242 6      1084.983          37.625    20906352.760    85608019.244 8      1084.983          50.312
G17  20667263.540   108607189.751 8      2003.825          48.250    20667262.980   108607189.753 7      2003.825          47.875    20667266.900    84629003.854 7      1561.422          47.812    20667267.220    84629009.859 8      1561.422          48.937
R04  20736359.980   111042268.873 7      -329.229          47.687    20736360.380   111042268.915 7      -329.229          46.812    20736370.480    86366251.879 8      -256.067          49.062    20736370.620    86366251.877 8      -256.067          49.187
G19  20588906.840   108195424.392 6      3617.817          41.687    20588901.820   108195424.397 4      3617.817          26.375    20588902.820    84308124.340 4      2819.078          26.625
R05  19332200.300   103341631.243 7      2978.502          43.687    19332199.560   103341631.236 7      2978.502          43.687    19332209.660    80376907.887 8      2316.613          49.250    19332209.920    80376908.879 8      2316.613          49.125
G03  22618460.240   118860797.962 7       449.785          42.000    22618460.560   118860797.967 5       449.785          33.437    22618469.200    92618834.060 5       350.482          33.625    22618469.620    92618844.079 6       350.482          36.812
> 2024 07 31 12 51 28.0000000  0  8
G09  20278451.700   106563986.439 8      3796.945          48.750    20278451.000   106563986.444 8      3796.945          50.625    20278457.500    83036903.392 8      2958.659          50.375    20278457.840    83036899.392 8      2958.659          51.062
G06  22182520.800   116569930.005 7      5082.285          43.312    22182520.180   116569930.005 6      5082.285          40.812    22182527.260    90833726.045 6      3960.222          40.687    22182529.160    90833752.010 7      3960.222          45.187
G04  20906083.400   109862215.669 7      1391.786          46.187    20906082.380   109862215.677 6      1391.786          37.937    20906087.340    85606937.525 6      1084.508          37.937    20906087.880    85606934.529 8      1084.508          50.000
G17  20666882.340   108605186.271 8      2003.173          48.312    20666881.680   108605186.276 7      2003.173          47.812    20666885.680    84627442.699 7      1560.914          47.250    20666886.020    84627448.708 8      1560.914          49.000
R04  20736421.260   111042598.320 7      -329.613          47.875    20736422.200   111042598.367 7      -329.613          46.625    20736432.060    86366508.116 8      -256.366          49.312    20736432.080    86366508.116 8      -256.366          49.562
G19  20588218.340   108191806.975 6      3617.028          40.812    20588213.560   108191806.977 4      3617.028          26.375    20588214.480    84305305.574 4      2818.464          26.625
R05  19331643.280   103338653.061 7      2977.819          43.812    19331642.200   103338653.062 7      2977.819          43.875    19331652.520    80374591.530 8      2316.082          49.562    19331652.740    80374592.522 8      2316.082          49.312
G03  22618374.580   118860348.363 7       449.648          42.187    22618374.760   118860348.365 5       449.648          33.437    22618383.600    92618483.721 5       350.375          33.625    22618385.020    92618493.743 6       350.375          36.812
> 2024 07 31 12 51 29.0000000  0  8
G09  20277729.260   106560189.755 8      3796.238          48.875    20277728.600   106560189.762 8      3796.238          50.562    20277734.940    83033944.939 8      2958.108          51.062    20277735.500    83033940.938 8      2958.108          51.250
G06  22181553.680   116564847.731 7      5082.094          44.437    22181553.180   116564847.728 6      5082.094          40.625    22181560.160    90829765.829 6      3960.073          40.750    22181562.120    90829791.797 7      3960.073          45.187
G04  20905818.360   109860824.196 7      1391.057          46.062    20905817.540   109860824.204 6      1391.057          37.687    20905822.420    85605853.260 6      1083.940          37.250    20905822.860    85605850.265 8      1083.940          50.125
G17  20666501.260   108603183.399 8      2002.483          49.250    20666500.780   108603183.396 7      2002.483          47.437    20666504.540    84625882.010 7      1560.376          46.937    20666504.880    84625888.020 8      1560.376          48.812
R04  20736482.760   111042928.135 7      -330.159          47.500    20736483.460   111042928.184 7      -330.159          47.375    20736493.500    86366764.636 8      -256.791          48.750    20736493.840    86366764.636 8      -256.791          49.125
G19  20587530.220   108188190.260 6      3616.131          41.375    20587525.460   108188190.262 4      3616.131          26.375    20587526.220    84302487.354 4      2817.764          26.625
R05  19331086.280   103335675.622 7      2976.980          44.062    19331085.380   103335675.626 7      2976.980          43.625    19331095.460    80372275.750 8      2315.429          49.312    19331095.680    80372276.742 8      2315.429          49.375
G03  22618288.780   118859898.763 6       449.565          41.937    22618289.120   118859898.768 5       449.565          32.875    22618298.040    92618133.375 5       350.310          33.250    22618299.420    92618143.410 6       350.310          37.375
> 2024 07 31 12 51 30.0000000  0  8
G09  20277007.020   106556393.814 8      3795.602          48.937    20277006.220   106556393.819 8      3795.602          51.125    20277012.680    83030987.063 8      2957.612          51.000    20277013.120    83030983.063 8      2957.612          51.312
G06  22180586.680   116559765.644 7      5082.069          43.875    22180586.120   116559765.647 6      5082.069          40.875    22180593.200    90825805.762 6      3960.054          40.812    22180594.620    90825831.737 7      3960.054          45.312
G04  20905553.660   109859433.401 7      1390.523          47.062    20905552.880   109859433.406 6      1390.523          37.562    20905557.840    85604769.521 6      1083.524          37.312    20905558.200    85604766.520 8      1083.524          50.750
G17  20666120.300   108601181.230 8      2001.867          48.687    20666119.720   108601181.227 7      2001.867          47.125    20666123.500    84624321.875 7      1559.896          46.875    20666123.960    84624327.884 8      1559.896          49.375
R04  20736544.280   111043258.375 7      -330.428          47.625    20736544.980   111043258.425 7      -330.428          46.875    20736555.300    86367021.487 8      -257.000          48.625    20736555.340    86367021.487 8      -257.000          49.562
G19  20586841.880   108184574.357 7      3615.441          42.000    20586837.480   108184574.359 4      3615.441          26.375    20586838.140    84299669.765 4      2817.227          26.625
R05  19330529.640   103332699.020 7      2976.205          44.250    19330528.420   103332699.024 7      2976.205          43.500    19330538.820    80369960.617 8      2314.826          49.312    19330538.900    80369961.607 8      2314.826          49.187
G03  22618203.320   118859449.284 7       449.439          42.125    22618203.640   118859449.291 5       449.439          32.875    22618212.700    92617783.132 5       350.212          33.250    22618213.500    92617793.148 6       350.212          37.375
> 2024 07 31 12 51 31.0000000  0  8
G09  20276284.840   106552598.601 8      3794.817          49.250    20276284.060   106552598.609 8      3794.817          50.750    20276290.480    83028029.752 8      2957.000          51.062    20276290.760    83028025.754 8      2957.000          51.062
G06  22179619.800   116554683.781 7      5081.691          43.312    22179618.940   116554683.783 6      5081.691          40.937    22179626.180    90821845.876 6      3959.759          40.937    22179627.700    90821871.848 7      3959.759          45.187
G04  20905288.940   109858043.300 7      1389.652          46.812    20905288.400   109858043.308 6      1389.652          37.625    20905293.180    85603686.324 6      1082.846          37.500    20905293.660    85603683.330 8      1082.846          50.312
G17  20665739.440   108599179.768 8      2001.102          48.437    20665738.840   108599179.771 7      2001.102          47.562    20665742.640    84622762.294 7      1559.300          47.500    20665743.080    84622768.304 8      1559.300          49.125
R04  20736605.780   111043589.051 8      -330.912          48.250    20736607.000   111043589.098 7      -330.912          47.062    20736617.040    86367278.676 8      -257.376          49.062    20736617.020    86367278.674 8      -257.376          49.687
G19  20586154.120   108180959.271 6      3614.605          41.250    20586149.720   108180959.268 4      3614.605          26.375    20586150.100    84296852.817 4      2816.575          26.812
R05  19329972.880   103329723.259 7      2975.270          44.250    19329971.560   103329723.263 7      2975.270          43.500    19329982.220    80367646.135 8      2314.099          49.187    19329982.060    80367647.127 8      2314.099          49.312
G03  22618117.700   118858999.936 6       449.256          41.250    22618117.900   118858999.944 5       449.256          33.375    22618127.320    92617432.987 5       350.070          33.437    22618128.200    92617443.011 6       350.070          37.375
> 2024 07 31 12 51 32.0000000  0  8
G09  20275562.620   106548804.137 8      3794.000          49.625    20275562.000   106548804.142 8      3794.000          50.562    20275568.420    83025073.029 8      2956.363          50.750    20275568.720    83025069.031 8      2956.363          51.437
G06  22178652.880   116549602.133 7      5081.485          43.437    22178651.900   116549602.127 6      5081.485          40.875    22178659.220    90817886.146 6      3959.598          40.937    22178660.820    90817912.118 7      3959.598          45.250
G04  20905024.560   109856653.882 7      1389.049          47.437    20905023.760   109856653.892 6      1389.049          36.812    20905028.760    85602603.658 6      1082.376          36.937    20905029.260    85602600.659 8      1082.376          50.250
G17  20665358.620   108597179.055 7      2000.224          47.812    20665358.300   108597179.058 7      2000.224          47.375    20665361.860    84621203.295 7      1558.616          47.437    20665362.460    84621209.305 8      1558.616          48.812
R04  20736667.900   111043920.151 7      -331.302          47.812    20736669.040   111043920.195 7      -331.302          46.875    20736678.740    86367536.187 8      -257.680          49.062    20736679.060    86367536.187 8      -257.680          49.625
G19  20585466.340   108177345.007 6      3613.730          41.625    20585462.100   108177345.004 4      3613.730          26.875    20585462.360    84294036.504 4      2815.893          26.812
R05  19329416.240   103326748.336 7      2974.481          44.250    19329415.160   103326748.329 7      2974.481          43.750    19329425.560    80365332.301 8      2313.485          49.437    19329425.600    80365333.293 8      2313.485          49.375
G03  22618032.300   118858550.762 6       448.914          41.500    22618032.480   118858550.764 5       448.914          33.375    22618042.040    92617082.975 5       349.803          33.437    22618043.060    92617092.989 6       349.803          37.375
> 2024 07 31 12 51 33.0000000  0  8
G09  20274840.720   106545010.382 8      3793.352          49.000    20274840.060   106545010.387 8      3793.352          51.312    20274846.580    83022116.857 8      2955.858          50.937    20274847.040    83022112.858 8      2955.858          51.250
G06  22177686.100   116544520.658 7      5081.255          43.250    22177684.780   116544520.657 6      5081.255          40.937    22177692.100    90813926.559 6      3959.419          40.750    22177693.560    90813952.535 7      3959.419          44.937
G04  20904760.340   109855265.141 7      1388.330          47.500    20904759.440   109855265.152 6      1388.330          37.062    20904764.520    85601521.523 6      1081.815          37.187    20904764.900    85601518.525 8      1081.815          50.187
G17  20664978.160   108595179.007 8      1999.693          49.187    20664977.660   108595179.007 7      1999.693          47.562    20664981.400    84619644.810 7      1558.202          46.937    20664981.840    84619650.817 8      1558.202          48.625
R04  20736729.880   111044251.654 8      -331.718          48.312    20736730.920   111044251.704 7      -331.718          47.062    20736740.740    86367794.025 8      -258.003          48.500    20736740.980    86367794.026 8      -258.003          49.375
G19  20584778.580   108173731.537 7      3612.918          42.000    20584774.420   108173731.534 4      3612.918          26.875    20584774.680    84291220.813 4      2815.261          26.812
R05  19328859.700   103323774.214 7      2973.741          43.812    19328858.600   103323774.212 7      2973.741          43.812    19328869.140    80363019.104 8      2312.909          49.187    19328869.260    80363020.094 8      2312.909          49.125
G03  22617946.880   118858101.627 6       448.951          41.500    22617947.000   118858101.637 5       448.951          33.062    22617956.640    92616732.993 5       349.832          33.437    22617957.460    92616743.010 6       349.832          38.125
> 2024 07 31 12 51 34.0000000  0  8
G09  20274118.860   106541217.358 8      3792.673          49.437    20274118.260   106541217.363 8      3792.673          50.687    20274124.820    83019161.255 8      2955.329          50.625    20274125.220    83019157.257 8      2955.329          51.375
G06  22176718.900   116539439.370 7      5081.183          42.812    22176717.860   116539439.372 6      5081.183          41.000    22176725.180    90809967.118 6      3959.364          40.750    22176726.820    90809993.092 7      3959.364          45.062
G04  20904496.280   109853877.068 7      1387.799          47.312    20904495.320   109853877.079 6      1387.799          37.750    20904500.380    85600439.907 6      1081.402          37.562    20904500.880    85600436.914 8      1081.402          50.250
G17  20664597.700   108593179.703 8      1998.875          49.375    20664597.240   108593179.705 7      1998.875          47.500    20664600.900    84618086.908 7      1557.565          47.750    20664601.440    84618092.922 8      1557.565          49.125
R04  20736791.880   111044583.646 8      -332.197          49.000    20736793.080   111044583.690 7      -332.197          47.000    20736802.780    86368052.232 8      -258.376          48.875    20736802.840    86368052.233 8      -258.376          49.187
G19  20584091.300   108170118.895 7      3612.189          42.062    20584087.100   108170118.892 4      3612.189          26.875    20584087.220    84288405.767 4      2814.692          26.812
R05  19328303.560   103320800.969 7      2972.764          43.812    19328302.380   103320800.978 7      2972.764          43.750    19328313.000    80360706.584 8      2312.150          49.500    19328312.740    80360707.580 8      2312.150          49.250
G03  22617861.120   118857652.634 6       449.019          41.187    22617861.380   118857652.645 5       449.019          33.062    22617871.420    92616383.127 5       349.885          32.937    22617872.020    92616393.135 6       349.885          38.125
> 2024 07 31 12 51 35.0000000  0  8
G09  20273397.340   106537425.046 8      3791.862          48.937    20273396.620   106537425.054 8      3791.862          49.562    20273403.160    83016206.211 8      2954.698          49.125    20273403.540    83016202.213 8      2954.698          51.062
G06  22175751.960   116534358.265 7      5081.006          42.937    22175751.000   116534358.268 6      5081.006          40.812    22175758.400    90806007.818 6      3959.226          40.625    22175759.920    90806033.796 7      3959.226          44.812
G04  20904232.260   109852489.671 7      1387.067          46.062    20904231.240   109852489.684 6      1387.067          37.312    20904236.440    85599358.820 6      1080.831          37.187    20904236.620    85599355.821 8      1080.831          48.937
G17  20664217.220   108591181.055 8      1998.256          48.125    20664216.920   108591181.057 7      1998.256          47.000    20664220.700    84616529.521 7      1557.083          46.875    20664221.180    84616535.534 8      1557.083          48.187
R04  20736854.120   111044916.044 8      -332.639          48.312    20736855.260   111044916.088 7      -332.639          47.000    20736864.640    86368310.764 7      -258.719          47.375    20736864.940    86368310.762 7      -258.719          47.625
G19  20583404.060   108166507.017 6      3611.471          41.750    20583399.840   108166507.011 4      3611.471          26.875    20583399.820    84285591.314 4      2814.133          26.812
R05  19327747.600   103317828.525 7      2972.031          44.125    19327746.100   103317828.524 7      2972.031          43.750    19327756.940    80358394.683 8      2311.580          49.062    19327756.820    80358395.678 8      2311.580          48.625
G03  22617775.740   118857203.770 6       448.796          40.312    22617775.900   118857203.786 5       448.796          33.062    22617785.780    92616033.358 5       349.711          32.937    22617786.920    92616043.379 6       349.711          38.125
> 2024 07 31 12 51 36.0000000  0  8
G09  20272675.860   106533633.496 8      3791.173          49.500    20272675.180   106533633.506 8      3791.173          50.312    20272681.680    83013251.761 8      2954.161          50.625    20272681.900    83013247.764 8      2954.161          51.500
G06  22174784.700   116529277.424 7      5080.716          42.750    22174784.180   116529277.423 6      5080.716          41.187    22174791.480    90802048.721 6      3958.999          41.000    22174792.860    90802074.699 7      3958.999          44.750
G04  20903968.620   109851103.017 7      1386.305          46.500    20903967.380   109851103.029 6      1386.305          37.562    20903972.500    85598278.309 6      1080.238          37.125    20903972.940    85598275.309 8      1080.238          50.437
G17  20663837.220   108589183.185 8      1997.555          48.750    20663836.800   108589183.182 7      1997.555          47.562    20663840.280    84614972.735 7      1556.536          47.437    20663840.860    84614978.746 8      1556.536          48.812
R04  20736915.920   111045248.967 8      -333.144          48.500    20736917.200   111045249.011 7      -333.144          47.000    20736926.980    86368569.700 8      -259.112          48.812    20736926.880    86368569.696 8      -259.112          48.750
G19  20582716.680   108162896.019 7      3610.595          42.250    20582712.760   108162896.014 4      3610.595          26.875    20582712.520    84282777.552 4      2813.451          26.750
R05  19327191.760   103314856.988 7      2971.104          44.125    19327190.000   103314856.992 7      2971.104          43.875    19327201.020    80356083.494 8      2310.858          49.312    19327200.880    80356084.488 8      2310.858          48.562
G03  22617690.660   118856755.077 6       448.630          40.750    22617690.720   118856755.087 5       448.630          32.562    22617700.260    92615683.723 5       349.582          32.937    22617701.680    92615693.721 6       349.582          38.062
> 2024 07 31 12 51 37.0000000  0  8
G09  20271954.460   106529842.621 8      3790.574          49.312    20271953.700   106529842.629 8      3790.574          50.625    20271960.340    83010297.828 8      2953.694          51.000    20271960.580    83010293.832 8      2953.694          51.312
G06  22173818.140   116524196.711 7      5080.571          42.875    22173817.420   116524196.711 6      5080.571          41.000    22173824.660    90798089.726 6      3958.886          41.000    22173826.280    90798115.706 7      3958.886          45.312
G04  20903704.920   109849716.977 7      1385.737          46.812    20903703.460   109849716.988 6      1385.737          37.625    20903708.860    85597198.276 6      1079.795          37.687    20903709.080    85597195.277 8      1079.795          50.312
G17  20663457.200   108587185.993 8      1996.914          48.687    20663456.720   108587185.993 8      1996.914          48.000    20663460.360    84613416.473 7      1556.037          47.812    20663460.560    84613422.491 8      1556.037          49.000
R04  20736978.140   111045582.259 8      -333.492          48.312    20736979.520   111045582.309 7      -333.492          47.312    20736988.980    86368828.930 8      -259.383          48.437    20736988.940    86368828.926 8      -259.383          48.812
G19  20582029.840   108159285.786 7      3609.918          42.062    20582025.760   108159285.783 4      3609.918          26.625    20582025.680    84279964.386 4      2812.923          26.750
R05  19326636.280   103311886.239 7      2970.317          43.625    19326634.520   103311886.241 7      2970.317          43.687    19326645.180    80353772.910 8      2310.247          49.500    19326645.300    80353773.904 8      2310.247          49.250
G03  22617605.040   118856306.439 6       448.527          40.875    22617605.340   118856306.446 5       448.527          32.562    22617614.760    92615334.129 5       349.501          31.875    22617615.540    92615344.133 6       349.501          38.062
> 2024 07 31 12 51 38.0000000  0  8
G09  20271233.220   106526052.503 8      3789.866          49.000    20271232.460   106526052.508 8      3789.866          50.875    20271239.080    83007344.491 8      2953.142          50.437    20271239.180    83007340.491 8      2953.142          51.875
G06  22172851.540   116519116.221 7      5080.379          43.750    22172850.660   116519116.221 6      5080.379          41.500    22172857.980    90794130.903 6      3958.737          41.187    22172859.300    90794156.881 7      3958.737          44.937
G04  20903441.320   109848331.632 7      1385.096          47.125    20903439.860   109848331.645 6      1385.096          37.125    20903445.220    85596118.786 6      1079.295          37.562    20903445.620    85596115.789 8      1079.295          50.250
G17  20663077.300   108585189.529 8      1996.183          49.187    20663076.620   108585189.531 7      1996.183          47.812    20663080.360    84611860.787 7      1555.468          47.562    20663080.720    84611866.798 8      1555.468          48.937
R04  20737040.380   111045915.985 8      -333.866          48.250    20737041.800   111045916.030 7      -333.866          46.937    20737051.340    86369088.486 8      -259.674          48.437    20737051.260    86369088.480 8      -259.674          48.500
G19  20581342.980   108155676.383 7      3609.035          42.312    20581338.840   108155676.378 4      3609.035          26.625    20581338.700    84277151.860 4      2812.235          26.750
R05  19326080.740   103308916.346 7      2969.522          43.875    19326078.840   103308916.334 7      2969.522          43.562    19326089.700    80351462.986 8      2309.628          49.375    19326089.760    80351463.982 8      2309.628          49.437
G03  22617519.660   118855857.927 6       448.510          40.562    22617519.940   118855857.940 5       448.510          31.375    22617529.540    92614984.635 5       349.489          31.875    22617530.060    92614994.649 6       349.489          38.062
> 2024 07 31 12 51 39.0000000  0  8
G09  20270512.120   106522263.010 8      3789.016          48.937    20270511.280   106522263.018 8      3789.016          51.250    20270518.000    83004391.640 8      2952.480          50.500    20270518.080    83004387.643 8      2952.480          51.187
G06  22171884.880   116514035.800 7      5080.305          43.250    22171883.760   116514035.803 6      5080.305          41.250    22171891.220    90790172.131 6      3958.679          41.000    22171892.400    90790198.117 7      3958.679          45.000
G04  20903177.760   109846946.872 7      1384.363          46.812    20903176.320   109846946.888 6      1384.363          37.437    20903181.640    85595039.752 6      1078.725          37.062    20903182.080    85595036.749 8      1078.725          50.250
G17  20662697.340   108583193.661 8      1995.428          48.812    20662696.940   108583193.661 7      1995.428          47.625    20662700.480    84610305.559 7      1554.879          47.937    20662701.060    84610311.575 8      1554.879          48.812
R04  20737102.800   111046250.014 8      -334.357          48.125    20737104.360   111046250.061 7      -334.357          46.937    20737113.740    86369348.280 8      -260.055          48.250    20737113.500    86369348.270 8      -260.055          49.062
G19  20580656.480   108152067.667 7      3608.238          42.125    20580652.300   108152067.661 4      3608.238          26.625    20580652.120    84274339.871 4      2811.614          26.750
R05  19325524.840   103305947.161 7      2968.661          43.875    19325523.380   103305947.154 7      2968.661          43.750    19325534.220    80349153.624 8      2308.958          49.312    19325534.060    80349154.620 8      2308.958          48.875
G03  22617434.320   118855409.444 6       448.424          40.250    22617434.700   118855409.456 5       448.424          31.375    22617444.140    92614635.168 5       349.421          31.875    22617445.440    92614645.180 6       349.421          38.062
> 2024 07 31 12 51 40.0000000  0  8
G09  20269791.100   106518474.164 8      3788.446          48.750    20269790.220   106518474.174 8      3788.446          50.937    20269797.000    83001439.294 8      2952.036          51.437    20269797.140    83001435.291 8      2952.036          51.375
G06  22170918.000   116508955.526 7      5080.172          43.750    22170917.160   116508955.531 6      5080.172          40.937    22170924.600    90786213.478 6      3958.575          40.750    22170925.120    90786239.464 7      3958.575          45.000
G04  20902914.540   109845562.730 7      1383.707          47.000    20902912.860   109845562.743 6      1383.707          37.437    20902918.280    85593961.196 6      1078.213          37.312    20902918.720    85593958.197 8      1078.213          49.875
G17  20662317.680   108581198.427 8      1994.827          48.562    20662317.320   108581198.429 7      1994.827          47.687    20662320.900    84608750.829 7      1554.411          47.687    20662321.300    84608756.844 8      1554.411          48.875
R04  20737165.480   111046584.396 7      -334.648          47.562    20737166.460   111046584.438 7      -334.648          46.687    20737176.440    86369608.342 8      -260.282          48.750    20737176.000    86369608.334 8      -260.282          48.687
G19  20579969.260   108148459.706 7      3607.486          42.312    20579965.740   108148459.706 4      3607.486          26.625    20579965.620    84271528.473 4      2811.028          26.750
R05  19324969.260   103302978.756 7      2967.835          43.937    19324968.180   103302978.749 7      2967.835          43.750    19324978.980    80346844.865 8      2308.316          49.125    19324979.060    80346845.865 8      2308.316          49.437
G03  22617348.780   118854961.029 6       448.267          40.250    22617349.480   118854961.047 5       448.267          31.375    22617358.640    92614285.747 5       349.299          31.875    22617359.700    92614295.761 6       349.299          37.687
> 2024 07 31 12 51 41.0000000  0  8
G09  20269070.240   106514686.016 8      3787.972          49.562    20269069.460   106514686.024 8      3787.972          50.687    20269076.040    82998487.491 8      2951.667          50.875    20269076.340    82998483.490 8      2951.667          51.625
G06  22169951.460   116503875.434 7      5080.113          44.687    22169950.580   116503875.436 6      5080.113          41.312    22169957.720    90782254.968 6      3958.530          41.125    22169958.660    90782280.952 7      3958.530          44.812
G04  20902651.060   109844179.221 7      1383.257          46.437    20902649.420   109844179.231 6      1383.257          37.312    20902655.160    85592883.133 6      1077.862          37.250    20902655.380    85592880.138 8      1077.862          50.312
G17  20661937.920   108579203.876 8      1994.263          48.687    20661937.760   108579203.880 7      1994.263          47.562    20661941.200    84607196.633 7      1553.971          47.750    20661941.800    84607202.646 8      1553.971          48.937
R04  20737228.120   111046919.198 7      -334.915          47.937    20737229.100   111046919.243 7      -334.915          47.000    20737238.640    86369868.748 8      -260.489          48.750    20737238.620    86369868.734 8      -260.489          48.812
G19  20579283.100   108144852.513 7      3606.967          42.562    20579279.200   108144852.510 4      3606.967          27.312    20579279.120    84268717.677 4      2810.624          27.437
R05  19324414.160   103300011.118 7      2967.377          44.000    19324413.240   103300011.111 7      2967.377          43.812    19324423.580    80344536.706 8      2307.960          49.375    19324423.840    80344537.707 8      2307.960          49.312
G03  22617263.540   118854512.693 6       448.350          40.250    22617264.180   118854512.711 5       448.350          31.312    22617273.200    92613936.390 5       349.363          31.875    22617274.700    92613946.405 6       349.363          37.687
> 2024 07 31 12 51 42.0000000  0  8
G09  20268349.580   106510898.491 8      3787.374          49.687    20268348.740   106510898.499 8      3787.374          50.937    20268355.300    82995536.177 8      2951.200          51.187    20268355.840    82995532.176 8      2951.200          51.187
G06  22168984.940   116498795.428 7      5079.995          44.062    22168983.900   116498795.435 6      5079.995          41.500    22168991.040    90778296.526 6      3958.438          41.250    22168992.260    90778322.514 7      3958.438          44.625
G04  20902387.920   109842796.295 7      1382.740          46.375    20902386.340   109842796.311 6      1382.740          37.437    20902391.820    85591805.528 6      1077.460          37.250    20902392.340    85591802.535 8      1077.460          49.937
G17  20661558.580   108577209.936 8      1993.680          48.937    20661558.300   108577209.939 7      1993.680          47.437    20661561.820    84605642.910 7      1553.517          47.875    20661562.240    84605648.928 8      1553.517          48.500
R04  20737290.620   111047254.354 7      -335.130          47.750    20737291.460   111047254.396 7      -335.130          46.875    20737301.460    86370129.419 8      -260.657          48.000    20737301.140    86370129.407 8      -260.657          49.187
G19  20578596.980   108141246.048 7      3606.215          43.062    20578592.960   108141246.048 4      3606.215          27.312    20578592.780    84265907.445 4      2810.038          27.437
R05  19323859.260   103297044.237 7      2966.630          44.312    19323858.620   103297044.230 7      2966.630          43.812    19323868.540    80342229.132 8      2307.379          49.562    19323868.740    80342230.137 8      2307.379          49.125
G03  22617178.240   118854064.360 6       448.430          40.125    22617178.720   118854064.380 5       448.430          31.312    22617187.980    92613587.038 5       349.426          31.875    22617189.480    92613597.058 6       349.426          37.687
> 2024 07 31 12 51 43.0000000  0  8
G09  20267629.020   106507111.734 8      3786.381          49.812    20267627.940   106507111.739 8      3786.381          50.125    20267634.680    82992585.454 8      2950.427          50.687    20267635.180    82992581.454 8      2950.427          51.625
G06  22168018.200   116493715.642 7      5079.644          43.750    22168017.080   116493715.642 6      5079.644          41.312    22168024.420    90774338.250 6      3958.164          41.250    22168025.160    90774364.232 7      3958.164          44.125
G04  20902124.940   109841414.082 7      1381.810          46.437    20902123.280   109841414.092 6      1381.810          37.500    20902128.740    85590728.481 6      1076.735          37.187    20902129.320    85590725.484 8      1076.735          49.625
G17  20661179.180   108575216.715 8      1992.854          48.562    20661179.080   108575216.714 8      1992.854          48.062    20661182.560    84604089.742 8      1552.873          48.000    20661182.660    84604095.758 8      1552.873          48.687
R04  20737353.300   111047590.003 8      -335.880          48.250    20737354.500   111047590.042 7      -335.880          47.375    20737364.100    86370390.473 8      -261.240          48.562    20737363.720    86370390.458 8      -261.240          49.000
G19  20577910.980   108137640.403 7      3605.215          42.437    20577906.780   108137640.402 4      3605.215          27.312    20577906.780    84263097.847 4      2809.258          27.437
R05  19323304.640   103294078.219 7      2965.631          44.812    19323304.020   103294078.209 7      2965.631          43.937    19323313.740    80339922.229 8      2306.602          49.250    19323313.940    80339923.232 8      2306.602          49.312
G03  22617093.000   118853616.197 6       448.205          39.750    22617093.540   118853616.207 5       448.205          31.312    22617102.660    92613237.814 5       349.251          30.750    22617104.600    92613247.826 6       349.251          37.687
> 2024 07 31 12 51 44.0000000  0  8
G09  20266908.500   106503325.675 8      3785.869          49.750    20266907.500   106503325.688 8      3785.869          50.687    20266914.180    82989635.285 8      2950.028          50.812    20266914.840    82989631.287 8      2950.028          51.375
G06  22167051.520   116488636.020 7      5079.746          43.687    22167050.500   116488636.022 6      5079.746          41.375    22167057.640    90770380.107 6      3958.244          41.125    22167058.180    90770406.093 7      3958.244          44.562
G04  20901861.840   109840032.536 7      1381.321          46.437    20901860.340   109840032.551 6      1381.321          37.562    20901865.940    85589651.956 6      1076.354          37.687    20901866.040    85589648.956 8      1076.354          49.375
G17  20660800.020   108573224.186 8      1992.353          48.687    20660799.760   108573224.189 7      1992.353          47.500    20660803.360    84602537.123 7      1552.483          47.875    20660803.660    84602543.138 8      1552.483          49.312
R04  20737416.320   111047926.064 8      -336.127          48.687    20737417.520   111047926.108 7      -336.127          47.000    20737427.260    86370651.849 8      -261.432          48.437    20737426.660    86370651.837 8      -261.432          49.000
G19  20577224.620   108134035.564 7      3604.556          43.500    20577220.760   108134035.566 4      3604.556          27.312    20577220.920    84260288.882 4      2808.745          27.437
R05  19322749.840   103291113.046 7      2964.951          44.625    19322749.520   103291113.033 7      2964.951          44.062    19322758.860    80337615.981 8      2306.073          49.062    19322759.140    80337616.984 8      2306.073          49.062
G03  22617007.680   118853168.134 6       448.278          39.625    22617008.360   118853168.147 5       448.278          30.187    22617017.480    92612888.670 5       349.307          30.750    22617018.780    92612898.703 6       349.307          37.687
> 2024 07 31 12 51 45.0000000  0  8
G09  20266188.180   106499540.345 8      3785.054          49.062    20266187.120   106499540.355 8      3785.054          50.812    20266193.740    82986685.677 8      2949.393          50.937    20266194.400    82986681.678 8      2949.393          51.250
G06  22166084.860   116483556.605 7      5079.480          43.375    22166083.760   116483556.610 6      5079.480          41.375    22166090.940    90766422.125 6      3958.036          41.375    22166091.460    90766448.115 7      3958.036          44.000
G04  20901598.880   109838651.659 7      1380.593          46.312    20901597.480   109838651.675 6      1380.593          37.375    20901603.120    85588575.950 6      1075.787          37.062    20901603.300    85588572.951 8      1075.787          49.875
G17  20660421.100   108571232.370 8      1991.507          49.250    20660420.780   108571232.375 7      1991.507          47.875    20660424.340    84600985.060 7      1551.824          47.625    20660424.660    84600991.074 8      1551.824          49.125
R04  20737479.000   111048262.518 8      -336.604          48.312    20737480.380   111048262.563 7      -336.604          47.500    20737489.920    86370913.536 8      -261.803          48.812    20737489.620    86370913.524 8      -261.803          49.625
G19  20576538.840   108130431.527 7      3603.749          44.125    20576534.920   108130431.532 4      3603.749          27.312    20576535.060    84257480.541 4      2808.116          27.437
R05  19322195.180   103288148.706 7      2964.057          44.812    19322195.420   103288148.694 7      2964.057          43.687    19322204.140    80335310.384 8      2305.378          49.187    19322204.660    80335311.390 8      2305.378          48.750
G03  22616922.680   118852720.198 6       448.006          39.062    22616923.180   118852720.203 5       448.006          30.187    22616932.220    92612539.622 5       349.095          30.750    22616933.200    92612549.653 6       349.095          36.687
> 2024 07 31 12 51 46.0000000  0  8
G09  20265468.000   106495755.742 8      3783.955          49.125    20265467.000   106495755.749 8      3783.955          50.687    20265473.600    82983736.635 8      2948.536          51.125    20265474.220    82983732.635 8      2948.536          51.000
G06  22165118.440   116478477.398 7      5078.857          44.750    22165117.360   116478477.403 6      5078.857          41.437    22165124.500    90762464.301 6      3957.551          41.625    22165125.020    90762490.290 7      3957.551          43.937
G04  20901336.360   109837271.459 7      1379.594          44.875    20901335.100   109837271.471 6      1379.594          37.750    20901340.460    85587500.467 6      1075.008          37.375    20901340.800    85587497.466 8      1075.008          49.812
G17  20660042.340   108569241.235 8      1990.584          49.187    20660041.820   108569241.237 8      1990.584          48.125    20660045.400    84599433.520 7      1551.104          47.812    20660045.780    84599439.529 8      1551.104          49.437
R04  20737541.900   111048599.385 8      -337.322          48.062    20737543.280   111048599.427 7      -337.322          46.562    20737552.760    86371175.535 8      -262.362          48.562    20737552.520    86371175.523 8      -262.362          49.625
G19  20575853.140   108126828.301 7      3602.647          43.437    20575849.220   108126828.309 4      3602.647          27.250    20575849.380    84254672.833 4      2807.258          27.375
R05  19321640.620   103285185.187 7      2962.856          44.375    19321641.140   103285185.186 7      2962.856          44.875    19321649.800    80333005.433 8      2304.443          48.812    19321650.180    80333006.440 8      2304.443          48.250
G03  22616837.660   118852272.345 6       447.555          39.625    22616837.860   118852272.355 5       447.555          30.187    22616846.840    92612190.644 5       348.744          30.125    22616848.000    92612200.675 6       348.744          36.687
> 2024 07 31 12 51 47.0000000  0  8
G09  20264747.900   106491972.127 8      3783.146          49.500    20264747.020   106491972.137 8      3783.146          50.250    20264753.560    82980788.366 8      2947.906          49.500    20264754.120    82980784.366 8      2947.906          50.375
G06  22164152.020   116473398.656 7      5078.548          44.875    22164150.960   116473398.653 6      5078.548          41.437    22164158.020    90758506.838 6      3957.310          41.687    22164158.480    90758532.824 7      3957.310          44.062
G04  20901074.100   109835892.219 7      1378.712          46.187    20901072.640   109835892.235 6      1378.712          37.500    20901077.960    85586425.733 6      1074.321          37.250    20901078.240    85586422.734 8      1074.321          49.750
G17  20659663.440   108567251.113 8      1989.645          49.250    20659663.080   108567251.113 7      1989.645          47.812    20659666.620    84597882.772 7      1550.373          47.875    20659667.200    84597888.781 8      1550.373          48.375
R04  20737605.020   111048937.023 7      -338.081          47.562    20737606.140   111048937.062 7      -338.081          47.125    20737615.980    86371438.134 8      -262.952          48.250    20737615.480    86371438.126 8      -262.952          48.812
G19  20575167.620   108123226.169 7      3601.650          44.125    20575163.740   108123226.171 4      3601.650          27.250    20575163.960    84251865.974 4      2806.480          27.375
R05  19321086.500   103282222.818 7      2961.756          45.062    19321087.200   103282222.813 7      2961.756          44.125    19321095.620    80330701.366 8      2303.588          48.187    19321095.980    80330702.370 8      2303.588          48.000
G03  22616752.580   118851824.918 6       447.256          40.500    22616752.620   118851824.931 5       447.256          30.187    22616761.700    92611841.994 5       348.511          30.125    22616762.600    92611852.033 6       348.511          36.687
> 2024 07 31 12 51 48.0000000  0  8
G09  20264028.280   106488189.266 8      3782.734          48.875    20264027.200   106488189.273 8      3782.734          50.375    20264033.660    82977840.682 8      2947.585          50.625    20264034.200    82977836.680 8      2947.585          51.062
G06  22163185.540   116468320.124 7      5078.644          44.875    22163184.540   116468320.126 6      5078.644          41.812    22163191.600    90754549.544 7      3957.385          42.125    22163192.320    90754575.533 7      3957.385          44.250
G04  20900811.780   109834513.663 7      1378.431          46.375    20900810.240   109834513.679 6      1378.431          38.125    20900815.640    85585351.529 6      1074.102          37.750    20900816.100    85585348.532 8      1074.102          49.625
G17  20659284.660   108565261.702 8      1989.262          48.625    20659284.480   108565261.701 7      1989.262          47.937    20659288.100    84596332.577 7      1550.074          47.437    20659288.760    84596338.586 8      1550.074          49.375
R04  20737667.900   111049275.086 7      -338.058          47.875    20737669.060   111049275.126 7      -338.058          46.687    20737679.160    86371701.071 8      -262.934          48.250    20737678.700    86371701.060 8      -262.934          49.250
G19  20574482.380   108119624.856 7      3601.067          43.500    20574478.500   108119624.856 4      3601.067          27.250    20574478.660    84249059.755 4      2806.026          27.375
R05  19320532.480   103279261.269 7      2961.326          44.937    19320533.120   103279261.264 7      2961.326          44.000    19320541.500    80328397.938 8      2303.254          49.125    19320542.020    80328398.941 8      2303.254          48.500
G03  22616667.360   118851377.633 6       447.437          40.187    22616667.460   118851377.643 4       447.437          29.812    22616676.600    92611493.452 5       348.653          30.125    22616678.000    92611503.476 6       348.653          36.687
> 2024 07 31 12 51 49.0000000  0  8
G09  20263308.560   106484407.027 8      3781.872          49.562    20263307.460   106484407.035 8      3781.872          50.625    20263314.000    82974893.486 8      2946.913          50.437    20263314.500    82974889.485 8      2946.913          51.312
G06  22162218.920   116463241.678 7      5078.384          45.250    22162218.140   116463241.678 6      5078.384          41.625    22162225.220    90750592.312 6      3957.182          41.875    22162225.620    90750618.307 7      3957.182          44.312
G04  20900549.560   109833135.698 7      1377.570          45.937    20900547.900   109833135.711 6      1377.570          37.437    20900553.480    85584277.790 6      1073.431          37.500    20900553.760    85584274.793 8      1073.431          50.187
G17  20658906.480   108563272.881 8      1988.510          48.875    20658905.960   108563272.880 7      1988.510          47.562    20658909.680    84594782.842 7      1549.488          47.437    20658910.400    84594788.852 8      1549.488          49.500
R04  20737731.400   111049613.487 8      -338.590          48.000    20737732.700   111049613.519 7      -338.590          46.500    20737742.240    86371964.263 8      -263.347          48.437    20737741.940    86371964.255 8      -263.347          49.687
G19  20573796.940   108116024.227 7      3600.233          43.312    20573793.360   108116024.229 4      3600.233          27.250    20573793.500    84246254.071 4      2805.376          27.375
R05  19319978.840   103276300.446 7      2960.356          45.562    19319979.540   103276300.442 7      2960.356          44.500    19319987.740    80326095.081 8      2302.499          49.312    19319988.140    80326096.081 8      2302.499          48.937
G03  22616581.640   118850930.362 6       447.063          39.812    22616582.280   118850930.377 4       447.063          29.812    22616591.420    92611144.931 5       348.361          30.125    22616592.400    92611154.975 6       348.361          36.687
> 2024 07 31 12 51 50.0000000  0  8
G09  20262588.800   106480625.399 8      3781.356          49.687    20262587.880   106480625.406 8      3781.356          50.500    20262594.280    82971946.760 8      2946.511          51.250    20262594.900    82971942.762 8      2946.511          50.812
G06  22161252.780   116458163.309 7      5078.439          43.812    22161251.760   116458163.314 6      5078.439          41.750    22161258.800    90746635.144 6      3957.225          41.875    22161259.320    90746661.142 7      3957.225          44.187
G04  20900287.400   109831758.298 7      1377.114          46.187    20900285.880   109831758.306 6      1377.114          37.687    20900291.400    85583204.486 6      1073.076          37.312    20900291.640    85583201.486 8      1073.076          50.000
G17  20658528.360   108561284.678 8      1987.949          48.812    20658527.520   108561284.677 7      1987.949          47.562    20658531.360    84593233.587 7      1549.051          47.500    20658532.140    84593239.596 8      1549.051          49.250
R04  20737794.660   111049952.170 7      -338.854          47.625    20737796.040   111049952.209 7      -338.854          47.375    20737805.400    86372227.687 8      -263.553          48.437    20737805.280    86372227.676 8      -263.553          49.500
G19  20573112.540   108112424.328 7      3599.529          43.562    20573108.180   108112424.330 4      3599.529          27.000    20573108.500    84243448.955 4      2804.828          27.375
R05  19319424.800   103273340.343 7      2959.790          45.437    19319426.300   103273340.342 7      2959.790          44.750    19319433.980    80323792.774 8      2302.059          49.437    19319434.380    80323793.773 8      2302.059          48.937
G03  22616496.440   118850483.058 6       447.511          39.937    22616497.160   118850483.071 4       447.511          29.812    22616506.200    92610796.374 5       348.710          30.125    22616506.900    92610806.405 6       348.710          36.250
> 2024 07 31 12 51 51.0000000  0  8
G09  20261869.240   106476844.480 8      3780.487          49.500    20261868.420   106476844.490 8      3780.487          50.437    20261874.780    82969000.593 8      2945.834          51.125    20261875.200    82968996.591 8      2945.834          51.125
G06  22160286.420   116453085.169 7      5077.866          43.375    22160285.380   116453085.169 6      5077.866          41.937    22160292.520    90742678.153 6      3956.778          41.875    22160292.320    90742704.149 7      3956.778          44.125
G04  20900025.300   109830381.561 7      1376.316          46.250    20900023.980   109830381.565 6      1376.316          37.875    20900029.540    85582131.699 6      1072.454          37.250    20900029.540    85582128.704 8      1072.454          50.375
G17  20658150.140   108559297.160 8      1987.077          49.000    20658149.420   108559297.157 7      1987.077          47.812    20658153.200    84591684.870 7      1548.372          47.562    20658153.940    84591690.877 8      1548.372          49.312
R04  20737857.860   111050291.272 7      -339.398          47.750    20737859.720   111050291.317 7      -339.398          46.687    20737868.760    86372491.429 8      -263.977          48.062    20737868.460    86372491.421 8      -263.977          49.812
G19  20572427.480   108108825.215 7      3598.656          43.937    20572423.460   108108825.214 4      3598.656          27.000    20572423.640    84240644.451 4      2804.147          27.125
R05  19318871.480   103270381.080 7      2958.730          45.375    19318872.720   103270381.078 7      2958.730          45.062    19318880.340    80321491.127 8      2301.234          49.312    19318880.820    80321492.125 8      2301.234          48.937
G03  22616411.580   118850035.918 6       447.014          39.562    22616411.900   118850035.930 4       447.014          29.812    22616421.100    92610447.951 4       348.322          29.625    22616422.900    92610457.988 6       348.322          36.250
> 2024 07 31 12 51 52.0000000  0  8
G09  20261149.760   106473064.307 8      3779.662          49.750    20261149.020   106473064.317 8      3779.662          50.500    20261155.320    82966055.002 8      2945.191          50.875    20261155.880    82966051.003 8      2945.191          51.312
G06  22159319.880   116448007.202 7      5077.630          44.312    22159319.080   116448007.207 6      5077.630          41.437    22159326.100    90738721.296 6      3956.595          41.375    22159326.100    90738747.298 7      3956.595          44.500
G04  20899763.540   109829005.506 7      1375.571          45.562    20899762.080   109829005.516 6      1375.571          37.125    20899767.640    85581059.453 6      1071.873          37.000    20899768.060    85581056.453 8      1071.873          50.312
G17  20657772.140   108557310.355 8      1986.327          48.937    20657771.200   108557310.354 8      1986.327          48.125    20657775.240    84590136.704 7      1547.787          47.750    20657775.860    84590142.711 8      1547.787          49.875
R04  20737921.080   111050630.873 8      -339.944          48.312    20737923.120   111050630.920 7      -339.944          46.500    20737932.120    86372755.563 8      -264.401          48.062    20737931.820    86372755.556 8      -264.401          49.500
G19  20571742.800   108105226.921 7      3597.717          43.625    20571738.760   108105226.921 4      3597.717          27.000    20571739.000    84237840.584 4      2803.416          27.125
R05  19318317.680   103267422.644 7      2957.912          45.250    19318319.300   103267422.643 7      2957.912          44.562    19318326.820    80319190.115 8      2300.598          49.625    19318327.120    80319191.116 8      2300.598          48.937
G03  22616327.000   118849588.895 6       446.742          39.562    22616326.800   118849588.911 4       446.742          29.312    22616336.080    92610099.614 4       348.110          29.625    22616337.620    92610109.647 6       348.110          36.250
> 2024 07 31 12 51 53.0000000  0  8
G09  20260430.660   106469284.980 8      3779.043          49.125    20260429.820   106469284.990 8      3779.043          51.125    20260436.080    82963110.076 8      2944.709          50.750    20260436.520    82963106.080 8      2944.709          50.812
G06  22158353.900   116442929.569 7      5077.530          44.375    22158352.660   116442929.568 6      5077.530          41.687    22158359.840    90734764.696 6      3956.517          41.687    22158360.120    90734790.703 7      3956.517          44.125
G04  20899501.720   109827630.263 7      1375.021          46.125    20899500.280   109827630.271 6      1375.021          37.125    20899506.000    85579987.833 6      1071.445          36.937    20899506.420    85579984.833 8      1071.445          50.375
G17  20657394.260   108555324.385 8      1985.706          48.625    20657393.360   108555324.387 8      1985.706          48.000    20657397.340    84588589.197 7      1547.303          47.500    20657398.020    84588595.200 8      1547.303          49.500
R04  20737984.700   111050971.068 8      -340.358          48.312    20737986.660   111050971.104 7      -340.358          46.937    20737995.500    86373020.150 7      -264.723          47.375    20737995.420    86373020.148 8      -264.723          48.750
G19  20571058.080   108101629.565 7      3597.084          43.375    20571054.280   108101629.565 4      3597.084          27.000    20571054.520    84235037.448 4      2802.922          27.125
R05  19317764.340   103264465.190 7      2957.113          45.500    19317766.200   103264465.194 7      2957.113          44.687    19317773.660    80316889.884 8      2299.976          49.250    19317773.880    80316890.882 8      2299.976          49.062
G03  22616241.900   118849142.097 6       446.757          40.062    22616241.700   118849142.109 4       446.757          29.312    22616251.160    92609751.455 4       348.122          29.625    22616252.780    92609761.498 6       348.122          36.250
> 2024 07 31 12 51 54.0000000  0  8
G09  20259711.800   106465506.396 8      3778.344          49.437    20259710.800   106465506.401 8      3778.344          50.562    20259717.080    82960165.721 8      2944.164          50.875    20259717.460    82960161.729 8      2944.164          50.937
G06  22157387.560   116437852.109 7      5077.519          44.125    22157386.360   116437852.113 6      5077.519          41.500    22157393.440    90730808.238 6      3956.508          41.375    22157393.920    90730834.249 7      3956.508          44.375
G04  20899240.280   109826255.706 7      1374.373          46.875    20899238.780   109826255.716 6      1374.373          37.562    20899244.440    85578916.749 6      1070.940          37.312    20899244.700    85578913.746 8      1070.940          50.375
G17  20657016.360   108553339.140 8      1985.027          48.562    20657015.640   108553339.140 7      1985.027          47.937    20657019.540    84587042.247 7      1546.774          47.937    20657020.120    84587048.254 8      1546.774          49.250
R04  20738048.360   111051311.669 8      -340.695          48.125    20738050.140   111051311.709 7      -340.695          46.250    20738058.760    86373285.059 7      -264.985          47.625    20738059.080    86373285.057 8      -264.985          49.000
G19  20570373.620   108098033.045 7      3596.188          43.250    20570369.940   108098033.042 4      3596.188          27.000    20570370.200    84232234.961 4      2802.225          27.125
R05  19317211.620   103261508.575 7      2956.322          45.375    19317213.060   103261508.579 7      2956.322          44.687    19317220.680    80314590.288 8      2299.361          49.125    19317220.820    80314591.288 8      2299.361          48.937
G03  22616156.420   118848695.442 6       446.701          39.187    22616156.520   118848695.458 4       446.701          29.312    22616166.100    92609403.404 4       348.078          29.625    22616168.760    92609413.423 6       348.078          36.250
> 2024 07 31 12 51 55.0000000  0  8
G09  20258992.740   106461728.349 8      3777.719          48.937    20258991.860   106461728.357 8      3777.719          50.875    20258998.020    82957221.794 8      2943.677          50.937    20258998.400    82957217.800 8      2943.677          51.000
G06  22156421.500   116432774.693 7      5077.431          44.125    22156420.080   116432774.698 6      5077.431          41.125    22156427.320    90726851.813 6      3956.440          41.187    22156427.600    90726877.815 7      3956.440          44.437
G04  20898978.900   109824881.651 7      1373.807          46.500    20898977.460   109824881.658 6      1373.807          37.500    20898983.040    85577846.053 6      1070.499          37.062    20898983.400    85577843.054 8      1070.499          50.187
G17  20656638.700   108551354.408 7      1984.485          47.625    20656637.840   108551354.407 7      1984.485          47.875    20656641.940    84585495.700 7      1546.352          47.750    20656642.340    84585501.703 8      1546.352          49.625
R04  20738112.020   111051652.488 8      -340.954          48.000    20738113.880   111051652.527 7      -340.954          46.375    20738122.500    86373550.140 7      -265.187          47.625    20738122.740    86373550.138 8      -265.187          48.937
G19  20569689.480   108094437.098 7      3595.699          43.062    20569685.540   108094437.095 4      3595.699          27.375    20569685.920    84229432.922 4      2801.843          27.125
R05  19316658.420   103258552.612 7      2955.560          45.812    19316660.000   103258552.621 7      2955.560          44.937    19316667.700    80312291.216 8      2298.769          49.375    19316668.100    80312292.214 8      2298.769          48.875
G03  22616071.680   118848248.725 6       446.680          39.625    22616071.740   118848248.732 4       446.680          29.312    22616080.860    92609055.307 4       348.062          28.812    22616083.400    92609065.311 6       348.062          36.375
> 2024 07 31 12 51 56.0000000  0  8
G09  20258273.800   106457950.985 8      3777.091          49.375    20258272.940   106457950.990 8      3777.091          50.687    20258279.120    82954278.392 8      2943.188          50.750    20258279.700    82954274.401 8      2943.188          50.687
G06  22155455.500   116427697.436 7      5077.245          43.562    22155453.840   116427697.443 6      5077.245          41.500    22155461.280    90722895.510 6      3956.295          41.437    22155461.560    90722921.521 7      3956.295          44.375
G04  20898717.460   109823508.237 7      1373.197          46.562    20898716.040   109823508.239 6      1373.197          37.375    20898721.620    85576775.860 6      1070.023          37.562    20898722.120    85576772.855 8      1070.023          50.250
G17  20656261.160   108549370.353 8      1983.811          48.250    20656260.260   108549370.353 8      1983.811          48.125    20656264.420    84583949.677 7      1545.827          47.875    20656264.920    84583955.681 8      1545.827          49.562
R04  20738175.380   111051993.690 8      -341.266          48.250    20738177.700   111051993.729 7      -341.266          47.000    20738185.720    86373815.515 7      -265.429          47.500    20738186.420    86373815.515 8      -265.429          48.562
G19  20569005.500   108090841.966 7      3594.870          42.750    20569001.300   108090841.965 4      3594.870          27.375    20569001.880    84226631.522 4      2801.197          27.375
R05  19316105.840   103255597.472 7      2954.810          45.750    19316106.920   103255597.481 7      2954.810          44.687    19316114.900    80309992.770 8      2298.185          49.312    19316115.000    80309993.768 8      2298.185          49.125
G03  22615986.760   118847802.081 6       446.589          39.687    22615986.700   118847802.088 4       446.589          28.437    22615995.760    92608707.262 4       347.991          28.812    22615997.240    92608717.278 6       347.991          36.375
> 2024 07 31 12 51 57.0000000  0  8
G09  20257555.020   106454174.207 8      3776.577          49.375    20257554.360   106454174.214 8      3776.577          50.625    20257560.380    82951335.452 8      2942.787          50.812    20257560.980    82951331.461 8      2942.787          50.437
G06  22154489.380   116422620.223 7      5077.271          43.750    22154487.720   116422620.230 6      5077.271          41.500    22154494.860    90718939.242 6      3956.315          41.250    22154495.140    90718965.249 7      3956.315          44.187
G04  20898456.200   109822135.351 7      1372.717          46.250    20898454.880   109822135.356 6      1372.717          37.750    20898460.440    85575706.077 6      1069.650          37.750    20898460.940    85575703.074 8      1069.650          50.750
G17  20655883.680   108547386.851 8      1983.335          48.625    20655882.840   108547386.853 8      1983.335          48.062    20655887.020    84582404.091 8      1545.456          48.187    20655887.600    84582410.094 8      1545.456          49.562
R04  20738239.000   111052335.189 8      -341.481          48.250    20738241.420   111052335.225 7      -341.481          46.375    20738249.720    86374081.121 7      -265.596          47.875    20738250.060    86374081.125 8      -265.596          48.375
G19  20568321.740   108087247.498 7      3594.231          43.375    20568317.300   108087247.503 4      3594.231          27.375    20568318.040    84223830.640 4      2800.699          27.375
R05  19315553.040   103252643.009 7      2954.240          46.500    19315554.160   103252643.018 7      2954.240          44.500    19315562.260    80307694.856 8      2297.742          49.000    19315562.660    80307695.854 8      2297.742          49.375
G03  22615901.680   118847355.406 6       446.790          40.000    22615901.720   118847355.413 4       446.790          28.437    22615910.660    92608359.197 4       348.148          28.812    22615912.340    92608369.214 6       348.148          36.375
> 2024 07 31 12 51 58.0000000  0  8
G09  20256836.520   106450398.104 8      3775.923          50.000    20256835.720   106450398.111 8      3775.923          50.437    20256841.720    82948393.036 8      2942.278          50.500    20256842.520    82948389.046 8      2942.278          50.375
G06  22153523.060   116417543.162 7      5077.069          44.187    22153521.520   116417543.172 6      5077.069          41.187    22153528.700    90714983.095 6      3956.158          41.500    22153528.900    90715009.108 7      3956.158          43.875
G04  20898195.080   109820763.090 7      1372.041          45.687    20898193.720   109820763.095 6      1372.041          37.375    20898199.440    85574636.785 6      1069.123          37.187    20898199.700    85574633.780 8      1069.123          50.437
G17  20655506.340   108545404.021 8      1982.593          48.625    20655505.620   108545404.020 7      1982.593          47.562    20655509.720    84580859.027 7      1544.877          47.437    20655510.300    84580865.028 8      1544.877          49.687
R04  20738302.740   111052677.092 7      -341.952          47.312    20738305.180   111052677.123 7      -341.952          46.062    20738313.460    86374347.041 7      -265.963          47.500    20738313.720    86374347.046 8      -265.963          48.312
G19  20567638.000   108083653.797 7      3593.395          43.312    20567633.420   108083653.799 4      3593.395          27.375    20567634.340    84221030.350 4      2800.048          27.375
R05  19315000.460   103249689.339 7      2953.347          45.625    19315001.380   103249689.348 7      2953.347          45.312    19315009.880    80305397.555 8      2297.047          49.062    19315009.960    80305398.558 8      2297.047          49.000
G03  22615816.440   118846908.814 6       446.666          39.500    22615816.780   118846908.819 4       446.666          28.437    22615825.600    92608011.196 4       348.051          28.812    22615826.980    92608021.212 6       348.051          36.375
> 2024 07 31 12 51 59.0000000  0  8
G09  20256118.040   106446622.742 8      3774.823          49.375    20256117.300   106446622.749 8      3774.823          49.937    20256123.280    82945451.195 8      2941.420          49.062    20256123.900    82945447.207 8      2941.420          49.062
G06  22152556.840   116412466.293 7      5076.634          43.812    22152555.120   116412466.304 6      5076.634          39.937    22152562.300    90711027.094 6      3955.819          39.937    22152562.840    90711053.098 7      3955.819          43.875
G04  20897934.200   109819391.508 7      1371.162          46.312    20897932.740   109819391.518 6      1371.162          38.062    20897938.420    85573568.017 6      1068.438          37.625    20897938.700    85573565.010 8      1068.438          50.000
G17  20655129.140   108543421.877 8      1981.701          48.562    20655128.360   108543421.879 7      1981.701          46.562    20655132.500    84579314.497 7      1544.183          46.625    20655133.340    84579320.500 8      1544.183          48.625
R04  20738367.020   111053019.407 7      -342.659          47.437    20738368.860   111053019.441 7      -342.659          45.937    20738377.260    86374613.283 7      -266.513          46.437    20738377.580    86374613.287 7      -266.513          47.937
G19  20566954.260   108080060.882 7      3592.394          43.812    20566949.700   108080060.882 4      3592.394          27.312    20566950.780    84218230.678 4      2799.268          27.375
R05  19314448.500   103246736.495 7      2952.372          45.312    19314448.680   103246736.494 7      2952.372          44.812    19314457.520    80303100.901 7      2296.289          47.875    19314457.760    80303101.903 7      2296.289          47.875
G03  22615732.120   118846462.349 6       446.264          39.312    22615731.980   118846462.359 4       446.264          28.437    22615740.620    92607663.293 4       347.738          28.812    22615741.520    92607673.299 6       347.738          36.375
> 2024 07 31 12 52  0.0000000  0  8
G09  20255399.700   106442848.113 8      3774.328          48.750    20255399.120   106442848.123 8      3774.328          50.562    20255404.920    82942509.926 8      2941.035          50.562    20255405.720    82942505.936 8      2941.035          50.312
G06  22151590.440   116407389.656 7      5076.581          44.500    22151588.960   116407389.658 6      5076.581          40.750    22151596.440    90707071.272 6      3955.777          40.625    22151596.500    90707097.279 7      3955.777          43.125
G04  20897673.300   109818020.637 7      1370.628          46.187    20897671.900   109818020.645 6      1370.628          37.250    20897677.400    85572499.804 6      1068.022          37.312    20897677.800    85572496.799 8      1068.022          50.625
G17  20654751.960   108541440.479 8      1981.121          48.062    20654751.420   108541440.478 7      1981.121          47.562    20654755.460    84577770.544 7      1543.731          47.500    20654756.220    84577776.547 8      1543.731          49.250
R04  20738430.980   111053362.191 7      -342.929          47.750    20738432.580   111053362.225 7      -342.929          46.125    20738441.100    86374879.892 7      -266.723          47.312    20738441.440    86374879.897 7      -266.723          47.562
G19  20566270.560   108076468.813 7      3591.788          44.062    20566266.080   108076468.815 4      3591.788          27.312    20566267.300    84215431.665 4      2798.796          27.437
R05  19313895.360   103243784.525 7      2951.548          45.312    19313896.320   103243784.537 7      2951.548          44.437    19313905.180    80300804.933 8      2295.648          49.500    19313905.560    80300805.935 8      2295.648          48.562
G03  22615646.800   118846016.007 6       446.299          39.687    22615647.060   118846016.020 4       446.299          28.437    22615655.680    92607315.488 4       347.765          27.875    22615657.220    92607325.498 6       347.765          36.125
> 2024 07 31 12 52  1.0000000  0  8
G09  20254681.660   106439074.256 8      3773.459          49.812    20254680.920   106439074.266 8      3773.459          50.250    20254686.700    82939569.263 8      2940.358          50.687    20254687.320    82939565.273 8      2940.358          50.250
G06  22150624.680   116402313.242 7      5076.339          43.500    22150622.980   116402313.249 6      5076.339          40.937    22150630.380    90703115.621 6      3955.589          40.437    22150630.620    90703141.631 7      3955.589          43.625
G04  20897412.720   109816650.463 7      1369.916          46.687    20897411.160   109816650.470 6      1369.916          37.812    20897416.660    85571432.140 6      1067.467          37.687    20897417.160    85571429.127 8      1067.467          50.312
G17  20654375.240   108539459.827 8      1980.196          48.250    20654374.400   108539459.826 7      1980.196          47.437    20654378.700    84576227.179 7      1543.010          47.375    20654379.280    84576233.178 8      1543.010          50.750
R04  20738495.000   111053705.436 7      -343.491          47.437    20738496.360   111053705.470 7      -343.491          46.062    20738505.180    86375146.862 7      -267.160          47.687    20738505.600    86375146.867 8      -267.160          48.000
G19  20565586.920   108072877.593 7      3590.836          44.000    20565582.680   108072877.595 4      3590.836          27.312    20565584.020    84212633.309 4      2798.054          27.437
R05  19313343.660   103240833.406 7      2950.708          45.250    19313344.560   103240833.412 7      2950.708          45.000    19313353.300    80298509.617 8      2294.995          49.375    19313353.420    80298510.618 8      2294.995          49.312
G03  22615561.520   118845569.836 6       446.116          39.500    22615561.960   118845569.847 4       446.116          28.437    22615570.880    92606967.812 4       347.623          27.875    22615571.680    92606977.812 6       347.623          36.125
> 2024 07 31 12 52  2.0000000  0  8
G09  20253963.620   106435301.086 8      3772.747          49.250    20253962.800   106435301.091 8      3772.747          50.500    20253968.600    82936629.128 8      2939.803          50.312    20253969.220    82936625.135 8      2939.803          50.500
G06  22149658.620   116397236.996 7      5076.175          43.062    22149657.000   116397237.006 6      5076.175          40.562    22149664.420    90699160.112 6      3955.461          40.687    22149664.880    90699186.121 7      3955.461          43.500
G04  20897152.000   109815280.953 7      1369.193          46.500    20897150.500   109815280.958 6      1369.193          38.000    20897156.100    85570364.988 6      1066.904          37.812    20897156.760    85570361.976 8      1066.904          50.687
G17  20653998.420   108537479.821 8      1979.610          48.625    20653997.680   108537479.818 7      1979.610          47.937    20654002.000    84574684.313 7      1542.553          47.625    20654002.520    84574690.313 8      1542.553          49.500
R04  20738559.200   111054049.050 7      -343.913          47.062    20738560.420   111054049.084 7      -343.913          46.312    20738569.440    86375414.116 7      -267.488          47.250    20738569.740    86375414.116 7      -267.488          47.562
G19  20564903.760   108069287.137 7      3590.030          43.937    20564899.400   108069287.137 4      3590.030          27.312    20564901.000    84209835.550 4      2797.426          27.437
R05  19312791.940   103237883.085 7      2949.914          44.500    19312791.980   103237883.089 7      2949.914          44.687    19312801.360    80296214.917 8      2294.377          49.312    19312801.600    80296215.915 8      2294.377          48.687
G03  22615476.860   118845123.742 6       445.916          39.750    22615476.880   118845123.752 4       445.916          27.687    22615485.920    92606620.204 4       347.467          27.875    22615486.880    92606630.212 6       347.467          36.125
> 2024 07 31 12 52  3.0000000  0  8
G09  20253245.680   106431528.648 8      3772.122          48.625    20253245.060   106431528.653 8      3772.122          50.437    20253250.720    82933689.562 8      2939.316          50.187    20253251.060    82933685.572 8      2939.316          49.750
G06  22148692.600   116392160.968 7      5075.873          42.875    22148690.840   116392160.983 6      5075.873          40.812    22148698.580    90695204.774 6      3955.226          40.812    22148699.360    90695230.789 7      3955.226          43.500
G04  20896891.520   109813912.119 7      1368.593          45.937    20896889.920   109813912.124 6      1368.593          37.250    20896895.720    85569298.362 6      1066.436          37.250    20896896.320    85569295.356 8      1066.436          50.562
G17  20653621.860   108535500.544 7      1978.989          47.875    20653621.060   108535500.546 8      1978.989          48.000    20653625.340    84573142.019 7      1542.070          47.750    20653625.960    84573148.014 8      1542.070          50.125
R04  20738623.760   111054393.100 7      -344.137          47.312    20738624.860   111054393.132 7      -344.137          45.500    20738633.440    86375681.702 7      -267.662          47.125    20738634.060    86375681.700 7      -267.662          47.437
G19  20564220.880   108065697.488 7      3589.454          43.250    20564216.320   108065697.490 4      3589.454          27.312    20564218.080    84207038.418 4      2796.977          27.437
R05  19312239.880   103234933.571 7      2949.198          44.500    19312240.140   103234933.575 7      2949.198          44.625    19312249.720    80293920.851 8      2293.820          49.312    19312249.560    80293921.849 8      2293.820          48.875
G03  22615392.080   118844677.776 6       445.924          39.750    22615391.920   118844677.789 4       445.924          27.687    22615400.780    92606272.698 4       347.473          27.875    22615401.640    92606282.702 6       347.473          36.125
> 2024 07 31 12 52  4.0000000  0  8
G09  20252528.040   106427756.875 8      3771.340          48.750    20252527.400   106427756.883 8      3771.340          51.437    20252533.000    82930750.526 8      2938.706          50.812    20252533.460    82930746.532 8      2938.706          49.875
G06  22147726.660   116387085.050 7      5075.729          42.875    22147725.020   116387085.060 6      5075.729          40.937    22147732.820    90691249.512 6      3955.113          40.875    22147733.260    90691275.518 7      3955.113          43.812
G04  20896631.060   109812543.905 7      1367.851          46.500    20896629.600   109812543.910 6      1367.851          37.562    20896635.480    85568232.219 6      1065.858          37.500    20896635.820    85568229.207 8      1065.858          51.312
G17  20653245.320   108533521.907 7      1978.234          47.062    20653244.460   108533521.910 8      1978.234          48.312    20653248.960    84571600.220 7      1541.481          47.687    20653249.340    84571606.213 8      1541.481          50.187
R04  20738687.620   111054737.542 7      -344.748          47.500    20738689.300   111054737.578 7      -344.748          45.875    20738697.660    86375949.599 7      -268.137          47.062    20738698.320    86375949.599 7      -268.137          47.562
G19  20563537.560   108062108.638 7      3588.347          42.625    20563533.320   108062108.640 4      3588.347          27.625    20563535.240    84204241.916 4      2796.115          27.437
R05  19311688.580   103231984.825 7      2948.311          44.500    19311688.500   103231984.821 7      2948.311          45.437    19311698.320    80291627.375 8      2293.130          49.437    19311697.980    80291628.374 8      2293.130          49.437
G03  22615306.700   118844231.865 6       445.805          39.812    22615307.140   118844231.875 4       445.805          27.687    22615315.880    92605925.225 4       347.381          27.875    22615316.700    92605935.208 6       347.381          36.125
> 2024 07 31 12 52  5.0000000  0  8
G09  20251810.700   106423985.907 8      3770.537          49.000    20251809.860   106423985.909 8      3770.537          51.125    20251815.320    82927812.103 8      2938.081          50.312    20251815.980    82927808.111 8      2938.081          50.187
G06  22146760.840   116382009.406 7      5075.466          42.937    22146759.120   116382009.416 6      5075.466          40.875    22146766.880    90687294.466 6      3954.909          40.812    22146767.540    90687320.477 7      3954.909          44.125
G04  20896370.760   109811176.466 7      1366.931          46.500    20896369.400   109811176.471 6      1366.931          37.687    20896375.300    85567166.676 6      1065.141          37.437    20896375.780    85567163.666 8      1065.141          50.687
G17  20652869.000   108531544.075 8      1977.352          48.875    20652868.220   108531544.080 8      1977.352          48.375    20652872.540    84570059.048 8      1540.794          48.000    20652873.240    84570065.043 8      1540.794          50.187
R04  20738752.240   111055082.495 7      -345.314          47.500    20738753.840   111055082.536 7      -345.314          47.437    20738762.020    86376217.898 7      -268.577          47.312    20738762.380    86376217.898 7      -268.577          47.375
G19  20562855.020   108058520.633 7      3587.495          44.125    20562850.580   108058520.633 4      3587.495          27.625    20562852.560    84201446.066 4      2795.450          27.687
R05  19311137.260   103229037.035 7      2947.146          45.812    19311137.280   103229037.039 7      2947.146          45.750    19311146.740    80289334.654 8      2292.225          49.625    19311146.600    80289335.651 8      2292.225          49.312
G03  22615221.700   118843786.159 6       445.448          40.125    22615222.420   118843786.175 4       445.448          27.687    22615230.960    92605577.917 4       347.103          27.875    22615231.480    92605587.899 6       347.103          36.125
> 2024 07 31 12 52  6.0000000  0  8
G09  20251093.220   106420215.679 8      3770.046          49.062    20251092.360   106420215.684 8      3770.046          50.875    20251097.820    82924874.265 8      2937.698          50.812    20251098.440    82924870.273 8      2937.698          49.312
G06  22145795.020   116376933.998 7      5075.411          42.187    22145793.320   116376934.006 6      5075.411          41.250    22145801.060    90683339.607 6      3954.866          41.312    22145801.760    90683365.616 7      3954.866          44.125
G04  20896110.900   109809809.697 7      1366.476          47.312    20896109.480   109809809.702 6      1366.476          37.750    20896115.180    85566101.657 6      1064.787          37.562    20896115.660    85566098.649 8      1064.787          50.687
G17  20652492.720   108529566.952 8      1976.888          48.875    20652491.960   108529566.954 8      1976.888          48.812    20652496.400    84568518.429 8      1540.432          48.000    20652496.860    84568524.424 8      1540.432          50.000
R04  20738816.800   111055427.894 7      -345.463          47.312    20738818.400   111055427.936 7      -345.463          46.375    20738826.620    86376486.540 7      -268.694          47.312    20738826.860    86376486.540 7      -268.694          47.312
G19  20562172.440   108054933.449 7      3586.993          43.562    20562167.900   108054933.457 4      3586.993          27.625    20562169.940    84198650.858 4      2795.059          27.687
R05  19310585.900   103226090.080 7      2946.694          45.562    19310585.820   103226090.078 7      2946.694          46.375    19310595.400    80287042.571 8      2291.873          49.812    19310595.400    80287043.570 8      2291.873          49.687
G03  22615137.780   118843340.572 6       445.728          39.375    22615137.720   118843340.590 4       445.728          27.687    22615146.160    92605230.698 4       347.320          27.750    22615145.040    92605240.677 5       347.320          35.375
> 2024 07 31 12 52  7.0000000  0  8
G09  20250375.840   106416446.097 8      3769.255          49.437    20250375.040   106416446.100 8      3769.255          50.437    20250380.540    82921936.929 8      2937.082          50.312    20250381.360    82921932.933 8      2937.082          50.187
G06  22144829.260   116371858.695 7      5075.254          43.250    22144827.580   116371858.698 6      5075.254          41.187    22144835.520    90679384.822 6      3954.744          41.375    22144836.300    90679410.834 7      3954.744          44.500
G04  20895850.780   109808443.506 7      1365.868          46.562    20895849.460   109808443.508 6      1365.868          38.000    20895855.120    85565037.094 6      1064.313          37.625    20895855.500    85565034.087 8      1064.313          51.187
G17  20652116.600   108527590.454 8      1976.164          48.187    20652115.900   108527590.451 7      1976.164          47.687    20652120.280    84566978.295 7      1539.868          47.625    20652120.800    84566984.290 8      1539.868          49.937
R04  20738881.440   111055773.659 7      -345.887          46.937    20738882.640   111055773.700 7      -345.887          46.312    20738890.940    86376755.466 7      -269.023          47.375    20738891.420    86376755.466 7      -269.023          47.125
G19  20561489.880   108051347.008 7      3586.198          43.937    20561485.480   108051347.016 4      3586.198          27.625    20561487.580    84195856.224 4      2794.440          27.687
R05  19310034.940   103223143.902 7      2945.867          44.625    19310034.800   103223143.895 7      2945.867          46.375    19310044.460    80284751.096 8      2291.230          49.250    19310044.460    80284752.094 8      2291.230          49.000
G03  22615052.620   118842895.023 6       445.498          39.437    22615052.780   118842895.039 4       445.498          27.500    22615061.300    92604883.511 4       347.141          27.750    22615060.480    92604893.511 5       347.141          35.375
> 2024 07 31 12 52  8.0000000  0  8
G09  20249658.720   106412677.231 8      3768.573          50.000    20249657.820   106412677.230 8      3768.573          50.375    20249663.180    82919000.146 8      2936.550          50.375    20249663.940    82918996.149 8      2936.550          50.312
G06  22143863.600   116366783.590 7      5074.981          43.437    22143861.880   116366783.592 6      5074.981          40.562    22143869.660    90675430.192 6      3954.531          40.250    22143870.040    90675456.209 7      3954.531          44.562
G04  20895591.000   109807078.006 7      1365.189          46.250    20895589.840   109807078.011 6      1365.189          37.937    20895595.360    85563973.068 6      1063.784          37.750    20895595.780    85563970.055 8      1063.784          50.875
G17  20651740.520   108525614.650 7      1975.502          47.812    20651739.920   108525614.655 7      1975.502          47.937    20651744.340    84565438.705 7      1539.352          47.562    20651744.960    84565444.698 8      1539.352          50.312
R04  20738946.000   111056119.867 7      -346.346          46.625    20738947.520   111056119.904 7      -346.346          45.625    20738955.820    86377024.728 7      -269.380          46.687    20738956.020    86377024.729 7      -269.380          46.875
G19  20560807.640   108047761.379 7      3585.270          43.812    20560803.240   108047761.389 4      3585.270          27.687    20560805.140    84193062.226 4      2793.717          27.687
R05  19309483.840   103220198.561 7      2944.933          44.562    19309483.360   103220198.570 7      2944.933          44.750    19309493.520    80282460.285 8      2290.503          49.375    19309493.520    80282461.281 8      2290.503          49.750
G03  22614967.720   118842449.591 6       445.440          39.312    22614967.980   118842449.604 4       445.440          27.500    22614976.120    92604536.421 4       347.096          27.750    22614975.480    92604546.398 5       347.096          35.375
> 2024 07 31 12 52  9.0000000  0  8
G09  20248941.660   106408909.173 8      3767.734          49.687    20248940.720   106408909.178 8      3767.734          49.937    20248946.260    82916064.001 8      2935.897          50.437    20248947.020    82916060.005 8      2935.897          49.812
G06  22142897.540   116361708.747 7      5074.756          43.250    22142896.180   116361708.754 6      5074.756          41.000    22142903.900    90671475.775 6      3954.355          40.750    22142904.700    90671501.792 7      3954.355          44.312
G04  20895331.280   109805713.263 7      1364.490          46.375    20895330.080   109805713.265 6      1364.490          37.875    20895335.600    85562909.630 6      1063.239          37.750    20895336.120    85562906.617 8      1063.239          51.250
G17  20651364.780   108523639.645 8      1974.702          48.687    20651364.060   108523639.645 7      1974.702          47.375    20651368.680    84563899.734 7      1538.729          47.000    20651369.060    84563905.731 8      1538.729          50.375
R04  20739010.660   111056466.544 7      -346.809          47.000    20739012.240   111056466.591 7      -346.809          45.687    20739020.400    86377294.372 7      -269.740          47.062    20739020.620    86377294.368 7      -269.740          47.312
G19  20560125.500   108044176.652 7      3584.273          42.937    20560120.940   108044176.667 4      3584.273          27.687    20560123.200    84190268.933 4      2792.940          27.687
R05  19308932.760   103217254.109 7      2944.049          44.625    19308932.580   103217254.121 7      2944.049          44.312    19308942.720    80280170.162 8      2289.816          49.437    19308942.900    80280171.157 8      2289.816          49.875
G03  22614883.560   118842004.374 6       445.250          39.562    22614883.100   118842004.389 4       445.250          27.500    22614891.300    92604189.491 4       346.948          27.750    22614890.320    92604199.470 5       346.948          35.375
> 2024 07 31 12 52 10.0000000  0  8
G09  20248224.580   106405141.849 8      3766.979          49.375    20248223.740   106405141.848 8      3766.979          50.062    20248229.340    82913128.419 8      2935.308          49.875    20248230.180    82913124.419 8      2935.308          49.750
G06  22141932.080   116356634.114 7      5074.554          43.625    22141930.500   116356634.121 6      5074.554          40.187    22141938.360    90667521.516 6      3954.198          40.062    22141939.160    90667547.526 7      3954.198          43.937
G04  20895071.700   109804349.200 7      1363.716          46.500    20895070.340   109804349.205 6      1363.716          37.750    20895076.100    85561846.720 6      1062.636          37.375    20895076.360    85561843.711 8      1062.636          50.125
G17  20650989.280   108521665.349 8      1973.986          48.312    20650988.260   108521665.346 7      1973.986          47.000    20650992.980    84562361.319 7      1538.171          46.937    20650993.280    84562367.314 8      1538.171          50.312
R04  20739075.440   111056813.658 7      -347.339          46.812    20739077.500   111056813.702 7      -347.339          45.562    20739085.180    86377564.347 7      -270.152          47.000    20739085.360    86377564.343 7      -270.152          46.625
G19  20559443.320   108040592.691 7      3583.672          43.125    20559438.980   108040592.709 4      3583.672          27.687    20559441.180    84187476.239 4      2792.472          27.562
R05  19308381.940   103214310.500 7      2943.216          44.875    19308382.220   103214310.504 7      2943.216          44.312    19308392.020    80277880.678 8      2289.168          48.687    19308392.180    80277881.670 8      2289.168          48.937
G03  22614798.560   118841559.259 6       445.146          39.187    22614797.960   118841559.272 4       445.146          27.500    22614806.540    92603842.640 4       346.867          27.750    22614805.820    92603852.629 5       346.867          35.375
> 2024 07 31 12 52 11.0000000  0  8
G09  20247507.900   106401375.265 8      3766.266          48.500    20247507.040   106401375.267 7      3766.266          47.812    20247512.540    82910193.423 8      2934.753          49.062    20247513.260    82910189.429 8      2934.753          48.375
G06  22140966.560   116351559.697 7      5074.282          43.187    22140965.120   116351559.709 6      5074.282          40.312    22140972.880    90663567.432 6      3953.986          40.250    22140973.620    90663593.445 7      3953.986          43.937
G04  20894812.180   109802985.834 7      1363.045          45.625    20894811.020   109802985.844 6      1363.045          37.500    20894816.580    85560784.361 6      1062.113          37.562    20894816.880    85560781.351 8      1062.113          49.437
G17  20650613.700   108519691.776 8      1973.249          49.062    20650612.700   108519691.778 7      1973.249          46.000    20650617.400    84560823.472 7      1537.597          45.812    20650617.880    84560829.469 8      1537.597          48.062
R04  20739140.340   111057161.208 7      -347.782          46.687    20739142.160   111057161.257 7      -347.782          46.125    20739150.060    86377834.666 7      -270.497          45.375    20739150.560    86377834.664 7      -270.497          45.812
G19  20558761.480   108037009.616 7      3582.699          43.437    20558757.120   108037009.631 4      3582.699          27.687    20558759.360    84184684.233 4      2791.713          27.562
R05  19307831.920   103211367.733 7      2942.316          44.562    19307831.580   103211367.726 7      2942.316          44.500    19307841.500    80275591.855 7      2288.468          47.562    19307841.780    80275592.851 7      2288.468          47.687
G03  22614713.820   118841114.315 6       444.848          39.187    22614713.140   118841114.333 4       444.848          27.500    22614721.760    92603495.922 4       346.635          27.750    22614721.160    92603505.906 5       346.635          35.375
> 2024 07 31 12 52 12.0000000  0  9
G09  20246791.160   106397609.415 8      3765.528          49.250    20246790.360   106397609.417 8      3765.528          49.187    20246795.980    82907258.995 8      2934.178          49.187    20246796.600    82907254.994 8      2934.178          49.562
G06  22140001.140   116346485.476 7      5074.143          42.437    22139999.540   116346485.492 6      5074.143          40.625    22140007.120    90659613.497 6      3953.878          40.500    22140008.160    90659639.509 7      3953.878          43.937
G04  20894552.820   109801623.166 7      1362.319          46.437    20894551.920   109801623.174 6      1362.319          37.500    20894557.280    85559722.538 6      1061.547          37.687    20894557.700    85559719.528 8      1061.547          50.187
G17  20650238.260   108517718.915 8      1972.562          48.687    20650237.360   108517718.917 7      1972.562          46.812    20650242.020    84559286.172 7      1537.061          46.375    20650242.380    84559292.169 8      1537.061          49.500
R04  20739205.340   111057509.226 7      -348.137          47.250    20739207.180   111057509.271 7      -348.137          45.437    20739215.320    86378105.339 7      -270.773          46.875    20739215.560    86378105.335 7      -270.773          46.312
R19  19879219.340   106340418.328 6      1717.906          37.875
G19  20558079.920   108033427.340 7      3581.889          43.562    20558075.520   108033427.353 4      3581.889          27.687    20558077.740    84181892.848 4      2791.083          27.562
R05  19307281.420   103208425.794 7      2941.530          44.437    19307281.160   103208425.779 7      2941.530          44.000    19307291.360    80273303.676 8      2287.856          48.125    19307291.400    80273304.670 7      2287.856          47.937
G03  22614629.360   118840669.492 6       444.636          39.375    22614628.400   118840669.508 4       444.636          27.500    22614637.140    92603149.297 4       346.470          25.937    22614636.520    92603159.282 5       346.470          35.375
> 2024 07 31 12 52 13.0000000  0  9
G09  20246074.660   106393844.200 8      3764.778          49.562    20246073.920   106393844.202 8      3764.778          50.062    20246079.480    82904325.059 8      2933.593          50.000    20246079.880    82904321.063 8      2933.593          49.812
G06  22139035.400   116341411.343 7      5074.080          43.062    22139033.900   116341411.348 6      5074.080          40.812    22139041.440    90655659.624 6      3953.829          40.937    22139042.420    90655685.635 7      3953.829          44.125
G04  20894293.580   109800261.061 7      1361.626          47.125    20894292.520   109800261.063 6      1361.626          37.750    20894298.160    85558661.153 6      1061.007          37.375    20894298.640    85558658.146 8      1061.007          51.125
G17  20649862.920   108515746.661 8      1971.813          49.125    20649861.920   108515746.665 7      1971.813          47.437    20649866.740    84557749.346 7      1536.478          47.437    20649867.040    84557755.347 8      1536.478          50.187
R04  20739270.200   111057857.577 7      -348.616          47.187    20739271.980   111057857.618 7      -348.616          45.625    20739280.360    86378376.278 7      -271.146          47.312    20739280.440    86378376.270 7      -271.146          47.250
R19  19878898.360   106338700.938 6      1716.858          38.125
G19  20557398.480   108029845.752 7      3581.080          43.125    20557393.840   108029845.765 4      3581.080          27.687    20557396.200    84179102.001 4      2790.452          27.562
R05  19306731.460   103205484.601 7      2940.666          44.437    19306730.800   103205484.599 7      2940.666          44.062    19306741.020    80271016.092 8      2287.184          49.937    19306741.140    80271017.082 8      2287.184          50.062
G03  22614544.860   118840224.651 6       444.673          39.125    22614543.820   118840224.666 4       444.673          26.000    22614552.380    92602802.663 4       346.499          25.937    22614551.080    92602812.665 5       346.499          35.375
> 2024 07 31 12 52 14.0000000  0  9
G09  20245358.140   106390079.719 8      3764.132          49.000    20245357.500   106390079.724 8      3764.132          50.250    20245363.100    82901391.701 8      2933.090          50.437    20245363.500    82901387.705 8      2933.090          49.625
G06  22138069.720   116336337.441 7      5073.914          42.500    22138068.640   116336337.446 6      5073.914          40.625    22138075.820    90651705.938 6      3953.700          40.750    22138076.760    90651731.953 7      3953.700          44.375
G04  20894034.480   109798899.644 7      1361.044          46.937    20894033.560   109798899.646 6      1361.044          38.312    20894039.060    85557600.309 6      1060.554          37.687    20894039.680    85557597.301 8      1060.554          51.250
G17  20649487.560   108513775.118 8      1971.205          49.125    20649486.700   108513775.121 7      1971.205          47.500    20649491.640    84556213.077 7      1536.004          47.375    20649491.940    84556219.074 8      1536.004          50.687
R04  20739335.140   111058206.374 7      -349.067          46.937    20739337.480   111058206.413 7      -349.067          45.687    20739345.420    86378647.555 7      -271.496          47.062    20739345.560    86378647.549 7      -271.496          47.250
R19  19878576.860   106336984.350 6      1716.111          38.312
G19  20556716.980   108026264.981 7      3580.430          42.750    20556712.480   108026264.992 4      3580.430          27.687    20556714.760    84176311.790 4      2789.946          27.875
R05  19306181.460   103202544.276 7      2939.868          44.875    19306180.740   103202544.272 7      2939.868          44.687    19306190.920    80268729.173 8      2286.564          49.187    19306191.200    80268730.167 8      2286.564          50.062
G03  22614460.220   118839779.975 6       444.515          39.562    22614459.040   118839779.990 4       444.515          26.000    22614467.760    92602456.160 4       346.375          25.937    22614467.340    92602466.166 5       346.375          35.375
> 2024 07 31 12 52 15.0000000  0  9
G09  20244642.060   106386315.831 8      3763.609          50.000    20244641.360   106386315.831 8      3763.609          50.562    20244646.800    82898458.804 8      2932.682          50.750    20244647.340    82898454.807 8      2932.682          50.312
G06  22137103.880   116331263.625 7      5073.716          43.375    22137103.020   116331263.638 6      5073.716          41.000    22137110.480    90647752.322 6      3953.545          41.062    22137111.140    90647778.333 7      3953.545          44.500
G04  20893775.480   109797538.776 7      1360.544          46.937    20893774.620   109797538.781 6      1360.544          38.062    20893780.080    85556539.892 6      1060.164          38.250    20893780.540    85556536.887 8      1060.164          50.937
G17  20649112.300   108511804.173 7      1970.582          47.812    20649111.660   108511804.172 7      1970.582          47.625    20649116.460    84554677.267 7      1535.519          47.312    20649116.940    84554683.269 8      1535.519          50.312
R04  20739401.180   111058555.432 7      -349.224          46.937    20739402.540   111058555.471 7      -349.224          45.500    20739410.880    86378919.040 7      -271.619          47.000    20739411.000    86378919.032 7      -271.619          46.750
R19  19878256.360   106335268.428 6      1715.580          38.375
G19  20556035.660   108022684.918 7      3579.716          43.000    20556031.100   108022684.925 4      3579.716          27.687    20556033.600    84173522.132 4      2789.389          27.875
R05  19305631.040   103199604.660 7      2939.184          44.437    19305630.780   103199604.659 7      2939.184          44.812    19305641.040    80266442.805 8      2286.032          50.000    19305641.240    80266443.799 8      2286.032          49.750
G03  22614375.840   118839335.278 6       444.686          39.687    22614374.180   118839335.288 4       444.686          26.000    22614383.220    92602109.635 4       346.509          25.937    22614382.300    92602119.635 5       346.509          35.375
> 2024 07 31 12 52 16.0000000  0  9
G09  20243926.040   106382552.724 8      3762.807          49.687    20243925.180   106382552.726 8      3762.807          50.375    20243930.880    82895526.510 8      2932.057          50.375    20243931.060    82895522.514 8      2932.057          50.187
G06  22136138.760   116326190.017 7      5073.606          43.687    22136137.400   116326190.025 6      5073.606          40.875    22136145.040    90643798.863 6      3953.459          40.812    22136145.740    90643824.866 7      3953.459          44.687
G04  20893516.860   109796178.626 7      1359.832          47.312    20893515.820   109796178.634 6      1359.832          38.250    20893521.280    85555480.035 6      1059.609          38.312    20893521.840    85555477.030 8      1059.609          51.125
G17  20648737.420   108509833.955 8      1969.903          48.250    20648736.460   108509833.957 7      1969.903          47.312    20648741.560    84553142.035 7      1534.989          47.250    20648741.940    84553148.036 8      1534.989          50.312
R04  20739466.220   111058904.958 7      -349.719          46.687    20739467.720   111058904.999 7      -349.719          45.875    20739476.020    86379190.891 7      -272.004          46.937    20739476.180    86379190.883 7      -272.004          47.312
R19  19877935.480   106333553.381 6      1714.587          38.375
G19  20555354.460   108019105.692 6      3578.831          41.687    20555349.880   108019105.702 4      3578.831          27.687    20555352.340    84170733.123 4      2788.699          27.875
R05  19305081.720   103196665.894 7      2938.497          44.250    19305081.280   103196665.892 7      2938.497          44.125    19305091.400    80264157.096 8      2285.497          49.812    19305091.260    80264158.090 8      2285.497          49.500
G03  22614291.280   118838890.728 6       444.562          39.687    22614289.600   118838890.739 4       444.562          26.000    22614298.800    92601763.222 4       346.412          25.937    22614298.600    92601773.220 5       346.412          32.812
> 2024 07 31 12 52 17.0000000  0  9
G09  20243210.000   106378790.326 8      3761.980          49.375    20243209.240   106378790.331 8      3761.980          49.937    20243214.940    82892594.774 8      2931.413          50.312    20243215.220    82892590.777 8      2931.413          49.875
G06  22135173.360   116321116.619 7      5073.176          43.562    22135172.100   116321116.632 6      5073.176          40.875    22135179.740    90639845.566 6      3953.124          40.562    22135180.660    90639871.581 7      3953.124          44.812
G04  20893258.140   109794819.148 7      1359.090          47.062    20893257.140   109794819.156 6      1359.090          38.187    20893262.560    85554420.700 6      1059.031          38.062    20893263.300    85554417.694 8      1059.031          50.937
G17  20648362.740   108507864.457 8      1969.033          48.062    20648361.720   108507864.456 7      1969.033          47.500    20648366.760    84551607.353 7      1534.312          46.937    20648367.300    84551613.352 8      1534.312          50.187
R04  20739531.300   111059254.931 7      -350.304          46.375    20739533.300   111059254.967 7      -350.304          45.437    20739541.320    86379463.084 7      -272.458          47.437    20739541.540    86379463.080 7      -272.458          46.875
R19  19877614.980   106331839.109 6      1713.747          38.375
G19  20554673.540   108015527.270 6      3577.978          41.750    20554668.820   108015527.278 4      3577.978          27.875    20554671.340    84167944.744 4      2788.035          27.875
R05  19304532.180   103193727.953 7      2937.553          44.625    19304531.520   103193727.957 7      2937.553          44.562    19304541.580    80261872.031 8      2284.764          49.937    19304541.580    80261873.025 8      2284.764          49.937
G03  22614206.140   118838446.297 6       444.257          38.250    22614204.840   118838446.310 4       444.257          26.000    22614214.020    92601416.904 4       346.174          25.937    22614214.440    92601426.910 5       346.174          32.812
> 2024 07 31 12 52 18.0000000  0  9
G09  20242494.120   106375028.596 8      3761.405          49.625    20242493.320   106375028.598 8      3761.405          50.375    20242499.060    82889663.557 8      2930.965          50.187    20242499.520    82889659.559 8      2930.965          50.375
G06  22134207.880   116316043.348 7      5073.153          43.312    22134206.820   116316043.358 6      5073.153          41.062    22134214.380    90635892.374 6      3953.106          40.625    22134215.180    90635918.386 7      3953.106          44.937
G04  20892999.540   109793460.299 7      1358.516          47.812    20892998.640   109793460.304 6      1358.516          38.375    20893004.080    85553361.856 6      1058.584          38.062    20893004.640    85553358.850 8      1058.584          50.812
G17  20647987.920   108505895.587 8      1968.535          48.000    20647986.820   108505895.586 7      1968.535          47.687    20647992.140    84550073.168 7      1533.924          47.375    20647992.680    84550079.167 8      1533.924          49.875
R04  20739596.700   111059605.241 7      -350.458          46.812    20739598.920   111059605.288 7      -350.458          46.062    20739606.920    86379735.562 7      -272.578          47.250    20739607.080    86379735.554 8      -272.578          48.125
R19  19877294.540   106330125.600 6      1713.221          38.375    19877295.060   106330125.612 6      1713.221          38.125    19877305.420    82701250.559 8      1332.505          48.000
G19  20553993.020   108011949.611 7      3577.236          42.125    20553987.860   108011949.615 4      3577.236          27.875    20553990.660    84165156.960 4      2787.457          27.875
R05  19303982.400   103190790.780 7      2936.797          45.062    19303982.120   103190790.787 7      2936.797          44.500    19303992.180    80259587.569 8      2284.176          49.625    19303992.340    80259588.567 8      2284.176          50.187
G03  22614121.180   118838001.926 6       444.403          38.625    22614120.340   118838001.936 4       444.403          26.000    22614129.400    92601070.632 4       346.288          25.937    22614130.040    92601080.665 5       346.288          32.812
> 2024 07 31 12 52 19.0000000  0  9
G09  20241778.380   106371267.538 8      3760.604          49.625    20241777.740   106371267.540 8      3760.604          49.375    20241783.420    82886732.865 8      2930.341          49.812    20241783.880    82886728.873 8      2930.341          50.187
G06  22133242.740   116310970.220 7      5073.010          43.375    22133241.360   116310970.228 6      5073.010          40.812    22133248.940    90631939.288 6      3952.995          40.937    22133249.840    90631965.294 7      3952.995          44.625
G04  20892740.960   109792102.056 7      1357.826          47.562    20892740.200   109792102.064 6      1357.826          38.312    20892745.600    85552303.483 6      1058.046          38.125    20892746.160    85552300.482 8      1058.046          50.687
G17  20647613.180   108503927.371 7      1967.832          47.250    20647612.100   108503927.371 7      1967.832          47.000    20647617.680    84548539.486 7      1533.376          46.625    20647618.020    84548545.487 8      1533.376          50.000
R04  20739662.080   111059955.966 7      -351.073          46.750    20739664.660   111059956.019 7      -351.073          45.750    20739672.560    86380008.345 7      -273.057          47.125    20739672.480    86380008.334 7      -273.057          47.125
R19  19876974.460   106328412.839 6      1712.282          38.750    19876974.600   106328412.851 6      1712.282          38.125    19876985.020    82699918.412 7      1331.775          47.187    19876984.960    82699917.408 7      1331.775          46.125
G19  20553312.200   108008372.705 7      3576.319          43.437    20553307.060   108008372.707 4      3576.319          27.875    20553310.060    84162369.758 4      2786.742          27.812
R05  19303433.100   103187854.387 7      2935.846          44.812    19303432.740   103187854.386 7      2935.846          44.500    19303442.800    80257303.704 8      2283.436          49.562    19303442.920    80257304.702 8      2283.436          49.687
G03  22614036.700   118837557.626 6       444.094          38.375    22614035.840   118837557.633 4       444.094          26.000    22614044.780    92600724.421 4       346.047          25.562    22614045.620    92600734.443 5       346.047          32.812
> 2024 07 31 12 52 20.0000000  0  9
G09  20241062.960   106367507.163 8      3760.218          49.500    20241062.100   106367507.165 8      3760.218          50.562    20241067.900    82883802.701 8      2930.040          50.375    20241068.140    82883798.709 8      2930.040          50.187
G06  22132277.380   116305897.264 7      5073.057          42.562    22132275.820   116305897.269 6      5073.057          41.312    22132283.540    90627986.330 6      3953.031          40.750    22132284.240    90628012.345 7      3953.031          44.750
G04  20892482.600   109790744.449 7      1357.488          47.125    20892481.900   109790744.454 6      1357.488          38.625    20892487.260    85551245.605 6      1057.783          38.375    20892487.740    85551242.602 8      1057.783          50.812
G17  20647239.060   108501959.815 7      1967.479          47.312    20647237.660   108501959.817 7      1967.479          47.437    20647243.120    84547006.323 7      1533.100          46.750    20647243.580    84547012.324 8      1533.100          50.375
R04  20739727.480   111060307.053 7      -351.058          47.187    20739730.720   111060307.101 7      -351.058          45.687    20739738.180    86380281.404 7      -273.045          47.312    20739738.200    86380281.396 7      -273.045          47.750
R19  19876653.720   106326700.825 6      1711.791          38.750    19876654.100   106326700.842 6      1711.791          38.125    19876665.180    82698586.845 8      1331.393          48.187    19876664.840    82698585.837 7      1331.393          47.875
G19  20552631.700   108004796.535 7      3576.104          43.125    20552626.440   108004796.543 4      3576.104          27.875    20552629.520    84159583.128 4      2786.575          27.812
R05  19302884.140   103184918.759 7      2935.529          44.375    19302883.760   103184918.755 7      2935.529          44.375    19302893.660    80255020.431 8      2283.189          49.687    19302893.660    80255021.436 8      2283.189          50.062
G03  22613952.180   118837113.383 6       444.614          38.375    22613951.300   118837113.388 4       444.614          25.312    22613960.160    92600378.252 4       346.452          25.562    22613961.400    92600388.264 5       346.452          32.812
> 2024 07 31 12 52 21.0000000  0  9
G09  20240347.660   106363747.393 8      3759.385          48.375    20240346.600   106363747.393 8      3759.385          50.000    20240352.440    82880873.010 8      2929.391          50.312    20240353.020    82880869.015 8      2929.391          49.812
G06  22131311.620   116300824.381 7      5072.690          42.750    22131310.500   116300824.384 6      5072.690          41.187    22131318.020    90624033.437 6      3952.745          41.125    22131318.720    90624059.447 7      3952.745          44.875
G04  20892224.200   109789387.423 7      1356.526          46.750    20892223.760   109789387.428 6      1356.526          38.250    20892228.960    85550188.180 6      1057.034          38.750    20892229.440    85550185.177 8      1057.034          50.562
G17  20646864.760   108499992.876 7      1966.485          46.437    20646863.220   108499992.876 7      1966.485          47.000    20646868.860    84545473.637 7      1532.326          46.375    20646869.360    84545479.634 8      1532.326          49.812
R04  20739793.380   111060658.456 7      -351.640          47.375    20739796.080   111060658.509 7      -351.640          46.187    20739804.020    86380554.719 7      -273.498          47.562    20739803.960    86380554.711 7      -273.498          47.875
R19  19876333.420   106324989.493 6      1710.742          38.750    19876334.620   106324989.518 6      1710.742          38.125    19876344.980    82697255.805 8      1330.577          48.500    19876344.900    82697254.797 8      1330.577          48.187
G19  20551951.000   108001221.111 7      3574.927          42.375    20551946.020   108001221.116 4      3574.927          27.312    20551948.960    84156797.080 4      2785.657          27.812
R05  19302335.080   103181983.876 7      2934.360          44.500    19302334.300   103181983.875 7      2934.360          44.562    19302344.600    80252737.755 8      2282.280          49.750    19302344.660    80252738.757 8      2282.280          50.250
G03  22613867.540   118836669.186 6       443.939          38.750    22613866.980   118836669.193 4       443.939          25.312    22613875.420    92600032.119 4       345.927          25.562    22613877.880    92600042.134 5       345.927          32.812
> 2024 07 31 12 52 22.0000000  0  9
G09  20239632.460   106359988.392 8      3758.753          48.875    20239631.320   106359988.392 8      3758.753          49.812    20239637.220    82877943.920 8      2928.898          49.000    20239637.900    82877939.926 8      2928.898          49.187
G06  22130346.340   116295751.719 7      5072.631          42.750    22130345.340   116295751.724 6      5072.631          40.375    22130352.920    90620080.717 6      3952.700          40.750    22130353.400    90620106.732 7      3952.700          44.937
G04  20891966.220   109788031.080 7      1356.070          47.437    20891965.700   109788031.087 6      1356.070          38.375    20891970.740    85549131.290 6      1056.678          37.875    20891971.440    85549128.286 8      1056.678          49.750
G17  20646490.460   108498026.634 7      1966.070          46.812    20646488.980   108498026.631 7      1966.070          47.000    20646494.660    84543941.496 7      1532.003          46.687    20646495.220    84543947.497 8      1532.003          49.062
R04  20739859.080   111061010.341 7      -351.948          47.312    20739861.700   111061010.388 7      -351.948          46.125    20739869.580    86380828.401 7      -273.737          47.375    20739869.700    86380828.393 7      -273.737          47.062
R19  19876013.720   106323278.974 6      1710.260          38.500    19876015.120   106323278.983 6      1710.260          38.125    19876025.160    82695925.391 7      1330.202          47.437    19876025.460    82695924.382 7      1330.202          47.187
G19  20551271.020   107997646.521 7      3574.269          42.812    20551265.800   107997646.520 4      3574.269          27.312    20551268.680    84154011.680 4      2785.145          27.812
R05  19301786.240   103179049.857 7      2933.758          44.562    19301785.760   103179049.858 7      2933.758          43.812    19301795.900    80250455.738 7      2281.812          47.812    19301796.020    80250456.742 8      2281.812          48.125
G03  22613783.220   118836225.091 6       444.138          38.937    22613782.400   118836225.103 4       444.138          25.312    22613790.720    92599686.067 4       346.081          25.562    22613792.520    92599696.081 5       346.081          32.812
> 2024 07 31 12 52 23.0000000  0  9
G09  20238917.100   106356230.170 8      3757.814          50.187    20238916.160   106356230.175 7      3757.814          47.750    20238922.080    82875015.439 7      2928.167          47.312    20238922.920    82875011.445 8      2928.167          48.062
G06  22129381.300   116290679.302 7      5072.366          42.562    22129379.980   116290679.306 6      5072.366          40.000    22129387.740    90616128.186 6      3952.493          39.875    22129388.500    90616154.192 7      3952.493          44.937
G04  20891708.300   109786675.470 7      1355.231          47.312    20891707.600   109786675.483 6      1355.231          37.937    20891712.700    85548074.972 6      1056.024          37.937    20891713.440    85548071.971 8      1056.024          48.875
G17  20646116.420   108496061.182 7      1965.105          47.000    20646114.880   108496061.184 7      1965.105          45.312    20646120.660    84542409.973 7      1531.251          45.125    20646120.920    84542415.970 8      1531.251          48.000
R04  20739924.400   111061362.692 7      -352.591          46.500    20739927.280   111061362.744 7      -352.591          46.000    20739935.460    86381102.460 7      -274.237          46.000    20739935.340    86381102.446 7      -274.237          46.000
R19  19875694.620   106321569.305 6      1709.345          38.500    19875695.340   106321569.309 6      1709.345          38.125    19875705.660    82694595.638 7      1329.491          46.437    19875705.800    82694594.632 7      1329.491          46.375
G19  20550591.040   107994072.771 7      3573.410          43.187    20550585.760   107994072.776 4      3573.410          27.312    20550588.380    84151226.940 4      2784.475          27.812
R05  19301237.480   103176116.754 7      2932.671          44.625    19301236.800   103176116.750 7      2932.671          43.875    19301247.140    80248174.436 7      2280.966          47.687    19301247.260    80248175.442 8      2280.966          48.125
G03  22613698.660   118835781.172 6       443.940          38.937    22613697.880   118835781.184 4       443.940          25.312    22613706.140    92599340.152 4       345.928          25.562    22613709.420    92599350.164 5       345.928          34.437
> 2024 07 31 12 52 24.0000000  0  9
G09  20238202.140   106352472.622 8      3757.376          49.187    20238201.080   106352472.627 8      3757.376          48.750    20238207.140    82872087.476 8      2927.826          48.750    20238207.580    82872083.480 8      2927.826          49.375
G06  22128416.180   116285607.055 7      5072.404          42.875    22128414.860   116285607.065 6      5072.404          40.562    22128422.480    90612175.794 6      3952.523          40.000    22128423.320    90612201.800 7      3952.523          44.437
G04  20891450.840   109785320.509 7      1354.804          47.875    20891449.920   109785320.514 6      1354.804          39.000    20891455.020    85547019.152 6      1055.691          38.750    20891455.840    85547016.147 8      1055.691          49.625
G17  20645742.720   108494096.385 7      1964.650          46.375    20645741.040   108494096.382 7      1964.650          45.625    20645746.680    84540878.956 7      1530.896          45.375    20645747.460    84540884.953 8      1530.896          49.562
R04  20739990.560   111061715.420 7      -352.770          47.187    20739993.240   111061715.464 7      -352.770          46.000    20740001.260    86381376.794 7      -274.376          46.062    20740001.160    86381376.783 7      -274.376          46.437
R19  19875375.560   106319860.399 6      1708.759          38.500    19875375.680   106319860.400 6      1708.759          38.000    19875386.180    82693266.487 7      1329.034          46.875    19875386.340    82693265.478 7      1329.034          47.312
G19  20549910.860   107990499.801 7      3572.829          43.625    20549905.920   107990499.801 4      3572.829          27.312    20549908.540    84148442.810 4      2784.023          26.937
R05  19300688.920   103173184.435 7      2932.029          44.625    19300688.440   103173184.439 7      2932.029          44.062    19300698.520    80245893.749 8      2280.467          48.125    19300698.560    80245894.756 7      2280.467          47.812
G03  22613613.660   118835337.355 6       443.988          38.750    22613613.580   118835337.370 4       443.988          25.312    22613621.500    92598994.325 4       345.964          25.562    22613624.260    92599004.335 5       345.964          34.437
> 2024 07 31 12 52 25.0000000  0  9
G09  20237487.120   106348715.642 8      3756.565          49.250    20237486.120   106348715.647 8      3756.565          50.000    20237492.220    82869159.961 8      2927.194          49.312    20237492.680    82869155.967 8      2927.194          50.187
G06  22127450.640   116280534.858 7      5072.147          42.187    22127449.820   116280534.862 6      5072.147          40.875    22127457.220    90608223.429 6      3952.322          41.187    22127458.420    90608249.427 7      3952.322          44.437
G04  20891193.140   109783966.052 7      1354.058          47.562    20891192.280   109783966.057 6      1354.058          38.250    20891197.280    85545963.725 6      1055.110          38.000    20891198.140    85545960.724 8      1055.110          50.562
G17  20645368.980   108492132.126 7      1963.972          46.375    20645367.260   108492132.126 7      1963.972          46.875    20645372.860    84539348.363 7      1530.367          46.312    20645373.500    84539354.362 8      1530.367          49.875
R04  20740056.660   111062068.400 7      -353.226          47.250    20740059.100   111062068.444 7      -353.226          45.500    20740067.280    86381651.334 7      -274.731          47.000    20740067.160    86381651.323 7      -274.731          47.750
R19  19875055.520   106318152.097 6      1707.879          38.500    19875056.420   106318152.114 6      1707.879          38.000    19875066.680    82691937.818 7      1328.350          47.750    19875066.840    82691936.812 8      1328.350          48.000
G19  20549231.180   107986927.504 7      3571.792          43.375    20549226.140   107986927.507 4      3571.792          27.312    20549228.820    84145659.202 4      2783.215          26.937
R05  19300140.420   103170252.768 7      2931.156          43.937    19300139.700   103170252.774 7      2931.156          44.312    19300150.200    80243613.563 8      2279.788          49.125    19300150.400    80243614.570 8      2279.788          49.250
G03  22613529.160   118834893.491 6       443.839          38.625    22613529.180   118834893.506 4       443.839          25.312    22613536.840    92598648.453 4       345.849          25.562    22613538.560    92598658.416 5       345.849          34.437
> 2024 07 31 12 52 26.0000000  0  9
G09  20236772.200   106344959.404 8      3755.883          49.062    20236771.380   106344959.406 8      3755.883          50.312    20236777.520    82866233.020 8      2926.662          50.500    20236777.880    82866229.024 8      2926.662          50.437
G06  22126485.420   116275462.871 7      5071.822          43.500    22126484.600   116275462.873 6      5071.822          41.250    22126492.100    90604271.231 6      3952.069          41.062    22126493.160    90604297.231 7      3952.069          45.187
G04  20890935.220   109782612.290 7      1353.385          47.375    20890934.660   109782612.300 6      1353.385          38.312    20890939.640    85544908.847 6      1054.585          38.312    20890940.260    85544905.848 8      1054.585          50.437
G17  20644995.500   108490168.622 7      1963.068          47.250    20644993.640   108490168.618 7      1963.068          46.875    20644999.140    84537818.353 7      1529.663          46.500    20644999.900    84537824.352 8      1529.663          49.687
R04  20740122.580   111062421.848 7      -353.755          46.750    20740124.880   111062421.890 7      -353.755          45.687    20740133.460    86381926.232 7      -275.143          47.687    20740133.120    86381926.221 7      -275.143          47.687
R19  19874736.360   106316444.667 6      1706.825          38.625    19874737.320   106316444.682 6      1706.825          38.000    19874747.480    82690609.809 8      1327.530          48.437    19874747.640    82690608.806 8      1327.530          48.250
G19  20548551.320   107983356.019 7      3570.952          42.937    20548546.400   107983356.024 4      3570.952          26.687    20548549.040    84142876.229 4      2782.560          26.937
R05  19299592.120   103167321.948 7      2930.304          44.937    19299591.880   103167321.949 7      2930.304          44.562    19299601.880    80241334.030 8      2279.126          49.875    19299601.760    80241335.031 8      2279.126          49.875
G03  22613445.620   118834449.758 6       443.769          38.687    22613444.880   118834449.776 4       443.769          25.312    22613451.960    92598302.677 4       345.794          25.562    22613454.320    92598312.646 5       345.794          34.437
> 2024 07 31 12 52 27.0000000  0  9
G09  20236057.420   106341203.869 8      3755.128          48.750    20236056.680   106341203.871 8      3755.128          50.562    20236062.860    82863306.629 8      2926.074          50.562    20236063.380    82863302.633 8      2926.074          50.562
G06  22125520.580   116270391.028 7      5071.750          43.125    22125519.460   116270391.036 6      5071.750          41.187    22125526.840    90600319.150 6      3952.013          40.812    22125528.000    90600345.144 7      3952.013          45.500
G04  20890677.580   109781259.157 7      1352.782          47.937    20890677.260   109781259.168 6      1352.782          38.687    20890682.120    85543854.465 6      1054.116          38.125    20890682.720    85543851.463 8      1054.116          50.812
G17  20644622.140   108488205.745 7      1962.550          46.875    20644619.980   108488205.745 7      1962.550          47.437    20644625.700    84536288.839 7      1529.260          47.125    20644626.220    84536294.836 8      1529.260          50.000
R04  20740188.440   111062775.663 7      -354.108          47.000    20740190.520   111062775.708 7      -354.108          45.500    20740199.700    86382201.421 8      -275.417          48.687    20740199.380    86382201.409 8      -275.417          48.375
R19  19874417.100   106314737.933 6      1706.204          38.625    19874418.020   106314737.953 6      1706.204          38.000    19874428.640    82689282.351 8      1327.048          48.062    19874428.820    82689281.351 8      1327.048          48.625
G19  20547872.040   107979785.294 7      3570.259          42.937    20547867.000   107979785.298 4      3570.259          26.687    20547869.620    84140093.849 4      2782.020          26.937
R05  19299044.020   103164391.911 7      2929.619          44.312    19299044.180   103164391.906 7      2929.619          44.437    19299053.640    80239055.111 8      2278.593          49.625    19299053.900    80239056.109 8      2278.593          49.687
G03  22613360.860   118834006.092 6       443.764          38.687    22613360.380   118834006.107 4       443.764          24.000    22613367.400    92597956.954 4       345.790          24.062    22613369.160    92597966.903 5       345.790          34.437
> 2024 07 31 12 52 28.0000000  0  9
G09  20235343.160   106337449.001 8      3754.674          48.812    20235342.040   106337449.004 8      3754.674          50.500    20235348.400    82860380.761 8      2925.720          50.687    20235348.880    82860376.762 8      2925.720          51.000
G06  22124555.840   116265319.346 7      5071.782          43.062    22124554.320   116265319.359 6      5071.782          40.875    22124561.740    90596367.194 6      3952.038          40.750    22124563.060    90596393.193 7      3952.038          45.000
G04  20890420.180   109779906.682 7      1352.255          47.437    20890419.860   109779906.695 6      1352.255          38.375    20890424.880    85542800.582 6      1053.705          38.375    20890425.260    85542797.576 8      1053.705          50.437
G17  20644248.660   108486243.557 7      1961.999          45.875    20644246.660   108486243.559 7      1961.999          46.812    20644252.360    84534759.859 7      1528.830          46.375    20644252.800    84534765.858 8      1528.830          49.125
R04  20740254.520   111063129.875 7      -354.300          46.750    20740256.740   111063129.914 7      -354.300          45.437    20740265.900    86382476.913 8      -275.566          48.062    20740265.400    86382476.896 8      -275.566          48.125
R19  19874098.140   106313032.038 6      1705.443          38.625    19874099.140   106313032.045 6      1705.443          38.125    19874109.600    82687955.523 8      1326.456          48.062    19874109.860    82687954.525 8      1326.456          48.437
G19  20547192.600   107976215.346 7      3569.634          42.500    20547187.420   107976215.356 4      3569.634          26.687    20547190.300    84137312.074 4      2781.533          26.937
R05  19298495.860   103161462.702 7      2928.957          44.562    19298495.840   103161462.701 7      2928.957          44.687    19298505.840    80236776.838 8      2278.078          49.812    19298505.840    80236777.836 8      2278.078          50.250
G03  22613277.200   118833562.511 6       443.933          37.812    22613276.020   118833562.527 4       443.933          24.000    22613282.960    92597611.301 4       345.922          24.062    22613286.000    92597621.254 5       345.922          34.437
> 2024 07 31 12 52 29.0000000  0  9
G09  20234628.860   106333694.946 8      3753.582          49.000    20234627.660   106333694.946 8      3753.582          50.312    20234634.140    82857455.521 8      2924.869          50.437    20234634.700    82857451.524 8      2924.869          50.625
G06  22123590.880   116260247.948 7      5071.131          43.125    22123589.300   116260247.961 6      5071.131          40.687    22123596.620    90592415.459 6      3951.530          40.937    22123597.840    90592441.456 7      3951.530          45.375
G04  20890163.040   109778554.942 7      1351.233          46.812    20890162.700   109778554.953 6      1351.233          38.187    20890167.500    85541747.276 6      1052.909          38.000    20890168.020    85541744.269 8      1052.909          50.687
G17  20643875.380   108484282.141 7      1960.928          46.187    20643873.440   108484282.141 7      1960.928          46.562    20643879.040    84533231.479 7      1527.996          46.250    20643879.560    84533237.476 8      1527.996          49.812
R04  20740320.540   111063484.566 7      -355.047          47.375    20740322.720   111063484.605 7      -355.047          46.062    20740332.060    86382752.777 8      -276.147          48.000    20740331.640    86382752.765 8      -276.147          48.375
R19  19873780.060   106311326.922 6      1704.415          38.625    19873780.360   106311326.947 6      1704.415          38.125    19873791.220    82686629.334 8      1325.656          48.000    19873790.980    82686628.336 8      1325.656          48.250
G19  20546513.680   107972646.289 7      3568.526          42.375    20546508.420   107972646.301 4      3568.526          26.687    20546511.100    84134530.992 4      2780.670          26.937
R05  19297947.980   103158534.403 7      2927.781          44.125    19297948.020   103158534.404 7      2927.781          44.875    19297957.760    80234499.280 8      2277.163          49.937    19297958.220    80234500.274 8      2277.163          50.187
G03  22613191.960   118833119.126 6       443.362          38.062    22613191.560   118833119.141 4       443.362          24.000    22613198.520    92597265.800 4       345.477          24.062    22613202.300    92597275.753 5       345.477          34.437
> 2024 07 31 12 52 30.0000000  0  9
G09  20233914.520   106329941.689 8      3753.098          49.250    20233913.460   106329941.692 8      3753.098          50.687    20233919.940    82854530.907 8      2924.492          50.500    20233920.480    82854526.911 8      2924.492          50.750
G06  22122625.840   116255176.807 7      5071.307          43.062    22122624.340   116255176.815 6      5071.307          41.750    22122631.580    90588463.919 6      3951.668          41.250    22122632.920    90588489.913 7      3951.668          45.562
G04  20889905.980   109777203.952 8      1350.812          48.187    20889905.660   109777203.962 6      1350.812          38.500    20889910.460    85540694.552 6      1052.581          38.437    20889910.900    85540691.551 8      1052.581          50.750
G17  20643502.200   108482321.514 7      1960.430          47.562    20643500.260   108482321.513 7      1960.430          46.687    20643505.820    84531703.713 7      1527.607          46.750    20643506.200    84531709.711 8      1527.607          49.937
R04  20740386.740   111063839.770 7      -355.274          46.625    20740389.120   111063839.810 7      -355.274          45.625    20740398.460    86383029.048 8      -276.324          48.062    20740398.240    86383029.037 8      -276.324          48.625
R19  19873461.120   106309622.691 6      1704.249          38.875    19873462.020   106309622.700 6      1704.249          38.125    19873472.540    82685303.808 7      1325.527          47.687    19873472.440    82685302.806 7      1325.527          47.750
G19  20545834.200   107969078.119 7      3567.983          42.750    20545829.320   107969078.130 4      3567.983          26.687    20545832.120    84131750.599 4      2780.247          26.562
R05  19297399.940   103155607.041 7      2927.180          44.437    19297400.520   103155607.050 7      2927.180          45.187    19297410.320    80232222.447 8      2276.695          49.687    19297410.640    80232223.445 8      2276.695          50.000
G03  22613107.980   118832675.968 6       443.392          38.062    22613107.320   118832675.984 4       443.392          24.000    22613114.040    92596920.476 4       345.500          24.062    22613116.680    92596930.417 5       345.500          34.437
> 2024 07 31 12 52 31.0000000  0  9
G09  20233200.220   106326189.074 8      3752.236          49.500    20233199.300   106326189.076 8      3752.236          50.312    20233205.860    82851606.791 8      2923.820          50.125    20233206.480    82851602.795 8      2923.820          50.625
G06  22121660.780   116250105.811 7      5070.809          43.062    22121659.460   116250105.819 6      5070.809          41.187    22121666.620    90584512.494 6      3951.280          41.187    22121668.020    90584538.482 7      3951.280          45.125
G04  20889648.980   109775853.557 8      1350.011          48.812    20889648.640   109775853.565 6      1350.011          38.250    20889653.400    85539642.297 6      1051.957          38.500    20889653.860    85539639.285 8      1051.957          50.062
G17  20643129.020   108480361.498 7      1959.604          47.812    20643127.400   108480361.501 7      1959.604          46.750    20643132.780    84530176.427 7      1526.964          46.250    20643133.280    84530182.426 8      1526.964          49.000
R04  20740453.260   111064195.329 7      -355.758          46.375    20740455.380   111064195.365 7      -355.758          45.687    20740464.820    86383305.589 7      -276.700          47.500    20740464.320    86383305.581 8      -276.700          48.375
R19  19873143.200   106307919.217 6      1703.035          38.875    19873143.820   106307919.239 6      1703.035          38.125    19873154.040    82683978.893 7      1324.583          47.562    19873154.160    82683977.892 7      1324.583          47.687
G19  20545155.360   107965510.673 7      3567.015          42.500    20545150.360   107965510.683 4      3567.015          26.687    20545153.320    84128970.772 4      2779.492          26.562
R05  19296853.040   103152680.404 7      2926.255          44.875    19296853.180   103152680.421 7      2926.255          44.750    19296862.900    80229946.180 8      2275.976          49.125    19296863.040    80229947.176 8      2275.976          49.500
G03  22613023.620   118832232.782 6       443.244          38.000    22613023.040   118832232.798 4       443.244          24.000    22613029.700    92596575.135 4       345.385          24.062    22613034.400    92596585.091 5       345.385          33.625
> 2024 07 31 12 52 32.0000000  0  9
G09  20232486.320   106322437.252 8      3751.379          48.562    20232485.320   106322437.257 8      3751.379          50.500    20232491.920    82848683.297 8      2923.153          50.000    20232492.520    82848679.301 8      2923.153          51.125
G06  22120695.460   116245035.046 7      5070.543          43.750    22120694.480   116245035.056 6      5070.543          41.187    22120701.540    90580561.254 6      3951.073          40.937    22120703.260    90580587.244 7      3951.073          44.937
G04  20889392.380   109774503.896 8      1349.281          48.312    20889391.940   109774503.909 6      1349.281          38.687    20889396.640    85538590.612 6      1051.387          38.000    20889397.140    85538587.607 8      1051.387          50.437
G17  20642756.320   108478402.253 7      1958.807          46.750    20642754.600   108478402.255 7      1958.807          46.812    20642759.800    84528649.740 7      1526.343          46.562    20642760.640    84528655.737 8      1526.343          49.625
R04  20740519.940   111064551.425 7      -356.378          46.687    20740521.760   111064551.459 7      -356.378          45.562    20740531.320    86383582.553 8      -277.183          48.500    20740531.000    86383582.545 8      -277.183          48.687
R19  19872824.800   106306216.615 6      1702.183          38.875    19872825.180   106306216.629 6      1702.183          38.125    19872835.980    82682654.636 7      1323.920          47.750    19872835.800    82682653.636 7      1323.920          47.500
G19  20544476.700   107961944.107 7      3566.016          42.437    20544471.460   107961944.119 4      3566.016          26.250    20544474.260    84126191.632 4      2778.714          26.562
R05  19296305.800   103149754.654 7      2925.294          45.187    19296306.260   103149754.669 7      2925.294          44.875    19296315.680    80227670.593 8      2275.229          49.562    19296315.760    80227671.591 8      2275.229          49.562
G03  22612939.720   118831789.838 6       442.915          38.000    22612938.840   118831789.856 4       442.915          24.000    22612945.180    92596229.979 4       345.128          24.062    22612950.300    92596239.922 5       345.128          33.625
> 2024 07 31 12 52 33.0000000  0  9
G09  20231772.440   106318686.068 8      3750.987          48.625    20231771.440   106318686.073 8      3750.987          50.062    20231778.100    82845760.295 8      2922.847          50.375    20231778.740    82845756.301 8      2922.847          51.250
G06  22119730.500   116239964.407 7      5070.698          43.625    22119729.520   116239964.409 6      5070.698          41.062    22119736.540    90576610.103 6      3951.193          40.750    22119738.040    90576636.097 7      3951.193          44.812
G04  20889135.580   109773154.844 7      1348.864          47.750    20889135.260   109773154.855 6      1348.864          38.750    20889139.980    85537539.397 6      1051.063          38.375    20889140.320    85537536.394 8      1051.063          50.562
G17  20642383.580   108476443.630 7      1958.434          46.687    20642381.960   108476443.632 7      1958.434          46.437    20642387.080    84527123.538 7      1526.052          46.187    20642387.840    84527129.538 8      1526.052          49.500
R04  20740586.500   111064907.856 7      -356.556          46.875    20740588.620   111064907.887 7      -356.556          45.125    20740597.840    86383859.769 8      -277.322          48.375    20740597.600    86383859.756 8      -277.322          48.250
R19  19872506.060   106304514.716 6      1701.750          38.875    19872506.880   106304514.720 6      1701.750          37.937    19872517.800    82681330.927 7      1323.583          47.750    19872517.720    82681329.924 7      1323.583          47.812
G19  20543798.220   107958378.260 7      3565.648          42.437    20543792.860   107958378.273 4      3565.648          26.250    20543795.580    84123413.054 4      2778.427          26.562
R05  19295758.740   103146829.621 7      2924.771          45.437    19295759.160   103146829.630 7      2924.771          45.000    19295768.500    80225395.565 8      2274.822          50.000    19295768.440    80225396.563 8      2274.822          49.625
G03  22612855.120   118831346.923 6       443.006          37.687    22612854.720   118831346.935 4       443.006          24.000    22612860.820    92595884.844 4       345.200          24.062    22612864.860    92595894.766 5       345.200          33.625
> 2024 07 31 12 52 34.0000000  0  9
G09  20231058.900   106314935.549 8      3750.056          48.187    20231057.740   106314935.554 8      3750.056          48.625    20231064.420    82842837.817 8      2922.121          49.062    20231065.200    82842833.819 8      2922.121          50.125
G06  22118765.700   116234893.915 7      5070.137          42.687    22118764.540   116234893.923 6      5070.137          40.187    22118771.460    90572659.079 6      3950.756          40.312    22118772.980    90572685.067 7      3950.756          44.750
G04  20888878.860   109771806.392 7      1347.985          47.375    20888878.520   109771806.405 6      1347.985          37.812    20888883.460    85536488.657 6      1050.378          38.125    20888883.540    85536485.654 8      1050.378          49.687
G17  20642011.120   108474485.659 7      1957.531          47.062    20642009.500   108474485.661 7      1957.531          45.750    20642014.400    84525597.841 7      1525.349          45.312    20642015.260    84525603.838 8      1525.349          48.687
R04  20740652.920   111065264.598 7      -357.128          46.812    20740654.860   111065264.640 7      -357.128          45.125    20740664.540    86384137.241 7      -277.766          46.937    20740664.600    86384137.235 7      -277.766          47.250
R19  19872188.080   106302813.550 6      1700.795          38.812    19872189.280   106302813.570 6      1700.795          37.937    19872199.740    82680007.806 7      1322.840          46.500    19872199.360    82680006.804 7      1322.840          47.187
G19  20543119.620   107954813.173 6      3564.678          41.500    20543114.440   107954813.186 4      3564.678          26.250    20543117.080    84120635.066 4      2777.671          26.562
R05  19295211.660   103143905.349 7      2923.645          45.562    19295212.360   103143905.369 7      2923.645          44.812    19295221.580    80223121.137 7      2273.946          47.875    19295221.300    80223122.136 8      2273.946          48.500
G03  22612770.760   118830904.052 6       442.537          36.937    22612770.600   118830904.065 4       442.537          24.000    22612776.320    92595539.744 4       344.834          24.062    22612780.480    92595549.678 5       344.834          33.625
> 2024 07 31 12 52 35.0000000  0  9
G09  20230345.340   106311185.782 7      3749.402          47.625    20230344.120   106311185.795 7      3749.402          47.937    20230350.880    82839915.927 7      2921.612          47.250    20230351.740    82839911.928 8      2921.612          48.875
G06  22117800.920   116229823.631 7      5070.192          44.062    22117799.780   116229823.641 6      5070.192          40.437    22117806.600    90568708.210 6      3950.799          40.250    22117808.260    90568734.194 7      3950.799          44.437
G04  20888622.480   109770458.659 7      1347.307          46.687    20888622.000   109770458.672 6      1347.307          37.625    20888627.060    85535438.478 6      1049.850          37.625    20888627.180    85535435.474 8      1049.850          48.312
G17  20641638.540   108472528.421 7      1956.860          47.312    20641637.040   108472528.429 7      1956.860          45.187    20641641.960    84524072.720 7      1524.826          44.812    20641642.880    84524078.719 7      1524.826          47.812
R04  20740719.760   111065621.784 7      -357.406          46.062    20740721.960   111065621.829 7      -357.406          45.125    20740731.040    86384415.058 7      -277.982          45.937    20740731.280    86384415.054 7      -277.982          46.250
R19  19871870.100   106301113.264 6      1699.894          38.812    19871870.900   106301113.268 6      1699.894          37.937    19871882.060    82678685.347 7      1322.140          45.937    19871881.740    82678684.345 7      1322.140          45.812
G19  20542441.400   107951248.938 6      3563.845          41.375    20542436.000   107951248.948 4      3563.845          26.250    20542438.920    84117857.740 4      2777.022          26.562
R05  19294664.940   103140981.957 7      2922.925          45.937    19294665.380   103140981.969 7      2922.925          44.812    19294674.700    80220847.388 7      2273.386          47.625    19294674.700    80220848.386 7      2273.386          47.875
G03  22612686.340   118830461.299 6       442.665          36.937    22612686.300   118830461.312 3       442.665          23.937    22612691.980    92595194.736 3       344.934          23.750    22612696.120    92595204.690 5       344.934          33.625
> 2024 07 31 12 52 36.0000000  0  9
G09  20229631.840   106307436.837 7      3748.574          47.187    20229630.640   106307436.842 8      3748.574          48.000    20229637.480    82836994.667 8      2920.967          48.000    20229638.320    82836990.670 8      2920.967          49.750
G06  22116836.060   116224753.647 7      5069.827          43.250    22116835.100   116224753.657 6      5069.827          40.062    22116841.620    90564757.574 6      3950.515          39.937    22116843.620    90564783.556 7      3950.515          44.000
G04  20888366.220   109769111.649 7      1346.753          47.062    20888365.580   109769111.662 6      1346.753          38.375    20888370.780    85534388.859 6      1049.418          37.875    20888371.040    85534385.852 8      1049.418          49.562
G17  20641266.340   108470571.966 7      1956.119          46.937    20641264.800   108470571.969 7      1956.119          45.375    20641269.540    84522548.206 7      1524.248          45.062    20641270.420    84522554.199 8      1524.248          48.687
R04  20740786.500   111065979.503 7      -357.942          46.312    20740788.880   111065979.542 7      -357.942          45.187    20740798.300    86384693.274 7      -278.399          46.562    20740798.000    86384693.270 7      -278.399          46.312
R19  19871552.860   106299413.853 6      1698.841          38.812    19871553.040   106299413.857 6      1698.841          37.937    19871564.060    82677363.576 7      1321.321          46.187    19871564.080    82677362.574 7      1321.321          46.250
G19  20541763.540   107947685.593 6      3562.831          41.812    20541758.040   107947685.603 4      3562.831          26.250    20541760.880    84115081.103 4      2776.232          25.812
R05  19294118.260   103138059.503 7      2922.060          46.250    19294118.900   103138059.504 7      2922.060          44.937    19294128.000    80218574.357 7      2272.713          47.875    19294128.000    80218575.354 8      2272.713          48.000
G03  22612602.600   118830018.802 6       442.233          36.687    22612601.980   118830018.817 3       442.233          23.937    22612607.840    92594849.924 3       344.597          23.750    22612610.540    92594859.850 5       344.597          33.625
> 2024 07 31 12 52 37.0000000  0  9
G09  20228918.900   106303688.483 7      3748.031          47.750    20228917.400   106303688.491 8      3748.031          49.875    20228924.200    82834073.872 8      2920.543          50.000    20228924.780    82834069.877 8      2920.543          51.125
G06  22115871.480   116219683.717 7      5069.856          42.625    22115870.320   116219683.722 6      5069.856          40.812    22115876.760    90560806.980 6      3950.537          41.000    22115878.640    90560832.968 7      3950.537          44.312
G04  20888109.960   109767765.209 7      1346.098          47.062    20888109.420   109767765.227 6      1346.098          38.125    20888114.460    85533339.685 6      1048.908          37.875    20888114.380    85533336.678 8      1048.908          49.750
G17  20640894.200   108468616.087 7      1955.531          47.125    20640892.680   108468616.092 7      1955.531          46.625    20640897.380    84521024.142 7      1523.790          46.000    20640898.200    84521030.133 8      1523.790          49.437
R04  20740853.280   111066337.541 7      -358.315          47.187    20740855.920   111066337.577 7      -358.315          45.812    20740865.240    86384971.746 8      -278.689          48.187    20740864.820    86384971.741 8      -278.689          48.312
R19  19871235.680   106297715.054 6      1698.360          38.812    19871235.280   106297715.061 6      1698.360          37.937    19871246.340    82676042.282 7      1320.947          47.812    19871246.440    82676041.278 7      1320.947          47.875
G19  20541085.740   107944122.912 6      3562.154          41.562    20541080.100   107944122.917 4      3562.154          25.562    20541082.820    84112304.987 4      2775.704          25.812
R05  19293571.680   103135137.767 7      2921.352          46.187    19293572.420   103135137.774 7      2921.352          45.062    19293581.460    80216301.897 8      2272.163          48.625    19293581.480    80216302.895 8      2272.163          49.000
G03  22612517.620   118829576.246 6       442.412          36.687    22612517.760   118829576.259 3       442.412          23.937    22612523.720    92594505.068 3       344.736          23.750    22612526.440    92594515.020 5       344.736          33.625
> 2024 07 31 12 52 38.0000000  0  9
G09  20228205.800   106299940.844 7      3747.377          47.625    20228204.220   106299940.846 8      3747.377          50.062    20228210.960    82831153.629 8      2920.034          50.250    20228211.580    82831149.635 8      2920.034          51.312
G06  22114906.940   116214613.979 7      5069.594          42.312    22114905.560   116214613.992 6      5069.594          40.625    22114912.040    90556856.541 6      3950.333          40.812    22114913.180    90556882.535 7      3950.333          44.687
G04  20887853.820   109766419.431 7      1345.495          46.500    20887853.300   109766419.449 6      1345.495          38.562    20887858.360    85532291.025 6      1048.437          38.062    20887858.320    85532288.022 8      1048.437          50.687
G17  20640522.160   108466660.898 7      1954.879          46.875    20640520.800   108466660.906 7      1954.879          46.500    20640525.220    84519500.616 7      1523.283          46.187    20640525.980    84519506.611 8      1523.283          49.312
R04  20740920.320   111066695.988 7      -358.594          47.062    20740922.820   111066696.027 7      -358.594          45.437    20740932.080    86385250.538 8      -278.906          48.312    20740931.800    86385250.534 8      -278.906          48.437
R19  19870918.580   106296017.082 6      1697.552          38.500    19870918.240   106296017.086 6      1697.552          37.812    19870929.000    82674721.637 7      1320.318          47.625    19870929.140    82674720.629 7      1320.318          47.687
G19  20540407.760   107940561.005 6      3561.564          41.250    20540402.320   107940561.010 4      3561.564          25.562    20540405.000    84109529.477 4      2775.245          25.812
R05  19293025.360   103132216.871 7      2920.486          46.312    19293026.320   103132216.883 7      2920.486          45.250    19293035.100    80214030.097 8      2271.489          50.187    19293035.100    80214031.095 8      2271.489          49.562
G03  22612433.860   118829133.780 6       442.580          36.687    22612433.600   118829133.790 3       442.580          23.937    22612439.480    92594160.279 3       344.868          23.750    22612442.300    92594170.209 5       344.868          33.625
> 2024 07 31 12 52 39.0000000  0  9
G09  20227492.380   106296193.857 8      3746.539          48.375    20227491.140   106296193.859 8      3746.539          50.500    20227497.960    82828233.901 8      2919.381          50.500    20227498.540    82828229.907 8      2919.381          51.125
G06  22113942.040   116209544.368 7      5069.317          43.250    22113940.880   116209544.381 6      5069.317          41.125    22113947.280    90552906.201 6      3950.117          40.812    22113947.920    90552932.187 7      3950.117          44.312
G04  20887598.020   109765074.255 7      1344.734          46.812    20887597.420   109765074.273 6      1344.734          38.437    20887602.340    85531242.836 6      1047.845          38.312    20887602.340    85531239.829 8      1047.845          50.000
G17  20640150.200   108464706.351 7      1954.072          47.875    20640148.960   108464706.356 7      1954.072          46.437    20640153.180    84517977.584 7      1522.653          46.250    20640154.140    84517983.583 8      1522.653          49.562
R04  20740987.280   111067054.813 7      -359.174          47.875    20740990.080   111067054.852 7      -359.174          45.125    20740999.480    86385529.618 8      -279.357          48.250    20740999.180    86385529.611 8      -279.357          49.187
R19  19870601.940   106294319.837 6      1696.614          38.500    19870600.880   106294319.833 6      1696.614          37.812    19870611.620    82673401.550 8      1319.588          48.312    19870611.720    82673400.554 7      1319.588          47.625
G19  20539730.060   107936999.880 7      3560.571          42.437    20539724.540   107936999.882 4      3560.571          25.562    20539727.240    84106754.574 4      2774.471          25.812
R05  19292478.920   103129296.702 7      2919.724          46.062    19292479.980   103129296.709 7      2919.724          45.750    19292488.740    80211758.850 8      2270.896          49.750    19292488.580    80211759.842 8      2270.896          49.750
G03  22612349.520   118828691.411 6       442.131          36.750    22612349.360   118828691.419 3       442.131          23.937    22612355.240    92593815.574 3       344.517          23.750    22612358.200    92593825.518 5       344.517          33.625
