     3.05           OBSERVATION DATA    MIXED               RINEX VERSION / TYPE
TPS2RIN 1.0.29.3920 TPS-USER            20240801 093645 UTC PGM / RUN BY / DATE
Win64 build Feb 23, 2024 (c) Topcon Positioning Systems     COMMENT
SRC: 20240731_CAMI6.tps                                     COMMENT
OPT: -S -v 3.05                                             COMMENT
Observer            Agency                                  OBSERVER / AGENCY
O0M3X53SBGM         TPS HIPER_SR        4.8 HSR Jul,08,2022 REC # / TYPE / VERS
FW: 4.8 HSR Jul,08,2022 p3                                  COMMENT
SN: HiPer SR 1212-12575                                     COMMENT
000                 TPSHIPER_SR     NONE                    ANT # / TYPE
        1.8000        0.0000        0.0000                  ANTENNA: DELTA H/E/N
CAMI6                                                       MARKER NAME
  5389283.8418 -1596626.7044  3008844.9536                  APPROX POSITION XYZ
  2024     7    31    14    15    2.0000000     GPS         TIME OF FIRST OBS
  2024     7    31    14    30    7.0000000     GPS         TIME OF LAST OBS
     1.000                                                  INTERVAL
   906 EPOCHS                                               COMMENT
G   16 C1C L1C D1C S1C C1W L1W D1W S1W C2W L2W D2W S2W C2X  SYS / # / OBS TYPES
       L2X D2X S2X                                          SYS / # / OBS TYPES
R   16 C1C L1C D1C S1C C1P L1P D1P S1P C2P L2P D2P S2P C2C  SYS / # / OBS TYPES
       L2C D2C S2C                                          SYS / # / OBS TYPES
    14                                                      # OF SATELLITES
   G04   906   906   906   906   906   906   906   906   906PRN / # OF OBS
         906   906   906   906   906   906   906            PRN / # OF OBS
   G06   906   906   906   906   906   906   906   906   906PRN / # OF OBS
         906   906   906   906   906   906   906            PRN / # OF OBS
   G07   906   906   906   906   906   906   906   906   906PRN / # OF OBS
         906   906   906   906   906   906   906            PRN / # OF OBS
   G09   906   906   906   906   906   906   906   906   906PRN / # OF OBS
         906   906   906   906   906   906   906            PRN / # OF OBS
   G11   906   906   906   906   906   906   906   906   906PRN / # OF OBS
         906   906   906   906   906   906   906            PRN / # OF OBS
   G17   906   906   906   906   906   906   906   906   906PRN / # OF OBS
         906   906   906   906   906   906   906            PRN / # OF OBS
   G19   906   906   906   906   906   906   906   906   906PRN / # OF OBS
         906   906   906     0     0     0     0            PRN / # OF OBS
   G20   906   906   906   906   906   906   906   906   906PRN / # OF OBS
         906   906   906     0     0     0     0            PRN / # OF OBS
   G30   906   906   906   906   906   906   906   906   906PRN / # OF OBS
         906   906   906   906   906   906   906            PRN / # OF OBS
   R04   302   302   302   302   302   302   302   302   302PRN / # OF OBS
         302   302   302   302   302   302   302            PRN / # OF OBS
   R05   906   906   906   906   906   906   906   906   906PRN / # OF OBS
         906   906   906   906   906   906   906            PRN / # OF OBS
   R06   906   906   906   906   906   906   906   906     0PRN / # OF OBS
           0     0     0     0     0     0     0            PRN / # OF OBS
   R07   188   188   188   188   188   188   188   188   188PRN / # OF OBS
         188   188   188   188   188   188   188            PRN / # OF OBS
   R21   906   906   906   906   906   906   906   906   906PRN / # OF OBS
         906   906   906   906   906   906   906            PRN / # OF OBS
G L1C                                                       SYS / PHASE SHIFT
G L1W -0.25000                                              SYS / PHASE SHIFT
G L2W  0.00000                                              SYS / PHASE SHIFT
G L2X  0.25000                                              SYS / PHASE SHIFT
R L1C                                                       SYS / PHASE SHIFT
R L1P -0.25000                                              SYS / PHASE SHIFT
R L2P -0.25000                                              SYS / PHASE SHIFT
R L2C                                                       SYS / PHASE SHIFT
  5 R04  6 R05  1 R06 -4 R07  5 R21  4                      GLONASS SLOT / FRQ #
                                                            GLONASS COD/PHS/BIS
    18    18  1929     7GPS                                 LEAP SECONDS
                                                            END OF HEADER
> 2024 07 31 14 15  2.0000000  0 13
R06  20904352.180   111549632.136 6      3957.512          38.687    20904351.440   111549632.139 6      3957.512          37.375
G20  23764417.420   124882856.955 6      4748.469          39.562    23764415.420   124882856.960 4      4748.469          26.875    23764424.800    97311330.438 4      3700.106          26.500
G07  22239119.080   116867365.588 7      4307.819          44.875    22239117.900   116867365.585 7      4307.819          43.250    22239130.320    91065526.796 7      3356.742          43.062    22239130.760    91065543.806 7      3356.742          45.937
G06  20295910.620   106655727.132 8      3611.565          49.125    20295909.720   106655727.140 8      3611.565          50.500    20295916.640    83108384.565 8      2814.206          51.000    20295917.640    83108388.566 8      2814.206          51.250
G09  20552814.640   108005767.445 8       875.327          48.625    20552813.800   108005767.452 8       875.327          49.937    20552820.740    84160362.367 8       682.073          50.250    20552821.300    84160365.371 8       682.073          50.437
G11  22781429.040   119717215.678 7      5570.233          44.000    22781428.140   119717215.688 5      5570.233          33.250    22781434.160    93286158.929 5      4340.441          33.062    22781434.880    93286171.934 7      4340.441          47.687
G04  23087270.940   121324424.499 7      -516.423          42.500    23087270.320   121324424.509 4      -516.423          29.125    23087278.880    94538544.018 4      -402.408          29.000    23087279.680    94538545.986 7      -402.408          45.562
R21  21613102.900   115656077.788 7      6309.818          45.125    21613103.980   115656077.795 7      6309.818          44.375    21613116.040    89954787.289 8      4907.636          48.937    21613115.620    89954784.291 8      4907.636          48.937
G30  23297079.080   122426971.183 6      5563.537          41.625    23297078.260   122426971.185 6      5563.537          40.687    23297095.480    95397710.271 6      4335.224          40.500    23297095.860    95397716.274 7      4335.224          45.062
R05  20372359.240   108901932.267 8       407.609          49.500    20372359.180   108901932.274 7       407.609          47.875    20372369.640    84701544.205 8       317.029          49.750    20372369.660    84701547.204 8       317.029          49.687
R04  23796727.760   127430408.592 6      -625.547          40.437    23796730.320   127430408.653 6      -625.547          39.312    23796745.560    99112596.028 7      -486.537          43.812    23796744.920    99112598.038 7      -486.537          43.562
G19  21265325.100   111750024.613 7       228.825          47.437    21265323.080   111750024.616 6       228.825          38.250    21265331.660    87077968.033 6       178.306          38.437
G17  22425000.860   117844174.587 7      -278.725          43.750    22424998.720   117844174.586 7      -278.725          42.437    22425014.140    91826683.174 7      -217.189          42.187    22425014.680    91826680.175 7      -217.189          46.437
> 2024 07 31 14 15  3.0000000  0 13
R06  20903610.780   111545675.006 6      3956.976          38.312    20903610.420   111545675.017 6      3956.976          37.062
G20  23763513.720   124878108.408 6      4748.793          39.500    23763511.680   124878108.410 4      4748.793          26.875    23763521.200    97307630.272 4      3700.358          26.875
G07  22238299.200   116863058.043 7      4307.425          44.812    22238298.140   116863058.045 7      4307.425          42.875    22238310.680    91062170.276 7      3356.435          42.687    22238310.760    91062187.290 7      3356.435          45.937
G06  20295223.220   106652115.743 8      3611.146          48.250    20295222.500   106652115.751 8      3611.146          49.750    20295229.380    83105570.496 8      2813.880          50.625    20295230.420    83105574.496 8      2813.880          51.375
G09  20552648.180   108004892.363 8       874.967          48.000    20552647.300   108004892.368 8       874.967          49.500    20552654.280    84159680.481 8       681.793          50.000    20552654.800    84159683.485 8       681.793          50.062
G11  22780369.120   119711645.514 7      5570.364          44.062    22780368.460   119711645.516 5      5570.364          33.250    22780374.380    93281818.541 5      4340.543          33.062    22780374.860    93281831.530 7      4340.543          47.625
G04  23087369.500   121324941.027 6      -516.486          41.937    23087368.600   121324941.037 4      -516.486          29.125    23087377.180    94538946.501 4      -402.457          28.750    23087377.920    94538948.487 7      -402.457          45.062
R21  21611923.700   115649768.157 7      6309.572          43.937    21611924.280   115649768.174 7      6309.572          44.125    21611936.920    89949879.810 8      4907.445          48.562    21611936.880    89949876.816 8      4907.445          48.375
G30  23296020.500   122421407.850 6      5563.211          41.437    23296019.400   122421407.861 6      5563.211          40.437    23296036.800    95393375.213 6      4334.970          39.437    23296037.180    95393381.216 7      4334.970          44.687
R05  20372283.080   108901524.772 8       407.411          48.812    20372283.100   108901524.773 7       407.411          47.812    20372293.480    84701227.256 8       316.875          49.937    20372293.260    84701230.254 8       316.875          49.500
R04  23796844.640   127431034.008 6      -625.240          40.125    23796847.440   127431034.052 6      -625.240          39.312    23796862.080    99113082.450 7      -486.297          43.312    23796861.740    99113084.454 7      -486.297          43.500
G19  21265281.540   111749796.014 7       228.451          46.750    21265279.540   111749796.014 6       228.451          38.375    21265288.160    87077789.894 6       178.014          38.625
G17  22425054.120   117844453.469 7      -278.855          44.000    22425051.480   117844453.482 7      -278.855          42.375    22425067.160    91826900.489 7      -217.289          42.250    22425067.860    91826897.496 7      -217.289          46.312
> 2024 07 31 14 15  4.0000000  0 13
R06  20902869.880   111541718.249 6      3956.425          38.312    20902868.500   111541718.255 6      3956.425          37.062
G20  23762609.780   124873359.810 6      4748.601          38.875    23762608.140   124873359.815 4      4748.601          26.875    23762617.560    97303930.070 4      3700.209          26.875
G07  22237479.980   116858750.788 7      4307.020          45.250    22237478.500   116858750.795 7      4307.020          43.000    22237490.960    91058813.987 7      3356.120          42.562    22237491.400    91058831.001 7      3356.120          45.750
G06  20294536.120   106648504.759 8      3610.650          48.937    20294535.360   106648504.764 8      3610.650          50.250    20294542.260    83102756.739 8      2813.493          50.875    20294543.420    83102760.740 8      2813.493          51.375
G09  20552481.760   108004017.621 8       874.491          48.437    20552480.800   108004017.628 8       874.491          50.000    20552487.800    84158998.865 8       681.421          50.125    20552488.280    84159001.865 8       681.421          50.312
G11  22779308.820   119706075.452 7      5569.947          44.187    22779308.320   119706075.454 5      5569.947          33.250    22779314.480    93277478.239 5      4340.219          32.875    22779315.080    93277491.243 7      4340.219          47.312
G04  23087467.720   121325457.633 7      -516.626          43.375    23087466.920   121325457.649 4      -516.626          28.625    23087475.520    94539349.054 4      -402.566          28.750    23087475.920    94539351.048 7      -402.566          44.250
R21  21610744.660   115643458.868 7      6309.007          44.250    21610744.960   115643458.896 7      6309.007          43.875    21610757.880    89944972.602 8      4907.005          49.000    21610757.540    89944969.606 8      4907.005          48.625
G30  23294961.540   122415844.468 6      5563.328          41.437    23294960.520   122415844.473 6      5563.328          40.750    23294978.160    95389040.109 6      4335.061          40.062    23294978.440    95389046.117 7      4335.061          45.125
R05  20372207.020   108901117.401 8       407.226          49.062    20372206.880   108901117.400 8       407.226          48.500    20372217.320    84700910.410 8       316.731          49.750    20372217.140    84700913.411 8       316.731          49.500
R04  23796961.260   127431659.212 6      -625.253          40.125    23796964.220   127431659.257 6      -625.253          39.312    23796979.220    99113568.718 7      -486.308          43.250    23796978.140    99113570.724 7      -486.308          43.500
G19  21265237.780   111749567.830 7       227.898          46.125    21265236.260   111749567.830 6       227.898          38.687    21265244.800    87077612.080 6       177.583          38.687
G17  22425107.100   117844732.511 7      -279.196          44.375    22425104.520   117844732.519 7      -279.196          42.375    22425120.140    91827117.918 6      -217.556          41.812    22425120.900    91827114.927 7      -217.556          46.437
> 2024 07 31 14 15  5.0000000  0 13
R06  20902127.760   111537761.986 6      3956.083          38.312    20902127.440   111537761.981 6      3956.083          37.062
G20  23761705.920   124868611.266 6      4748.565          39.562    23761704.640   124868611.273 4      4748.565          26.875    23761713.980    97300229.912 4      3700.181          26.875
G07  22236660.120   116854443.997 7      4306.577          45.062    22236658.880   116854443.999 7      4306.577          42.750    22236671.380    91055458.051 7      3355.774          42.375    22236671.740    91055475.061 7      3355.774          45.750
G06  20293849.160   106644894.313 8      3610.179          48.937    20293848.300   106644894.318 8      3610.179          49.750    20293855.140    83099943.405 8      2813.126          50.500    20293856.320    83099947.406 8      2813.126          51.562
G09  20552315.360   108003143.380 8       873.983          48.125    20552314.460   108003143.387 8       873.983          49.812    20552321.520    84158317.637 8       681.026          50.187    20552322.100    84158320.640 8       681.026          50.125
G11  22778249.360   119700505.606 7      5569.748          43.687    22778248.540   119700505.610 5      5569.748          33.250    22778254.460    93273138.099 5      4340.063          32.875    22778255.040    93273151.103 7      4340.063          47.500
G04  23087566.180   121325974.482 6      -516.990          41.687    23087565.180   121325974.495 4      -516.990          28.625    23087573.800    94539751.789 4      -402.849          28.750    23087574.100    94539753.781 7      -402.849          44.000
R21  21609565.660   115637150.025 7      6308.670          44.250    21609566.180   115637150.051 7      6308.670          44.312    21609578.740    89940065.727 8      4906.743          48.687    21609578.700    89940062.728 7      4906.743          47.812
G30  23293902.880   122410281.274 6      5563.256          41.500    23293901.660   122410281.282 6      5563.256          39.875    23293919.500    95384705.154 6      4335.005          39.375    23293920.000    95384711.155 7      4335.005          45.000
R05  20372130.940   108900710.339 8       406.937          49.500    20372130.640   108900710.343 8       406.937          48.437    20372141.180    84700593.804 8       316.506          49.687    20372141.240    84700596.802 8       316.506          49.625
R04  23797078.080   127432284.344 6      -625.143          40.125    23797080.140   127432284.389 6      -625.143          38.750    23797095.300    99114054.932 7      -486.222          43.062    23797095.020    99114056.938 7      -486.222          43.562
G19  21265194.360   111749340.179 7       227.427          46.562    21265192.860   111749340.181 6       227.427          38.750    21265201.580    87077434.681 6       177.216          38.562
G17  22425160.300   117845011.814 7      -279.393          44.125    22425157.740   117845011.819 7      -279.393          42.125    22425173.420    91827335.551 6      -217.709          41.625    22425174.100    91827332.553 7      -217.709          46.375
> 2024 07 31 14 15  6.0000000  0 13
R06  20901386.540   111533806.256 6      3955.639          38.312    20901385.720   111533806.244 6      3955.639          37.062
G20  23760802.740   124863862.755 6      4748.636          40.250    23760801.040   124863862.760 4      4748.636          26.875    23760810.380    97296529.776 4      3700.236          26.875
G07  22235840.560   116850137.616 7      4306.185          45.000    22235839.340   116850137.621 7      4306.185          42.562    22235851.940    91052102.437 7      3355.469          42.625    22235852.400    91052119.450 7      3355.469          46.312
G06  20293162.120   106641284.398 8      3609.804          49.937    20293161.400   106641284.400 8      3609.804          50.250    20293168.200    83097130.480 8      2812.834          50.562    20293169.160    83097134.481 8      2812.834          50.937
G09  20552149.080   108002269.586 8       873.637          48.687    20552148.180   108002269.593 8       873.637          49.812    20552155.240    84157636.758 8       680.756          50.000    20552155.620    84157639.760 8       680.756          49.812
G11  22777189.420   119694935.954 7      5569.644          44.125    22777188.740   119694935.961 5      5569.644          33.375    22777194.540    93268798.119 5      4339.983          33.062    22777195.540    93268811.122 7      4339.983          47.375
G04  23087664.480   121326491.475 6      -516.955          41.875    23087663.440   121326491.488 4      -516.955          28.625    23087672.060    94540154.633 4      -402.822          28.750    23087672.340    94540156.637 7      -402.822          44.125
R21  21608386.960   115630841.632 7      6308.257          44.875    21608387.500   115630841.658 7      6308.257          43.625    21608399.900    89935159.201 8      4906.422          48.875    21608399.680    89935156.198 8      4906.422          48.500
G30  23292844.700   122404718.233 6      5563.076          41.375    23292843.220   122404718.238 6      5563.076          40.062    23292860.820    95380370.323 6      4334.864          40.125    23292861.280    95380376.324 7      4334.864          44.875
R05  20372054.980   108900303.549 8       406.756          49.187    20372054.740   108900303.547 8       406.756          48.187    20372064.980    84700277.410 8       316.366          49.625    20372065.160    84700280.410 8       316.366          49.562
R04  23797195.320   127432909.401 6      -625.189          40.125    23797196.140   127432909.446 6      -625.189          38.750    23797211.920    99114541.094 7      -486.258          42.750    23797211.700    99114543.095 7      -486.258          43.125
G19  21265151.460   111749113.067 8       226.923          48.062    21265149.580   111749113.069 6       226.923          39.062    21265158.400    87077257.701 6       176.823          39.000
G17  22425213.560   117845291.371 7      -279.574          43.687    22425210.860   117845291.379 7      -279.574          42.312    22425226.660    91827553.383 6      -217.850          41.875    22425227.480    91827550.390 7      -217.850          46.062
> 2024 07 31 14 15  7.0000000  0 13
R06  20900645.820   111529850.943 6      3954.788          38.375    20900644.280   111529850.936 6      3954.788          37.062
G20  23759899.180   124859114.174 6      4748.547          39.562    23759897.560   124859114.176 4      4748.547          26.875    23759906.920    97292829.587 4      3700.167          26.875
G07  22235021.060   116845831.546 7      4305.758          44.812    22235019.880   116845831.551 7      4305.758          42.250    22235032.340    91048747.068 7      3355.136          42.187    22235032.900    91048764.078 7      3355.136          45.250
G06  20292475.160   106637674.924 8      3609.067          49.375    20292474.500   106637674.924 8      3609.067          48.812    20292481.420    83094317.903 8      2812.260          48.875    20292482.480    83094321.904 8      2812.260          49.500
G09  20551982.860   108001396.172 8       872.998          48.125    20551981.960   108001396.177 8       872.998          49.375    20551989.080    84156956.174 8       680.258          49.375    20551989.620    84156959.178 8       680.258          48.500
G11  22776129.100   119689366.444 7      5569.243          43.875    22776128.840   119689366.449 5      5569.243          33.375    22776134.860    93264458.243 5      4339.670          33.062    22776135.620    93264471.236 7      4339.670          46.500
G04  23087762.780   121327008.584 6      -517.327          40.375    23087761.920   121327008.591 4      -517.327          28.625    23087770.480    94540557.568 4      -403.112          28.687    23087770.980    94540559.577 7      -403.112          44.437
R21  21607208.140   115624533.587 7      6307.663          44.375    21607208.640   115624533.605 7      6307.663          43.625    21607221.120    89930252.942 7      4905.960          47.375    21607220.720    89930249.945 7      4905.960          46.875
G30  23291785.940   122399155.185 6      5563.036          41.687    23291784.780   122399155.189 6      5563.036          39.937    23291802.060    95376035.479 6      4334.833          39.562    23291802.520    95376041.485 7      4334.833          44.812
R05  20371978.880   108899896.922 8       406.370          49.062    20371978.800   108899896.920 8       406.370          48.312    20371989.020    84699961.142 8       316.065          48.312    20371989.000    84699964.140 7       316.065          47.875
R04  23797311.640   127433534.140 6      -624.756          39.062    23797312.680   127433534.179 6      -624.756          38.750    23797328.300    99115026.997 7      -485.922          42.250    23797328.160    99115029.001 7      -485.922          42.500
G19  21265108.320   111748886.354 7       226.403          46.750    21265106.540   111748886.359 6       226.403          38.250    21265115.140    87077081.037 6       176.418          37.937
G17  22425266.640   117845571.091 7      -279.985          43.812    22425264.220   117845571.104 7      -279.985          42.312    22425279.800    91827771.347 6      -218.170          41.937    22425280.400    91827768.346 7      -218.170          45.687
> 2024 07 31 14 15  8.0000000  0 13
R06  20899904.940   111525896.094 6      3954.475          38.375    20899903.760   111525896.071 6      3954.475          37.312
G20  23758995.640   124854365.629 6      4748.434          39.812    23758993.980   124854365.634 4      4748.434          27.187    23759003.300    97289129.426 4      3700.078          27.062
G07  22234201.800   116841525.885 7      4305.399          45.062    22234200.420   116841525.892 7      4305.399          43.000    22234212.980    91045392.016 7      3354.856          42.562    22234213.400    91045409.026 7      3354.856          45.625
G06  20291788.340   106634065.931 8      3608.749          49.187    20291787.720   106634065.934 8      3608.749          50.125    20291794.600    83091505.697 8      2812.012          50.000    20291795.540    83091509.698 8      2812.012          51.750
G09  20551816.600   108000523.195 8       872.718          48.812    20551815.760   108000523.200 8       872.718          50.375    20551822.880    84156275.928 8       680.040          50.062    20551823.320    84156278.930 8       680.040          50.375
G11  22775069.680   119683797.092 7      5569.143          43.937    22775069.120   119683797.094 5      5569.143          33.125    22775074.960    93260118.486 5      4339.592          33.000    22775075.800    93260131.485 7      4339.592          47.312
G04  23087861.200   121327525.826 6      -517.325          40.312    23087860.260   121327525.834 4      -517.325          28.812    23087869.020    94540960.610 4      -403.110          28.687    23087869.800    94540962.619 7      -403.110          45.000
R21  21606029.080   115618226.002 7      6307.247          43.437    21606029.820   115618226.028 7      6307.247          44.250    21606042.300    89925347.049 8      4905.636          48.687    21606042.280    89925344.050 8      4905.636          48.375
G30  23290727.100   122393592.301 6      5562.920          41.437    23290726.220   122393592.306 6      5562.920          40.375    23290743.560    95371700.763 6      4334.743          39.750    23290743.860    95371706.770 7      4334.743          44.437
R05  20371903.160   108899490.546 8       406.197          49.125    20371902.480   108899490.544 8       406.197          48.375    20371912.980    84699645.070 8       315.931          49.562    20371913.140    84699648.066 8       315.931          49.875
R04  23797428.860   127434158.795 6      -624.556          39.062    23797429.060   127434158.837 6      -624.556          38.750    23797444.720    99115512.834 7      -485.766          42.250    23797444.760    99115514.840 6      -485.766          41.812
G19  21265065.540   111748660.167 7       225.958          47.062    21265063.520   111748660.172 6       225.958          38.437    21265072.240    87076904.777 6       176.071          38.500
G17  22425319.740   117845851.035 7      -280.008          42.750    22425317.480   117845851.043 7      -280.008          42.562    22425333.000    91827989.475 7      -218.188          42.062    22425333.780    91827986.478 7      -218.188          46.062
> 2024 07 31 14 15  9.0000000  0 13
R06  20899163.520   111521941.786 6      3953.842          38.375    20899162.700   111521941.771 6      3953.842          37.312
G20  23758091.760   124849617.163 6      4748.418          40.812    23758090.300   124849617.168 4      4748.418          27.187    23758099.700    97285429.329 4      3700.066          27.062
G07  22233382.560   116837220.731 7      4304.882          44.875    22233381.180   116837220.739 7      4304.882          42.937    22233393.760    91042037.357 7      3354.453          43.062    22233394.220    91042054.367 7      3354.453          45.750
G06  20291101.620   106630457.561 8      3608.071          49.437    20291101.040   106630457.563 8      3608.071          50.062    20291108.020    83088693.982 8      2811.484          50.562    20291109.020    83088697.983 8      2811.484          51.375
G09  20551650.580   107999650.775 8       872.128          48.125    20551649.780   107999650.780 8       872.128          50.375    20551656.900    84155596.121 8       679.581          50.000    20551657.280    84155599.120 8       679.581          50.000
G11  22774009.920   119678228.018 7      5568.900          44.625    22774009.160   119678228.023 5      5568.900          33.125    22774015.260    93255778.950 5      4339.402          33.000    22774015.880    93255791.951 7      4339.402          47.812
G04  23087959.580   121328043.347 7      -517.653          42.250    23087958.800   121328043.355 4      -517.653          28.812    23087967.640    94541363.867 4      -403.366          28.687    23087968.880    94541365.874 7      -403.366          45.625
R21  21604850.880   115611918.969 7      6306.727          45.375    21604851.440   115611918.986 7      6306.727          44.625    21604863.820    89920441.574 8      4905.232          48.437    21604863.620    89920438.575 8      4905.232          48.687
G30  23289668.320   122388029.626 6      5562.548          41.125    23289667.560   122388029.623 6      5562.548          40.125    23289685.060    95367366.208 6      4334.453          39.500    23289685.260    95367372.214 7      4334.453          44.312
R05  20371826.760   108899084.525 8       405.781          48.875    20371826.660   108899084.532 8       405.781          48.812    20371837.100    84699329.278 8       315.607          49.750    20371837.180    84699332.275 8       315.607          50.125
R04  23797544.900   127434783.413 6      -624.586          39.062    23797546.480   127434783.458 6      -624.586          38.750    23797561.580    99115998.657 7      -485.789          42.000    23797561.240    99116000.656 6      -485.789          41.812
G19  21265022.580   111748434.587 7       225.317          46.875    21265020.580   111748434.592 6       225.317          38.437    21265029.280    87076728.992 6       175.571          38.437
G17  22425373.320   117846131.331 7      -280.480          42.937    22425370.820   117846131.343 7      -280.480          42.500    22425386.480    91828207.885 6      -218.556          41.937    22425386.900    91828204.892 7      -218.556          46.312
> 2024 07 31 14 15 10.0000000  0 13
R06  20898422.080   111517987.925 6      3953.700          38.375    20898421.160   111517987.931 6      3953.700          37.312
G20  23757188.280   124844868.721 6      4748.599          41.062    23757186.800   124844868.726 4      4748.599          27.187    23757196.100    97281729.246 4      3700.207          27.062
G07  22232563.260   116832915.980 7      4304.622          45.062    22232562.040   116832915.987 7      4304.622          42.937    22232574.660    91038683.009 7      3354.251          42.562    22232575.020    91038700.023 7      3354.251          46.250
G06  20290415.100   106626849.706 8      3607.638          49.062    20290414.540   106626849.708 8      3607.638          49.937    20290421.460    83085882.662 8      2811.146          50.562    20290422.460    83085886.661 8      2811.146          51.750
G09  20551484.600   107998778.792 8       871.839          48.000    20551483.820   107998778.802 8       871.839          50.062    20551490.980    84154916.653 8       679.355          50.687    20551491.320    84154919.652 8       679.355          49.875
G11  22772950.180   119672659.149 7      5568.809          44.000    22772949.440   119672659.154 5      5568.809          33.375    22772955.340    93251439.572 5      4339.332          33.125    22772956.340    93251452.573 7      4339.332          47.375
G04  23088058.400   121328561.037 7      -517.714          42.937    23088057.260   121328561.049 4      -517.714          28.812    23088065.880    94541767.262 4      -403.413          28.687    23088067.240    94541769.260 7      -403.413          45.687
R21  21603672.160   115605612.323 7      6306.445          44.687    21603672.760   115605612.340 7      6306.445          44.062    21603685.140    89915536.405 8      4905.013          48.750    21603684.960    89915533.406 8      4905.013          48.625
G30  23288609.260   122382467.036 6      5562.851          40.500    23288608.900   122382467.033 6      5562.851          39.812    23288626.320    95363031.719 6      4334.689          39.500    23288627.280    95363037.729 7      4334.689          44.312
R05  20371750.940   108898678.708 7       405.800          47.812    20371750.620   108898678.712 7       405.800          47.812    20371761.220    84699013.639 8       315.622          49.375    20371761.280    84699016.635 8       315.622          50.062
R04  23797661.960   127435407.892 6      -624.313          39.062    23797662.780   127435407.931 6      -624.313          38.187    23797678.020    99116484.358 7      -485.577          42.187    23797678.120    99116486.366 7      -485.577          42.187
G19  21264979.700   111748209.527 7       224.870          47.375    21264977.760   111748209.532 6       224.870          38.250    21264986.400    87076553.608 6       175.223          38.250
G17  22425426.480   117846411.847 7      -280.557          44.125    22425424.240   117846411.860 7      -280.557          42.250    22425439.840    91828426.461 7      -218.616          42.187    22425440.120    91828423.466 7      -218.616          46.125
> 2024 07 31 14 15 11.0000000  0 13
R06  20897681.340   111514034.623 6      3953.191          38.625    20897680.520   111514034.619 6      3953.191          37.312
G20  23756284.880   124840120.326 6      4748.572          40.687    23756283.300   124840120.329 4      4748.572          27.187    23756292.480    97278029.198 4      3700.186          27.062
G07  22231744.240   116828611.661 7      4304.221          44.187    22231742.900   116828611.666 7      4304.221          42.375    22231755.640    91035329.003 7      3353.938          42.250    22231756.040    91035346.013 7      3353.938          45.875
G06  20289728.760   106623242.366 8      3607.217          49.875    20289728.080   106623242.368 8      3607.217          50.187    20289734.980    83083071.748 8      2810.818          50.937    20289735.980    83083075.751 8      2810.818          51.625
G09  20551318.800   107997907.302 8       871.390          48.062    20551317.940   107997907.309 8       871.390          49.750    20551325.160    84154237.568 8       679.005          50.250    20551325.540    84154240.567 8       679.005          50.062
G11  22771890.740   119667090.485 7      5568.586          44.250    22771889.800   119667090.495 5      5568.586          33.375    22771895.600    93247100.361 5      4339.158          33.125    22771896.620    93247113.361 7      4339.158          47.562
G04  23088157.060   121329078.941 7      -517.916          43.187    23088155.860   121329078.957 4      -517.916          28.812    23088164.560    94542170.820 4      -403.571          29.062    23088166.060    94542172.810 7      -403.571          45.687
R21  21602493.460   115599306.084 7      6306.130          44.687    21602493.880   115599306.104 7      6306.130          44.500    21602506.820    89910631.563 8      4904.768          48.687    21602506.580    89910628.566 8      4904.768          48.500
G30  23287551.120   122376904.618 6      5562.749          41.000    23287550.120   122376904.613 6      5562.749          39.500    23287567.860    95358697.365 6      4334.610          39.312    23287568.420    95358703.373 7      4334.610          44.312
R05  20371674.900   108898273.156 8       405.565          49.687    20371674.980   108898273.168 8       405.565          49.000    20371685.280    84698698.211 8       315.440          49.875    20371685.320    84698701.207 8       315.440          49.687
R04  23797779.000   127436032.253 6      -624.026          39.750    23797780.040   127436032.273 6      -624.026          38.187    23797794.740    99116969.964 7      -485.353          42.437    23797794.160    99116971.969 7      -485.353          42.375
G19  21264937.220   111747984.984 7       224.427          46.687    21264935.060   111747984.989 6       224.427          38.187    21264943.820    87076378.630 6       174.878          38.687
G17  22425480.000   117846692.637 7      -280.755          44.875    22425477.800   117846692.644 7      -280.755          42.312    22425493.200    91828645.250 7      -218.770          42.125    22425493.540    91828642.253 7      -218.770          46.562
> 2024 07 31 14 15 12.0000000  0 13
R06  20896940.120   111510081.658 6      3952.672          38.625    20896940.300   111510081.656 6      3952.672          37.312
G20  23755380.920   124835371.834 6      4748.521          40.625    23755379.880   124835371.837 4      4748.521          27.687    23755388.880    97274329.079 4      3700.146          27.062
G07  22230925.260   116824307.614 7      4303.906          45.125    22230923.740   116824307.616 7      4303.906          42.687    22230936.660    91031975.204 7      3353.693          42.312    22230937.220    91031992.210 7      3353.693          46.375
G06  20289042.320   106619635.415 8      3606.732          49.500    20289041.660   106619635.417 8      3606.732          51.187    20289048.660    83080261.136 8      2810.441          51.375    20289049.760    83080265.133 8      2810.441          51.687
G09  20551152.980   107997036.127 8       871.012          48.687    20551152.240   107997036.130 8       871.012          50.500    20551159.320    84153558.724 8       678.711          50.062    20551159.640    84153561.724 8       678.711          50.125
G11  22770831.040   119661521.866 7      5568.675          44.062    22770830.120   119661521.873 5      5568.675          33.250    22770836.080    93242761.178 5      4339.227          33.250    22770836.960    93242774.173 7      4339.227          47.687
G04  23088255.360   121329596.857 7      -517.917          42.125    23088254.500   121329596.872 4      -517.917          28.875    23088263.040    94542574.388 4      -403.572          29.062    23088264.160    94542576.384 7      -403.572          45.000
R21  21601315.060   115593000.155 7      6305.674          45.062    21601315.580   115593000.178 7      6305.674          44.500    21601328.360    89905726.956 8      4904.413          48.812    21601328.060    89905723.957 8      4904.413          48.125
G30  23286492.560   122371342.210 6      5562.277          41.187    23286491.640   122371342.210 6      5562.277          39.937    23286509.340    95354363.030 6      4334.242          39.562    23286510.180    95354369.025 7      4334.242          44.375
R05  20371599.200   108897867.734 8       405.342          49.062    20371599.000   108897867.738 8       405.342          48.812    20371609.500    84698382.877 8       315.266          49.687    20371609.420    84698385.873 8       315.266          49.625
R04  23797895.000   127436656.370 6      -624.055          39.750    23797895.900   127436656.407 6      -624.055          38.187    23797911.280    99117455.403 7      -485.376          42.437    23797911.020    99117457.415 7      -485.376          42.812
G19  21264894.420   111747760.834 7       223.922          46.687    21264892.560   111747760.833 6       223.922          38.250    21264901.280    87076203.957 6       174.485          38.687
G17  22425533.600   117846973.534 7      -281.016          44.625    22425531.180   117846973.542 7      -281.016          42.625    22425546.520    91828864.127 7      -218.973          42.062    22425546.960    91828861.128 7      -218.973          46.250
> 2024 07 31 14 15 13.0000000  0 13
R06  20896199.420   111506129.146 6      3952.470          38.625    20896199.320   111506129.147 6      3952.470          37.375
G20  23754477.520   124830623.332 6      4748.539          39.750    23754476.300   124830623.329 4      4748.539          27.687    23754485.140    97270628.945 4      3700.161          27.625
G07  22230106.360   116820003.974 7      4303.465          45.062    22230104.600   116820003.976 7      4303.465          42.812    22230117.640    91028621.730 7      3353.349          42.937    22230118.240    91028638.736 7      3353.349          46.062
G06  20288355.960   106616028.971 8      3606.244          48.875    20288355.380   106616028.970 8      3606.244          50.562    20288362.360    83077450.918 8      2810.060          51.000    20288363.280    83077454.917 8      2810.060          51.500
G09  20550987.300   107996165.397 8       870.576          48.437    20550986.500   107996165.404 8       870.576          50.187    20550993.620    84152880.235 8       678.371          50.500    20550993.940    84152883.237 8       678.371          50.312
G11  22769771.300   119655953.449 7      5568.474          44.625    22769770.540   119655953.454 5      5568.474          33.062    22769776.460    93238422.150 5      4339.071          33.250    22769777.560    93238435.151 7      4339.071          47.437
G04  23088353.960   121330114.966 7      -518.143          42.562    23088353.100   121330114.979 4      -518.143          28.875    23088361.820    94542978.100 4      -403.747          29.062    23088362.600    94542980.092 7      -403.747          45.125
R21  21600136.680   115586694.652 7      6305.391          45.062    21600137.380   115586694.675 7      6305.391          44.250    21600149.960    89900822.682 8      4904.193          48.500    21600149.660    89900819.681 8      4904.193          48.500
G30  23285434.260   122365779.908 6      5562.170          40.687    23285433.040   122365779.910 6      5562.170          39.812    23285450.820    95350028.770 6      4334.158          39.375    23285451.240    95350034.777 7      4334.158          44.062
R05  20371523.260   108897462.582 8       405.099          49.437    20371523.220   108897462.584 8       405.099          49.000    20371533.720    84698067.755 8       315.077          49.812    20371533.580    84698070.751 8       315.077          49.812
R04  23798012.080   127437280.383 6      -623.827          39.750    23798012.900   127437280.411 6      -623.827          38.187    23798027.960    99117940.744 7      -485.199          42.562    23798027.640    99117942.748 7      -485.199          42.687
G19  21264851.760   111747537.161 7       223.613          46.187    21264849.940   111747537.163 6       223.613          38.250    21264858.760    87076029.658 6       174.244          38.500
G17  22425587.040   117847254.663 7      -281.205          43.625    22425584.780   117847254.668 7      -281.205          42.187    22425600.140    91829083.182 7      -219.121          42.000    22425600.620    91829080.189 7      -219.121          46.500
> 2024 07 31 14 15 14.0000000  0 13
R06  20895458.460   111502176.992 6      3951.917          38.625    20895458.540   111502176.990 6      3951.917          37.375
G20  23753573.980   124825874.690 6      4748.512          39.625    23753572.840   124825874.692 4      4748.512          27.687    23753581.480    97266928.714 4      3700.139          27.625
G07  22229287.500   116815700.546 7      4303.122          45.062    22229285.700   116815700.554 7      4303.122          42.625    22229298.780    91025268.421 7      3353.082          42.562    22229299.300    91025285.429 7      3353.082          46.312
G06  20287669.920   106612422.868 8      3605.721          50.000    20287669.120   106612422.873 8      3605.721          50.500    20287676.160    83074640.968 8      2809.652          50.687    20287677.200    83074644.971 8      2809.652          51.500
G09  20550821.640   107995294.945 8       870.160          48.500    20550820.840   107995294.950 8       870.160          50.000    20550828.020    84152201.959 8       678.047          49.750    20550828.160    84152204.961 8       678.047          49.875
G11  22768711.800   119650385.077 7      5568.106          44.375    22768710.860   119650385.079 5      5568.106          33.062    22768716.780    93234083.164 5      4338.784          33.250    22768717.780    93234096.157 7      4338.784          47.375
G04  23088452.240   121330633.050 6      -518.217          41.875    23088451.640   121330633.068 4      -518.217          28.875    23088460.460    94543381.797 4      -403.806          29.062    23088461.340    94543383.785 7      -403.806          45.375
R21  21598958.620   115580389.480 7      6304.866          44.750    21598958.620   115580389.498 7      6304.866          44.062    21598971.800    89895918.657 8      4903.784          48.687    21598971.520    89895915.657 8      4903.784          48.187
G30  23284375.480   122360217.497 6      5562.368          40.562    23284374.720   122360217.497 6      5562.368          39.687    23284392.360    95345694.426 6      4334.313          39.625    23284393.040    95345700.428 7      4334.313          43.875
R05  20371447.620   108897057.524 8       404.874          49.500    20371447.520   108897057.528 8       404.874          48.937    20371457.880    84697752.709 8       314.902          49.375    20371458.000    84697755.706 8       314.902          49.937
R04  23798128.160   127437904.099 6      -623.693          39.750    23798129.040   127437904.127 6      -623.693          38.187    23798144.760    99118425.856 7      -485.094          42.437    23798144.320    99118427.862 7      -485.094          43.312
G19  21264809.180   111747313.864 7       222.957          46.250    21264807.380   111747313.866 6       222.957          38.750    21264816.360    87075855.652 6       173.733          38.812
G17  22425640.560   117847535.839 7      -281.336          43.812    22425638.340   117847535.849 7      -281.336          42.687    22425653.760    91829302.278 7      -219.223          42.250    22425653.860    91829299.279 7      -219.223          46.187
> 2024 07 31 14 15 15.0000000  0 13
R06  20894718.160   111498225.400 6      3951.444          38.750    20894718.200   111498225.404 6      3951.444          37.375
G20  23752670.220   124821126.101 6      4748.767          39.687    23752669.240   124821126.103 4      4748.767          27.687    23752677.760    97263228.517 4      3700.338          27.625
G07  22228468.480   116811397.597 7      4302.900          44.812    22228466.820   116811397.602 7      4302.900          42.312    22228479.900    91021915.477 6      3352.909          41.812    22228480.460    91021932.483 7      3352.909          45.937
G06  20286983.680   106608817.338 8      3605.304          49.000    20286983.080   106608817.341 8      3605.304          50.500    20286990.020    83071831.462 8      2809.327          50.750    20286990.960    83071835.461 8      2809.327          51.687
G09  20550656.000   107994424.995 8       869.869          48.125    20550655.300   107994425.002 8       869.869          50.062    20550662.460    84151524.074 8       677.820          50.062    20550662.620    84151527.075 8       677.820          50.125
G11  22767651.980   119644816.891 7      5568.324          44.312    22767651.240   119644816.899 5      5568.324          33.625    22767657.160    93229744.318 5      4338.953          33.250    22767658.000    93229757.316 7      4338.953          47.500
G04  23088551.200   121331151.388 6      -518.452          41.062    23088550.340   121331151.398 4      -518.452          28.875    23088559.020    94543785.693 4      -403.989          29.000    23088560.240    94543787.677 7      -403.989          45.375
R21  21597780.120   115574084.788 7      6304.532          45.062    21597780.820   115574084.811 7      6304.532          44.062    21597793.600    89891015.010 8      4903.525          48.687    21597793.000    89891012.009 8      4903.525          48.562
G30  23283317.220   122354655.329 6      5562.146          41.500    23283316.620   122354655.328 6      5562.146          39.937    23283333.840    95341360.271 6      4334.140          39.687    23283334.660    95341366.278 7      4334.140          43.937
R05  20371371.700   108896652.800 8       404.696          49.437    20371371.820   108896652.807 8       404.696          48.500    20371382.300    84697437.924 8       314.764          49.375    20371382.360    84697440.918 8       314.764          50.000
R04  23798244.320   127438527.694 6      -623.260          40.000    23798245.760   127438527.730 6      -623.260          38.750    23798261.380    99118910.877 7      -484.758          43.000    23798260.700    99118912.887 7      -484.758          43.312
G19  21264766.760   111747091.116 7       222.587          46.937    21264764.800   111747091.121 6       222.587          38.500    21264773.980    87075682.077 6       173.444          38.625
G17  22425693.900   117847817.333 7      -281.490          42.812    22425691.860   117847817.340 7      -281.490          42.812    22425707.420    91829521.616 7      -219.343          42.437    22425707.740    91829518.619 7      -219.343          46.187
> 2024 07 31 14 15 16.0000000  0 13
R06  20893978.240   111494274.303 6      3951.123          38.750    20893977.400   111494274.287 6      3951.123          37.375
G20  23751766.440   124816377.606 6      4748.618          40.875    23751765.620   124816377.603 4      4748.618          27.687    23751774.040    97259528.393 4      3700.221          27.625
G07  22227649.720   116807095.124 7      4302.298          44.625    22227648.060   116807095.126 7      4302.298          42.437    22227661.180    91018562.904 7      3352.440          42.125    22227661.720    91018579.913 7      3352.440          46.437
G06  20286297.820   106605212.368 8      3604.731          49.187    20286297.040   106605212.368 8      3604.731          50.687    20286303.980    83069022.391 8      2808.881          51.000    20286304.920    83069026.390 8      2808.881          51.500
G09  20550490.720   107993555.570 8       869.207          49.187    20550489.820   107993555.578 8       869.207          50.312    20550497.060    84150846.600 8       677.304          50.125    20550497.300    84150849.602 8       677.304          49.875
G11  22766592.660   119639249.005 7      5567.811          44.375    22766591.680   119639249.012 5      5567.811          33.625    22766597.560    93225405.706 5      4338.554          33.375    22766598.260    93225418.709 7      4338.554          47.750
G04  23088649.840   121331669.945 6      -518.651          41.062    23088648.980   121331669.952 4      -518.651          29.062    23088657.980    94544189.746 4      -404.143          29.000    23088658.740    94544191.724 7      -404.143          44.875
R21  21596602.140   115567780.542 7      6304.098          45.250    21596602.980   115567780.570 7      6304.098          44.062    21596615.300    89886111.714 8      4903.188          48.687    21596615.020    89886108.717 8      4903.188          48.250
G30  23282259.160   122349093.307 6      5562.127          41.500    23282258.240   122349093.302 6      5562.127          40.375    23282275.460    95337026.224 6      4334.125          39.625    23282276.960    95337032.223 7      4334.125          44.062
R05  20371296.040   108896248.394 8       404.299          48.875    20371295.940   108896248.398 8       404.299          49.250    20371306.460    84697123.382 8       314.455          50.125    20371306.320    84697126.378 8       314.455          49.937
R04  23798361.460   127439151.217 6      -623.414          40.000    23798362.040   127439151.242 6      -623.414          38.750    23798378.020    99119395.829 7      -484.877          42.812    23798377.520    99119397.834 7      -484.877          43.312
G19  21264724.360   111746868.944 7       221.951          47.125    21264722.700   111746868.943 6       221.951          38.187    21264731.680    87075508.941 6       172.949          38.500
G17  22425747.600   117848099.110 7      -281.804          44.187    22425745.560   117848099.118 7      -281.804          42.812    22425761.100    91829741.177 6      -219.588          41.687    22425760.980    91829738.180 7      -219.588          46.312
> 2024 07 31 14 15 17.0000000  0 13
R06  20893238.220   111490323.466 6      3950.505          38.750    20893237.100   111490323.443 6      3950.505          37.375
G20  23750862.940   124811628.854 6      4748.849          40.250    23750861.960   124811628.856 4      4748.849          27.687    23750870.360    97255828.069 4      3700.402          27.750
G07  22226830.980   116802792.766 7      4302.181          44.625    22226829.400   116802792.768 7      4302.181          42.875    22226842.480    91015210.424 7      3352.349          42.687    22226843.060    91015227.432 7      3352.349          46.125
G06  20285611.880   106601607.632 8      3604.525          48.687    20285611.160   106601607.632 8      3604.525          50.062    20285618.080    83066213.505 8      2808.721          50.812    20285619.060    83066217.508 8      2808.721          51.312
G09  20550325.220   107992686.311 8       868.973          48.437    20550324.480   107992686.321 8       868.973          50.000    20550331.660    84150169.255 8       677.122          49.812    20550331.840    84150172.255 8       677.122          50.375
G11  22765533.040   119633681.014 7      5567.934          44.500    22765532.080   119633681.019 5      5567.934          33.500    22765537.980    93221067.013 5      4338.650          33.375    22765538.680    93221080.011 7      4338.650          47.687
G04  23088748.460   121332188.364 6      -518.427          41.500    23088747.620   121332188.372 4      -518.427          29.062    23088756.440    94544593.712 4      -403.969          29.000    23088756.680    94544595.708 7      -403.969          44.562
R21  21595424.180   115561476.444 7      6303.909          44.125    21595424.880   115561476.461 7      6303.909          43.937    21595437.060    89881208.522 8      4903.040          48.062    21595437.120    89881205.525 8      4903.040          48.062
G30  23281200.640   122343531.144 7      5562.196          42.250    23281200.100   122343531.144 6      5562.196          39.937    23281217.020    95332692.075 6      4334.178          39.375    23281218.120    95332698.082 7      4334.178          43.937
R05  20371220.240   108895843.964 8       404.333          49.187    20371220.500   108895843.976 8       404.333          48.437    20371230.860    84696808.825 8       314.481          49.812    20371230.720    84696811.824 8       314.481          49.812
R04  23798477.980   127439774.303 6      -623.121          40.000    23798479.200   127439774.348 6      -623.121          38.750    23798494.260    99119880.462 7      -484.650          43.125    23798493.800    99119882.466 7      -484.650          43.687
G19  21264682.160   111746646.997 7       221.708          46.437    21264680.420   111746646.999 6       221.708          37.937    21264689.320    87075335.985 6       172.759          38.125
G17  22425801.020   117848380.867 7      -281.885          43.625    22425799.300   117848380.872 7      -281.885          42.625    22425814.520    91829960.721 7      -219.651          42.312    22425814.980    91829957.722 7      -219.651          46.312
> 2024 07 31 14 15 18.0000000  0 13
R06  20892497.860   111486372.977 6      3950.163          38.750    20892497.240   111486372.962 6      3950.163          37.625
G20  23749959.080   124806880.044 6      4748.871          40.500    23749958.220   124806880.046 4      4748.871          27.687    23749966.840    97252127.704 4      3700.419          27.750
G07  22226012.540   116798490.739 7      4301.938          44.312    22226010.500   116798490.738 7      4301.938          42.500    22226023.860    91011858.203 7      3352.160          42.312    22226024.420    91011875.213 7      3352.160          46.187
G06  20284925.920   106598003.335 8      3604.188          48.750    20284925.180   106598003.337 8      3604.188          50.375    20284932.180    83063404.964 8      2808.458          50.375    20284933.300    83063408.967 8      2808.458          51.437
G09  20550159.880   107991817.415 8       868.791          48.375    20550159.100   107991817.417 8       868.791          50.000    20550166.260    84149492.187 8       676.980          49.937    20550166.740    84149495.186 8       676.980          50.125
G11  22764473.140   119628113.136 7      5567.892          44.062    22764472.480   119628113.140 5      5567.892          33.500    22764478.460    93216728.413 5      4338.617          33.687    22764479.260    93216741.414 7      4338.617          47.312
G04  23088847.320   121332706.913 7      -518.603          42.437    23088846.140   121332706.923 4      -518.603          29.062    23088855.160    94544997.776 4      -404.106          29.000    23088855.120    94544999.772 7      -404.106          44.687
R21  21594246.140   115555172.714 7      6303.565          44.437    21594246.880   115555172.729 7      6303.565          44.812    21594258.980    89876305.623 8      4902.773          48.312    21594258.880    89876302.627 8      4902.773          48.125
G30  23280142.180   122337969.017 6      5562.200          41.937    23280141.820   122337969.020 6      5562.200          40.187    23280158.500    95328357.955 6      4334.181          39.500    23280159.660    95328363.960 7      4334.181          44.000
R05  20371144.820   108895439.716 8       404.240          49.500    20371144.900   108895439.723 8       404.240          48.437    20371155.200    84696494.408 8       314.409          49.437    20371155.120    84696497.404 8       314.409          49.562
R04  23798594.140   127440397.210 6      -622.772          40.000    23798595.160   127440397.268 6      -622.772          38.750    23798610.620    99120364.943 7      -484.378          43.187    23798610.300    99120366.947 7      -484.378          43.625
G19  21264639.980   111746425.484 7       221.332          46.437    21264638.120   111746425.487 6       221.332          38.375    21264647.160    87075163.370 6       172.467          38.750
G17  22425855.000   117848662.771 7      -281.918          44.250    22425852.920   117848662.776 7      -281.918          42.250    22425868.160    91830180.384 7      -219.676          42.000    22425868.600    91830177.391 7      -219.676          46.000
> 2024 07 31 14 15 19.0000000  0 13
R06  20891758.140   111482423.008 6      3949.818          38.562    20891757.580   111482422.993 6      3949.818          37.625
G20  23749055.360   124802131.336 6      4748.619          39.875    23749054.480   124802131.341 4      4748.619          27.687    23749063.240    97248427.416 4      3700.223          27.750
G07  22225194.040   116794189.190 7      4301.364          43.875    22225192.100   116794189.192 6      4301.364          41.812    22225205.280    91008506.357 6      3351.712          41.625    22225205.760    91008523.361 7      3351.712          45.562
G06  20284240.340   106594399.631 8      3603.454          49.250    20284239.540   106594399.633 8      3603.454          48.375    20284246.440    83060596.881 8      2807.886          48.437    20284247.360    83060600.884 8      2807.886          49.750
G09  20549994.560   107990949.062 8       868.062          48.187    20549993.900   107990949.064 8       868.062          49.500    20550001.000    84148815.546 8       676.412          49.562    20550001.400    84148818.546 8       676.412          48.437
G11  22763413.840   119622545.523 7      5567.547          44.250    22763413.060   119622545.530 5      5567.547          33.500    22763418.940    93212390.018 5      4338.348          33.687    22763419.880    93212403.013 7      4338.348          47.062
G04  23088946.180   121333225.682 7      -518.891          43.750    23088944.840   121333225.689 4      -518.891          29.062    23088953.820    94545402.009 4      -404.331          29.000    23088954.100    94545404.018 7      -404.331          44.625
R21  21593068.440   115548869.480 7      6303.033          43.750    21593068.860   115548869.497 7      6303.033          44.375    21593081.320    89871403.108 7      4902.359          47.000    21593081.080    89871400.111 7      4902.359          47.437
G30  23279083.760   122332407.104 6      5561.931          41.625    23279083.180   122332407.103 6      5561.931          39.375    23279100.160    95324023.994 6      4333.972          38.937    23279101.040    95324029.997 7      4333.972          43.562
R05  20371069.340   108895035.772 8       403.870          49.500    20371069.260   108895035.776 8       403.870          48.687    20371079.760    84696180.225 7       314.121          47.687    20371079.480    84696183.219 7       314.121          47.875
R04  23798710.700   127441020.115 6      -622.904          40.000    23798711.440   127441020.159 6      -622.904          38.750    23798726.820    99120849.416 7      -484.481          42.875    23798726.320    99120851.417 7      -484.481          43.375
G19  21264598.100   111746204.542 7       220.700          46.562    21264596.180   111746204.544 6       220.700          38.250    21264605.200    87074991.200 6       171.974          37.875
G17  22425908.680   117848944.992 7      -282.412          44.437    22425906.580   117848945.002 7      -282.412          42.250    22425921.900    91830400.297 7      -220.062          42.250    22425922.120    91830397.298 7      -220.062          45.875
> 2024 07 31 14 15 20.0000000  0 13
R06  20891017.360   111478473.562 6      3949.323          38.562    20891016.840   111478473.555 6      3949.323          37.625
G20  23748151.820   124797382.668 6      4748.644          40.062    23748150.800   124797382.675 4      4748.644          27.687    23748159.500    97244727.157 4      3700.242          27.750
G07  22224375.520   116789888.086 7      4300.921          44.937    22224373.580   116789888.093 7      4300.921          42.375    22224386.800    91005154.860 6      3351.367          41.937    22224387.200    91005171.866 7      3351.367          46.125
G06  20283554.560   106590796.461 8      3602.933          49.500    20283553.800   106590796.460 8      3602.933          50.250    20283560.820    83057789.214 8      2807.480          50.312    20283561.820    83057793.215 8      2807.480          51.062
G09  20549829.440   107990081.159 8       867.752          48.062    20549828.660   107990081.166 8       867.752          50.125    20549835.880    84148139.262 8       676.171          50.125    20549836.480    84148142.264 8       676.171          50.187
G11  22762354.440   119616978.131 7      5567.434          44.812    22762353.640   119616978.133 5      5567.434          33.500    22762359.480    93208051.786 5      4338.260          33.437    22762360.200    93208064.789 7      4338.260          47.625
G04  23089044.900   121333744.646 7      -518.938          44.062    23089043.700   121333744.658 4      -518.938          29.000    23089052.600    94545806.390 4      -404.367          29.000    23089053.000    94545808.401 7      -404.367          44.562
R21  21591890.460   115542566.732 7      6302.605          44.000    21591891.020   115542566.750 7      6302.605          44.062    21591903.480    89866500.973 7      4902.026          47.875    21591903.140    89866497.978 8      4902.026          48.000
G30  23278025.040   122326845.355 7      5561.649          42.250    23278024.700   122326845.352 6      5561.649          39.937    23278041.700    95319690.162 6      4333.752          39.812    23278042.020    95319696.165 7      4333.752          43.875
R05  20370993.900   108894632.091 8       403.677          49.500    20370993.700   108894632.097 8       403.677          48.375    20371004.200    84695866.249 8       313.971          48.750    20371004.140    84695869.249 8       313.971          49.062
R04  23798826.820   127441642.904 6      -622.644          39.812    23798826.600   127441642.959 6      -622.644          38.500    23798843.400    99121333.810 7      -484.279          43.312    23798842.800    99121335.813 7      -484.279          43.062
G19  21264555.860   111745984.156 7       220.160          46.187    21264554.180   111745984.163 6       220.160          38.312    21264563.180    87074819.463 6       171.553          38.312
G17  22425962.380   117849227.474 7      -282.575          44.250    22425960.340   117849227.482 7      -282.575          42.375    22425975.620    91830620.409 7      -220.189          42.437    22425976.120    91830617.414 7      -220.189          45.812
> 2024 07 31 14 15 21.0000000  0 13
R06  20890277.100   111474524.401 6      3949.252          38.562    20890276.360   111474524.399 6      3949.252          37.625
G20  23747248.340   124792633.829 6      4748.900          40.375    23747247.080   124792633.834 4      4748.900          27.687    23747255.720    97241026.769 4      3700.442          27.750
G07  22223557.200   116785587.207 7      4300.806          44.625    22223555.180   116785587.212 7      4300.806          42.187    22223568.360    91001803.532 7      3351.278          42.312    22223569.020    91001820.536 7      3351.278          46.375
G06  20282869.020   106587193.611 8      3602.782          49.312    20282868.120   106587193.613 8      3602.782          50.062    20282875.160    83054981.801 8      2807.362          50.437    20282876.220    83054985.801 8      2807.362          51.562
G09  20549664.220   107989213.550 8       867.534          49.187    20549663.680   107989213.560 8       867.534          49.875    20549670.760    84147463.199 8       676.001          50.312    20549671.180    84147466.203 8       676.001          50.500
G11  22761295.260   119611410.765 7      5567.432          44.375    22761294.260   119611410.770 5      5567.432          33.312    22761300.020    93203713.587 5      4338.259          33.437    22761300.680    93203726.588 7      4338.259          47.500
G04  23089143.940   121334263.636 6      -518.907          41.875    23089142.500   121334263.648 4      -518.907          29.000    23089151.120    94546210.796 4      -404.344          29.000    23089152.000    94546212.801 7      -404.344          44.812
R21  21590712.780   115536264.207 7      6302.507          45.062    21590713.160   115536264.225 7      6302.507          44.187    21590725.800    89861599.017 8      4901.950          48.375    21590725.300    89861596.016 8      4901.950          48.125
G30  23276966.620   122321283.486 6      5562.091          41.875    23276966.180   122321283.486 6      5562.091          39.937    23276983.240    95315356.242 6      4334.097          39.500    23276984.020    95315362.247 7      4334.097          43.562
R05  20370918.320   108894228.455 8       403.686          49.500    20370918.300   108894228.461 8       403.686          48.562    20370928.820    84695552.309 8       313.978          49.625    20370928.660    84695555.308 8       313.978          49.750
R04  23798943.180   127442265.380 6      -622.153          39.812    23798944.320   127442265.403 6      -622.153          38.500    23798959.480    99121817.937 7      -483.897          43.187    23798958.960    99121819.938 7      -483.897          43.812
G19  21264514.200   111745764.099 7       219.967          46.687    21264512.260   111745764.104 6       219.967          38.312    21264521.180    87074647.980 6       171.403          38.187
G17  22426016.240   117849510.016 7      -282.499          44.187    22426014.200   117849510.021 7      -282.499          42.250    22426029.300    91830840.566 7      -220.129          42.187    22426029.820    91830837.566 7      -220.129          45.875
> 2024 07 31 14 15 22.0000000  0 13
R06  20889537.500   111470575.745 6      3948.308          38.562    20889536.860   111470575.762 6      3948.308          37.500
G20  23746345.020   124787884.966 6      4748.820          40.125    23746343.340   124787884.971 4      4748.820          27.812    23746352.180    97237326.361 4      3700.379          27.562
G07  22222738.860   116781286.699 7      4300.273          44.687    22222736.760   116781286.701 7      4300.273          42.562    22222749.980    90998452.490 7      3350.862          42.312    22222750.760    90998469.499 7      3350.862          46.500
G06  20282183.460   106583591.242 8      3602.140          49.562    20282182.720   106583591.242 8      3602.140          50.687    20282189.680    83052174.756 8      2806.862          50.812    20282190.640    83052178.757 8      2806.862          51.687
G09  20549499.180   107988346.345 8       866.934          49.312    20549498.640   107988346.353 8       866.934          50.250    20549505.680    84146787.451 8       675.533          50.500    20549506.080    84146790.455 8       675.533          50.000
G11  22760235.920   119605843.520 7      5567.208          44.125    22760234.780   119605843.522 5      5567.208          33.312    22760240.620    93199375.474 5      4338.084          33.187    22760241.240    93199388.475 7      4338.084          47.375
G04  23089242.840   121334782.731 6      -519.129          41.750    23089241.320   121334782.741 4      -519.129          29.000    23089250.040    94546615.282 4      -404.516          29.000    23089251.160    94546617.274 7      -404.516          45.562
R21  21589535.300   115529962.094 7      6301.874          45.000    21589535.560   115529962.111 7      6301.874          44.187    21589548.040    89856697.373 8      4901.457          48.625    21589547.920    89856694.373 8      4901.457          48.312
G30  23275908.460   122315721.764 6      5561.527          41.312    23275907.600   122315721.766 6      5561.527          39.500    23275924.840    95311022.433 6      4333.657          39.250    23275925.680    95311028.430 7      4333.657          43.437
R05  20370843.140   108893825.040 8       403.304          49.750    20370842.860   108893825.047 8       403.304          48.875    20370853.200    84695238.536 8       313.681          49.812    20370853.320    84695241.533 8       313.681          50.312
R04  23799059.120   127442887.650 6      -622.224          39.812    23799059.920   127442887.681 6      -622.224          38.500    23799075.240    99122301.925 7      -483.952          43.312    23799074.820    99122303.928 7      -483.952          43.437
G19  21264472.340   111745544.499 7       219.331          46.875    21264470.620   111745544.504 6       219.331          38.250    21264479.380    87074476.853 6       170.907          38.312
G17  22426069.840   117849792.758 7      -282.888          45.187    22426068.100   117849792.761 7      -282.888          42.312    22426082.940    91831060.878 7      -220.433          42.125    22426083.360    91831057.879 7      -220.433          45.750
> 2024 07 31 14 15 23.0000000  0 13
R06  20888797.140   111466627.523 6      3948.139          38.562    20888796.960   111466627.521 6      3948.139          37.500
G20  23745441.280   124783136.083 6      4749.083          40.312    23745439.580   124783136.088 4      4749.083          27.812    23745448.640    97233625.937 4      3700.584          27.562
G07  22221920.660   116776986.569 7      4300.009          44.125    22221918.540   116776986.568 7      4300.009          42.375    22221931.680    90995101.746 7      3350.656          42.500    22221932.000    90995118.754 7      3350.656          46.687
G06  20281498.120   106579989.367 8      3601.699          49.875    20281497.260   106579989.369 8      3601.699          50.437    20281504.280    83049368.100 8      2806.519          50.875    20281505.180    83049372.101 8      2806.519          51.562
G09  20549334.280   107987479.556 8       866.606          48.750    20549333.700   107987479.566 8       866.606          50.375    20549340.760    84146112.033 8       675.278          50.562    20549340.980    84146115.035 8       675.278          50.062
G11  22759176.340   119600276.474 7      5566.979          43.937    22759175.400   119600276.479 5      5566.979          33.437    22759181.320    93195037.521 5      4337.906          33.375    22759182.080    93195050.518 7      4337.906          47.812
G04  23089341.260   121335301.981 7      -519.175          42.375    23089340.160   121335301.986 4      -519.175          29.375    23089348.880    94547019.884 4      -404.552          29.125    23089350.100    94547021.868 7      -404.552          45.812
R21  21588357.320   115523660.393 7      6301.572          45.125    21588357.780   115523660.410 7      6301.572          44.187    21588370.620    89851796.054 8      4901.223          48.562    21588370.080    89851793.058 8      4901.223          48.375
G30  23274849.800   122310160.108 7      5561.648          42.312    23274849.340   122310160.110 6      5561.648          39.875    23274866.500    95306688.672 6      4333.752          39.562    23274867.360    95306694.680 7      4333.752          43.812
R05  20370767.380   108893421.856 8       403.243          48.937    20370767.400   108893421.857 8       403.243          48.812    20370777.940    84694924.944 8       313.633          49.750    20370777.600    84694927.940 8       313.633          50.000
R04  23799175.620   127443509.735 6      -621.957          40.187    23799176.820   127443509.793 6      -621.957          38.500    23799191.420    99122785.794 7      -483.744          43.312    23799191.260    99122787.793 7      -483.744          43.375
G19  21264430.860   111745325.393 7       218.988          46.875    21264428.820   111745325.400 6       218.988          38.750    21264437.620    87074306.112 6       170.640          38.812
G17  22426123.980   117850075.689 7      -282.833          45.000    22426122.040   117850075.697 7      -282.833          42.625    22426136.780    91831281.346 7      -220.389          42.562    22426137.580    91831278.349 7      -220.389          45.812
> 2024 07 31 14 15 24.0000000  0 13
R06  20888057.000   111462679.766 6      3947.417          38.750    20888057.320   111462679.777 6      3947.417          37.500
G20  23744538.020   124778387.239 6      4748.825          40.562    23744536.020   124778387.246 4      4748.825          27.812    23744544.860    97229925.540 4      3700.383          27.562
G07  22221102.260   116772686.851 7      4299.484          44.562    22221100.380   116772686.854 7      4299.484          42.375    22221113.500    90991751.307 6      3350.247          41.937    22221113.900    90991768.313 7      3350.247          46.062
G06  20280812.800   106576387.978 8      3601.033          49.437    20280811.960   106576387.978 8      3601.033          50.687    20280818.960    83046561.821 8      2806.000          50.875    20280819.900    83046565.822 8      2806.000          51.125
G09  20549169.520   107986613.203 8       866.044          48.812    20549168.900   107986613.211 8       866.044          50.562    20549175.880    84145436.947 8       674.839          50.562    20549176.160    84145439.949 8       674.839          50.625
G11  22758117.020   119594709.566 7      5566.773          44.312    22758116.080   119594709.573 5      5566.773          33.625    22758122.000    93190699.670 5      4337.745          33.375    22758122.580    93190712.671 7      4337.745          47.500
G04  23089439.980   121335821.367 7      -519.594          42.062    23089438.920   121335821.377 4      -519.594          29.375    23089447.860    94547424.599 4      -404.879          29.125    23089448.660    94547426.589 7      -404.879          45.625
R21  21587179.580   115517359.117 7      6300.958          45.125    21587180.440   115517359.126 7      6300.958          44.062    21587193.060    89846895.054 8      4900.745          48.937    21587192.840    89846892.059 8      4900.745          48.375
G30  23273791.640   122304598.567 6      5561.313          41.375    23273791.140   122304598.564 6      5561.313          40.125    23273808.240    95302355.006 6      4333.491          39.625    23273808.920    95302361.002 7      4333.491          43.812
R05  20370692.040   108893018.893 8       402.769          49.500    20370692.360   108893018.900 8       402.769          48.312    20370702.520    84694611.529 8       313.265          49.750    20370702.280    84694614.525 8       313.265          49.875
R04  23799291.120   127444131.729 6      -622.108          40.187    23799292.920   127444131.776 6      -622.108          39.000    23799307.480    99123269.560 7      -483.862          43.062    23799307.320    99123271.562 7      -483.862          43.500
G19  21264389.200   111745106.778 7       218.288          47.312    21264387.320   111745106.783 6       218.288          38.812    21264396.020    87074135.753 6       170.095          39.000
G17  22426177.760   117850358.870 7      -283.339          44.812    22426175.980   117850358.875 7      -283.339          42.625    22426190.540    91831502.004 7      -220.784          42.625    22426191.340    91831499.005 7      -220.784          45.750
> 2024 07 31 14 15 25.0000000  0 13
R06  20887317.380   111458732.558 6      3947.040          38.750    20887317.620   111458732.559 6      3947.040          37.500
G20  23743634.320   124773638.447 6      4748.857          41.437    23743632.440   124773638.449 4      4748.857          27.812    23743641.080    97226225.183 4      3700.408          27.562
G07  22220283.980   116768387.562 7      4299.157          44.125    22220282.280   116768387.565 7      4299.157          42.187    22220295.340    90988401.213 7      3349.993          42.375    22220295.500    90988418.226 7      3349.993          46.250
G06  20280127.500   106572787.155 8      3600.484          48.875    20280126.720   106572787.157 8      3600.484          50.375    20280133.780    83043755.984 8      2805.572          51.000    20280134.660    83043759.985 8      2805.572          51.625
G09  20549004.840   107985747.355 8       865.648          48.250    20549004.120   107985747.357 8       865.648          50.000    20549011.140    84144762.256 8       674.531          50.187    20549011.580    84144765.257 8       674.531          49.812
G11  22757057.460   119589142.922 7      5566.648          43.937    22757056.800   119589142.925 5      5566.648          33.625    22757062.780    93186362.028 5      4337.648          33.500    22757063.040    93186375.023 7      4337.648          47.375
G04  23089539.000   121336340.996 7      -519.761          42.750    23089537.780   121336341.006 4      -519.761          29.375    23089546.820    94547829.500 4      -405.008          29.125    23089547.480    94547831.486 7      -405.008          45.312
R21  21586002.040   115511058.296 7      6300.539          44.500    21586002.760   115511058.303 7      6300.539          44.562    21586015.460    89841994.419 8      4900.419          48.812    21586015.760    89841991.425 8      4900.419          48.375
G30  23272733.760   122299037.184 7      5561.207          42.812    23272732.920   122299037.184 6      5561.207          40.375    23272750.040    95298021.457 6      4333.408          39.875    23272750.300    95298027.462 7      4333.408          43.750
R05  20370616.800   108892616.240 8       402.515          49.312    20370616.960   108892616.244 8       402.515          48.625    20370627.400    84694298.348 8       313.067          49.875    20370626.920    84694301.345 8       313.067          49.875
R04  23799407.080   127444753.659 6      -621.949          40.187    23799408.940   127444753.708 6      -621.949          39.000    23799423.880    99123753.290 7      -483.738          43.250    23799423.220    99123755.291 7      -483.738          43.875
G19  21264347.880   111744888.720 7       217.843          47.187    21264345.780   111744888.722 6       217.843          38.562    21264354.560    87073965.826 6       169.748          38.500
G17  22426231.800   117850642.337 7      -283.602          45.750    22426229.820   117850642.345 7      -283.602          42.875    22426244.480    91831722.883 7      -220.989          42.750    22426245.140    91831719.886 7      -220.989          45.937
> 2024 07 31 14 15 26.0000000  0 13
R06  20886577.520   111454785.687 6      3946.603          38.750    20886577.980   111454785.696 6      3946.603          37.500
G20  23742730.440   124768889.550 6      4748.803          40.687    23742728.500   124768889.550 4      4748.803          28.125    23742737.440    97222524.744 4      3700.366          27.562
G07  22219466.300   116764088.547 7      4298.840          44.687    22219464.300   116764088.552 7      4298.840          42.437    22219477.280    90985051.343 7      3349.746          42.187    22219477.700    90985068.351 7      3349.746          46.437
G06  20279442.440   106569186.685 8      3600.246          48.937    20279441.600   106569186.685 8      3600.246          50.687    20279448.560    83040950.422 8      2805.387          50.937    20279449.660    83040954.425 8      2805.387          51.687
G09  20548840.340   107984881.806 8       865.339          48.750    20548839.400   107984881.808 8       865.339          50.187    20548846.460    84144087.802 8       674.290          50.562    20548846.740    84144090.806 8       674.290          50.625
G11  22755997.980   119583576.329 7      5566.530          44.000    22755997.480   119583576.331 5      5566.530          33.437    22756003.380    93182024.424 5      4337.556          33.500    22756004.020    93182037.424 7      4337.556          47.250
G04  23089637.780   121336860.627 7      -519.581          42.250    23089636.680   121336860.632 4      -519.581          29.375    23089645.560    94548234.401 4      -404.868          29.125    23089646.140    94548236.391 7      -404.868          45.062
R21  21584824.860   115504757.740 7      6300.377          44.937    21584825.160   115504757.749 7      6300.377          43.937    21584837.960    89837093.993 8      4900.293          48.500    21584837.880    89837090.999 8      4900.293          48.687
G30  23271675.440   122293475.788 7      5561.322          42.312    23271674.620   122293475.788 6      5561.322          40.250    23271691.780    95293687.904 6      4333.498          39.875    23271692.280    95293693.903 7      4333.498          43.625
R05  20370541.560   108892213.663 8       402.469          49.187    20370541.540   108892213.672 8       402.469          49.500    20370551.900    84693985.239 8       313.032          49.250    20370551.560    84693988.235 8       313.032          49.625
R04  23799522.800   127445375.291 6      -621.571          40.750    23799524.660   127445375.349 6      -621.571          39.000    23799539.440    99124236.782 7      -483.444          43.125    23799539.680    99124238.787 7      -483.444          43.687
G19  21264306.220   111744671.028 7       217.426          45.875    21264304.300   111744671.027 6       217.426          37.875    21264313.080    87073796.187 6       169.422          38.000
G17  22426285.700   117850925.878 7      -283.520          44.312    22426283.820   117850925.880 7      -283.520          43.125    22426298.460    91831943.814 7      -220.924          42.812    22426298.840    91831940.817 7      -220.924          45.437
> 2024 07 31 14 15 27.0000000  0 13
R06  20885838.100   111450839.128 6      3946.257          38.750    20885837.740   111450839.134 6      3946.257          37.500
G20  23741826.840   124764140.493 6      4749.083          40.312    23741824.700   124764140.493 4      4749.083          28.125    23741833.780    97218824.183 4      3700.584          27.812
G07  22218648.060   116759789.791 7      4298.469          45.000    22218646.200   116759789.796 7      4298.469          42.687    22218659.360    90981701.684 7      3349.456          42.687    22218659.580    90981718.698 7      3349.456          46.125
G06  20278757.280   106565586.610 8      3599.804          48.375    20278756.500   106565586.615 8      3599.804          50.250    20278763.460    83038145.173 8      2805.042          50.625    20278764.520    83038149.171 8      2805.042          51.312
G09  20548675.600   107984016.596 8       864.922          48.562    20548674.760   107984016.598 8       864.922          49.687    20548681.740    84143413.610 8       673.965          50.312    20548682.240    84143416.612 8       673.965          50.375
G11  22754939.000   119578009.793 7      5566.376          44.125    22754938.160   119578009.796 5      5566.376          33.437    22754944.060    93177686.866 5      4337.436          32.937    22754944.880    93177699.870 7      4337.436          47.125
G04  23089736.640   121337380.316 7      -519.798          42.312    23089735.680   121337380.326 4      -519.798          29.250    23089744.580    94548639.351 4      -405.037          29.125    23089745.120    94548641.350 7      -405.037          44.750
R21  21583647.720   115498457.540 7      6299.827          44.125    21583647.680   115498457.555 7      6299.827          43.937    21583660.560    89832193.848 8      4899.865          48.437    21583660.620    89832190.853 8      4899.865          48.562
G30  23270617.220   122287914.379 7      5561.352          42.187    23270616.260   122287914.381 6      5561.352          39.812    23270633.600    95289354.342 6      4333.521          39.625    23270634.180    95289360.339 7      4333.521          43.875
R05  20370466.020   108891811.224 8       402.296          49.687    20370466.260   108891811.228 8       402.296          48.625    20370476.720    84693672.222 8       312.897          49.937    20370476.760    84693675.221 8       312.897          49.875
R04  23799638.860   127445996.661 6      -621.351          40.750    23799641.620   127445996.711 6      -621.351          39.875    23799655.860    99124720.070 7      -483.273          43.500    23799655.720    99124722.075 7      -483.273          43.437
G19  21264264.840   111744453.719 7       217.008          46.812    21264263.080   111744453.724 6       217.008          38.187    21264271.700    87073626.849 6       169.097          38.125
G17  22426339.880   117851209.558 7      -283.878          44.937    22426337.660   117851209.563 7      -283.878          42.625    22426352.280    91832164.865 7      -221.204          42.500    22426352.820    91832161.864 7      -221.204          45.687
> 2024 07 31 14 15 28.0000000  0 13
R06  20885099.200   111446893.190 6      3945.676          38.812    20885098.560   111446893.188 6      3945.676          37.500
G20  23740923.200   124759391.612 6      4748.735          40.000    23740920.840   124759391.615 4      4748.735          28.125    23740930.320    97215123.760 4      3700.313          27.812
G07  22217829.780   116755491.592 7      4297.912          44.062    22217828.460   116755491.589 7      4297.912          42.562    22217841.240    90978352.453 7      3349.022          42.562    22217841.800    90978369.459 7      3349.022          46.250
G06  20278072.340   106561987.176 8      3599.132          49.375    20278071.600   106561987.179 8      3599.132          50.625    20278078.540    83035340.415 8      2804.518          50.937    20278079.680    83035344.416 8      2804.518          51.062
G09  20548510.980   107983151.927 8       864.473          48.750    20548510.300   107983151.934 8       864.473          50.437    20548517.320    84142739.846 8       673.615          50.562    20548517.800    84142742.844 8       673.615          50.500
G11  22753879.860   119572443.565 7      5566.098          44.437    22753878.780   119572443.567 5      5566.098          33.500    22753884.920    93173349.548 5      4337.220          32.937    22753885.640    93173362.553 7      4337.220          47.562
G04  23089835.940   121337900.299 7      -520.107          42.062    23089834.760   121337900.306 4      -520.107          29.250    23089843.520    94549044.529 4      -405.278          29.125    23089844.360    94549046.517 7      -405.278          45.187
R21  21582470.560   115492157.875 7      6299.504          44.062    21582470.900   115492157.889 7      6299.504          44.062    21582483.200    89827294.108 8      4899.614          48.750    21582483.240    89827291.108 8      4899.614          48.250
G30  23269559.180   122282353.217 6      5561.140          41.750    23269557.900   122282353.214 6      5561.140          40.875    23269575.360    95285020.967 6      4333.356          40.187    23269575.760    95285026.970 7      4333.356          43.562
R05  20370390.860   108891409.159 8       401.946          49.687    20370390.900   108891409.166 8       401.946          48.375    20370401.500    84693359.508 8       312.624          49.500    20370401.280    84693362.506 8       312.624          49.562
R04  23799755.600   127446617.986 6      -621.378          40.750    23799757.540   127446618.047 6      -621.378          39.875    23799772.140    99125203.335 7      -483.294          43.187    23799771.620    99125205.340 7      -483.294          43.500
G19  21264223.740   111744237.041 7       216.409          46.750    21264221.900   111744237.043 6       216.409          38.562    21264230.440    87073457.995 6       168.630          38.625
G17  22426393.860   117851493.558 7      -284.135          44.937    22426391.700   117851493.566 7      -284.135          42.375    22426406.280    91832386.164 7      -221.404          42.250    22426407.300    91832383.165 7      -221.404          45.375
> 2024 07 31 14 15 29.0000000  0 13
R06  20884359.700   111442947.909 6      3945.253          38.812    20884358.960   111442947.896 6      3945.253          37.500
G20  23740019.200   124754642.918 6      4748.792          39.875    23740017.080   124754642.925 4      4748.792          28.125    23740026.640    97211423.483 4      3700.358          27.812
G07  22217011.980   116751194.009 7      4297.489          44.812    22217010.540   116751194.008 7      4297.489          42.375    22217023.540    90975003.678 7      3348.692          42.187    22217024.160    90975020.680 7      3348.692          46.062
G06  20277387.760   106558388.441 8      3598.544          49.125    20277386.800   106558388.444 8      3598.544          50.562    20277393.680    83032536.208 8      2804.060          51.500    20277394.680    83032540.209 8      2804.060          51.812
G09  20548346.500   107982287.936 8       863.857          48.562    20548345.860   107982287.941 8       863.857          49.812    20548352.880    84142066.605 8       673.135          49.937    20548353.280    84142069.604 8       673.135          49.875
G11  22752820.780   119566877.736 7      5565.651          44.125    22752819.540   119566877.741 5      5565.651          33.500    22752825.860    93169012.542 5      4336.871          33.375    22752826.400    93169025.556 7      4336.871          47.687
G04  23089934.560   121338420.626 7      -520.282          42.812    23089933.860   121338420.634 4      -520.282          29.250    23089942.600    94549449.973 4      -405.414          29.125    23089942.900    94549451.965 7      -405.414          45.062
R21  21581293.160   115485858.844 7      6298.942          44.375    21581293.460   115485858.872 7      6298.942          44.375    21581306.000    89822394.876 8      4899.177          48.750    21581306.220    89822391.876 7      4899.177          47.812
G30  23268500.900   122276792.362 7      5561.021          43.062    23268499.640   122276792.361 6      5561.021          40.312    23268517.080    95280687.837 6      4333.263          40.000    23268517.680    95280693.839 7      4333.263          43.812
R05  20370315.520   108891007.573 8       401.536          48.937    20370315.840   108891007.582 8       401.536          48.875    20370326.360    84693047.163 8       312.306          49.937    20370326.380    84693050.161 8       312.306          49.937
R04  23799871.200   127447239.378 6      -621.263          40.750    23799873.760   127447239.430 6      -621.263          39.875    23799888.180    99125686.635 7      -483.205          43.437    23799887.840    99125688.641 7      -483.205          43.875
G19  21264182.560   111744021.059 7       215.900          46.187    21264180.860   111744021.061 6       215.900          38.250    21264189.440    87073289.691 6       168.234          38.125
G17  22426447.780   117851778.019 7      -284.449          44.750    22426445.940   117851778.021 7      -284.449          42.937    22426460.620    91832607.814 7      -221.648          42.625    22426461.400    91832604.818 7      -221.648          45.687
> 2024 07 31 14 15 30.0000000  0 13
R06  20883620.180   111439003.078 6      3944.736          38.812    20883619.840   111439003.069 6      3944.736          37.500
G20  23739115.480   124749894.229 6      4748.711          39.875    23739113.360   124749894.231 4      4748.711          28.125    23739123.040    97207723.209 4      3700.294          27.812
G07  22216194.180   116746896.774 7      4297.054          45.000    22216192.800   116746896.774 7      4297.054          42.687    22216205.820    90971655.188 7      3348.354          42.062    22216206.080    90971672.192 7      3348.354          46.187
G06  20276702.780   106554790.193 8      3597.978          48.875    20276702.020   106554790.195 8      3597.978          50.437    20276709.020    83029732.375 8      2803.620          50.687    20276710.120    83029736.376 8      2803.620          51.812
G09  20548182.380   107981424.337 7       863.495          47.500    20548181.460   107981424.339 8       863.495          49.625    20548188.580    84141393.666 8       672.854          50.187    20548189.040    84141396.668 8       672.854          50.125
G11  22751761.740   119561312.039 7      5565.630          44.500    22751760.480   119561312.047 5      5565.630          33.437    22751766.920    93164675.641 5      4336.854          33.375    22751767.280    93164688.647 7      4336.854          47.625
G04  23090033.580   121338941.093 7      -520.503          42.562    23090032.900   121338941.103 4      -520.503          29.437    23090041.620    94549855.531 4      -405.587          29.125    23090042.000    94549857.530 7      -405.587          44.625
R21  21580116.280   115479560.219 7      6298.542          44.187    21580116.500   115479560.240 7      6298.542          44.125    21580129.000    89817495.942 8      4898.866          49.125    21580129.000    89817492.940 8      4898.866          48.812
G30  23267442.600   122271231.604 7      5560.916          42.187    23267441.520   122271231.601 6      5560.916          39.875    23267458.840    95276354.775 6      4333.181          39.750    23267459.880    95276360.779 7      4333.181          43.812
R05  20370240.360   108890606.209 8       401.294          48.875    20370240.820   108890606.213 8       401.294          48.437    20370251.280    84692734.984 8       312.117          49.375    20370251.260    84692737.985 8       312.117          49.500
R04  23799987.500   127447860.657 6      -621.182          40.937    23799990.180   127447860.709 6      -621.182          39.875    23800004.140    99126169.850 7      -483.142          43.125    23800003.720    99126171.856 7      -483.142          43.312
G19  21264141.500   111743805.552 7       215.402          45.187    21264139.920   111743805.554 6       215.402          38.500    21264148.480    87073121.758 6       167.846          38.250
G17  22426502.160   117852062.676 7      -284.770          44.937    22426500.080   117852062.678 7      -284.770          42.437    22426514.880    91832829.620 7      -221.898          42.187    22426515.200    91832826.625 7      -221.898          45.500
> 2024 07 31 14 15 31.0000000  0 13
R06  20882881.280   111435058.712 6      3943.949          38.812    20882880.760   111435058.708 6      3943.949          37.500
G20  23738212.260   124745145.508 6      4748.502          40.125    23738209.780   124745145.510 4      4748.502          27.875    23738219.400    97204022.914 4      3700.131          27.812
G07  22215376.460   116742599.900 7      4296.541          44.625    22215375.160   116742599.900 6      4296.541          41.687    22215388.160    90968306.984 6      3347.954          41.437    22215388.360    90968323.986 7      3347.954          45.687
G06  20276018.220   106551192.375 8      3597.456          48.562    20276017.360   106551192.379 8      3597.456          48.937    20276024.420    83026928.883 8      2803.213          48.875    20276025.480    83026932.884 8      2803.213          51.062
G09  20548018.200   107980561.131 8       862.882          48.125    20548017.240   107980561.139 8       862.882          48.687    20548024.300    84140721.043 8       672.375          48.562    20548024.640    84140724.042 8       672.375          49.875
G11  22750702.420   119555746.478 7      5565.435          44.125    22750701.460   119555746.483 5      5565.435          33.312    22750707.860    93160338.841 5      4336.703          33.062    22750708.360    93160351.846 7      4336.703          47.000
G04  23090132.820   121339461.688 7      -520.855          42.562    23090131.880   121339461.701 4      -520.855          29.437    23090140.760    94550261.188 4      -405.861          29.250    23090141.120    94550263.188 7      -405.861          44.187
R21  21578939.140   115473261.946 7      6297.968          44.187    21578939.660   115473261.960 7      6297.968          44.125    21578952.200    89812597.287 7      4898.419          47.375    21578952.080    89812594.286 7      4898.419          47.187
G30  23266384.740   122265670.941 7      5560.478          42.812    23266383.640   122265670.938 6      5560.478          40.062    23266400.420    95272021.793 6      4332.840          40.125    23266401.480    95272027.796 7      4332.840          43.312
R05  20370165.340   108890205.063 8       400.819          49.187    20370165.780   108890205.073 8       400.819          49.125    20370176.100    84692422.985 8       311.748          48.687    20370176.300    84692425.981 8       311.748          48.500
R04  23800103.060   127448481.781 6      -621.308          40.937    23800106.500   127448481.836 6      -621.308          39.687    23800120.160    99126652.957 7      -483.239          42.437    23800119.800    99126654.963 7      -483.239          43.312
G19  21264100.720   111743590.511 7       214.702          46.812    21264099.000   111743590.511 6       214.702          38.062    21264107.600    87072954.183 6       167.300          38.125
G17  22426556.440   117852347.504 7      -285.123          44.937    22426554.220   117852347.507 7      -285.123          42.125    22426569.020    91833051.558 6      -222.173          41.937    22426569.240    91833048.561 7      -222.173          45.562
> 2024 07 31 14 15 32.0000000  0 13
R06  20882142.460   111431114.885 6      3943.731          38.812    20882141.620   111431114.878 6      3943.731          37.375
G20  23737308.300   124740396.848 6      4748.818          39.875    23737306.060   124740396.853 4      4748.818          27.875    23737315.520    97200322.663 4      3700.378          27.562
G07  22214558.800   116738303.478 7      4296.464          45.125    22214557.640   116738303.475 7      4296.464          42.250    22214570.500    90964959.127 6      3347.894          41.687    22214571.180    90964976.135 7      3347.894          46.000
G06  20275333.620   106547595.148 8      3597.272          49.687    20275332.880   106547595.150 8      3597.272          49.625    20275339.840    83024125.843 8      2803.069          50.375    20275341.000    83024129.844 8      2803.069          51.437
G09  20547854.040   107979698.444 8       862.705          48.812    20547853.100   107979698.454 8       862.705          49.750    20547860.160    84140048.816 8       672.238          50.062    20547860.500    84140051.814 8       672.238          50.187
G11  22749643.480   119550181.193 7      5565.531          43.375    22749642.320   119550181.198 5      5565.531          33.312    22749648.820    93156002.259 5      4336.777          33.062    22749649.500    93156015.261 7      4336.777          47.437
G04  23090232.120   121339982.520 7      -520.733          42.875    23090231.120   121339982.530 4      -520.733          29.437    23090239.820    94550667.027 4      -405.766          29.250    23090240.500    94550669.015 7      -405.766          44.687
R21  21577762.360   115466964.156 7      6297.824          44.312    21577762.680   115466964.176 7      6297.824          44.000    21577775.500    89807699.008 8      4898.308          48.562    21577775.400    89807696.010 7      4898.308          47.937
G30  23265326.640   122260110.428 7      5560.723          43.062    23265325.760   122260110.430 6      5560.723          40.500    23265342.180    95267688.926 6      4333.031          40.125    23265343.040    95267694.933 7      4333.031          43.000
R05  20370090.700   108889804.223 7       400.961          47.937    20370090.920   108889804.224 8       400.961          48.375    20370101.160    84692111.209 8       311.859          49.437    20370101.260    84692114.208 8       311.859          49.437
R04  23800219.460   127449102.837 6      -620.755          40.937    23800222.500   127449102.895 6      -620.755          39.687    23800235.980    99127135.995 7      -482.809          42.875    23800235.920    99127137.999 7      -482.809          42.812
G19  21264059.960   111743376.019 7       214.516          46.750    21264058.280   111743376.024 6       214.516          38.500    21264066.680    87072787.038 6       167.155          38.062
G17  22426610.340   117852632.629 7      -285.113          44.687    22426608.660   117852632.634 7      -285.113          42.250    22426623.260    91833273.730 6      -222.166          41.875    22426623.740    91833270.732 7      -222.166          45.562
> 2024 07 31 14 15 33.0000000  0 13
R06  20881403.440   111427171.490 6      3943.036          38.812    20881402.640   111427171.491 6      3943.036          37.375
G20  23736404.380   124735648.125 6      4748.732          39.687    23736402.400   124735648.127 4      4748.732          27.875    23736411.860    97196622.361 4      3700.310          27.562
G07  22213741.280   116734007.399 7      4295.876          45.000    22213740.220   116734007.402 7      4295.876          42.500    22213752.900    90961611.542 6      3347.436          41.937    22213753.380    90961628.552 7      3347.436          46.437
G06  20274649.180   106543998.376 8      3596.514          48.500    20274648.460   106543998.378 8      3596.514          50.625    20274655.460    83021323.163 8      2802.479          51.000    20274656.500    83021327.166 8      2802.479          51.687
G09  20547689.780   107978836.134 8       862.109          48.187    20547689.060   107978836.142 8       862.109          49.812    20547696.040    84139376.885 8       671.773          50.062    20547696.560    84139379.885 8       671.773          50.437
G11  22748584.400   119544616.040 7      5565.074          43.125    22748583.500   119544616.042 5      5565.074          33.437    22748589.580    93151665.776 5      4336.421          33.437    22748590.320    93151678.779 7      4336.421          47.625
G04  23090330.900   121340503.407 6      -520.836          41.750    23090330.140   121340503.412 4      -520.836          29.437    23090338.920    94551072.904 4      -405.846          29.250    23090339.620    94551074.899 7      -405.846          44.625
R21  21576585.220   115460666.749 7      6297.208          45.312    21576585.440   115460666.772 7      6297.208          44.500    21576598.540    89802801.034 8      4897.829          48.062    21576598.440    89802798.035 8      4897.829          48.437
G30  23264268.240   122254549.985 7      5560.391          43.125    23264267.840   122254549.985 6      5560.391          40.875    23264284.080    95263356.109 6      4332.772          40.375    23264284.840    95263362.115 7      4332.772          43.125
R05  20370015.680   108889403.530 8       400.627          48.062    20370015.840   108889403.539 8       400.627          48.437    20370026.420    84691799.563 8       311.599          49.562    20370026.240    84691802.561 8       311.599          49.500
R04  23800334.760   127449723.691 6      -620.816          40.500    23800337.640   127449723.749 6      -620.816          39.687    23800352.020    99127618.891 7      -482.857          42.875    23800351.320    99127620.893 7      -482.857          43.312
G19  21264019.140   111743161.986 7       213.820          45.687    21264017.480   111743161.991 6       213.820          38.062    21264026.080    87072620.251 6       166.613          37.812
G17  22426664.900   117852917.915 7      -285.384          45.625    22426662.980   117852917.914 7      -285.384          43.000    22426677.680    91833496.026 7      -222.377          42.875    22426677.940    91833493.029 7      -222.377          45.625
> 2024 07 31 14 15 34.0000000  0 13
R06  20880664.140   111423228.437 6      3942.721          38.812    20880664.000   111423228.419 6      3942.721          37.375
G20  23735500.940   124730899.325 6      4748.848          39.937    23735498.740   124730899.327 4      4748.848          27.875    23735508.360    97192922.002 4      3700.401          27.562
G07  22212923.880   116729711.602 7      4295.686          44.875    22212922.600   116729711.599 7      4295.686          42.812    22212935.420    90958264.171 7      3347.288          42.500    22212935.900    90958281.177 7      3347.288          45.937
G06  20273964.820   106540401.971 8      3596.190          49.125    20273964.060   106540401.976 8      3596.190          50.500    20273971.040    83018520.770 8      2802.226          50.937    20273972.120    83018524.773 8      2802.226          51.625
G09  20547525.660   107977974.148 8       861.803          48.937    20547525.040   107977974.156 8       861.803          50.312    20547531.980    84138705.203 8       671.535          50.250    20547532.260    84138708.205 8       671.535          50.125
G11  22747525.480   119539050.939 7      5564.903          43.812    22747524.380   119539050.944 5      5564.903          33.437    22747530.520    93147329.338 5      4336.288          33.437    22747531.360    93147342.347 7      4336.288          47.500
G04  23090429.840   121341024.396 6      -521.115          41.937    23090429.280   121341024.404 4      -521.115          29.562    23090437.860    94551478.866 4      -406.063          29.250    23090438.660    94551480.861 7      -406.063          45.250
R21  21575408.640   115454369.685 7      6296.796          43.875    21575408.900   115454369.697 7      6296.796          44.000    21575421.540    89797903.308 8      4897.508          48.750    21575421.720    89797900.312 7      4897.508          47.875
G30  23263210.180   122248989.527 7      5560.483          42.812    23263209.800   122248989.527 6      5560.483          40.812    23263226.040    95259023.283 6      4332.844          40.875    23263226.640    95259029.288 7      4332.844          43.375
R05  20369940.660   108889002.962 8       400.499          48.750    20369940.820   108889002.966 8       400.499          48.000    20369951.400    84691488.004 8       311.499          49.437    20369951.600    84691491.002 8       311.499          50.187
R04  23800450.600   127450344.285 6      -620.699          40.500    23800453.060   127450344.348 6      -620.699          39.687    23800467.880    99128101.582 7      -482.766          42.750    23800467.520    99128103.585 7      -482.766          43.125
G19  21263978.800   111742948.325 7       213.425          47.625    21263976.780   111742948.327 6       213.425          38.250    21263985.480    87072453.751 6       166.306          38.125
G17  22426719.180   117853203.313 7      -285.471          45.062    22426717.480   117853203.315 7      -285.471          42.875    22426731.900    91833718.414 7      -222.445          42.812    22426732.460    91833715.415 7      -222.445          45.812
> 2024 07 31 14 15 35.0000000  0 13
R06  20879925.360   111419285.928 6      3942.340          38.812    20879924.720   111419285.934 6      3942.340          37.375
G20  23734597.520   124726150.631 6      4748.845          40.250    23734595.160   124726150.630 4      4748.845          27.875    23734604.840    97189221.721 4      3700.399          27.562
G07  22212106.740   116725416.323 7      4295.197          44.500    22212105.240   116725416.322 7      4295.197          42.687    22212118.200    90954917.211 7      3346.906          42.625    22212118.760    90954934.217 7      3346.906          46.125
G06  20273280.580   106536806.208 8      3595.574          49.750    20273279.780   106536806.213 8      3595.574          50.562    20273286.820    83015718.877 8      2801.746          50.687    20273287.920    83015722.878 8      2801.746          51.125
G09  20547361.800   107977112.717 8       861.324          49.250    20547361.040   107977112.727 8       861.324          50.125    20547368.160    84138033.960 8       671.161          50.375    20547368.560    84138036.962 8       671.161          50.125
G11  22746466.440   119533486.116 7      5564.900          43.875    22746465.380   119533486.121 5      5564.900          33.750    22746471.440    93142993.112 5      4336.286          33.437    22746472.160    93143006.112 7      4336.286          47.562
G04  23090529.400   121341545.617 6      -521.077          41.875    23090528.520   121341545.617 4      -521.077          29.562    23090537.080    94551885.006 4      -406.034          29.562    23090538.100    94551886.994 7      -406.034          45.312
R21  21574231.700   115448073.110 7      6296.506          44.187    21574232.600   115448073.114 7      6296.506          44.000    21574244.860    89793005.970 8      4897.282          48.062    21574245.020    89793002.968 8      4897.282          48.437
G30  23262152.140   122243429.332 7      5560.164          43.125    23262151.520   122243429.334 6      5560.164          40.437    23262168.100    95254690.663 6      4332.595          40.437    23262169.020    95254696.660 7      4332.595          43.562
R05  20369865.920   108888602.731 8       400.208          49.500    20369865.900   108888602.735 8       400.208          48.687    20369876.540    84691176.713 8       311.273          49.500    20369876.360    84691179.707 8       311.273          49.562
R04  23800567.180   127450964.822 6      -620.408          40.500    23800568.760   127450964.869 6      -620.408          38.937    23800583.640    99128584.216 7      -482.540          43.062    23800583.360    99128586.215 7      -482.540          43.375
G19  21263938.100   111742735.280 7       212.898          46.875    21263936.280   111742735.282 6       212.898          38.437    21263944.900    87072287.737 6       165.895          38.625
G17  22426773.600   117853489.071 7      -285.751          45.250    22426771.660   117853489.074 7      -285.751          43.187    22426786.300    91833941.075 7      -222.663          42.937    22426786.940    91833938.076 7      -222.663          45.875
> 2024 07 31 14 15 36.0000000  0 13
R06  20879186.000   111415343.859 6      3942.023          38.687    20879186.120   111415343.857 6      3942.023          37.375
G20  23733693.920   124721401.923 6      4748.655          40.437    23733691.600   124721401.920 4      4748.655          27.812    23733701.120    97185521.437 4      3700.251          28.062
G07  22211289.580   116721121.393 7      4294.742          44.750    22211288.040   116721121.400 7      4294.742          42.687    22211300.900    90951570.520 7      3346.552          42.437    22211301.300    90951587.524 7      3346.552          46.375
G06  20272596.480   106533210.883 8      3595.014          48.375    20272595.680   106533210.886 8      3595.014          50.375    20272602.620    83012917.325 8      2801.310          51.000    20272603.760    83012921.326 8      2801.310          51.812
G09  20547198.040   107976251.676 8       860.892          49.187    20547197.220   107976251.681 8       860.892          50.000    20547204.260    84137363.016 8       670.825          49.875    20547204.840    84137366.015 8       670.825          50.687
G11  22745407.560   119527921.465 7      5564.479          43.625    22745406.560   119527921.472 5      5564.479          33.750    22745412.500    93138657.026 5      4335.958          33.437    22745413.120    93138670.032 7      4335.958          47.062
G04  23090628.700   121342066.977 7      -521.433          42.750    23090627.640   121342066.982 4      -521.433          29.562    23090636.380    94552291.260 4      -406.311          29.562    23090637.420    94552293.253 7      -406.311          45.000
R21  21573055.320   115441776.896 7      6296.059          44.500    21573055.680   115441776.911 7      6296.059          43.687    21573068.240    89788108.926 8      4896.935          48.250    21573068.340    89788105.927 8      4896.935          48.500
G30  23261094.040   122237869.155 7      5560.220          44.500    23261093.180   122237869.157 6      5560.220          41.000    23261109.940    95250358.055 6      4332.639          40.937    23261111.200    95250364.059 7      4332.639          43.187
R05  20369791.180   108888202.665 8       400.045          49.062    20369791.120   108888202.672 8       400.045          48.562    20369801.800    84690865.547 8       311.146          49.687    20369801.520    84690868.545 8       311.146          49.500
R04  23800683.100   127451585.215 6      -620.335          40.500    23800684.500   127451585.252 6      -620.335          38.937    23800699.240    99129066.729 7      -482.483          42.937    23800699.420    99129068.730 7      -482.483          43.312
G19  21263897.620   111742522.685 7       212.356          46.750    21263895.700   111742522.685 6       212.356          38.312    21263904.460    87072122.066 6       165.472          38.375
G17  22426827.940   117853774.995 7      -286.025          44.937    22426825.940   117853774.995 7      -286.025          42.875    22426840.820    91834163.869 7      -222.877          42.562    22426841.360    91834160.877 7      -222.877          45.437
> 2024 07 31 14 15 37.0000000  0 13
R06  20878447.800   111411402.308 6      3941.379          38.687    20878447.100   111411402.308 6      3941.379          37.375
G20  23732790.140   124716653.210 6      4748.744          39.875    23732787.880   124716653.212 4      4748.744          27.812    23732797.380    97181821.148 4      3700.320          28.062
G07  22210472.280   116716826.889 7      4294.356          44.875    22210470.840   116716826.891 7      4294.356          42.562    22210483.520    90948224.161 7      3346.251          42.312    22210483.900    90948241.169 7      3346.251          45.812
G06  20271912.380   106529616.069 8      3594.620          49.125    20271911.560   106529616.076 8      3594.620          50.250    20271918.600    83010116.171 8      2801.003          50.250    20271919.600    83010120.176 8      2801.003          51.687
G09  20547034.260   107975391.093 8       860.417          49.062    20547033.420   107975391.098 8       860.417          50.187    20547040.460    84136692.431 8       670.455          50.062    20547041.160    84136695.431 8       670.455          50.312
G11  22744348.680   119522356.966 7      5564.523          43.875    22744347.760   119522356.976 5      5564.523          33.500    22744353.680    93134321.055 5      4335.992          33.625    22744354.120    93134334.052 7      4335.992          47.437
G04  23090727.760   121342588.487 7      -521.494          42.187    23090726.840   121342588.494 4      -521.494          29.562    23090735.660    94552697.628 4      -406.359          29.562    23090736.620    94552699.620 7      -406.359          45.125
R21  21571878.940   115435481.164 7      6295.604          44.500    21571879.380   115435481.169 7      6295.604          43.750    21571891.680    89783212.248 8      4896.581          48.250    21571891.940    89783209.251 8      4896.581          48.187
G30  23260036.020   122232309.146 7      5559.976          43.000    23260035.140   122232309.146 6      5559.976          41.500    23260052.200    95246025.581 6      4332.449          41.437    23260053.160    95246031.586 7      4332.449          43.687
R05  20369716.560   108887802.854 8       399.787          48.000    20369716.320   108887802.858 8       399.787          48.812    20369726.700    84690554.580 8       310.945          49.250    20369726.780    84690557.583 8       310.945          49.625
R04  23800798.900   127452205.461 6      -620.169          39.312    23800799.960   127452205.516 6      -620.169          38.937    23800814.920    99129549.149 7      -482.353          42.750    23800815.020    99129551.154 7      -482.353          43.500
G19  21263857.360   111742310.594 7       211.869          46.750    21263855.340   111742310.597 6       211.869          38.125    21263864.060    87071956.794 6       165.093          38.125
G17  22426882.700   117854061.156 7      -286.239          44.625    22426880.300   117854061.158 7      -286.239          42.562    22426895.240    91834386.853 7      -223.043          42.437    22426895.820    91834383.857 7      -223.043          45.687
> 2024 07 31 14 15 38.0000000  0 13
R06  20877709.500   111407461.335 6      3940.221          38.687    20877709.060   111407461.339 6      3940.221          37.375
G20  23731886.300   124711904.597 6      4748.442          40.562    23731884.240   124711904.597 4      4748.442          27.812    23731893.800    97178120.932 4      3700.085          28.062
G07  22209655.280   116712532.847 7      4293.569          44.437    22209653.700   116712532.852 7      4293.569          42.562    22209666.420    90944878.165 7      3345.638          42.250    22209666.640    90944895.171 7      3345.638          46.187
G06  20271228.420   106526021.858 8      3593.698          49.625    20271227.620   106526021.866 8      3593.698          50.500    20271234.620    83007315.490 8      2800.284          51.125    20271235.620    83007319.490 8      2800.284          51.625
G09  20546870.740   107974531.025 8       859.595          49.562    20546869.900   107974531.036 8       859.595          49.875    20546876.760    84136022.248 8       669.814          50.062    20546877.640    84136025.252 8       669.814          50.187
G11  22743289.640   119516792.766 7      5563.910          44.312    22743288.800   119516792.776 5      5563.910          33.500    22743294.840    93129985.319 5      4335.514          33.625    22743295.200    93129998.316 7      4335.514          47.687
G04  23090827.120   121343110.251 7      -522.025          42.000    23090826.180   121343110.259 4      -522.025          29.312    23090835.080    94553104.191 4      -406.773          29.562    23090835.440    94553106.182 7      -406.773          45.125
R21  21570702.540   115429185.952 7      6294.728          44.812    21570702.880   115429185.966 7      6294.728          44.187    21570715.200    89778315.977 8      4895.899          48.625    21570715.400    89778312.979 8      4895.899          48.375
G30  23258977.640   122226749.303 7      5559.642          43.250    23258977.140   122226749.302 6      5559.642          41.437    23258994.340    95241693.236 6      4332.189          41.312    23258995.040    95241699.243 7      4332.189          44.062
R05  20369641.740   108887403.376 8       399.080          49.125    20369641.640   108887403.380 8       399.080          48.500    20369652.020    84690243.874 8       310.396          49.812    20369652.040    84690246.874 8       310.396          49.562
R04  23800915.100   127452825.693 6      -620.478          39.312    23800916.500   127452825.735 6      -620.478          38.937    23800931.020    99130031.537 7      -482.594          42.875    23800931.320    99130033.538 7      -482.594          43.062
G19  21263817.020   111742099.087 7       210.991          46.437    21263815.240   111742099.089 6       210.991          38.375    21263823.940    87071791.973 6       164.408          38.312
G17  22426937.160   117854347.618 7      -286.833          44.937    22426934.720   117854347.623 7      -286.833          42.125    22426949.780    91834610.066 7      -223.507          42.375    22426950.300    91834607.073 7      -223.507          45.812
> 2024 07 31 14 15 39.0000000  0 13
R06  20876970.760   111403520.779 6      3940.415          38.687    20876970.180   111403520.775 6      3940.415          37.375
G20  23730982.700   124707155.997 6      4748.618          40.375    23730980.820   124707156.000 4      4748.618          27.812    23730990.180    97174420.726 4      3700.222          28.062
G07  22208838.260   116708239.217 7      4293.447          44.687    22208836.620   116708239.225 7      4293.447          42.625    22208849.440    90941532.488 7      3345.543          42.500    22208849.860    90941549.496 7      3345.543          46.250
G06  20270544.660   106522428.129 8      3593.592          49.125    20270543.820   106522428.134 8      3593.592          50.750    20270550.760    83004515.179 8      2800.202          51.000    20270551.840    83004519.180 8      2800.202          51.562
G09  20546707.060   107973671.394 8       859.494          48.812    20546706.240   107973671.401 8       859.494          50.062    20546713.220    84135352.406 8       669.736          50.437    20546713.700    84135355.409 8       669.736          49.937
G11  22742230.960   119511228.711 7      5564.150          43.562    22742229.980   119511228.718 5      5564.150          33.500    22742236.020    93125649.696 5      4335.701          33.187    22742236.720    93125662.699 7      4335.701          47.437
G04  23090926.580   121343632.163 7      -521.888          43.437    23090925.480   121343632.173 4      -521.888          29.312    23090934.380    94553510.874 4      -406.666          29.375    23090934.900    94553512.868 7      -406.666          44.937
R21  21569526.040   115422891.161 7      6294.681          44.187    21569526.560   115422891.168 7      6294.681          44.375    21569538.880    89773420.025 8      4895.863          48.062    21569538.860    89773417.022 7      4895.863          47.875
G30  23257919.680   122221189.599 7      5559.722          43.562    23257919.160   122221189.590 6      5559.722          41.187    23257936.380    95237360.995 6      4332.251          41.312    23257937.080    95237366.994 7      4332.251          43.875
R05  20369566.860   108887004.137 8       399.236          49.625    20369566.760   108887004.136 8       399.236          48.625    20369577.520    84689933.350 8       310.517          49.687    20369577.340    84689936.348 8       310.517          50.125
R04  23801030.480   127453445.730 6      -620.020          39.312    23801031.440   127453445.780 6      -620.020          38.937    23801046.800    99130513.802 7      -482.238          43.625    23801046.880    99130515.802 7      -482.238          43.750
G19  21263777.000   111741888.071 7       210.822          46.875    21263775.120   111741888.076 6       210.822          38.000    21263783.780    87071627.537 6       164.277          38.062
G17  22426991.320   117854634.309 7      -286.683          44.062    22426989.420   117854634.309 7      -286.683          42.812    22427004.460    91834833.456 7      -223.389          42.812    22427005.060    91834830.456 7      -223.389          45.812
> 2024 07 31 14 15 40.0000000  0 13
R06  20876231.760   111399580.672 6      3939.850          38.500    20876232.000   111399580.675 6      3939.850          37.375
G20  23730079.200   124702407.316 6      4748.785          40.187    23730077.300   124702407.316 4      4748.785          28.312    23730086.580    97170720.459 4      3700.352          28.187
G07  22208021.120   116703945.901 7      4293.125          44.687    22208019.620   116703945.903 7      4293.125          42.875    22208032.320    90938187.052 7      3345.292          42.500    22208033.040    90938204.058 7      3345.292          46.500
G06  20269860.660   106518834.825 8      3593.177          48.687    20269859.940   106518834.827 8      3593.177          50.437    20269867.060    83001715.198 8      2799.878          51.125    20269868.020    83001719.200 8      2799.878          51.750
G09  20546543.520   107972812.124 8       859.065          48.625    20546542.720   107972812.129 8       859.065          50.437    20546549.720    84134682.841 8       669.401          50.375    20546550.300    84134685.841 8       669.401          50.062
G11  22741172.160   119505664.805 7      5563.882          44.187    22741171.160   119505664.813 5      5563.882          33.500    22741177.260    93121314.187 5      4335.492          33.187    22741178.060    93121327.188 7      4335.492          47.562
G04  23091025.900   121344154.151 7      -522.044          43.937    23091024.880   121344154.161 4      -522.044          29.312    23091033.720    94553917.618 4      -406.788          29.375    23091034.120    94553919.612 7      -406.788          44.875
R21  21568349.980   115416596.684 7      6294.345          44.375    21568350.180   115416596.699 7      6294.345          44.375    21568362.800    89768524.327 8      4895.601          48.437    21568362.640    89768521.326 8      4895.601          48.062
G30  23256862.000   122215629.892 7      5559.695          43.437    23256861.360   122215629.892 6      5559.695          41.375    23256878.320    95233028.764 6      4332.230          41.375    23256878.820    95233034.777 7      4332.230          43.437
R05  20369492.260   108886605.077 8       398.942          48.812    20369492.120   108886605.083 8       398.942          48.625    20369502.880    84689622.972 8       310.288          49.875    20369502.860    84689625.968 8       310.288          50.187
R04  23801146.300   127454065.512 6      -619.582          39.312    23801147.120   127454065.575 6      -619.582          38.937    23801162.660    99130995.843 7      -481.897          43.500    23801162.720    99130997.846 7      -481.897          43.437
G19  21263737.000   111741677.468 7       210.426          46.187    21263734.960   111741677.478 6       210.426          38.312    21263743.600    87071463.420 6       163.968          38.375
G17  22427046.060   117854921.155 7      -286.902          44.687    22427043.880   117854921.152 7      -286.902          42.312    22427059.060    91835056.964 7      -223.560          42.312    22427059.640    91835053.969 7      -223.560          46.000
> 2024 07 31 14 15 41.0000000  0 13
R06  20875493.780   111395641.081 6      3939.187          38.500    20875493.780   111395641.095 6      3939.187          37.375
G20  23729175.600   124697658.737 6      4748.429          40.375    23729173.640   124697658.742 4      4748.429          28.312    23729182.940    97167020.272 4      3700.074          28.187
G07  22207204.180   116699653.067 7      4292.572          45.000    22207202.600   116699653.070 7      4292.572          42.562    22207215.380    90934841.992 7      3344.861          42.562    22207216.120    90934858.998 7      3344.861          46.187
G06  20269177.020   106515242.115 8      3592.406          49.437    20269176.320   106515242.119 8      3592.406          50.437    20269183.360    82998915.685 8      2799.278          50.687    20269184.420    82998919.686 8      2799.278          51.437
G09  20546380.080   107971953.386 8       858.366          48.937    20546379.320   107971953.391 8       858.366          49.875    20546386.260    84134013.694 8       668.856          50.250    20546386.760    84134016.696 8       668.856          50.312
G11  22740113.280   119500101.160 7      5563.385          44.187    22740112.400   119500101.165 5      5563.385          33.500    22740118.600    93116978.879 5      4335.105          33.312    22740119.540    93116991.882 7      4335.105          47.437
G04  23091125.420   121344676.399 7      -522.475          43.500    23091124.360   121344676.414 4      -522.475          29.812    23091133.040    94554324.560 4      -407.124          29.375    23091133.840    94554326.554 7      -407.124          45.125
R21  21567173.620   115410302.708 7      6293.735          44.750    21567174.180   115410302.725 7      6293.735          43.875    21567186.480    89763629.016 8      4895.127          48.500    21567186.200    89763626.013 7      4895.127          47.687
G30  23255804.260   122210070.398 7      5559.463          44.187    23255803.640   122210070.398 7      5559.463          42.187    23255820.280    95228696.689 6      4332.049          41.687    23255820.780    95228702.690 7      4332.049          44.062
R05  20369417.960   108886206.348 8       398.539          49.187    20369417.740   108886206.357 8       398.539          48.937    20369428.180    84689312.849 8       309.975          50.000    20369428.040    84689315.848 8       309.975          49.500
R04  23801261.300   127454685.313 6      -619.873          39.312    23801263.900   127454685.355 6      -619.873          36.937    23801278.460    99131477.896 7      -482.124          43.500    23801278.260    99131479.897 7      -482.124          43.625
G19  21263696.920   111741467.477 7       209.585          46.750    21263694.980   111741467.481 6       209.585          38.062    21263703.660    87071299.780 6       163.313          38.312
G17  22427100.560   117855208.301 7      -287.381          44.562    22427098.640   117855208.298 7      -287.381          42.937    22427113.780    91835280.714 7      -223.933          42.625    22427114.040    91835277.714 7      -223.933          46.125
> 2024 07 31 14 15 42.0000000  0 13
R06  20874755.440   111391702.097 6      3938.749          38.500    20874755.600   111391702.103 6      3938.749          37.062
G20  23728271.880   124692910.311 6      4748.287          41.125    23728269.960   124692910.316 4      4748.287          28.312    23728279.280    97163320.206 4      3699.964          28.187
G07  22206387.380   116695360.786 7      4291.940          44.687    22206385.720   116695360.791 7      4291.940          42.437    22206398.640    90931497.369 7      3344.369          42.250    22206399.200    90931514.373 7      3344.369          45.812
G06  20268493.460   106511650.054 8      3591.744          49.125    20268492.760   106511650.056 8      3591.744          50.625    20268499.800    82996116.672 8      2798.761          50.812    20268501.120    82996120.673 8      2798.761          51.437
G09  20546216.780   107971095.215 8       857.826          49.062    20546215.980   107971095.220 8       857.826          49.812    20546222.980    84133344.987 8       668.436          49.812    20546223.480    84133347.991 8       668.436          49.812
G11  22739054.740   119494537.817 7      5563.063          43.750    22739053.680   119494537.824 5      5563.063          33.500    22739059.840    93112643.811 5      4334.855          33.312    22739060.660    93112656.820 7      4334.855          47.687
G04  23091224.620   121345198.941 7      -522.725          43.000    23091223.920   121345198.957 4      -522.725          29.812    23091232.300    94554731.730 5      -407.318          30.062    23091233.220    94554733.716 7      -407.318          45.437
R21  21565997.540   115404009.327 7      6293.102          43.625    21565998.200   115404009.337 7      6293.102          44.062    21566010.800    89758734.158 8      4894.635          48.812    21566010.480    89758731.158 8      4894.635          48.312
G30  23254746.360   122204511.193 7      5559.008          43.937    23254745.880   122204511.201 6      5559.008          41.500    23254762.380    95224364.843 6      4331.694          41.437    23254763.240    95224370.846 7      4331.694          43.812
R05  20369343.300   108885808.033 8       398.134          48.312    20369343.240   108885808.034 8       398.134          48.125    20369353.760    84689003.041 8       309.660          50.375    20369353.460    84689006.039 8       309.660          50.062
R04  23801377.080   127455305.088 6      -619.903          39.312    23801378.360   127455305.130 6      -619.903          36.937    23801393.880    99131959.943 7      -482.147          43.312    23801394.120    99131961.948 7      -482.147          43.687
G19  21263657.120   111741258.095 7       209.029          47.000    21263655.120   111741258.100 6       209.029          38.062    21263663.740    87071136.620 6       162.880          38.500
G17  22427155.260   117855495.822 7      -287.802          45.187    22427153.220   117855495.825 7      -287.802          43.125    22427168.420    91835504.750 7      -224.262          42.812    22427169.060    91835501.753 7      -224.262          45.812
> 2024 07 31 14 15 43.0000000  0 13
R06  20874017.160   111387763.550 6      3938.186          38.500    20874016.880   111387763.567 6      3938.186          37.062
G20  23727368.240   124688161.808 6      4748.568          41.000    23727366.580   124688161.811 4      4748.568          28.312    23727375.860    97159620.078 4      3700.183          28.187
G07  22205570.620   116691068.822 7      4291.828          44.812    22205569.060   116691068.827 6      4291.828          41.937    22205582.040    90928152.990 6      3344.282          41.625    22205582.520    90928169.994 7      3344.282          45.750
G06  20267810.120   106508058.434 8      3591.383          48.375    20267809.340   106508058.436 8      3591.383          49.375    20267816.400    82993318.010 8      2798.480          49.437    20267817.420    82993322.011 8      2798.480          50.875
G09  20546053.460   107970237.404 8       857.718          48.750    20546052.700   107970237.411 8       857.718          48.562    20546059.700    84132676.563 8       668.352          48.687    20546060.400    84132679.565 8       668.352          49.250
G11  22737996.180   119488974.592 7      5563.153          43.437    22737995.100   119488974.594 5      5563.153          33.500    22738001.220    93108308.834 5      4334.924          33.250    22738001.980    93108321.836 7      4334.924          46.812
G04  23091324.040   121345721.573 7      -522.753          42.812    23091323.320   121345721.586 4      -522.753          29.812    23091331.640    94555138.971 5      -407.340          30.062    23091332.540    94555140.961 7      -407.340          44.750
R21  21564821.820   115397716.298 7      6292.817          43.625    21564821.860   115397716.315 7      6292.817          43.937    21564834.900    89753839.594 8      4894.413          48.250    21564834.420    89753836.596 7      4894.413          47.687
G30  23253688.580   122198951.994 7      5559.194          43.500    23253687.960   122198952.001 6      5559.194          41.687    23253704.520    95220032.997 6      4331.839          41.125    23253705.380    95220038.994 7      4331.839          43.812
R05  20369268.940   108885409.881 8       398.028          48.937    20369268.740   108885409.883 8       398.028          48.250    20369279.340    84688693.367 8       309.577          49.250    20369279.000    84688696.363 8       309.577          49.812
R04  23801493.040   127455924.699 6      -619.576          37.687    23801494.080   127455924.733 6      -619.576          36.937    23801509.900    99132441.854 7      -481.892          42.875    23801509.580    99132443.853 7      -481.892          43.250
G19  21263617.080   111741049.149 7       208.788          46.437    21263615.360   111741049.154 6       208.788          37.687    21263623.920    87070973.795 6       162.692          38.000
G17  22427210.260   117855783.491 7      -287.728          44.937    22427208.040   117855783.488 7      -287.728          42.500    22427223.320    91835728.901 7      -224.204          42.000    22427223.920    91835725.902 7      -224.204          45.312
> 2024 07 31 14 15 44.0000000  0 13
R06  20873279.600   111383825.398 6      3937.988          38.500    20873279.080   111383825.407 6      3937.988          37.062
G20  23726464.680   124683413.298 6      4748.476          41.187    23726463.240   124683413.303 4      4748.476          28.687    23726472.240    97155919.942 4      3700.111          28.187
G07  22204753.840   116686777.243 7      4291.355          45.375    22204752.400   116686777.245 7      4291.355          42.250    22204765.220    90924808.906 7      3343.913          42.250    22204765.720    90924825.910 7      3343.913          46.062
G06  20267126.620   106504467.282 8      3590.889          49.312    20267125.920   106504467.284 8      3590.889          50.500    20267132.980    82990519.706 8      2798.096          50.500    20267134.160    82990523.704 8      2798.096          51.562
G09  20545890.380   107969380.034 8       857.137          48.812    20545889.580   107969380.039 8       857.137          50.250    20545896.560    84132008.479 8       667.899          50.062    20545897.100    84132011.481 8       667.899          50.062
G11  22736937.720   119483411.533 7      5562.934          44.000    22736936.580   119483411.535 5      5562.934          33.625    22736942.560    93103973.987 5      4334.754          33.437    22736942.940    93103986.988 7      4334.754          47.562
G04  23091423.700   121346244.344 7      -522.958          42.562    23091422.820   121346244.354 5      -522.958          30.062    23091431.120    94555546.319 5      -407.500          30.062    23091432.420    94555548.305 7      -407.500          44.812
R21  21563645.960   115391423.694 7      6292.379          44.687    21563645.780   115391423.711 7      6292.379          43.937    21563658.760    89748945.347 7      4894.072          47.937    21563658.820    89748942.346 8      4894.072          48.687
G30  23252630.560   122193392.907 7      5559.098          43.875    23252629.920   122193392.904 6      5559.098          41.875    23252646.840    95215701.233 6      4331.765          41.625    23252647.440    95215707.228 7      4331.765          43.625
R05  20369194.340   108885011.922 8       397.798          49.312    20369194.420   108885011.921 8       397.798          48.812    20369204.860    84688383.837 8       309.399          50.000    20369204.580    84688386.831 8       309.399          49.562
R04  23801608.580   127456544.072 6      -619.248          37.687    23801609.300   127456544.132 6      -619.248          36.937    23801625.280    99132923.605 7      -481.637          42.875    23801625.420    99132925.608 7      -481.637          42.937
G19  21263577.540   111740840.693 7       208.143          46.687    21263575.740   111740840.698 6       208.143          38.062    21263584.440    87070811.349 6       162.189          37.812
G17  22427265.040   117856071.359 7      -288.033          44.687    22427262.860   117856071.361 7      -288.033          42.750    22427278.120    91835953.212 7      -224.441          42.375    22427278.240    91835950.219 7      -224.441          46.000
> 2024 07 31 14 15 45.0000000  0 13
R06  20872541.300   111379887.662 6      3937.660          38.000    20872540.900   111379887.663 6      3937.660          37.062
G20  23725561.560   124678664.711 6      4748.596          41.187    23725559.740   124678664.713 4      4748.596          28.687    23725568.640    97152219.751 4      3700.205          28.562
G07  22203936.940   116682485.960 7      4291.025          44.687    22203935.820   116682485.964 7      4291.025          43.062    22203948.640    90921465.057 7      3343.656          42.562    22203949.300    90921482.065 7      3343.656          46.312
G06  20266443.400   106500876.545 8      3590.393          49.125    20266442.580   106500876.547 8      3590.393          50.250    20266449.680    82987721.731 8      2797.709          51.250    20266450.780    82987725.730 8      2797.709          51.687
G09  20545727.260   107968522.991 8       856.809          48.500    20545726.520   107968522.998 8       856.809          50.187    20545733.500    84131340.655 8       667.644          50.375    20545734.300    84131343.654 8       667.644          50.187
G11  22735879.100   119477848.547 7      5562.946          44.437    22735878.100   119477848.552 5      5562.946          33.562    22735883.940    93099639.191 5      4334.763          33.437    22735884.600    93099652.192 7      4334.763          47.500
G04  23091523.060   121346767.162 7      -523.013          42.750    23091522.260   121346767.172 5      -523.013          30.062    23091530.740    94555953.701 5      -407.542          30.062    23091531.660    94555955.696 7      -407.542          44.875
R21  21562469.780   115385131.456 7      6292.054          44.437    21562470.380   115385131.466 7      6292.054          43.750    21562482.920    89744051.382 8      4893.820          48.437    21562483.060    89744048.381 8      4893.820          48.250
G30  23251572.820   122187833.839 7      5558.895          43.812    23251571.940   122187833.844 6      5558.895          41.812    23251589.000    95211369.498 7      4331.607          42.000    23251590.040    95211375.501 7      4331.607          44.250
R05  20369119.860   108884614.075 8       397.711          49.250    20369119.720   108884614.082 8       397.711          48.312    20369130.420    84688074.405 8       309.331          49.625    20369130.120    84688077.401 8       309.331          49.625
R04  23801724.600   127457163.287 6      -619.073          37.687    23801725.800   127457163.323 6      -619.073          36.937    23801740.900    99133405.185 7      -481.502          43.000    23801741.260    99133407.187 7      -481.502          43.500
G19  21263537.760   111740632.628 7       207.786          46.562    21263536.120   111740632.632 6       207.786          38.125    21263544.760    87070649.214 6       161.911          38.000
G17  22427319.840   117856359.359 7      -288.080          44.187    22427317.700   117856359.361 7      -288.080          43.062    22427332.900    91836177.625 7      -224.478          42.875    22427333.420    91836174.630 7      -224.478          46.062
> 2024 07 31 14 15 46.0000000  0 13
R06  20871803.200   111375950.561 6      3936.868          38.000    20871803.760   111375950.562 6      3936.868          37.062
G20  23724657.720   124673916.274 6      4748.477          41.437    23724656.220   124673916.274 4      4748.477          28.687    23724665.060    97148519.668 4      3700.112          28.562
G07  22203120.820   116678195.223 7      4290.619          44.687    22203119.320   116678195.218 7      4290.619          42.437    22203132.260    90918121.626 7      3343.340          42.625    22203132.660    90918138.632 7      3343.340          46.500
G06  20265760.260   106497286.434 8      3589.903          49.500    20265759.420   106497286.441 8      3589.903          50.875    20265766.520    82984924.241 8      2797.327          50.937    20265767.640    82984928.242 8      2797.327          51.437
G09  20545564.220   107967666.546 8       856.163          49.187    20545563.500   107967666.553 8       856.163          50.312    20545570.500    84130673.293 8       667.140          50.437    20545571.100    84130676.295 8       667.140          49.750
G11  22734820.500   119472285.918 7      5562.565          43.937    22734819.580   119472285.920 5      5562.565          33.562    22734825.400    93095304.679 5      4334.466          33.500    22734826.060    93095317.674 7      4334.466          47.437
G04  23091622.700   121347290.290 7      -523.193          43.187    23091621.640   121347290.298 5      -523.193          30.062    23091630.080    94556361.332 4      -407.683          29.750    23091630.640    94556363.316 7      -407.683          45.250
R21  21561294.180   115378839.764 7      6291.589          44.125    21561294.220   115378839.766 7      6291.589          43.812    21561307.160    89739157.842 8      4893.458          48.312    21561307.140    89739154.843 8      4893.458          48.500
G30  23250514.860   122182275.018 7      5558.700          43.812    23250514.000   122182275.028 6      5558.700          41.812    23250531.280    95207037.951 6      4331.455          41.375    23250532.000    95207043.952 7      4331.455          44.312
R05  20369045.280   108884216.605 8       397.353          49.750    20369045.400   108884216.612 8       397.353          48.812    20369056.120    84687765.259 8       309.052          49.812    20369055.860    84687768.255 8       309.052          49.937
R04  23801840.400   127457782.458 6      -618.946          37.687    23801841.220   127457782.503 6      -618.946          36.937    23801856.600    99133886.763 7      -481.402          43.125    23801856.560    99133888.765 7      -481.402          43.375
G19  21263498.280   111740425.206 7       207.169          47.312    21263496.780   111740425.211 6       207.169          38.250    21263505.340    87070487.580 6       161.430          38.375
G17  22427374.700   117856647.734 7      -288.468          43.812    22427372.460   117856647.739 7      -288.468          42.937    22427387.820    91836402.329 7      -224.780          42.750    22427387.960    91836399.332 7      -224.780          45.750
> 2024 07 31 14 15 47.0000000  0 13
R06  20871065.660   111372013.847 6      3936.333          38.000    20871065.400   111372013.861 6      3936.333          36.937
G20  23723754.080   124669167.822 6      4748.323          41.375    23723752.660   124669167.821 4      4748.323          28.687    23723761.380    97144819.579 4      3699.992          28.562
G07  22202304.520   116673904.852 7      4290.124          44.937    22202302.660   116673904.854 7      4290.124          42.187    22202315.900    90914778.490 6      3342.954          41.875    22202316.240    90914795.502 7      3342.954          46.125
G06  20265077.220   106493696.829 8      3589.261          48.750    20265076.340   106493696.831 8      3589.261          50.312    20265083.460    82982127.145 8      2796.827          50.875    20265084.500    82982131.144 8      2796.827          51.625
G09  20545401.640   107966810.480 8       855.785          49.062    20545400.680   107966810.485 8       855.785          50.125    20545407.580    84130006.227 8       666.846          50.250    20545408.020    84130009.228 8       666.846          49.875
G11  22733761.980   119466723.411 7      5562.355          43.625    22733761.020   119466723.416 5      5562.355          34.062    22733766.940    93090970.260 5      4334.302          33.500    22733767.780    93090983.259 7      4334.302          47.187
G04  23091722.100   121347813.542 7      -523.507          44.000    23091721.320   121347813.555 4      -523.507          29.875    23091729.500    94556769.060 4      -407.928          29.750    23091730.520    94556771.049 7      -407.928          45.187
R21  21560118.080   115372548.439 7      6290.960          44.062    21560118.500   115372548.446 7      6290.960          44.000    21560131.360    89734264.595 8      4892.969          48.500    21560131.340    89734261.597 8      4892.969          48.250
G30  23249457.080   122176716.310 7      5558.441          43.812    23249456.080   122176716.314 6      5558.441          41.437    23249473.640    95202706.492 7      4331.253          42.125    23249474.380    95202712.487 7      4331.253          44.625
R05  20368971.160   108883819.343 8       397.016          49.375    20368971.080   108883819.358 8       397.016          48.625    20368981.740    84687456.280 8       308.790          49.687    20368981.520    84687459.280 8       308.790          50.312
R04  23801956.580   127458401.481 6      -619.274          37.687    23801956.460   127458401.536 6      -619.274          36.937    23801972.160    99134368.233 7      -481.658          43.125    23801972.200    99134370.231 7      -481.658          43.812
G19  21263459.200   111740218.252 7       206.598          47.187    21263457.400   111740218.257 6       206.598          38.125    21263466.180    87070326.305 6       160.986          38.312
G17  22427429.900   117856936.301 7      -288.714          45.187    22427427.280   117856936.303 7      -288.714          42.812    22427442.780    91836627.179 7      -224.972          42.812    22427442.900    91836624.186 7      -224.972          45.875
> 2024 07 31 14 15 48.0000000  0 13
R06  20870328.040   111368077.731 6      3935.906          38.000    20870328.540   111368077.737 6      3935.906          36.937
G20  23722850.160   124664419.469 6      4748.212          41.562    23722849.120   124664419.466 4      4748.212          29.125    23722857.960    97141119.566 4      3699.906          28.562
G07  22201488.200   116669614.972 7      4289.675          45.375    22201486.300   116669614.980 7      4289.675          42.750    22201499.740    90911435.739 7      3342.604          42.562    22201499.760    90911452.745 7      3342.604          46.562
G06  20264394.200   106490107.795 8      3588.808          48.812    20264393.400   106490107.797 8      3588.808          50.375    20264400.440    82979330.493 8      2796.474          50.812    20264401.440    82979334.490 8      2796.474          51.437
G09  20545238.720   107965954.963 8       855.244          48.750    20545237.840   107965954.970 8       855.244          49.875    20545244.820    84129339.590 8       666.424          50.000    20545245.480    84129342.592 8       666.424          50.250
G11  22732703.340   119461161.205 7      5562.008          44.687    22732702.440   119461161.210 5      5562.008          34.062    22732708.460    93086636.078 5      4334.032          33.812    22732709.220    93086649.079 7      4334.032          47.000
G04  23091821.680   121348337.044 7      -523.693          44.000    23091820.920   121348337.059 4      -523.693          29.875    23091829.300    94557176.982 4      -408.072          29.750    23091829.920    94557178.974 7      -408.072          44.750
R21  21558942.820   115366257.585 7      6290.527          45.062    21558943.180   115366257.602 7      6290.527          44.000    21558955.560    89729371.719 8      4892.632          48.312    21558955.620    89729368.720 7      4892.632          47.937
G30  23248399.500   122171157.775 7      5558.401          43.375    23248398.380   122171157.772 7      5558.401          42.187    23248416.140    95198375.160 6      4331.221          41.687    23248416.320    95198381.163 7      4331.221          44.500
R05  20368897.000   108883422.451 8       396.676          49.375    20368896.940   108883422.455 8       396.676          48.937    20368907.520    84687147.577 8       308.526          49.875    20368907.360    84687150.574 8       308.526          49.437
R04  23802072.080   127459020.457 6      -619.049          37.687    23802072.300   127459020.499 6      -619.049          36.937    23802088.140    99134849.635 7      -481.483          43.500    23802088.020    99134851.634 7      -481.483          43.562
G19  21263419.660   111740011.884 7       206.039          46.625    21263418.080   111740011.884 6       206.039          38.062    21263426.820    87070165.489 6       160.550          38.187
G17  22427484.560   117857225.202 7      -289.089          44.375    22427482.340   117857225.207 7      -289.089          42.812    22427497.760    91836852.290 7      -225.264          42.500    22427497.780    91836849.293 7      -225.264          46.250
> 2024 07 31 14 15 49.0000000  0 13
R06  20869591.240   111364141.945 6      3935.454          38.187    20869590.500   111364141.954 6      3935.454          36.937
G20  23721946.780   124659670.985 6      4748.487          40.687    23721945.520   124659670.982 4      4748.487          29.125    23721954.240    97137419.452 4      3700.119          29.062
G07  22200671.900   116665325.381 7      4289.366          44.750    22200670.120   116665325.389 7      4289.366          42.625    22200683.180    90908093.207 7      3342.363          42.250    22200683.620    90908110.217 7      3342.363          46.312
G06  20263711.420   106486519.189 8      3588.202          48.812    20263710.500   106486519.189 8      3588.202          50.937    20263717.560    82976534.175 8      2796.002          50.875    20263718.680    82976538.175 8      2796.002          51.312
G09  20545075.980   107965099.774 8       854.886          49.312    20545075.060   107965099.781 8       854.886          50.062    20545082.080    84128673.207 8       666.145          50.687    20545082.500    84128676.209 8       666.145          50.312
G11  22731645.340   119455599.039 7      5562.102          45.000    22731644.020   119455599.041 5      5562.102          33.750    22731649.940    93082301.920 5      4334.105          33.812    22731650.720    93082314.922 7      4334.105          47.687
G04  23091921.380   121348860.600 7      -523.741          43.875    23091920.740   121348860.613 4      -523.741          29.875    23091928.960    94557584.944 5      -408.110          30.250    23091929.580    94557586.936 7      -408.110          44.125
R21  21557767.240   115359967.078 7      6290.233          44.312    21557767.600   115359967.090 7      6290.233          44.125    21557780.200    89724479.103 8      4892.403          48.375    21557780.040    89724476.100 8      4892.403          48.500
G30  23247341.580   122165599.258 7      5558.310          44.062    23247340.860   122165599.255 7      5558.310          42.437    23247358.420    95194043.849 7      4331.151          42.125    23247358.980    95194049.856 7      4331.151          45.000
R05  20368822.720   108883025.667 8       396.579          49.812    20368822.720   108883025.677 8       396.579          49.187    20368833.300    84686838.970 8       308.450          49.875    20368833.200    84686841.971 8       308.450          50.000
R04  23802188.040   127459639.160 6      -618.635          37.687    23802188.360   127459639.202 6      -618.635          36.000    23802203.520    99135330.848 7      -481.161          43.687    23802203.560    99135332.846 7      -481.161          43.687
G19  21263380.540   111739805.892 7       205.675          46.937    21263378.980   111739805.892 6       205.675          38.625    21263387.620    87070004.970 6       160.266          38.125
G17  22427539.660   117857514.195 7      -289.234          44.312    22427537.360   117857514.200 7      -289.234          42.500    22427552.740    91837077.477 7      -225.377          42.375    22427553.000    91837074.480 7      -225.377          45.875
> 2024 07 31 14 15 50.0000000  0 13
R06  20868853.200   111360206.605 6      3935.269          38.187    20868853.040   111360206.619 6      3935.269          36.937
G20  23721043.220   124654922.527 6      4748.573          40.812    23721042.020   124654922.524 4      4748.573          29.125    23721050.680    97133719.359 4      3700.187          29.062
G07  22199855.540   116661036.161 7      4289.072          44.625    22199853.920   116661036.166 7      4289.072          42.187    22199867.000    90904750.984 6      3342.134          41.875    22199867.120    90904767.992 7      3342.134          46.187
G06  20263028.520   106482931.035 8      3588.015          49.625    20263027.680   106482931.037 8      3588.015          51.062    20263034.780    82973738.212 8      2795.856          50.750    20263035.660    82973742.209 8      2795.856          52.187
G09  20544913.400   107964245.008 8       854.644          49.562    20544912.340   107964245.016 8       854.644          51.000    20544919.440    84128007.156 8       665.956          50.750    20544919.940    84128010.158 8       665.956          49.687
G11  22730586.640   119450037.086 7      5561.925          44.500    22730585.740   119450037.091 5      5561.925          33.875    22730591.600    93077967.937 5      4333.967          33.875    22730592.360    93077980.936 7      4333.967          47.437
G04  23092020.680   121349384.312 7      -523.745          43.937    23092020.400   121349384.322 4      -523.745          29.875    23092028.600    94557993.024 5      -408.113          30.250    23092028.620    94557995.021 7      -408.113          44.125
R21  21556592.160   115353677.016 7      6289.977          44.312    21556591.780   115353677.033 7      6289.977          44.687    21556604.580    89719586.836 8      4892.205          48.375    21556604.700    89719583.838 8      4892.205          48.250
G30  23246283.600   122160040.831 7      5558.515          44.250    23246283.360   122160040.826 7      5558.515          42.625    23246300.760    95189712.607 7      4331.310          42.625    23246301.200    95189718.610 7      4331.310          44.875
R05  20368748.600   108882629.133 8       396.572          50.062    20368748.500   108882629.139 8       396.572          49.437    20368759.160    84686530.550 8       308.445          49.625    20368759.080    84686533.549 8       308.445          50.250
R04  23802303.640   127460257.751 6      -618.444          37.000    23802303.940   127460257.801 6      -618.444          36.000    23802319.220    99135811.973 7      -481.012          43.562    23802319.040    99135813.974 7      -481.012          43.875
G19  21263341.580   111739600.384 7       205.422          47.812    21263339.940   111739600.383 6       205.422          38.125    21263348.460    87069844.825 6       160.069          38.187
G17  22427594.620   117857803.400 7      -289.232          45.000    22427592.320   117857803.403 7      -289.232          42.812    22427607.640    91837302.828 7      -225.376          42.750    22427608.140    91837299.831 7      -225.376          45.687
> 2024 07 31 14 15 51.0000000  0 13
R06  20868115.640   111356271.794 6      3934.500          38.187    20868115.340   111356271.813 6      3934.500          36.937
G20  23720139.460   124650174.090 6      4748.513          41.937    23720138.520   124650174.089 4      4748.513          29.187    23720147.060    97130019.281 4      3700.140          29.062
G07  22199039.340   116656747.384 7      4288.655          45.187    22199037.760   116656747.384 7      4288.655          42.687    22199050.900    90901409.088 7      3341.809          42.250    22199051.080    90901426.098 7      3341.809          46.250
G06  20262345.820   106479343.420 8      3587.507          50.000    20262344.980   106479343.422 8      3587.507          51.375    20262352.040    82970942.666 8      2795.460          51.062    20262353.100    82970946.665 8      2795.460          51.625
G09  20544750.760   107963390.700 8       854.248          49.250    20544749.900   107963390.705 8       854.248          50.687    20544756.820    84127341.457 8       665.648          50.375    20544757.360    84127344.459 8       665.648          50.062
G11  22729528.420   119444475.327 7      5561.718          43.437    22729527.420   119444475.330 5      5561.718          33.875    22729533.320    93073634.101 5      4333.806          33.500    22729533.860    93073647.090 7      4333.806          47.625
G04  23092120.720   121349908.173 7      -523.812          43.625    23092120.140   121349908.183 5      -523.812          30.312    23092128.400    94558401.224 5      -408.166          30.250    23092128.720    94558403.235 7      -408.166          44.000
R21  21555416.860   115347387.414 7      6289.466          46.125    21555416.720   115347387.426 7      6289.466          44.812    21555429.300    89714694.925 8      4891.807          48.062    21555429.180    89714691.923 7      4891.807          47.750
G30  23245226.040   122154482.554 7      5558.287          44.875    23245225.800   122154482.556 7      5558.287          42.437    23245242.700    95185381.488 7      4331.133          42.187    23245243.440    95185387.493 7      4331.133          44.375
R05  20368674.360   108882232.874 8       396.211          50.375    20368674.340   108882232.875 8       396.211          49.625    20368685.120    84686222.345 8       308.164          50.062    20368684.960    84686225.341 8       308.164          49.875
R04  23802419.140   127460876.171 6      -618.295          37.000    23802419.820   127460876.224 6      -618.295          36.000    23802434.400    99136292.972 7      -480.896          43.375    23802434.240    99136294.973 7      -480.896          44.187
G19  21263302.460   111739395.419 7       204.788          47.062    21263301.040   111739395.421 6       204.788          37.937    21263309.440    87069685.102 6       159.575          38.062
G17  22427649.840   117858092.863 7      -289.540          44.437    22427647.480   117858092.866 7      -289.540          42.562    22427662.760    91837528.378 7      -225.615          42.625    22427663.340    91837525.378 7      -225.615          46.000
> 2024 07 31 14 15 52.0000000  0 13
R06  20867378.860   111352337.510 6      3933.895          38.187    20867378.760   111352337.508 6      3933.895          37.187
G20  23719235.580   124645425.729 7      4748.258          42.250    23719234.920   124645425.729 4      4748.258          29.187    23719243.320    97126319.266 4      3699.941          29.125
G07  22198223.160   116652459.055 7      4288.105          44.687    22198221.680   116652459.054 7      4288.105          42.062    22198234.860    90898067.539 6      3341.381          41.937    22198235.140    90898084.543 7      3341.381          47.125
G06  20261663.000   106475756.369 8      3586.734          49.500    20261662.380   106475756.377 8      3586.734          50.312    20261669.500    82968147.562 8      2794.858          50.875    20261670.320    82968151.561 8      2794.858          51.625
G09  20544588.460   107962536.885 8       853.561          48.875    20544587.300   107962536.895 8       853.561          50.250    20544594.340    84126676.147 8       665.112          50.125    20544594.740    84126679.151 8       665.112          50.312
G11  22728470.320   119438913.781 7      5561.389          43.875    22728469.220   119438913.786 5      5561.389          33.750    22728475.040    93069300.433 5      4333.550          33.500    22728475.440    93069313.430 7      4333.550          47.625
G04  23092220.360   121350432.263 7      -524.168          43.687    23092219.840   121350432.271 5      -524.168          30.312    23092228.140    94558809.604 5      -408.443          30.250    23092228.840    94558811.621 7      -408.443          44.312
R21  21554241.480   115341098.266 7      6288.813          45.750    21554240.980   115341098.287 7      6288.813          44.562    21554254.040    89709803.373 8      4891.299          48.625    21554253.820    89709800.368 8      4891.299          48.250
G30  23244168.460   122148924.416 7      5558.242          44.250    23244167.880   122148924.418 7      5558.242          42.250    23244184.920    95181050.469 7      4331.098          42.250    23244185.880    95181056.474 7      4331.098          44.187
R05  20368599.980   108881836.871 8       395.860          50.125    20368600.140   108881836.875 8       395.860          49.000    20368611.020    84685914.340 8       307.891          50.250    20368611.000    84685917.334 8       307.891          49.875
R04  23802534.800   127461494.489 6      -618.178          37.000    23802535.920   127461494.525 6      -618.178          36.000    23802550.380    99136773.877 7      -480.805          44.000    23802550.140    99136775.877 7      -480.805          44.250
G19  21263263.760   111739190.982 7       204.152          46.687    21263262.080   111739190.987 6       204.152          38.000    21263270.640    87069525.792 6       159.080          38.125
G17  22427704.680   117858382.589 7      -289.809          44.687    22427702.540   117858382.589 7      -289.809          43.062    22427717.840    91837754.132 7      -225.825          42.687    22427718.460    91837751.131 7      -225.825          45.562
> 2024 07 31 14 15 53.0000000  0 13
R06  20866641.820   111348403.736 6      3933.531          38.187    20866641.360   111348403.737 6      3933.531          37.187
G20  23718332.240   124640677.418 6      4748.266          41.500    23718331.260   124640677.418 4      4748.266          29.187    23718339.740    97122619.283 4      3699.948          29.125
G07  22197407.380   116648171.198 7      4287.562          44.875    22197405.700   116648171.203 7      4287.562          42.312    22197418.880    90894726.360 7      3340.958          42.375    22197419.120    90894743.366 7      3340.958          46.500
G06  20260980.600   106472169.871 8      3586.281          49.437    20260979.880   106472169.876 8      3586.281          50.500    20260987.000    82965352.890 8      2794.505          50.375    20260987.800    82965356.886 8      2794.505          51.312
G09  20544425.900   107961683.570 8       853.064          48.812    20544425.020   107961683.580 8       853.064          49.750    20544431.960    84126011.226 8       664.725          50.000    20544432.380    84126014.225 8       664.725          50.187
G11  22727411.920   119433352.498 7      5561.209          43.625    22727410.940   119433352.503 5      5561.209          33.750    22727416.940    93064966.966 5      4333.409          33.562    22727417.440    93064979.961 7      4333.409          47.375
G04  23092320.160   121350956.579 7      -524.368          43.937    23092319.560   121350956.581 5      -524.368          30.312    23092328.000    94559218.155 5      -408.598          30.250    23092328.540    94559220.170 7      -408.598          45.437
R21  21553066.220   115334809.595 7      6288.476          43.250    21553066.100   115334809.605 7      6288.476          44.562    21553078.840    89704912.184 8      4891.037          48.437    21553078.560    89704909.181 7      4891.037          47.875
G30  23243110.760   122143366.504 7      5557.851          44.312    23243110.020   122143366.514 7      5557.851          42.500    23243127.260    95176719.635 7      4330.793          42.312    23243128.100    95176725.642 7      4330.793          44.625
R05  20368526.280   108881441.189 8       395.511          49.437    20368526.180   108881441.195 8       395.511          48.187    20368537.060    84685606.588 8       307.619          49.812    20368536.780    84685609.584 8       307.619          50.125
R04  23802650.420   127462112.756 6      -618.274          37.000    23802650.680   127462112.808 6      -618.274          36.000    23802665.660    99137254.768 7      -480.880          44.250    23802665.720    99137256.768 7      -480.880          44.875
G19  21263224.840   111738987.113 7       203.636          46.187    21263223.400   111738987.118 6       203.636          38.125    21263231.820    87069366.923 6       158.678          37.875
G17  22427760.220   117858672.620 7      -290.151          43.687    22427757.760   117858672.620 7      -290.151          42.125    22427772.940    91837980.124 7      -226.092          42.250    22427773.720    91837977.129 7      -226.092          45.250
> 2024 07 31 14 15 54.0000000  0 13
R06  21165698.100   112944224.496 6      3933.032          38.500    21165697.140   112944224.499 6      3933.032          37.187
G20  24017222.140   126211353.966 6      4748.145          41.125    24017220.940   126211353.965 4      4748.145          29.187    24017229.600    98346523.088 4      3699.853          29.125
G07  22496384.480   118219308.097 7      4287.261          44.625    22496383.220   118219308.097 7      4287.261          42.437    22496396.240    92118988.885 7      3340.723          42.312    22496396.660    92119005.887 7      3340.723          46.562
G06  20560091.260   108044007.568 8      3585.726          48.500    20560090.640   108044007.568 8      3585.726          50.250    20560097.760    84190161.479 8      2794.072          50.812    20560098.560    84190165.478 8      2794.072          51.625
G09  20844056.580   109536251.631 7       852.696          47.937    20844055.300   109536251.634 8       852.696          50.000    20844062.320    85352947.369 8       664.439          49.937    20844062.640    85352950.371 8       664.439          49.937
G11  23026147.160   121003217.032 7      5561.094          44.312    23026146.180   121003217.035 5      5561.094          33.500    23026152.180    94288238.035 5      4333.320          33.562    23026152.780    94288251.032 7      4333.320          47.125
G04  23392212.420   122926900.603 7      -524.487          43.375    23392211.780   122926900.608 5      -524.487          30.187    23392220.260    95787226.480 5      -408.691          30.250    23392221.640    95787228.491 7      -408.691          45.750
R21  21851684.880   116932777.760 7      6287.933          44.625    21851684.400   116932777.775 7      6287.933          43.875    21851697.280    90947776.319 8      4890.615          48.437    21851697.200    90947773.318 8      4890.615          48.062
G30  23541846.660   123713234.338 7      5557.659          43.125    23541845.540   123713234.343 7      5557.659          42.187    23541863.120    96399993.268 7      4330.643          42.187    23541864.120    96399999.265 7      4330.643          44.625
R05  20668245.060   110483608.731 8       395.314          49.250    20668244.740   110483608.727 8       395.314          49.000    20668255.600    85931736.886 8       307.466          49.625    20668255.460    85931739.886 8       307.466          50.000
R04  24102557.920   129068105.362 6      -618.147          39.812    24102559.100   129068105.411 6      -618.147          38.812    24102573.440   100386360.126 7      -480.781          44.125    24102573.380   100386362.132 7      -480.781          44.375
G19  21562978.660   113314204.027 7       203.140          46.437    21562977.100   113314204.032 6       203.140          37.812    21562985.720    88296808.666 6       158.291          38.375
G17  22727607.940   119434382.664 7      -290.348          43.250    22727605.340   119434382.663 7      -290.348          43.062    22727620.720    93065806.128 7      -226.245          42.750    22727621.140    93065803.133 7      -226.245          46.187
> 2024 07 31 14 15 55.0000000  0 13
R06  21164960.620   112940291.829 6      3932.464          38.500    21164960.220   112940291.843 6      3932.464          37.187
G20  24016318.760   126206605.802 6      4748.170          41.625    24016317.420   126206605.804 4      4748.170          28.875    24016326.000    98342823.225 4      3699.873          29.125
G07  22495568.860   118215021.165 7      4286.823          45.562    22495567.340   118215021.170 7      4286.823          42.937    22495580.540    92115648.433 7      3340.382          42.437    22495580.740    92115665.443 7      3340.382          46.125
G06  20559409.180   108040422.231 8      3585.131          48.812    20559408.400   108040422.230 8      3585.131          50.437    20559415.540    84187367.710 8      2793.609          50.812    20559416.300    84187371.706 8      2793.609          51.250
G09  20843894.080   109535399.341 8       852.111          48.750    20843893.080   109535399.343 8       852.111          49.000    20843900.060    85352283.247 8       663.983          49.187    20843900.760    85352286.251 8       663.983          49.750
G11  23025088.780   120997656.256 7      5560.749          44.750    23025088.100   120997656.261 5      5560.749          33.937    23025094.040    94283904.967 5      4333.051          33.687    23025094.780    94283917.972 7      4333.051          47.125
G04  23392312.500   122927425.368 7      -524.696          43.250    23392311.660   122927425.373 5      -524.696          30.187    23392320.400    95787635.386 5      -408.854          30.250    23392321.680    95787637.382 7      -408.854          46.187
R21  21850509.860   116926490.095 7      6287.668          45.062    21850509.440   116926490.108 7      6287.668          43.812    21850522.320    90942885.917 7      4890.408          46.875    21850522.280    90942882.914 8      4890.408          48.187
G30  23540789.240   123707676.763 7      5557.583          43.125    23540787.920   123707676.765 7      5557.583          42.187    23540805.660    96395662.689 7      4330.584          42.500    23540806.560    96395668.686 7      4330.584          44.062
R05  20668171.300   110483213.651 8       395.025          48.937    20668170.840   110483213.654 8       395.025          49.437    20668181.660    85931429.609 8       307.241          48.250    20668181.540    85931432.610 8       307.241          48.062
R04  24102672.860   129068723.457 6      -617.906          39.812    24102674.220   129068723.504 6      -617.906          38.812    24102688.780   100386840.876 7      -480.594          43.375    24102688.700   100386842.879 7      -480.594          44.687
G19  21562940.200   113314001.285 7       202.586          46.437    21562938.680   113314001.287 6       202.586          38.000    21562947.020    88296650.679 6       157.859          37.625
G17  22727663.220   119434673.267 7      -290.566          43.500    22727660.700   119434673.270 7      -290.566          42.187    22727676.120    93066032.570 7      -226.415          42.312    22727676.560    93066029.575 7      -226.415          44.875
> 2024 07 31 14 15 56.0000000  0 13
R06  21164223.920   112936359.672 6      3931.941          38.500    21164223.520   112936359.668 6      3931.941          37.187
G20  24015415.640   126201857.654 6      4748.216          40.750    24015413.840   126201857.656 4      4748.216          28.875    24015422.400    98339123.373 4      3699.908          28.937
G07  22494752.960   118210734.641 7      4286.403          45.375    22494751.780   118210734.643 7      4286.403          42.687    22494764.860    92112308.288 7      3340.054          42.562    22494765.300    92112325.292 7      3340.054          46.562
G06  20558726.940   108036837.388 8      3584.648          48.312    20558726.240   108036837.390 8      3584.648          50.437    20558733.260    84184574.325 8      2793.232          50.562    20558734.040    84184578.326 8      2793.232          51.125
G09  20843731.760   109534547.468 8       851.699          48.062    20843731.000   109534547.476 8       851.699          50.250    20843737.920    85351619.450 8       663.661          50.250    20843738.620    85351622.452 8       663.661          49.812
G11  23024030.920   120992095.672 7      5560.473          44.500    23024029.800   120992095.682 5      5560.473          33.937    23024035.920    94279572.046 5      4332.836          33.687    23024036.300    94279585.052 7      4332.836          47.562
G04  23392412.540   122927950.289 7      -524.931          43.500    23392411.520   122927950.296 5      -524.931          30.187    23392420.220    95788044.413 4      -409.037          29.875    23392421.700    95788046.397 7      -409.037          46.500
R21  21849334.900   116920202.899 7      6287.028          44.625    21849334.880   116920202.905 7      6287.028          43.937    21849347.460    90937995.871 7      4889.911          47.875    21849347.180    90937992.870 7      4889.911          47.562
G30  23539731.540   123702119.305 7      5557.517          43.062    23539730.500   123702119.302 7      5557.517          42.812    23539748.340    96391332.201 7      4330.533          42.875    23539749.340    96391338.200 7      4330.533          44.375
R05  20668097.020   110482818.805 8       394.768          49.562    20668097.120   110482818.814 8       394.768          48.125    20668107.780    85931122.505 8       307.041          49.187    20668107.820    85931125.503 8       307.041          50.375
R04  24102788.600   129069341.419 6      -617.772          39.812    24102789.940   129069341.455 6      -617.772          38.812    24102804.340   100387321.513 7      -480.489          43.750    24102804.240   100387323.508 7      -480.489          44.562
G19  21562901.540   113313799.042 7       201.970          46.187    21562900.160   113313799.052 6       201.970          37.812    21562908.640    88296493.079 6       157.380          37.500
G17  22727718.240   119434964.097 7      -290.790          44.437    22727715.980   119434964.096 7      -290.790          42.687    22727731.240    93066259.184 7      -226.590          42.437    22727731.440    93066256.183 7      -226.590          45.562
> 2024 07 31 14 15 57.0000000  0 13
R06  21163486.960   112932427.878 6      3931.763          38.500    21163486.680   112932427.887 6      3931.763          37.062
G20  24014512.080   126197109.480 6      4748.246          41.625    24014510.240   126197109.480 4      4748.246          28.875    24014518.740    98335423.499 4      3699.932          28.937
G07  22493937.520   118206448.482 7      4286.083          44.812    22493936.020   118206448.481 7      4286.083          42.500    22493949.300    92108968.425 7      3339.805          42.875    22493949.740    92108985.438 7      3339.805          46.687
G06  20558045.060   108033253.017 8      3584.195          49.687    20558044.080   108033253.017 8      3584.195          50.812    20558051.280    84181781.307 8      2792.879          50.937    20558052.000    84181785.310 8      2792.879          51.375
G09  20843569.860   109533696.010 8       851.256          48.437    20843568.960   109533696.018 8       851.256          49.750    20843575.980    85350955.978 8       663.316          49.937    20843576.440    85350958.982 8       663.316          49.625
G11  23022972.660   120986535.245 7      5560.279          44.375    23022971.620   120986535.248 5      5560.279          33.687    23022977.700    94275239.248 5      4332.685          33.687    23022978.460    94275252.248 7      4332.685          47.625
G04  23392512.180   122928475.340 7      -525.067          42.562    23392511.400   122928475.345 4      -525.067          29.875    23392520.180    95788453.540 4      -409.143          29.875    23392521.500    95788455.513 7      -409.143          46.187
R21  21848160.080   116913916.039 7      6286.768          44.625    21848159.760   116913916.062 7      6286.768          43.937    21848172.460    90933106.105 8      4889.709          48.125    21848172.360    90933103.105 7      4889.709          47.625
G30  23538673.920   123696561.937 7      5557.459          44.375    23538673.280   123696561.929 7      5557.459          42.437    23538691.000    96387001.784 7      4330.488          42.437    23538691.940    96387007.783 7      4330.488          44.500
R05  20668023.120   110482424.176 8       394.637          49.062    20668023.240   110482424.180 8       394.637          48.375    20668034.040    85930815.563 8       306.940          49.875    20668033.940    85930818.559 8       306.940          50.625
R04  24102903.980   129069959.204 6      -617.621          39.812    24102905.220   129069959.249 6      -617.621          39.687    24102919.560   100387802.018 7      -480.372          43.875    24102919.360   100387804.018 7      -480.372          44.000
G19  21562863.300   113313597.257 7       201.618          47.125    21562861.680   113313597.259 6       201.618          38.187    21562870.340    88296335.831 6       157.105          38.625
G17  22727773.820   119435255.110 7      -290.935          44.750    22727771.320   119435255.110 7      -290.935          42.437    22727786.600    93066485.944 7      -226.703          42.500    22727787.100    93066482.951 7      -226.703          45.562
> 2024 07 31 14 15 58.0000000  0 13
R06  21162750.960   112928496.565 6      3931.156          38.500    21162749.900   112928496.576 6      3931.156          37.062
G20  24013608.440   126192361.288 6      4748.296          41.187    24013606.520   126192361.290 4      4748.296          28.875    24013615.260    98331723.615 4      3699.971          28.937
G07  22493122.160   118202162.703 7      4285.621          44.375    22493120.380   118202162.703 7      4285.621          42.562    22493133.760    92105628.870 7      3339.445          42.437    22493133.960    92105645.882 7      3339.445          46.687
G06  20557363.080   108029669.133 8      3583.619          49.500    20557362.080   108029669.138 8      3583.619          50.562    20557369.260    84178988.674 8      2792.431          50.937    20557370.220    84178992.673 8      2792.431          51.437
G09  20843407.840   109532844.952 8       850.917          49.000    20843407.080   109532844.957 8       850.917          49.937    20843413.960    85350292.814 8       663.052          50.062    20843414.560    85350295.814 8       663.052          50.125
G11  23021914.360   120980974.919 7      5560.393          44.437    23021913.580   120980974.921 5      5560.393          33.687    23021919.640    94270906.528 5      4332.774          33.750    23021920.160    94270919.525 7      4332.774          47.437
G04  23392612.000   122929000.502 7      -525.150          43.375    23392611.300   122929000.510 4      -525.150          29.875    23392620.160    95788862.753 4      -409.208          29.875    23392621.020    95788864.722 7      -409.208          45.250
R21  21846985.060   116907629.621 7      6286.121          44.437    21846985.260   116907629.641 7      6286.121          43.687    21846997.660    90928216.669 8      4889.206          48.125    21846997.480    90928213.668 7      4889.206          47.875
G30  23537616.400   123691004.679 7      5557.106          44.937    23537615.920   123691004.679 7      5557.106          42.562    23537633.640    96382671.459 7      4330.212          42.062    23537634.440    96382677.463 7      4330.212          45.000
R05  20667949.120   110482029.761 8       394.379          49.437    20667949.360   110482029.765 8       394.379          48.687    20667960.300    85930508.798 8       306.739          50.000    20667960.280    85930511.796 8       306.739          50.250
R04  24103019.200   129070576.847 6      -617.560          40.687    24103020.300   129070576.894 6      -617.560          39.687    24103034.780   100388282.414 7      -480.325          43.812    24103034.860   100388284.415 7      -480.325          43.750
G19  21562825.120   113313395.942 7       201.142          46.937    21562823.460   113313395.944 6       201.142          38.312    21562832.160    88296178.952 6       156.734          38.312
G17  22727829.120   119435546.339 7      -291.258          44.500    22727826.860   119435546.349 7      -291.258          43.125    22727841.920    93066712.877 7      -226.954          42.312    22727842.240    93066709.882 7      -226.954          45.437
> 2024 07 31 14 15 59.0000000  0 13
R06  21162014.100   112924565.726 6      3930.410          38.125    21162013.320   112924565.743 6      3930.410          37.062
G20  24012704.860   126187613.124 6      4747.988          41.125    24012702.820   126187613.126 4      4747.988          28.937    24012711.640    98328023.752 4      3699.731          28.937
G07  22492306.560   118197877.314 7      4285.068          44.125    22492304.960   118197877.316 7      4285.068          43.187    22492318.340    92102289.614 7      3339.014          42.625    22492318.540    92102306.628 7      3339.014          46.812
G06  20556681.100   108026085.748 8      3582.935          49.375    20556680.220   108026085.745 8      3582.935          50.062    20556687.340    84176196.420 8      2791.898          50.812    20556688.300    84176200.421 8      2791.898          51.562
G09  20843245.960   109531994.346 8       850.247          48.875    20843245.120   109531994.351 8       850.247          49.750    20843252.120    85349630.000 8       662.530          50.187    20843252.760    85349633.004 8       662.530          49.750
G11  23020856.380   120975414.839 7      5559.825          44.750    23020855.460   120975414.841 5      5559.825          33.812    23020861.660    94266573.999 5      4332.331          33.750    23020862.300    94266587.004 7      4332.331          47.562
G04  23392711.880   122929525.830 7      -525.519          43.187    23392711.180   122929525.842 4      -525.519          29.875    23392720.140    95789272.099 5      -409.496          30.312    23392720.580    95789274.073 7      -409.496          45.062
R21  21845810.340   116901343.604 7      6285.464          43.687    21845810.820   116901343.624 7      6285.464          44.062    21845823.040    90923327.545 7      4888.694          47.875    21845822.660    90923324.542 7      4888.694          47.687
G30  23536559.140   123685447.503 7      5556.915          44.125    23536558.580   123685447.500 7      5556.915          43.062    23536576.180    96378341.192 7      4330.064          42.687    23536577.040    96378347.191 7      4330.064          45.375
R05  20667875.580   110481635.597 8       393.919          48.812    20667875.580   110481635.598 8       393.919          48.437    20667886.620    85930202.222 8       306.382          49.750    20667886.440    85930205.222 8       306.382          49.875
R04  24103134.740   129071194.367 6      -617.668          40.687    24103135.440   129071194.412 6      -617.668          39.687    24103150.240   100388762.709 7      -480.409          44.125    24103150.200   100388764.713 7      -480.409          44.312
G19  21562786.840   113313195.123 7       200.442          46.187    21562785.300   113313195.128 6       200.442          38.125    21562793.780    88296022.464 6       156.189          38.125
G17  22727884.660   119435837.780 7      -291.633          44.062    22727882.340   119435837.785 7      -291.633          42.312    22727897.400    93066939.971 7      -227.246          42.375    22727897.700    93066936.969 7      -227.246          45.625
> 2024 07 31 14 16  0.0000000  0 13
R06  21161277.340   112920635.439 6      3930.076          38.125    21161276.220   112920635.459 6      3930.076          37.062
G20  24011801.120   126182865.065 6      4747.916          40.625    24011799.300   126182865.068 4      4747.916          28.937    24011808.040    98324323.968 4      3699.675          28.937
G07  22491491.140   118193592.429 7      4284.592          44.562    22491489.540   118193592.434 7      4284.592          42.750    22491502.880    92098950.753 7      3338.643          42.687    22491503.260    92098967.763 7      3338.643          46.687
G06  20555999.220   108022502.951 8      3582.399          49.750    20555998.460   108022502.954 8      3582.399          50.312    20556005.580    84173404.633 8      2791.480          51.000    20556006.640    84173408.631 8      2791.480          51.562
G09  20843084.340   109531144.260 8       849.739          48.562    20843083.360   109531144.267 8       849.739          49.875    20843090.400    85348967.595 8       662.135          50.375    20843090.800    85348970.597 8       662.135          50.312
G11  23019798.520   120969855.011 7      5559.648          44.500    23019797.420   120969855.014 5      5559.648          33.875    23019803.560    94262241.674 5      4332.193          33.875    23019804.260    94262254.671 7      4332.193          47.437
G04  23392811.740   122930051.438 7      -525.805          43.000    23392811.140   122930051.448 5      -525.805          30.312    23392819.960    95789681.658 5      -409.718          30.312    23392820.140    95789683.630 7      -409.718          44.625
R21  21844635.780   116895058.133 7      6285.159          43.937    21844636.040   116895058.145 7      6285.159          44.250    21844648.380    90918438.845 8      4888.457          48.062    21844648.480    90918435.845 7      4888.457          47.750
G30  23535501.100   123679890.550 7      5556.782          44.625    23535501.060   123679890.552 7      5556.782          43.125    23535518.700    96374011.103 7      4329.960          43.000    23535519.580    96374017.106 7      4329.960          45.375
R05  20667802.060   110481241.767 8       393.539          49.125    20667802.060   110481241.774 8       393.539          48.125    20667812.740    85929895.910 8       306.086          49.625    20667812.800    85929898.906 8       306.086          50.312
R04  24103249.100   129071811.780 6      -617.360          40.687    24103250.860   129071811.838 6      -617.360          39.687    24103265.500   100389242.934 7      -480.169          43.625    24103265.240   100389244.935 7      -480.169          43.750
G19  21562748.700   113312994.891 7       199.937          44.937    21562747.060   113312994.895 6       199.937          37.937    21562755.580    88295866.431 6       155.795          38.187
G17  22727940.140   119436129.564 7      -292.029          44.250    22727937.720   119436129.563 7      -292.029          42.687    22727952.840    93067167.326 7      -227.555          42.375    22727953.040    93067164.327 7      -227.555          45.375
> 2024 07 31 14 16  1.0000000  0 13
R06  21160540.580   112916705.670 6      3929.499          38.125    21160540.560   112916705.703 6      3929.499          37.062
G20  24010897.300   126178117.041 6      4748.050          40.812    24010895.660   126178117.041 4      4748.050          28.937    24010904.480    98320624.209 4      3699.779          28.937
G07  22490676.100   118189308.004 7      4284.165          44.750    22490674.300   118189308.006 7      4284.165          42.875    22490687.540    92095612.246 7      3338.310          42.625    22490687.780    92095629.258 7      3338.310          46.562
G06  20555317.640   108018920.720 8      3581.918          48.812    20555316.700   108018920.722 8      3581.918          50.562    20555323.920    84170613.283 8      2791.105          50.812    20555324.880    84170617.284 8      2791.105          51.812
G09  20842922.480   109530294.652 8       849.369          48.500    20842921.720   109530294.662 8       849.369          49.875    20842928.700    85348305.569 8       661.846          50.250    20842929.240    85348308.569 8       661.846          50.000
G11  23018740.500   120964295.412 7      5559.506          44.687    23018739.760   120964295.420 5      5559.506          33.875    23018745.500    94257909.521 5      4332.082          33.875    23018746.100    94257922.522 7      4332.082          47.500
G04  23392911.800   122930577.220 7      -525.901          43.687    23392911.180   122930577.228 5      -525.901          30.312    23392919.980    95790091.350 5      -409.793          30.312    23392920.100    95790093.344 7      -409.793          43.937
R21  21843461.180   116888773.130 7      6284.827          44.312    21843461.620   116888773.148 7      6284.827          44.250    21843473.860    90913550.518 8      4888.199          48.375    21843473.620    90913547.517 7      4888.199          47.687
G30  23534444.240   123674333.749 7      5556.737          43.750    23534443.440   123674333.757 7      5556.737          42.937    23534461.080    96369681.134 7      4329.925          42.500    23534462.180    96369687.144 7      4329.925          45.250
R05  20667728.380   110480848.197 8       393.433          49.187    20667728.460   110480848.198 8       393.433          48.812    20667739.240    85929589.798 8       306.004          50.000    20667739.120    85929592.796 8       306.004          49.625
R04  24103364.380   129072429.134 6      -617.165          40.437    24103366.160   129072429.187 6      -617.165          39.687    24103380.740   100389723.102 7      -480.017          43.375    24103380.480   100389725.108 7      -480.017          44.187
G19  21562710.580   113312795.199 7       199.494          45.937    21562709.100   113312795.204 6       199.494          37.937    21562717.680    88295710.819 6       155.450          37.812
G17  22727995.580   119436421.594 7      -292.225          43.687    22727993.340   119436421.594 7      -292.225          42.125    22728008.500    93067394.878 7      -227.708          42.000    22728008.880    93067391.877 7      -227.708          45.187
> 2024 07 31 14 16  2.0000000  0 13
R06  21159804.440   112912776.283 6      3928.656          38.125    21159804.280   112912776.302 6      3928.656          37.062
G20  24009993.860   126173368.904 6      4748.024          41.000    24009992.200   126173368.898 4      4748.024          28.937    24010000.840    98316924.361 4      3699.759          28.937
G07  22489860.860   118185023.854 7      4283.569          44.937    22489859.160   118185023.857 7      4283.569          43.375    22489872.200    92092273.954 7      3337.846          42.812    22489872.540    92092290.962 7      3337.846          46.562
G06  20554636.040   108015338.875 8      3581.209          48.812    20554635.200   108015338.874 8      3581.209          50.500    20554642.280    84167822.237 8      2790.552          50.937    20554643.380    84167826.238 8      2790.552          51.562
G09  20842760.860   109529445.383 8       848.710          48.000    20842760.020   109529445.388 8       848.710          50.437    20842767.040    85347643.797 8       661.332          50.750    20842767.540    85347646.799 8       661.332          50.125
G11  23017682.560   120958735.903 7      5559.101          44.000    23017681.520   120958735.908 5      5559.101          34.187    23017687.600    94253577.433 5      4331.767          33.812    23017688.120    94253590.439 7      4331.767          47.750
G04  23393011.900   122931103.052 7      -526.233          43.500    23393011.240   122931103.060 5      -526.233          30.312    23393020.160    95790501.085 5      -410.051          30.312    23393019.880    95790503.098 7      -410.051          43.687
R21  21842286.680   116882488.440 7      6284.102          44.312    21842286.960   116882488.477 7      6284.102          44.250    21842299.240    90908662.434 8      4887.635          48.125    21842299.240    90908659.434 7      4887.635          47.500
G30  23533386.780   123668776.969 7      5556.331          44.187    23533385.800   123668776.977 7      5556.331          43.000    23533403.500    96365351.182 7      4329.609          42.562    23533404.460    96365357.192 7      4329.609          44.937
R05  20667654.760   110480454.771 8       392.935          48.937    20667654.740   110480454.772 8       392.935          48.437    20667665.600    85929283.801 8       305.616          50.062    20667665.440    85929286.802 8       305.616          49.625
R04  24103479.340   129073046.266 6      -617.398          40.437    24103480.660   129073046.324 6      -617.398          39.062    24103495.880   100390203.106 7      -480.199          43.687    24103495.940   100390205.111 7      -480.199          43.812
G19  21562672.800   113312595.910 7       198.678          46.250    21562671.020   113312595.912 6       198.678          38.000    21562679.700    88295555.518 6       154.814          38.187
G17  22728051.300   119436713.721 7      -292.657          44.062    22728048.920   119436713.724 7      -292.657          42.812    22728063.920    93067622.508 7      -228.045          42.500    22728064.600    93067619.514 7      -228.045          45.562
> 2024 07 31 14 16  3.0000000  0 13
R06  21159067.800   112908847.477 6      3928.558          38.187    21159067.560   112908847.489 6      3928.558          36.812
G20  24009090.340   126168620.934 6      4748.024          41.250    24009088.540   126168620.931 4      4748.024          29.250    24009097.420    98313224.643 4      3699.759          28.937
G07  22489045.720   118180740.217 7      4283.403          45.312    22489044.000   118180740.220 7      4283.403          42.875    22489057.080    92088936.061 7      3337.717          42.812    22489057.460    92088953.075 7      3337.717          46.562
G06  20553954.520   108011757.647 8      3580.991          48.500    20553953.660   108011757.649 8      3580.991          50.375    20553960.820    84165031.668 8      2790.382          50.812    20553961.880    84165035.669 8      2790.382          52.250
G09  20842599.400   109528596.658 8       848.535          48.375    20842598.580   109528596.663 8       848.535          49.687    20842605.580    85346982.449 8       661.196          49.937    20842605.960    85346985.451 8       661.196          50.125
G11  23016624.940   120953176.693 7      5559.089          44.312    23016623.580   120953176.698 5      5559.089          33.812    23016629.600    94249245.589 5      4331.757          33.812    23016630.420    94249258.593 7      4331.757          47.687
G04  23393112.200   122931629.142 7      -526.130          43.875    23393111.320   122931629.155 5      -526.130          30.187    23393120.120    95790911.023 5      -409.971          30.375    23393120.140    95790913.054 7      -409.971          43.937
R21  21841112.460   116876204.307 7      6283.995          44.000    21841112.880   116876204.322 7      6283.995          43.937    21841125.000    90903774.760 7      4887.552          47.750    21841124.880    90903771.762 7      4887.552          46.937
G30  23532329.600   123663220.411 7      5556.586          43.312    23532327.980   123663220.415 7      5556.586          43.000    23532346.080    96361021.394 7      4329.807          43.000    23532347.080    96361027.395 7      4329.807          44.875
R05  20667581.140   110480061.692 8       393.011          48.687    20667581.020   110480061.691 8       393.011          48.937    20667592.180    85928978.063 8       305.675          49.937    20667591.980    85928981.064 8       305.675          50.625
R04  24103594.520   129073663.373 6      -616.933          40.437    24103596.220   129073663.415 6      -616.933          39.062    24103611.480   100390683.079 7      -479.837          43.937    24103611.120   100390685.082 7      -479.837          43.875
G19  21562635.180   113312397.220 7       198.447          46.375    21562633.220   113312397.222 6       198.447          38.375    21562641.840    88295400.684 6       154.634          38.500
G17  22728106.860   119437006.211 7      -292.592          45.062    22728104.780   119437006.208 7      -292.592          42.062    22728119.580    93067850.412 6      -227.994          41.937    22728120.320    93067847.414 7      -227.994          45.187
> 2024 07 31 14 16  4.0000000  0 13
R06  21158331.060   112904919.114 6      3928.370          38.187    21158331.100   112904919.110 6      3928.370          36.812
G20  24008187.040   126163872.936 6      4747.958          40.687    24008184.980   126163872.938 4      4747.958          29.250    24008193.920    98309524.906 4      3699.708          29.187
G07  22488230.720   118176456.946 7      4283.170          45.125    22488228.920   118176456.951 7      4283.170          42.937    22488241.940    92085598.457 7      3337.535          42.625    22488242.540    92085615.467 7      3337.535          46.375
G06  20553272.960   108008176.900 8      3580.541          48.500    20553272.240   108008176.907 8      3580.541          50.375    20553279.400    84162241.477 8      2790.032          50.937    20553280.460    84162245.480 8      2790.032          51.937
G09  20842437.920   109527748.351 8       848.133          49.062    20842437.140   109527748.356 8       848.133          49.750    20842444.080    85346321.428 8       660.883          49.875    20842444.720    85346324.432 8       660.883          50.062
G11  23015567.180   120947617.617 7      5559.086          44.125    23015565.720   120947617.622 5      5559.086          33.812    23015571.860    94244913.840 5      4331.755          33.750    23015572.700    94244926.843 7      4331.755          47.250
G04  23393212.580   122932155.379 7      -526.246          44.562    23393211.440   122932155.394 5      -526.246          30.187    23393220.200    95791321.079 5      -410.062          30.375    23393220.980    95791323.111 7      -410.062          44.312
R21  21839938.460   116869920.597 7      6283.510          43.312    21839938.140   116869920.617 7      6283.510          43.875    21839950.720    90898887.440 7      4887.174          47.750    21839950.820    90898884.440 7      4887.174          47.375
G30  23531272.280   123657663.962 7      5556.471          43.750    23531270.800   123657663.967 7      5556.471          43.187    23531288.580    96356691.694 7      4329.718          42.937    23531289.280    96356697.697 7      4329.718          44.750
R05  20667508.080   110479668.817 8       392.804          49.250    20667507.820   110479668.820 8       392.804          48.062    20667518.640    85928672.495 8       305.514          50.187    20667518.620    85928675.494 8       305.514          50.500
R04  24103710.080   129074280.296 6      -616.793          40.437    24103711.840   129074280.346 6      -616.793          39.062    24103726.660   100391162.914 7      -479.728          43.562    24103726.480   100391164.919 7      -479.728          44.000
G19  21562597.000   113312198.984 7       198.101          47.187    21562595.600   113312198.986 6       198.101          38.750    21562604.160    88295246.205 6       154.365          38.625
G17  22728162.600   119437298.885 7      -292.767          45.187    22728160.480   119437298.880 7      -292.767          42.437    22728175.300    93068078.461 7      -228.130          42.125    22728175.740    93068075.468 7      -228.130          45.062
> 2024 07 31 14 16  5.0000000  0 13
R06  21157594.920   112900991.280 6      3927.553          38.187    21157595.120   112900991.270 6      3927.553          36.812
G20  24007283.760   126159124.949 6      4747.951          40.125    24007281.440   126159124.948 4      4747.951          29.250    24007290.280    98305825.178 4      3699.702          29.187
G07  22487415.940   118172174.118 7      4282.609          44.437    22487413.880   118172174.120 7      4282.609          43.062    22487427.040    92082261.197 7      3337.098          42.875    22487427.260    92082278.205 7      3337.098          46.500
G06  20552591.680   108004596.678 8      3579.982          49.250    20552591.000   108004596.683 8      3579.982          50.625    20552598.100    84159451.692 8      2789.596          50.375    20552599.140    84159455.693 8      2789.596          51.312
G09  20842276.560   109526900.501 8       847.619          48.562    20842275.800   109526900.506 8       847.619          49.812    20842282.820    85345660.762 8       660.482          49.812    20842283.280    85345663.764 8       660.482          49.687
G11  23014509.220   120942058.780 7      5558.762          44.625    23014508.020   120942058.774 5      5558.762          34.125    23014514.020    94240582.283 5      4331.503          34.062    23014514.740    94240595.278 7      4331.503          47.625
G04  23393312.860   122932681.786 7      -526.419          43.000    23393311.480   122932681.801 5      -526.419          30.187    23393320.420    95791731.265 5      -410.197          30.375    23393321.380    95791733.288 7      -410.197          45.687
R21  21838764.440   116863637.333 7      6282.985          44.375    21838763.960   116863637.350 7      6282.985          43.937    21838776.540    90894000.453 8      4886.766          48.000    21838776.600    90893997.455 7      4886.766          47.437
G30  23530215.020   123652107.637 7      5556.193          43.937    23530213.840   123652107.637 7      5556.193          42.812    23530231.240    96352362.088 7      4329.501          43.000    23530232.080    96352368.083 7      4329.501          44.750
R05  20667434.360   110479276.190 8       392.485          48.937    20667434.180   110479276.193 8       392.485          48.625    20667445.140    85928367.117 8       305.266          49.750    20667444.920    85928370.115 8       305.266          50.500
R04  24103824.940   129074897.075 6      -616.733          40.437    24103826.800   129074897.141 6      -616.733          39.062    24103841.920   100391642.647 7      -479.681          43.812    24103841.500   100391644.652 7      -479.681          44.437
G19  21562559.560   113312001.266 7       197.517          46.812    21562557.980   113312001.268 6       197.517          37.687    21562566.500    88295092.132 6       153.909          37.875
G17  22728218.420   119437591.796 7      -293.037          43.875    22728216.320   119437591.793 6      -293.037          41.875    22728231.040    93068306.703 6      -228.340          41.875    22728231.220    93068303.706 7      -228.340          45.187
> 2024 07 31 14 16  6.0000000  0 13
R06  21156859.340   112897063.819 6      3927.039          38.187    21156859.380   112897063.819 6      3927.039          36.812
G20  24006379.840   126154376.887 6      4747.874          40.062    24006377.800   126154376.890 4      4747.874          29.250    24006386.880    98302125.392 4      3699.642          29.187
G07  22486600.740   118167891.606 7      4282.149          45.187    22486599.080   118167891.611 7      4282.149          43.062    22486612.200    92078924.180 7      3336.739          42.937    22486612.660    92078941.189 7      3336.739          46.312
G06  20551910.640   108001016.895 8      3579.351          48.812    20551909.800   108001016.900 8      3579.351          50.312    20551916.940    84156662.253 8      2789.105          50.937    20551918.120    84156666.254 8      2789.105          51.500
G09  20842115.340   109526053.008 8       847.162          48.562    20842114.580   109526053.013 8       847.162          49.687    20842121.500    85345000.380 8       660.126          50.062    20842122.000    85345003.378 8       660.126          49.687
G11  23013451.540   120936500.006 7      5558.650          44.562    23013450.300   120936500.008 5      5558.650          34.125    23013456.180    94236250.771 5      4331.416          34.062    23013457.060    94236263.778 7      4331.416          47.312
G04  23393413.200   122933208.298 7      -526.768          43.000    23393411.760   122933208.314 5      -526.768          30.250    23393420.660    95792141.526 5      -410.469          30.125    23393422.040    95792143.547 7      -410.469          45.875
R21  21837590.040   116857354.388 7      6282.581          44.250    21837590.040   116857354.400 7      6282.581          43.937    21837602.500    90889113.720 8      4886.452          48.375    21837602.440    90889110.720 7      4886.452          47.937
G30  23529157.780   123646551.364 7      5555.913          44.187    23529156.880   123646551.372 7      5555.913          42.875    23529174.220    96348032.531 7      4329.283          42.562    23529174.760    96348038.528 7      4329.283          44.812
R05  20667361.060   110478883.734 8       392.145          48.687    20667360.820   110478883.732 8       392.145          48.437    20667371.840    85928061.867 8       305.001          50.250    20667371.640    85928064.867 8       305.001          50.125
R04  24103939.580   129075513.649 6      -616.580          39.000    24103941.980   129075513.702 6      -616.580          39.062    24103957.380   100392122.195 7      -479.562          44.625    24103956.680   100392124.200 7      -479.562          44.562
G19  21562522.080   113311803.981 7       196.887          47.312    21562520.480   113311803.989 6       196.887          38.250    21562528.920    88294938.396 6       153.419          38.125
G17  22728274.240   119437884.848 7      -293.226          44.500    22728271.960   119437884.848 7      -293.226          42.437    22728286.760    93068535.057 7      -228.488          42.187    22728287.020    93068532.062 7      -228.488          45.062
> 2024 07 31 14 16  7.0000000  0 13
R06  21156123.320   112893136.939 6      3926.444          38.187    21156123.460   112893136.937 6      3926.444          36.812
G20  24005476.480   126149628.952 6      4747.911          40.750    24005474.260   126149628.955 4      4747.911          29.437    24005483.360    98298425.706 4      3699.671          29.187
G07  22485785.640   118163609.590 7      4281.855          45.125    22485784.260   118163609.595 7      4281.855          42.500    22485797.240    92075587.557 7      3336.511          42.375    22485797.460    92075604.565 7      3336.511          46.250
G06  20551229.560   107997437.720 8      3578.909          48.750    20551228.640   107997437.727 8      3578.909          49.125    20551235.840    84153873.285 8      2788.760          49.062    20551236.860    84153877.288 8      2788.760          50.625
G09  20841954.260   109525206.062 8       846.708          48.625    20841953.440   109525206.069 8       846.708          50.375    20841960.380    85344340.424 8       659.773          50.375    20841960.740    85344343.428 8       659.773          49.125
G11  23012393.780   120930941.589 7      5558.207          43.437    23012392.460   120930941.589 5      5558.207          34.000    23012398.500    94231919.543 5      4331.070          33.625    23012399.280    94231932.550 7      4331.070          46.687
G04  23393513.440   122933735.068 7      -526.869          42.437    23393511.880   122933735.073 5      -526.869          30.250    23393521.140    95792551.986 5      -410.547          30.125    23393522.640    95792553.989 7      -410.547          46.250
R21  21836416.240   116851071.956 7      6282.180          44.625    21836416.240   116851071.979 7      6282.180          44.125    21836428.540    90884227.397 7      4886.140          47.375    21836428.240    90884224.399 7      4886.140          46.937
G30  23528100.320   123640995.310 7      5555.908          44.187    23528099.800   123640995.307 7      5555.908          43.000    23528117.040    96343703.130 7      4329.279          42.312    23528117.340    96343709.127 7      4329.279          44.937
R05  20667287.720   110478491.628 8       391.905          49.500    20667287.240   110478491.629 8       391.905          49.000    20667298.540    85927756.896 8       304.815          48.000    20667298.340    85927759.898 8       304.815          49.000
R04  24104054.680   129076130.184 6      -616.469          39.000    24104056.760   129076130.234 6      -616.469          37.875    24104072.200   100392601.742 7      -479.476          44.500    24104071.920   100392603.746 7      -479.476          44.687
G19  21562484.840   113311607.291 7       196.505          47.000    21562483.000   113311607.298 6       196.505          38.062    21562491.520    88294785.122 6       153.121          38.187
G17  22728329.660   119438178.260 7      -293.513          44.250    22728328.040   119438178.263 7      -293.513          42.125    22728342.580    93068763.688 7      -228.712          42.250    22728343.180    93068760.693 7      -228.712          44.937
> 2024 07 31 14 16  8.0000000  0 13
R06  21155388.380   112889210.516 6      3926.180          38.000    21155388.120   112889210.522 6      3926.180          36.875
G20  24004572.740   126144881.067 6      4747.929          41.125    24004570.660   126144881.072 4      4747.929          29.437    24004579.920    98294726.060 4      3699.685          29.250
G07  22484970.920   118159328.047 7      4281.399          45.062    22484969.500   118159328.052 7      4281.399          43.125    22484982.420    92072251.296 7      3336.155          42.875    22484982.840    92072268.300 7      3336.155          46.937
G06  20550548.740   107993859.101 8      3578.395          49.000    20550547.780   107993859.106 8      3578.395          50.687    20550554.780    84151084.749 8      2788.359          50.750    20550555.920    84151088.748 8      2788.359          51.437
G09  20841793.260   109524359.599 8       846.344          48.812    20841792.340   109524359.609 8       846.344          49.625    20841799.220    85343680.843 8       659.489          50.062    20841799.800    85343683.842 8       659.489          49.875
G11  23011335.960   120925383.359 7      5558.165          44.375    23011334.880   120925383.367 5      5558.165          33.937    23011340.600    94227588.459 5      4331.038          33.625    23011341.400    94227601.462 7      4331.038          47.375
G04  23393613.520   122934262.028 7      -526.958          42.187    23393612.340   122934262.033 5      -526.958          30.250    23393621.620    95792962.612 5      -410.616          30.125    23393623.040    95792964.598 7      -410.616          47.062
R21  21835242.060   116844790.041 7      6281.744          44.562    21835242.420   116844790.056 7      6281.744          44.062    21835254.560    90879341.457 8      4885.801          48.250    21835254.280    90879338.456 7      4885.801          47.312
G30  23527043.240   123635439.416 7      5555.903          45.000    23527042.540   123635439.416 7      5555.903          43.312    23527060.100    96339373.864 7      4329.275          43.125    23527060.500    96339379.859 7      4329.275          45.062
R05  20667214.440   110478099.811 8       391.782          49.062    20667214.000   110478099.809 8       391.782          48.937    20667225.260    85927452.147 8       304.719          49.937    20667225.040    85927455.145 8       304.719          50.375
R04  24104170.220   129076746.703 6      -616.372          39.000    24104172.420   129076746.734 6      -616.372          37.875    24104187.720   100393081.232 7      -479.400          44.437    24104187.160   100393083.233 7      -479.400          44.500
G19  21562447.360   113311411.149 7       195.970          46.937    21562445.720   113311411.159 6       195.970          38.125    21562454.220    88294632.279 6       152.704          38.250
G17  22728385.700   119438471.925 7      -293.676          45.562    22728383.920   119438471.927 7      -293.676          42.437    22728398.480    93068992.516 7      -228.839          42.125    22728398.980    93068989.519 7      -228.839          44.687
> 2024 07 31 14 16  9.0000000  0 13
R06  21154652.300   112885284.477 6      3925.830          38.000    21154651.960   112885284.486 6      3925.830          36.875
G20  24003669.120   126140133.095 6      4748.003          40.812    24003667.020   126140133.106 4      4748.003          29.437    24003676.420    98291026.353 4      3699.742          29.250
G07  22484156.160   118155046.786 7      4281.171          44.937    22484154.780   118155046.783 7      4281.171          43.312    22484167.980    92068915.252 7      3335.977          43.000    22484168.260    92068932.258 7      3335.977          46.750
G06  20549867.660   107990280.887 8      3577.999          49.312    20549866.840   107990280.889 8      3577.999          50.375    20549873.980    84148296.528 8      2788.051          50.687    20549874.920    84148300.527 8      2788.051          51.687
G09  20841632.300   109523513.473 8       845.979          49.000    20841631.340   109523513.475 8       845.979          49.625    20841638.180    85343021.519 8       659.204          49.937    20841638.760    85343024.521 8       659.204          50.000
G11  23010278.340   120919825.224 7      5558.021          44.125    23010276.960   120919825.229 5      5558.021          33.937    23010283.040    94223257.450 5      4330.926          33.750    23010283.680    94223270.454 7      4330.926          47.437
G04  23393713.560   122934789.047 7      -527.078          43.062    23393712.560   122934789.052 5      -527.078          30.312    23393721.860    95793373.262 5      -410.710          30.500    23393723.600    95793375.240 7      -410.710          46.875
R21  21834068.140   116838508.482 7      6281.366          44.562    21834068.160   116838508.505 7      6281.366          44.312    21834080.660    90874455.812 7      4885.507          47.937    21834080.340    90874452.816 7      4885.507          47.750
G30  23525985.880   123629883.524 7      5556.017          44.750    23525985.220   123629883.521 7      5556.017          43.187    23526002.900    96335044.596 7      4329.364          43.437    23526003.280    96335050.603 7      4329.364          45.250
R05  20667140.980   110477708.143 8       391.550          48.187    20667140.760   110477708.152 8       391.550          48.687    20667151.760    85927147.523 8       304.539          50.187    20667151.660    85927150.528 8       304.539          50.062
R04  24104284.880   129077362.935 6      -616.107          39.000    24104286.620   129077362.993 6      -616.107          37.875    24104302.720   100393560.540 7      -479.195          45.437    24104302.180   100393562.542 7      -479.195          44.625
G19  21562410.120   113311215.409 7       195.492          46.750    21562408.460   113311215.414 6       195.492          38.312    21562417.060    88294479.744 6       152.332          38.250
G17  22728441.880   119438765.723 7      -293.848          44.937    22728439.880   119438765.723 7      -293.848          42.375    22728454.380    93069221.444 7      -228.972          42.250    22728454.740    93069218.448 7      -228.972          45.000
> 2024 07 31 14 16 10.0000000  0 13
R06  21153916.620   112881359.097 6      3925.197          38.000    21153916.260   112881359.090 6      3925.197          36.875
G20  24002765.760   126135385.289 6      4747.853          40.375    24002763.460   126135385.297 4      4747.853          29.437    24002772.940    98287326.764 4      3699.626          29.250
G07  22483341.580   118150766.105 7      4280.513          43.437    22483340.140   118150766.107 7      4280.513          43.375    22483353.240    92065579.667 7      3335.464          42.750    22483353.620    92065596.675 7      3335.464          46.375
G06  20549186.780   107986703.343 8      3577.286          49.000    20549186.100   107986703.345 8      3577.286          51.062    20549193.220    84145508.830 8      2787.496          50.937    20549194.240    84145512.830 8      2787.496          51.562
G09  20841471.320   109522667.953 8       845.317          48.812    20841470.400   109522667.961 8       845.317          49.812    20841477.300    85342362.673 8       658.689          49.750    20841477.840    85342365.675 8       658.689          49.812
G11  23009220.560   120914267.449 7      5557.698          44.625    23009219.460   120914267.453 5      5557.698          34.000    23009225.460    94218926.712 5      4330.673          33.750    23009225.900    94218939.707 7      4330.673          47.625
G04  23393814.480   122935316.393 7      -527.435          44.187    23393813.040   122935316.400 5      -527.435          30.312    23393822.200    95793784.179 5      -410.988          30.500    23393823.720    95793786.144 7      -410.988          46.187
R21  21832894.760   116832227.540 7      6280.754          44.500    21832894.120   116832227.558 7      6280.754          44.375    21832907.100    90869570.632 8      4885.031          48.250    21832906.880    90869567.637 7      4885.031          47.875
G30  23524928.520   123624327.948 7      5555.517          44.187    23524927.540   123624327.950 7      5555.517          43.000    23524945.620    96330715.584 7      4328.975          42.812    23524945.820    96330721.595 7      4328.975          45.562
R05  20667067.660   110477316.893 8       391.119          49.687    20667067.580   110477316.899 8       391.119          48.375    20667078.680    85926843.211 8       304.203          49.562    20667078.680    85926846.211 8       304.203          50.250
R04  24104400.560   129077979.295 6      -616.375          39.000    24104401.400   129077979.351 6      -616.375          37.875    24104417.720   100394039.921 7      -479.403          44.812    24104417.340   100394041.919 7      -479.403          45.375
G19  21562373.140   113311020.321 7       194.819          46.687    21562371.320   113311020.324 6       194.819          37.875    21562379.880    88294327.717 6       151.807          37.937
G17  22728497.680   119439059.908 7      -294.324          45.562    22728495.900   119439059.913 7      -294.324          42.125    22728510.280    93069450.678 6      -229.344          41.750    22728510.780    93069447.685 7      -229.344          45.312
> 2024 07 31 14 16 11.0000000  0 13
R06  21153180.540   112877434.171 6      3924.479          38.000    21153180.660   112877434.174 6      3924.479          36.875
G20  24001862.340   126130637.506 6      4747.507          40.750    24001859.940   126130637.514 4      4747.507          29.437    24001869.360    98283627.197 4      3699.356          29.250
G07  22482527.140   118146485.815 7      4279.930          44.312    22482525.680   118146485.817 7      4279.930          43.000    22482538.740    92062244.383 7      3335.010          42.500    22482539.240    92062261.389 7      3335.010          46.812
G06  20548506.040   107983126.301 8      3576.592          49.312    20548505.340   107983126.298 8      3576.592          50.750    20548512.420    84142721.520 8      2786.955          50.750    20548513.420    84142725.521 8      2786.955          51.500
G09  20841310.620   109521822.870 8       844.626          48.312    20841309.620   109521822.875 8       844.626          50.375    20841316.560    85341704.164 8       658.150          50.500    20841316.940    85341707.166 8       658.150          49.562
G11  23008163.180   120908709.854 7      5557.253          43.875    23008161.960   120908709.854 5      5557.253          34.062    23008167.980    94214596.125 5      4330.327          33.937    23008168.840    94214609.123 7      4330.327          47.500
G04  23393914.620   122935843.885 7      -527.760          43.437    23393913.340   122935843.893 5      -527.760          30.312    23393922.840    95794195.204 5      -411.242          30.500    23393923.980    95794197.171 7      -411.242          45.625
R21  21831720.800   116825946.982 7      6280.090          44.250    21831720.600   116825947.002 7      6280.090          44.375    21831733.300    90864685.763 8      4884.515          48.000    21831733.020    90864682.765 7      4884.515          47.937
G30  23523871.320   123618772.461 7      5555.135          44.000    23523870.100   123618772.474 7      5555.135          42.562    23523888.220    96326386.643 7      4328.676          42.562    23523888.800    96326392.654 7      4328.676          45.375
R05  20666994.280   110476925.843 8       390.714          49.187    20666994.360   110476925.847 8       390.714          48.687    20667005.540    85926539.055 8       303.888          49.937    20667005.400    85926542.055 8       303.888          50.125
R04  24104514.660   129078595.466 6      -616.487          39.000    24104516.620   129078595.510 6      -616.487          37.875    24104532.700   100394519.144 7      -479.490          45.500    24104532.220   100394521.139 7      -479.490          45.937
G19  21562336.200   113310825.730 7       194.085          47.000    21562334.360   113310825.732 6       194.085          38.125    21562342.960    88294176.075 6       151.235          38.000
G17  22728553.760   119439354.306 7      -294.729          44.687    22728552.040   119439354.311 7      -294.729          42.250    22728566.440    93069680.077 7      -229.659          42.125    22728567.000    93069677.078 7      -229.659          45.125
> 2024 07 31 14 16 12.0000000  0 13
R06  21152445.540   112873509.864 6      3924.000          38.000    21152446.040   112873509.872 6      3924.000          36.875
G20  24000958.840   126125889.826 6      4747.703          40.312    24000956.460   126125889.836 4      4747.703          29.437    24000966.040    98279927.710 4      3699.509          29.437
G07  22481712.700   118142206.049 7      4279.592          44.125    22481711.400   118142206.054 7      4279.592          43.125    22481724.320    92058909.512 7      3334.747          42.937    22481724.860    92058926.518 7      3334.747          46.875
G06  20547825.580   107979549.886 8      3576.094          49.187    20547824.800   107979549.889 8      3576.094          50.812    20547832.020    84139934.708 8      2786.567          51.062    20547832.880    84139938.707 8      2786.567          52.312
G09  20841149.740   109520978.336 8       844.291          48.562    20841148.900   109520978.341 8       844.291          50.062    20841155.740    85341046.084 8       657.889          50.750    20841156.200    85341049.086 8       657.889          49.750
G11  23007105.500   120903152.555 7      5557.165          44.500    23007104.520   120903152.562 5      5557.165          34.062    23007110.500    94210265.762 5      4330.259          33.750    23007110.940    94210278.759 7      4330.259          47.812
G04  23394015.000   122936371.654 7      -527.872          44.125    23394013.880   122936371.664 5      -527.872          30.500    23394023.160    95794606.444 5      -411.329          30.500    23394023.760    95794608.422 7      -411.329          45.437
R21  21830547.000   116819666.934 7      6279.869          44.062    21830547.460   116819666.949 7      6279.869          44.062    21830559.640    90859801.275 7      4884.342          47.750    21830559.440    90859798.281 7      4884.342          47.750
G30  23522814.300   123613217.208 7      5555.185          44.250    23522812.960   123613217.218 7      5555.185          42.687    23522830.920    96322057.876 7      4328.716          42.812    23522831.180    96322063.890 7      4328.716          45.062
R05  20666921.440   110476535.127 8       390.622          48.062    20666921.340   110476535.128 8       390.622          48.187    20666932.520    85926235.162 8       303.817          50.312    20666932.360    85926238.165 8       303.817          50.062
R04  24104629.380   129079211.476 6      -615.728          39.000    24104631.920   129079211.539 6      -615.728          37.875    24104647.760   100394998.267 7      -478.900          45.375    24104647.360   100395000.269 7      -478.900          45.625
G19  21562299.100   113310631.733 7       193.724          46.375    21562297.400   113310631.730 6       193.724          37.687    21562306.080    88294024.894 6       150.954          37.687
G17  22728609.860   119439649.040 7      -294.725          44.562    22728608.240   119439649.039 7      -294.725          42.187    22728622.520    93069909.730 6      -229.656          41.812    22728623.080    93069906.735 7      -229.656          45.000
> 2024 07 31 14 16 13.0000000  0 13
R06  21151710.360   112869586.050 6      3923.562          38.125    21151709.860   112869586.045 6      3923.562          36.750
G20  24000054.980   126121142.188 6      4747.600          40.062    24000053.160   126121142.198 4      4747.600          29.437    24000062.680    98276228.250 4      3699.429          29.437
G07  22480898.460   118137926.700 7      4279.219          44.875    22480897.120   118137926.702 7      4279.219          43.187    22480910.120    92055574.956 7      3334.456          42.500    22480910.140    92055591.960 7      3334.456          46.500
G06  20547145.260   107975973.974 8      3575.659          49.437    20547144.260   107975973.982 8      3575.659          50.375    20547151.420    84137148.282 8      2786.227          50.875    20547152.560    84137152.283 8      2786.227          51.687
G09  20840989.120   109520134.238 8       843.869          48.375    20840988.280   109520134.243 8       843.869          49.812    20840995.080    85340388.341 8       657.561          50.312    20840995.620    85340391.343 8       657.561          49.750
G11  23006048.160   120897595.457 7      5556.947          44.875    23006046.960   120897595.457 5      5556.947          33.875    23006053.040    94205935.564 5      4330.088          33.750    23006053.580    94205948.563 7      4330.088          47.687
G04  23394115.400   122936899.583 7      -528.008          43.187    23394114.520   122936899.590 5      -528.008          30.500    23394123.520    95795017.817 5      -411.435          30.500    23394123.600    95795019.801 7      -411.435          45.000
R21  21829373.500   116813387.301 7      6279.476          43.937    21829373.960   116813387.313 7      6279.476          44.500    21829386.060    90854917.121 7      4884.037          47.625    21829385.960    90854914.124 7      4884.037          47.625
G30  23521757.260   123607662.089 7      5555.220          44.750    23521755.980   123607662.084 7      5555.220          42.812    23521773.540    96317729.196 7      4328.743          42.750    23521774.360    96317735.201 7      4328.743          44.750
R05  20666848.260   110476144.675 8       390.257          49.312    20666848.360   110476144.682 8       390.257          48.562    20666859.340    85925931.476 8       303.533          50.250    20666859.220    85925934.478 8       303.533          50.437
R04  24104745.060   129079827.491 6      -616.078          36.875    24104747.080   129079827.560 6      -616.078          37.875    24104762.700   100395477.390 7      -479.172          45.687    24104762.540   100395479.387 7      -479.172          45.937
G19  21562262.420   113310438.237 7       193.239          47.000    21562260.660   113310438.239 6       193.239          37.625    21562269.280    88293874.116 6       150.576          37.375
G17  22728666.120   119439944.034 7      -295.108          44.000    22728664.320   119439944.036 7      -295.108          42.500    22728678.660    93070139.593 7      -229.955          42.562    22728679.300    93070136.596 7      -229.955          45.062
> 2024 07 31 14 16 14.0000000  0 13
R06  21150974.540   112865662.876 6      3922.973          38.125    21150974.540   112865662.893 6      3922.973          36.750
G20  23999151.680   126116394.700 6      4747.632          40.500    23999149.720   126116394.707 4      4747.632          29.750    23999159.360    98272528.910 4      3699.453          29.437
G07  22480084.220   118133647.903 7      4278.806          45.187    22480082.860   118133647.905 7      4278.806          43.250    22480095.820    92052240.839 7      3334.135          43.062    22480096.240    92052257.843 7      3334.135          46.687
G06  20546464.900   107972398.740 8      3575.139          49.187    20546463.960   107972398.742 8      3575.139          50.875    20546471.100    84134362.385 8      2785.823          50.937    20546472.160    84134366.384 8      2785.823          51.500
G09  20840828.660   109519290.739 8       843.428          48.375    20840827.800   109519290.747 8       843.428          50.062    20840834.600    85339731.071 8       657.217          50.125    20840835.180    85339734.073 8       657.217          50.125
G11  23004990.840   120892038.693 7      5556.835          44.875    23004989.420   120892038.701 5      5556.835          33.875    23004995.700    94201605.612 5      4330.001          34.125    23004996.220    94201618.618 7      4330.001          47.812
G04  23394215.720   122937427.827 7      -528.128          44.062    23394215.200   122937427.834 5      -528.128          30.500    23394223.900    95795429.433 5      -411.528          30.500    23394223.760    95795431.426 7      -411.528          44.437
R21  21828200.180   116807108.337 7      6278.781          44.625    21828200.900   116807108.350 7      6278.781          44.625    21828212.620    90850033.484 7      4883.496          47.875    21828212.540    90850030.486 7      4883.496          47.250
G30  23520700.000   123602107.257 7      5554.959          44.562    23520699.380   123602107.256 7      5554.959          43.187    23520716.260    96313400.763 7      4328.539          42.500    23520717.200    96313406.766 7      4328.539          44.437
R05  20666775.200   110475754.582 8       390.187          48.687    20666775.400   110475754.589 8       390.187          48.687    20666786.420    85925628.068 8       303.479          50.000    20666786.080    85925631.072 8       303.479          50.125
R04  24104860.580   129080443.514 6      -616.120          36.875    24104862.800   129080443.564 6      -616.120          37.875    24104877.820   100395956.494 7      -479.205          45.625    24104877.340   100395958.494 7      -479.205          46.250
G19  21562225.840   113310245.411 7       192.656          46.687    21562224.060   113310245.414 6       192.656          38.000    21562232.680    88293723.854 6       150.121          38.062
G17  22728722.120   119440239.382 7      -295.284          44.562    22728720.480   119440239.382 7      -295.284          42.562    22728734.920    93070369.733 7      -230.092          42.250    22728735.380    93070366.738 7      -230.092          45.125
> 2024 07 31 14 16 15.0000000  0 13
R06  21150239.120   112861740.020 6      3922.431          38.125    21150239.260   112861740.035 6      3922.431          36.750
G20  23998248.640   126111647.096 6      4747.364          41.125    23998246.340   126111647.098 4      4747.364          29.750    23998255.760    98268829.479 4      3699.244          29.562
G07  22479270.160   118129369.387 7      4278.229          44.812    22479268.620   118129369.389 7      4278.229          43.562    22479281.520    92048906.935 7      3333.685          43.062    22479281.960    92048923.941 7      3333.685          46.375
G06  20545784.580   107968823.878 8      3574.478          48.250    20545783.720   107968823.880 8      3574.478          50.687    20545790.880    84131576.777 8      2785.308          51.125    20545791.940    84131580.778 8      2785.308          51.687
G09  20840668.180   109518447.550 8       842.733          48.687    20840667.280   109518447.558 8       842.733          49.500    20840674.160    85339074.041 8       656.675          49.812    20840674.960    85339077.045 8       656.675          50.125
G11  23003933.420   120886481.982 7      5556.504          44.937    23003932.040   120886481.987 5      5556.504          34.250    23003937.980    94197275.716 5      4329.743          34.125    23003938.700    94197288.725 7      4329.743          47.562
G04  23394316.300   122937956.113 7      -528.563          43.562    23394315.860   122937956.128 5      -528.563          30.687    23394324.300    95795841.087 5      -411.867          30.500    23394324.080    95795843.079 7      -411.867          44.250
R21  21827026.540   116800829.686 7      6278.232          45.375    21827027.220   116800829.707 7      6278.232          44.187    21827039.340    90845150.093 7      4883.069          47.937    21827039.540    90845147.099 7      4883.069          47.562
G30  23519642.940   123596552.411 7      5554.535          44.812    23519642.580   123596552.408 7      5554.535          42.937    23519659.340    96309072.308 7      4328.209          42.937    23519660.200    96309078.303 7      4328.209          44.312
R05  20666702.700   110475364.617 8       389.724          49.625    20666702.600   110475364.618 8       389.724          49.062    20666713.480    85925324.758 8       303.119          50.000    20666713.280    85925327.762 8       303.119          50.000
R04  24104975.960   129081059.259 6      -615.906          36.875    24104977.300   129081059.304 5      -615.906          35.937    24104992.980   100396435.392 7      -479.038          45.687    24104992.760   100396437.392 7      -479.038          46.125
G19  21562189.060   113310052.938 7       192.057          46.750    21562187.420   113310052.943 6       192.057          38.062    21562196.120    88293573.863 6       149.655          37.812
G17  22728778.660   119440534.818 7      -295.659          44.750    22728776.760   119440534.820 7      -295.659          42.750    22728791.120    93070599.938 7      -230.384          42.750    22728791.660    93070596.947 7      -230.384          45.437
> 2024 07 31 14 16 16.0000000  0 13
R06  21149504.160   112857817.605 6      3922.430          38.125    21149504.020   112857817.638 6      3922.430          36.750
G20  23997345.300   126106899.531 6      4747.497          41.250    23997343.040   126106899.533 4      4747.497          29.750    23997352.240    98265130.080 4      3699.348          29.562
G07  22478456.060   118125091.310 7      4277.818          45.000    22478454.620   118125091.315 7      4277.818          43.187    22478467.600    92045573.378 7      3333.364          42.687    22478468.240    92045590.382 7      3333.364          46.812
G06  20545104.260   107965249.537 8      3574.157          48.875    20545103.500   107965249.539 8      3574.157          50.000    20545110.660    84128791.574 8      2785.058          50.687    20545111.600    84128795.575 8      2785.058          51.500
G09  20840507.860   109517604.795 8       842.659          48.875    20840506.980   109517604.800 8       842.659          49.562    20840513.820    85338417.344 8       656.617          49.625    20840514.440    85338420.346 8       656.617          49.625
G11  23002875.700   120880925.504 7      5556.336          44.312    23002874.660   120880925.515 5      5556.336          34.187    23002880.900    94192945.999 5      4329.612          34.125    23002881.420    94192959.004 7      4329.612          47.625
G04  23394416.980   122938484.546 7      -528.420          44.125    23394416.400   122938484.561 5      -528.420          30.687    23394424.780    95796252.851 5      -411.756          30.687    23394424.440    95796254.854 7      -411.756          44.125
R21  21825853.800   116794551.512 7      6278.023          44.125    21825853.920   116794551.529 7      6278.023          44.187    21825866.080    90840267.072 7      4882.907          47.937    21825866.140    90840264.080 7      4882.907          47.250
G30  23518585.900   123590997.686 7      5554.719          44.437    23518585.520   123590997.686 7      5554.719          43.250    23518602.400    96304743.949 7      4328.353          42.875    23518603.420    96304749.952 7      4328.353          44.562
R05  20666629.780   110474974.885 8       389.666          48.812    20666629.560   110474974.894 8       389.666          48.437    20666640.440    85925021.635 8       303.074          50.187    20666640.280    85925024.637 8       303.074          49.875
R04  24105091.160   129081674.873 6      -615.309          36.875    24105092.300   129081674.909 5      -615.309          35.937    24105107.760   100396914.197 7      -478.573          46.500    24105107.700   100396916.196 7      -478.573          45.687
G19  21562152.440   113309860.966 7       191.813          46.875    21562150.960   113309860.968 6       191.813          38.062    21562159.680    88293424.268 6       149.465          38.125
G17  22728834.740   119440830.511 7      -295.782          44.625    22728833.020   119440830.510 7      -295.782          42.250    22728847.540    93070830.342 7      -230.479          42.437    22728847.800    93070827.347 7      -230.479          45.250
> 2024 07 31 14 16 17.0000000  0 13
R06  21148769.740   112853895.904 6      3921.827          38.125    21148769.540   112853895.902 6      3921.827          36.750
G20  23996441.860   126102152.124 6      4747.390          41.125    23996439.700   126102152.124 4      4747.390          29.812    23996448.780    98261430.806 4      3699.265          29.562
G07  22477641.940   118120813.779 7      4277.339          44.375    22477640.680   118120813.784 7      4277.339          43.250    22477653.580    92042240.244 7      3332.992          43.250    22477654.280    92042257.248 7      3332.992          46.875
G06  20544424.240   107961675.869 8      3573.532          49.187    20544423.440   107961675.873 8      3573.532          50.750    20544430.620    84126006.900 8      2784.570          51.500    20544431.320    84126010.900 8      2784.570          51.687
G09  20840347.740   109516762.675 8       841.999          48.562    20840346.660   109516762.678 8       841.999          49.812    20840353.540    85337761.143 8       656.103          49.687    20840354.200    85337764.143 8       656.103          49.812
G11  23001818.400   120875369.350 7      5556.201          44.812    23001817.480   120875369.360 5      5556.201          34.187    23001823.540    94188616.522 5      4329.507          34.250    23001824.100    94188629.529 7      4329.507          47.812
G04  23394517.800   122939013.326 7      -528.749          43.250    23394516.780   122939013.339 5      -528.749          30.687    23394525.280    95796664.879 5      -412.012          30.687    23394525.200    95796666.894 7      -412.012          44.437
R21  21824680.780   116788273.915 7      6277.464          44.125    21824680.840   116788273.930 7      6277.464          44.000    21824693.060    90835384.497 8      4882.472          48.125    21824693.000    90835381.501 7      4882.472          47.812
G30  23517528.840   123585443.284 7      5554.377          44.687    23517528.220   123585443.281 7      5554.377          43.000    23517545.680    96300415.839 7      4328.086          43.062    23517546.320    96300421.832 7      4328.086          44.750
R05  20666556.920   110474585.580 8       389.264          48.937    20666556.820   110474585.589 8       389.264          48.250    20666567.760    85924718.836 8       302.761          50.187    20666567.560    85924721.836 8       302.761          50.125
R04  24105205.960   129082290.521 6      -615.414          36.875    24105206.440   129082290.560 5      -615.414          35.937    24105222.640   100397393.026 7      -478.655          45.875    24105222.280   100397395.027 7      -478.655          46.250
G19  21562115.980   113309669.685 7       191.055          46.500    21562114.560   113309669.685 6       191.055          38.500    21562123.000    88293275.206 6       148.874          38.687
G17  22728890.800   119441126.566 7      -296.082          44.062    22728889.300   119441126.566 7      -296.082          42.437    22728903.800    93071061.031 7      -230.713          42.500    22728904.400    93071058.038 7      -230.713          45.687
> 2024 07 31 14 16 18.0000000  0 13
R06  21148035.000   112849974.596 6      3921.127          37.812    21148034.020   112849974.602 6      3921.127          36.750
G20  23995538.540   126097404.686 6      4747.570          41.687    23995536.500   126097404.683 4      4747.570          29.812    23995545.400    98257731.503 4      3699.405          29.562
G07  22476828.320   118116536.617 7      4277.115          45.062    22476826.720   118116536.611 7      4277.115          43.500    22476839.740    92038907.392 7      3332.817          43.187    22476840.320    92038924.392 7      3332.817          46.812
G06  20543744.240   107958102.681 8      3573.083          49.312    20543743.500   107958102.683 8      3573.083          51.062    20543750.700    84123222.595 8      2784.220          50.875    20543751.500    84123226.594 8      2784.220          51.687
G09  20840187.600   109515920.934 8       841.651          49.062    20840186.600   109515920.942 8       841.651          50.000    20840193.380    85337105.243 8       655.832          50.062    20840194.080    85337108.247 8       655.832          49.875
G11  23000761.080   120869813.372 7      5556.002          44.875    23000760.180   120869813.374 5      5556.002          34.437    23000766.460    94184287.197 5      4329.352          34.250    23000766.780    94184300.196 7      4329.352          47.750
G04  23394618.360   122939542.222 7      -528.799          42.875    23394617.440   122939542.234 5      -528.799          30.500    23394625.920    95797077.000 5      -412.051          30.687    23394626.440    95797079.021 7      -412.051          44.812
R21  21823507.720   116781996.626 7      6277.280          44.687    21823507.660   116781996.646 7      6277.280          44.000    21823520.040    90830502.167 7      4882.329          47.875    21823519.940    90830499.171 7      4882.329          47.500
G30  23516471.860   123579888.922 7      5554.275          44.437    23516470.860   123579888.935 7      5554.275          42.937    23516489.040    96296087.781 7      4328.007          42.812    23516489.620    96296093.782 7      4328.007          44.812
R05  20666484.340   110474196.479 8       389.134          49.312    20666483.840   110474196.485 8       389.134          49.062    20666494.820    85924416.199 8       302.660          50.000    20666494.740    85924419.202 8       302.660          49.875
R04  24105320.840   129082905.942 6      -615.193          36.875    24105321.060   129082905.992 5      -615.193          35.937    24105337.580   100397871.695 7      -478.484          45.812    24105337.560   100397873.694 7      -478.484          46.187
G19  21562079.720   113309478.836 7       190.761          46.875    21562078.240   113309478.838 6       190.761          37.937    21562086.700    88293126.484 6       148.645          37.937
G17  22728947.040   119441422.832 7      -296.306          44.937    22728945.800   119441422.832 7      -296.306          43.125    22728960.260    93071291.885 7      -230.887          42.750    22728960.880    93071288.890 7      -230.887          45.437
> 2024 07 31 14 16 19.0000000  0 13
R06  21147299.860   112846053.842 6      3920.385          37.812    21147299.600   112846053.843 6      3920.385          36.687
G20  23994635.000   126092657.379 6      4747.120          41.062    23994633.200   126092657.378 4      4747.120          29.812    23994641.900    98254032.313 5      3699.055          30.000
G07  22476014.280   118112259.945 7      4276.324          45.250    22476012.920   118112259.948 7      4276.324          43.187    22476025.960    92035574.933 7      3332.201          43.125    22476026.320    92035591.937 7      3332.201          46.687
G06  20543064.460   107954530.092 8      3572.179          49.062    20543063.680   107954530.092 8      3572.179          49.187    20543070.840    84120438.758 8      2783.516          49.000    20543071.780    84120442.759 8      2783.516          50.125
G09  20840027.320   109515079.742 8       840.768          49.187    20840026.460   109515079.750 8       840.768          48.187    20840033.360    85336449.769 8       655.144          48.750    20840033.780    85336452.773 8       655.144          48.812
G11  22999703.840   120864257.654 7      5555.564          44.812    22999702.960   120864257.659 5      5555.564          34.500    22999709.240    94179958.059 5      4329.011          34.187    22999709.420    94179971.063 7      4329.011          46.687
G04  23394719.280   122940071.377 7      -529.373          42.937    23394718.080   122940071.382 5      -529.373          30.500    23394726.720    95797489.321 5      -412.498          30.500    23394727.620    95797491.333 7      -412.498          45.500
R21  21822334.700   116775719.899 7      6276.292          44.437    21822334.120   116775719.919 7      6276.292          43.937    21822347.180    90825620.273 7      4881.561          46.750    21822347.040    90825617.278 7      4881.561          47.000
G30  23515415.060   123574334.788 7      5553.790          44.187    23515413.800   123574334.801 7      5553.790          42.375    23515432.300    96291759.887 7      4327.629          42.250    23515432.740    96291765.890 7      4327.629          44.875
R05  20666411.540   110473807.719 8       388.485          49.062    20666411.300   110473807.723 8       388.485          48.125    20666422.120    85924113.827 8       302.155          48.812    20666421.960    85924116.831 8       302.155          48.750
R04  24105436.380   129083521.320 6      -615.315          36.875    24105437.080   129083521.362 5      -615.315          35.937    24105452.520   100398350.310 7      -478.579          45.875    24105452.460   100398352.311 7      -478.579          46.062
G19  21562043.580   113309288.590 7       189.809          47.312    21562042.080   113309288.598 6       189.809          37.812    21562050.480    88292978.234 6       147.903          38.000
G17  22729003.540   119441719.392 7      -296.764          45.000    22729002.300   119441719.392 7      -296.764          42.687    22729016.680    93071522.965 7      -231.245          42.000    22729017.260    93071519.968 7      -231.245          45.500
> 2024 07 31 14 16 20.0000000  0 13
R06  21146564.840   112842133.692 6      3919.981          37.812    21146565.140   112842133.703 6      3919.981          36.687
G20  23993731.980   126087910.198 6      4747.086          41.312    23993729.880   126087910.195 4      4747.086          29.812    23993738.440    98250333.213 5      3699.028          30.000
G07  22475200.720   118107983.820 7      4275.816          44.750    22475199.140   118107983.820 7      4275.816          43.375    22475212.180    92032242.892 7      3331.804          42.937    22475212.540    92032259.900 7      3331.804          46.750
G06  20542384.780   107950958.137 8      3571.672          48.812    20542383.960   107950958.137 8      3571.672          49.937    20542391.140    84117655.414 8      2783.121          50.500    20542392.200    84117659.413 8      2783.121          51.812
G09  20839867.420   109514239.097 8       840.431          48.500    20839866.540   109514239.105 8       840.431          50.000    20839873.320    85335794.717 8       654.881          50.062    20839873.740    85335797.720 8       654.881          49.687
G11  22998646.960   120858702.277 7      5555.224          44.875    22998645.940   120858702.282 5      5555.224          34.500    22998651.860    94175629.199 5      4328.746          34.000    22998652.280    94175642.200 7      4328.746          47.562
G04  23394819.980   122940600.806 7      -529.479          42.687    23394818.840   122940600.814 5      -529.479          30.500    23394827.460    95797901.861 5      -412.581          30.500    23394828.960    95797903.863 7      -412.581          46.187
R21  21821161.740   116769443.763 7      6275.868          44.625    21821161.560   116769443.780 7      6275.868          43.937    21821174.400    90820738.834 7      4881.231          47.625    21821174.120    90820735.839 8      4881.231          48.062
G30  23514357.980   123568780.883 7      5553.940          43.625    23514356.820   123568780.893 7      5553.940          42.812    23514375.400    96287432.167 7      4327.746          42.687    23514375.740    96287438.170 7      4327.746          44.937
R05  20666338.840   110473419.299 8       388.296          49.125    20666338.380   110473419.306 8       388.296          48.562    20666349.440    85923811.720 8       302.008          49.500    20666349.240    85923814.722 8       302.008          50.687
R04  24105551.680   129084136.749 6      -615.328          37.250    24105551.900   129084136.777 5      -615.328          35.937    24105567.540   100398828.952 7      -478.589          46.062    24105567.240   100398830.951 7      -478.589          45.875
G19  21562007.460   113309098.957 7       189.461          47.250    21562006.160   113309098.959 6       189.461          37.812    21562014.540    88292830.456 6       147.632          37.812
G17  22729060.200   119442016.331 7      -297.123          44.875    22729058.720   119442016.333 7      -297.123          42.562    22729073.280    93071754.343 7      -231.525          42.250    22729073.960    93071751.352 7      -231.525          45.375
> 2024 07 31 14 16 21.0000000  0 13
R06  21145830.740   112838214.126 6      3919.251          37.812    21145830.680   112838214.126 6      3919.251          36.687
G20  23992828.620   126083163.080 6      4747.050          40.437    23992826.680   126083163.082 4      4747.050          29.937    23992835.280    98246634.164 5      3699.000          30.000
G07  22474386.860   118103708.142 7      4275.451          45.375    22474385.540   118103708.137 7      4275.451          43.375    22474398.460    92028911.196 7      3331.520          42.937    22474398.820    92028928.204 7      3331.520          47.000
G06  20541705.140   107947386.755 8      3571.082          49.875    20541704.360   107947386.754 8      3571.082          50.625    20541711.540    84114872.519 8      2782.661          51.375    20541712.620    84114876.516 8      2782.661          52.062
G09  20839707.480   109513398.977 8       839.813          49.562    20839706.680   109513398.985 8       839.813          49.687    20839713.440    85335140.076 8       654.400          49.937    20839713.920    85335143.075 8       654.400          49.875
G11  22997589.840   120853147.122 7      5555.064          45.062    22997588.860   120853147.121 5      5555.064          34.000    22997595.020    94171300.512 5      4328.621          34.000    22997595.000    94171313.511 7      4328.621          47.562
G04  23394920.880   122941130.459 7      -529.776          43.000    23394919.720   122941130.466 5      -529.776          30.437    23394928.320    95798314.571 5      -412.812          30.500    23394929.920    95798316.569 7      -412.812          46.562
R21  21819988.940   116763168.165 7      6275.283          45.000    21819988.840   116763168.185 7      6275.283          44.062    21820001.740    90815857.819 8      4880.776          48.125    21820001.600    90815854.823 8      4880.776          48.000
G30  23513301.400   123563227.204 7      5553.580          44.062    23513300.220   123563227.209 7      5553.580          42.750    23513318.420    96283104.626 7      4327.465          42.250    23513319.060    96283110.636 7      4327.465          45.125
R05  20666266.240   110473031.186 8       387.946          49.625    20666265.920   110473031.196 8       387.946          48.687    20666276.960    85923509.850 8       301.736          50.250    20666276.860    85923512.853 8       301.736          50.375
R04  24105666.020   129084752.025 6      -615.178          37.250    24105665.980   129084752.075 5      -615.178          35.937    24105682.420   100399307.515 7      -478.472          45.125    24105682.020   100399309.518 7      -478.472          45.562
G19  21561971.540   113308909.902 7       188.767          46.812    21561970.220   113308909.901 6       188.767          38.000    21561978.620    88292683.130 6       147.091          38.312
G17  22729117.060   119442313.534 7      -297.309          44.375    22729115.240   119442313.534 7      -297.309          42.437    22729129.760    93071985.923 7      -231.669          42.312    22729130.560    93071982.925 7      -231.669          45.500
> 2024 07 31 14 16 22.0000000  0 13
R06  21145095.820   112834295.077 6      3918.743          38.000    21145096.840   112834295.083 6      3918.743          36.687
G20  23991925.520   126078416.051 7      4746.879          42.187    23991923.400   126078416.054 4      4746.879          29.937    23991931.920    98242935.183 4      3698.867          29.937
G07  22473573.240   118099432.942 7      4274.857          45.250    22473572.080   118099432.945 7      4274.857          43.125    22473584.980    92025579.884 7      3331.058          42.937    22473585.320    92025596.894 7      3331.058          47.062
G06  20541025.800   107943815.953 8      3570.365          49.375    20541024.900   107943815.955 8      3570.365          51.062    20541032.100    84112090.074 8      2782.103          51.312    20541033.160    84112094.073 8      2782.103          51.750
G09  20839547.740   109512559.367 8       839.173          48.875    20839546.940   109512559.375 8       839.173          50.062    20839553.660    85334485.834 8       653.901          50.375    20839554.180    85334488.838 8       653.901          49.750
G11  22996532.360   120847592.244 7      5554.729          44.812    22996531.680   120847592.247 5      5554.729          34.812    22996538.000    94166972.034 5      4328.360          34.375    22996537.840    94166985.031 7      4328.360          47.687
G04  23395021.280   122941660.335 7      -530.117          42.812    23395020.600   122941660.345 5      -530.117          30.437    23395029.240    95798727.457 5      -413.079          30.687    23395030.540    95798729.449 7      -413.079          46.375
R21  21818816.500   116756893.072 7      6274.709          44.625    21818816.880   116756893.087 7      6274.709          44.312    21818828.900    90810977.188 7      4880.329          47.625    21818829.100    90810974.195 8      4880.329          48.000
G30  23512244.780   123557673.688 7      5553.374          44.750    23512243.820   123557673.690 7      5553.374          42.625    23512261.380    96278777.209 7      4327.305          42.750    23512262.380    96278783.216 7      4327.305          44.875
R05  20666193.380   110472643.381 8       387.616          49.125    20666193.460   110472643.393 8       387.616          48.125    20666204.280    85923208.226 8       301.479          50.250    20666204.360    85923211.227 8       301.479          50.000
R04  24105781.060   129085367.320 6      -615.376          37.250    24105780.900   129085367.354 5      -615.376          35.937    24105797.060   100399786.067 7      -478.626          45.687    24105797.080   100399788.066 7      -478.626          45.875
G19  21561935.540   113308721.404 7       188.092          47.125    21561934.240   113308721.406 6       188.092          38.062    21561942.540    88292536.242 6       146.565          38.062
G17  22729173.560   119442611.056 7      -297.802          44.125    22729171.800   119442611.056 7      -297.802          43.250    22729186.440    93072217.754 7      -232.054          43.187    22729187.060    93072214.760 7      -232.054          45.375
> 2024 07 31 14 16 23.0000000  0 13
R06  21144361.140   112830376.656 6      3918.213          38.000    21144361.840   112830376.656 6      3918.213          36.687
G20  23991022.100   126073669.136 6      4746.955          41.375    23991020.120   126073669.141 4      4746.955          29.937    23991028.600    98239236.296 4      3698.926          29.937
G07  22472759.740   118095158.252 7      4274.529          44.875    22472758.700   118095158.260 7      4274.529          43.687    22472771.540    92022248.969 7      3330.802          43.375    22472771.720    92022265.975 7      3330.802          46.875
G06  20540346.440   107940245.752 8      3569.967          48.937    20540345.520   107940245.755 8      3569.967          50.500    20540352.700    84109308.102 8      2781.793          50.875    20540353.860    84109312.103 8      2781.793          51.812
G09  20839388.100   109511720.264 8       838.959          48.750    20839387.180   109511720.271 8       838.959          50.000    20839393.940    85333831.987 8       653.734          50.500    20839394.680    85333834.991 8       653.734          49.937
G11  22995475.500   120842037.645 7      5554.689          45.125    22995474.720   120842037.648 5      5554.689          33.875    22995480.620    94162643.779 5      4328.329          34.375    22995481.060    94162656.777 7      4328.329          47.625
G04  23395122.640   122942190.465 7      -530.120          43.187    23395121.560   122942190.475 5      -530.120          30.437    23395130.240    95799140.552 5      -413.080          30.687    23395131.440    95799142.536 7      -413.080          45.875
R21  21817644.000   116750618.462 7      6274.456          44.937    21817643.960   116750618.477 7      6274.456          44.312    21817656.440    90806096.937 7      4880.132          47.937    21817656.680    90806093.945 7      4880.132          47.937
G30  23511187.780   123552120.413 7      5553.243          45.125    23511187.300   123552120.413 7      5553.243          42.750    23511204.240    96274449.978 7      4327.202          42.750    23511204.980    96274455.990 7      4327.202          44.500
R05  20666121.000   110472255.942 8       387.423          48.687    20666120.980   110472255.946 8       387.423          48.125    20666131.780    85922906.874 8       301.329          49.750    20666131.860    85922909.879 8       301.329          50.500
R04  24105895.600   129085982.559 6      -615.086          37.250    24105895.560   129085982.598 5      -615.086          35.875    24105912.140   100400264.586 7      -478.400          45.562    24105911.900   100400266.585 7      -478.400          45.750
G19  21561899.580   113308533.505 7       187.727          46.687    21561898.360   113308533.504 6       187.727          38.000    21561906.780    88292389.817 6       146.281          38.062
G17  22729230.100   119442908.880 7      -297.890          44.750    22729228.460   119442908.882 7      -297.890          42.875    22729243.220    93072449.824 7      -232.122          42.687    22729243.420    93072446.827 7      -232.122          45.562
> 2024 07 31 14 16 24.0000000  0 13
R06  21143627.780   112826458.682 6      3917.782          38.000    21143628.060   112826458.688 6      3917.782          36.625
G20  23990118.820   126068922.231 6      4747.113          41.687    23990116.980   126068922.233 5      4747.113          30.312    23990125.440    98235537.411 4      3699.049          29.937
G07  22471946.360   118090883.969 7      4274.244          44.687    22471945.280   118090883.971 7      4274.244          43.500    22471958.240    92018918.365 7      3330.579          43.312    22471958.280    92018935.371 7      3330.579          46.875
G06  20539667.020   107936676.088 8      3569.438          49.312    20539666.240   107936676.085 8      3569.438          50.500    20539673.380    84106526.541 8      2781.380          50.875    20539674.560    84106530.542 8      2781.380          51.687
G09  20839228.560   109510881.621 8       838.496          48.812    20839227.560   109510881.628 8       838.496          50.062    20839234.380    85333178.497 8       653.374          50.000    20839234.880    85333181.501 8       653.374          49.625
G11  22994418.600   120836483.262 7      5554.407          44.687    22994417.760   120836483.262 5      5554.407          33.875    22994423.680    94158315.697 5      4328.109          33.812    22994423.920    94158328.688 7      4328.109          47.500
G04  23395223.480   122942720.780 7      -530.312          43.562    23395222.460   122942720.792 5      -530.312          30.750    23395231.060    95799553.776 5      -413.230          30.687    23395232.220    95799555.762 7      -413.230          45.562
R21  21816471.400   116744344.290 7      6273.975          43.500    21816471.680   116744344.305 7      6273.975          44.187    21816483.780    90801217.032 7      4879.758          47.500    21816483.800    90801214.037 7      4879.758          47.312
G30  23510131.340   123546567.247 7      5553.164          44.687    23510130.440   123546567.254 7      5553.164          42.812    23510147.320    96270122.839 7      4327.141          42.312    23510147.960    96270128.845 7      4327.141          44.000
R05  20666048.600   110471868.735 7       387.147          47.437    20666048.460   110471868.745 8       387.147          48.562    20666059.340    85922605.718 8       301.115          49.812    20666059.360    85922608.720 8       301.115          50.062
R04  24106011.660   129086597.701 6      -615.051          37.250    24106011.100   129086597.722 5      -615.051          35.875    24106026.720   100400743.009 7      -478.373          45.312    24106026.660   100400745.009 7      -478.373          45.750
G19  21561864.100   113308346.102 7       187.240          46.750    21561862.680   113308346.107 6       187.240          38.062    21561871.140    88292243.781 6       145.901          37.750
G17  22729286.700   119443206.943 7      -298.010          44.625    22729285.260   119443206.943 7      -298.010          43.062    22729299.960    93072682.073 7      -232.216          42.687    22729300.180    93072679.080 7      -232.216          46.000
> 2024 07 31 14 16 25.0000000  0 13
R06  21142893.420   112822541.163 6      3917.227          38.000    21142893.180   112822541.166 6      3917.227          36.625
G20  23989215.340   126064175.357 6      4746.708          41.625    23989213.660   126064175.359 5      4746.708          30.312    23989222.200    98231838.553 5      3698.733          30.125
G07  22471133.100   118086610.101 7      4273.612          45.250    22471132.020   118086610.106 7      4273.612          43.812    22471144.980    92015588.087 7      3330.087          43.812    22471145.480    92015605.097 7      3330.087          47.312
G06  20538987.680   107933106.905 8      3568.830          49.625    20538987.060   107933106.907 8      3568.830          50.750    20538994.240    84103745.361 8      2780.906          51.125    20538995.060    84103749.364 8      2780.906          51.750
G09  20839069.040   109510043.416 8       837.827          48.375    20839068.080   109510043.429 8       837.827          50.125    20839074.900    85332525.353 8       652.852          50.062    20839075.280    85332528.357 8       652.852          49.687
G11  22993361.900   120830929.050 7      5554.084          45.187    22993360.940   120830929.052 5      5554.084          34.125    22993366.940    94153987.741 5      4327.858          34.125    22993367.160    94154000.744 7      4327.858          47.937
G04  23395324.100   122943251.234 7      -530.589          44.375    23395323.360   122943251.244 5      -530.589          30.750    23395332.280    95799967.114 5      -413.446          30.625    23395332.680    95799969.106 7      -413.446          45.375
R21  21815299.260   116738070.559 7      6273.366          43.500    21815299.340   116738070.582 7      6273.366          44.187    21815311.300    90796337.472 8      4879.285          48.125    21815311.220    90796334.475 7      4879.285          47.375
G30  23509074.540   123541014.219 7      5552.812          44.187    23509073.380   123541014.227 7      5552.812          42.750    23509090.380    96265795.807 7      4326.867          42.437    23509091.220    96265801.804 7      4326.867          43.625
R05  20665976.540   110471481.780 8       386.695          49.062    20665976.040   110471481.784 8       386.695          48.875    20665987.040    85922304.746 8       300.763          50.312    20665986.960    85922307.751 8       300.763          50.187
R04  24106126.660   129087212.651 6      -615.170          37.250    24106125.960   129087212.679 5      -615.170          35.875    24106141.740   100401221.305 7      -478.466          45.062    24106141.420   100401223.309 7      -478.466          45.812
G19  21561828.480   113308159.199 7       186.500          46.187    21561827.140   113308159.209 6       186.500          38.000    21561835.480    88292098.138 6       145.325          37.937
G17  22729343.420   119443505.240 7      -298.445          43.875    22729342.000   119443505.239 7      -298.445          42.687    22729356.620    93072914.510 7      -232.555          42.375    22729357.060    93072911.515 7      -232.555          45.812
> 2024 07 31 14 16 26.0000000  0 13
R06  21142159.260   112818624.233 6      3916.914          38.000    21142159.400   112818624.225 6      3916.914          36.625
G20  23988311.960   126059428.599 6      4746.724          41.375    23988310.440   126059428.604 5      4746.724          30.312    23988318.900    98228139.784 5      3698.746          30.125
G07  22470319.700   118082336.754 7      4273.151          45.375    22470318.860   118082336.759 7      4273.151          43.562    22470331.740    92012258.218 7      3329.728          43.375    22470331.980    92012275.228 7      3329.728          47.062
G06  20538308.680   107929538.381 8      3568.164          48.187    20538307.960   107929538.389 8      3568.164          50.812    20538315.140    84100964.698 8      2780.388          51.187    20538316.020    84100968.698 8      2780.388          51.500
G09  20838909.660   109509205.769 8       837.364          48.750    20838908.680   109509205.776 8       837.364          49.875    20838915.540    85331872.639 8       652.491          49.875    20838916.000    85331875.642 8       652.491          49.687
G11  22992304.760   120825375.179 7      5553.731          44.375    22992303.880   120825375.186 5      5553.731          34.875    22992310.200    94149660.043 5      4327.582          34.125    22992310.400    94149673.045 8      4327.582          48.000
G04  23395425.140   122943781.989 7      -530.855          43.187    23395424.420   122943782.000 5      -530.855          30.750    23395433.320    95800380.682 5      -413.653          30.625    23395433.220    95800382.678 7      -413.653          45.125
R21  21814127.500   116731797.439 7      6272.875          45.062    21814126.880   116731797.451 7      6272.875          44.437    21814139.080    90791458.370 8      4878.903          48.125    21814139.280    90791455.373 7      4878.903          47.500
G30  23508017.860   123535461.389 7      5552.877          44.000    23508016.340   123535461.407 7      5552.877          42.312    23508033.880    96261468.936 7      4326.917          42.375    23508034.800    96261474.935 7      4326.917          43.937
R05  20665904.120   110471095.177 8       386.469          49.375    20665903.740   110471095.181 8       386.469          48.625    20665914.640    85922004.053 8       300.587          49.687    20665914.400    85922007.058 8       300.587          49.875
R04  24106241.020   129087827.555 6      -614.905          37.250    24106240.840   129087827.578 5      -614.905          35.875    24106256.600   100401699.562 7      -478.259          44.937    24106256.320   100401701.568 7      -478.259          45.625
G19  21561793.140   113307972.900 7       186.089          46.625    21561791.540   113307972.905 6       186.089          37.812    21561800.120    88291952.960 6       145.005          37.937
G17  22729400.560   119443803.884 7      -298.825          44.812    22729398.820   119443803.886 7      -298.825          42.500    22729413.540    93073147.217 7      -232.851          42.312    22729414.080    93073144.224 7      -232.851          45.812
> 2024 07 31 14 16 27.0000000  0 13
R06  21141425.920   112814707.764 6      3916.407          37.687    21141425.220   112814707.765 6      3916.407          36.625
G20  23987408.700   126054681.831 6      4746.948          41.812    23987407.180   126054681.838 5      4746.948          30.562    23987415.500    98224441.012 5      3698.920          30.125
G07  22469506.740   118078063.808 7      4272.926          45.625    22469505.680   118078063.805 7      4272.926          43.687    22469518.580    92008928.652 7      3329.552          43.687    22469519.120    92008945.654 7      3329.552          46.875
G06  20537629.760   107925970.325 8      3567.976          48.937    20537629.000   107925970.327 8      3567.976          50.375    20537636.180    84098184.388 8      2780.241          50.812    20537637.180    84098188.391 8      2780.241          51.500
G09  20838750.220   109508368.547 8       837.138          48.187    20838749.460   109508368.552 8       837.138          49.875    20838756.140    85331220.252 8       652.315          50.125    20838756.700    85331223.258 8       652.315          49.937
G11  22991248.220   120819821.458 7      5553.712          44.187    22991247.120   120819821.462 5      5553.712          34.875    22991253.220    94145332.472 5      4327.568          34.312    22991253.540    94145345.474 7      4327.568          47.875
G04  23395526.380   122944312.869 7      -530.780          42.187    23395525.240   122944312.879 5      -530.780          30.750    23395534.220    95800794.352 5      -413.595          30.625    23395534.040    95800796.340 7      -413.595          45.125
R21  21812954.800   116725524.717 7      6272.645          43.875    21812954.600   116725524.735 7      6272.645          44.500    21812966.780    90786579.595 8      4878.724          48.062    21812966.760    90786576.598 7      4878.724          47.562
G30  23506960.840   123529908.719 7      5552.750          43.125    23506959.300   123529908.734 7      5552.750          42.625    23506977.720    96257142.180 6      4326.818          41.875    23506978.200    96257148.179 7      4326.818          44.375
R05  20665831.800   110470708.797 8       386.481          48.312    20665831.560   110470708.801 8       386.481          49.062    20665842.400    85921703.533 8       300.596          49.562    20665842.240    85921706.533 8       300.596          50.437
R04  24106355.460   129088442.266 6      -614.570          37.062    24106354.440   129088442.329 5      -614.570          35.875    24106371.420   100402177.715 7      -477.999          44.875    24106370.920   100402179.714 7      -477.999          44.875
G19  21561757.680   113307787.111 7       185.693          46.187    21561756.280   113307787.111 6       185.693          38.125    21561764.680    88291808.177 6       144.696          38.187
G17  22729457.420   119444102.722 7      -298.782          44.187    22729455.580   119444102.724 7      -298.782          43.125    22729470.520    93073380.072 7      -232.817          42.687    22729470.780    93073377.075 7      -232.817          45.562
> 2024 07 31 14 16 28.0000000  0 13
R06  21140692.740   112810791.664 6      3916.072          37.687    21140691.460   112810791.651 6      3916.072          36.625
G20  23986505.540   126049934.983 7      4747.041          42.062    23986503.900   126049934.988 5      4747.041          30.562    23986512.420    98220742.170 5      3698.993          30.687
G07  22468693.720   118073791.157 7      4272.530          45.500    22468692.580   118073791.159 7      4272.530          43.937    22468705.520    92005599.323 7      3329.244          43.687    22468705.820    92005616.329 7      3329.244          47.062
G06  20536950.960   107922402.692 8      3567.493          49.312    20536950.120   107922402.694 8      3567.493          51.000    20536957.240    84095404.414 8      2779.865          51.187    20536958.280    84095408.413 8      2779.865          51.500
G09  20838591.000   109507531.643 8       836.800          48.562    20838590.240   109507531.653 8       836.800          50.000    20838596.880    85330568.123 8       652.052          50.500    20838597.440    85330571.127 8       652.052          49.375
G11  22990191.340   120814267.826 7      5553.585          44.625    22990190.280   120814267.825 5      5553.585          34.062    22990196.280    94141004.975 5      4327.469          33.875    22990196.900    94141017.972 7      4327.469          47.625
G04  23395627.420   122944843.811 7      -530.897          42.437    23395626.240   122944843.819 5      -530.897          30.750    23395635.220    95801208.068 5      -413.686          30.750    23395635.280    95801210.062 7      -413.686          45.375
R21  21811782.720   116719252.308 7      6272.278          43.687    21811782.580   116719252.329 7      6272.278          44.500    21811794.720    90781701.063 8      4878.438          48.312    21811794.740    90781698.062 8      4878.438          48.187
G30  23505904.200   123524356.038 7      5552.865          43.750    23505902.640   123524356.048 7      5552.865          42.500    23505921.320    96252815.410 7      4326.908          42.125    23505921.700    96252821.403 7      4326.908          44.812
R05  20665759.500   110470322.568 8       386.232          48.875    20665759.200   110470322.578 8       386.232          48.000    20665770.020    85921403.133 8       300.402          49.937    20665770.040    85921406.131 8       300.402          50.250
R04  24106470.740   129089056.777 6      -614.268          37.062    24106469.700   129089056.840 5      -614.268          35.875    24106486.360   100402655.678 7      -477.764          44.875    24106485.700   100402657.679 7      -477.764          45.000
G19  21561722.620   113307601.687 7       185.285          46.750    21561720.940   113307601.684 6       185.285          38.000    21561729.540    88291663.678 6       144.378          38.187
G17  22729514.320   119444401.681 7      -299.008          44.687    22729512.460   119444401.685 7      -299.008          42.687    22729527.360    93073613.025 7      -232.994          42.562    22729527.740    93073610.028 7      -232.994          46.000
> 2024 07 31 14 16 29.0000000  0 13
R06  21139958.760   112806876.073 6      3915.398          37.687    21139957.680   112806876.082 6      3915.398          36.625
G20  23985602.140   126045188.244 7      4746.531          42.187    23985600.660   126045188.251 5      4746.531          30.562    23985609.240    98217043.414 5      3698.595          30.687
G07  22467880.560   118069518.976 7      4271.852          45.687    22467879.580   118069518.981 7      4271.852          43.937    22467892.540    92002270.359 7      3328.716          43.687    22467893.020    92002287.369 7      3328.716          47.125
G06  20536272.120   107918835.634 8      3566.702          49.812    20536271.380   107918835.631 8      3566.702          50.375    20536278.460    84092624.883 8      2779.249          50.812    20536279.480    84092628.885 8      2779.249          51.875
G09  20838431.980   109506695.281 8       835.960          49.312    20838431.100   109506695.288 8       835.960          49.625    20838437.760    85329916.408 8       651.398          49.812    20838438.480    85329919.412 8       651.398          49.750
G11  22989134.700   120808714.443 7      5553.134          44.375    22989133.320   120808714.440 5      5553.134          34.500    22989139.620    94136677.666 5      4327.117          33.875    22989139.980    94136690.674 7      4327.117          47.750
G04  23395728.340   122945374.977 7      -531.398          43.062    23395727.260   122945374.982 5      -531.398          30.812    23395736.080    95801621.957 5      -414.076          30.750    23395736.580    95801623.949 7      -414.076          45.625
R21  21810610.520   116712980.424 7      6271.502          45.125    21810610.460   116712980.447 7      6271.502          44.187    21810622.940    90776822.928 7      4877.835          47.937    21810622.620    90776819.934 7      4877.835          47.875
G30  23504847.320   123518803.588 7      5552.329          43.937    23504846.220   123518803.591 7      5552.329          42.312    23504864.860    96248488.822 7      4326.490          42.312    23504865.300    96248494.821 7      4326.490          44.937
R05  20665687.240   110469936.655 8       385.699          49.312    20665687.080   110469936.665 8       385.699          48.937    20665697.820    85921102.979 8       299.988          50.000    20665697.820    85921105.979 8       299.988          50.312
R04  24106585.180   129089671.325 6      -614.690          37.062    24106585.280   129089671.375 5      -614.690          35.875    24106600.900   100403133.645 7      -478.093          44.687    24106600.620   100403135.644 7      -478.093          44.687
G19  21561687.360   113307416.833 7       184.450          46.625    21561685.780   113307416.836 6       184.450          37.750    21561694.340    88291519.630 6       143.727          37.687
G17  22729571.060   119444700.939 7      -299.529          44.750    22729569.520   119444700.939 7      -299.529          42.750    22729584.240    93073846.205 7      -233.400          42.562    22729584.700    93073843.212 7      -233.400          45.562
> 2024 07 31 14 16 30.0000000  0 13
R06  21139225.240   112802961.139 6      3914.595          37.687    21139224.740   112802961.150 6      3914.595          36.562
G20  23984698.800   126040441.628 7      4746.376          42.625    23984697.380   126040441.633 5      4746.376          30.937    23984705.920    98213344.752 5      3698.475          30.687
G07  22467067.800   118065247.339 7      4271.325          45.562    22467066.940   118065247.339 7      4271.325          43.437    22467079.760    91998941.817 7      3328.305          43.625    22467080.140    91998958.825 7      3328.305          46.750
G06  20535593.480   107915269.223 8      3565.917          49.562    20535592.680   107915269.228 8      3565.917          50.875    20535599.780    84089845.867 8      2778.637          51.000    20535600.660    84089849.870 8      2778.637          51.562
G09  20838272.920   109505859.465 8       835.367          49.312    20838272.020   109505859.475 8       835.367          49.937    20838278.720    85329265.125 8       650.935          50.500    20838279.340    85329268.133 8       650.935          49.625
G11  22988077.760   120803161.390 7      5552.803          44.437    22988076.680   120803161.397 5      5552.803          34.500    22988082.920    94132350.616 5      4326.860          35.062    22988083.080    94132363.623 7      4326.860          47.437
G04  23395829.240   122945906.453 7      -531.854          43.000    23395828.400   122945906.461 5      -531.854          30.812    23395837.140    95802036.096 5      -414.432          30.750    23395837.780    95802038.082 7      -414.432          45.125
R21  21809438.280   116706709.112 7      6270.880          44.000    21809438.680   116706709.132 7      6270.880          44.187    21809451.000    90771945.248 7      4877.351          47.875    21809450.940    90771942.253 8      4877.351          48.250
G30  23503791.200   123513251.383 7      5551.976          44.187    23503790.000   123513251.378 7      5551.976          42.312    23503808.340    96244162.428 7      4326.215          42.312    23503809.360    96244168.432 7      4326.215          44.875
R05  20665615.160   110469551.130 8       385.191          49.750    20665615.200   110469551.137 8       385.191          49.125    20665625.800    85920803.117 8       299.593          50.125    20665625.540    85920806.117 8       299.593          50.500
R04  24106699.300   129090285.814 6      -614.709          37.062    24106700.240   129090285.850 6      -614.709          36.250    24106715.660   100403611.537 7      -478.107          44.000    24106715.140   100403613.532 7      -478.107          44.187
G19  21561652.320   113307232.608 7       183.772          45.875    21561650.700   113307232.610 6       183.772          38.062    21561659.500    88291376.072 6       143.199          37.875
G17  22729627.700   119445000.550 7      -299.972          44.875    22729626.540   119445000.549 7      -299.972          42.500    22729641.300    93074079.666 7      -233.744          42.187    22729641.540    93074076.665 7      -233.744          45.437
> 2024 07 31 14 16 31.0000000  0 13
R06  21138491.460   112799046.914 6      3913.939          37.687    21138490.420   112799046.904 6      3913.939          36.562
G20  23983795.280   126035695.219 7      4746.438          42.625    23983794.180   126035695.224 5      4746.438          30.937    23983802.660    98209646.254 5      3698.523          30.562
G07  22466255.000   118060976.327 7      4270.756          45.375    22466254.240   118060976.327 7      4270.756          43.937    22466266.940    91995613.760 7      3327.862          43.562    22466267.240    91995630.766 7      3327.862          46.562
G06  20534914.880   107911703.513 8      3565.459          48.937    20534914.180   107911703.516 8      3565.459          49.687    20534921.280    84087067.386 8      2778.280          49.437    20534922.120    84087071.389 8      2778.280          50.062
G09  20838113.960   109505024.293 8       834.981          48.875    20838113.140   109505024.297 8       834.981          49.250    20838119.860    85328614.331 8       650.635          49.250    20838120.360    85328617.335 8       650.635          49.312
G11  22987021.160   120797608.759 7      5552.404          44.250    22987020.000   120797608.769 5      5552.404          35.250    22987026.420    94128023.886 5      4326.549          34.437    22987026.580    94128036.888 7      4326.549          46.937
G04  23395930.440   122946438.239 7      -531.898          43.875    23395929.620   122946438.247 5      -531.898          30.812    23395938.340    95802450.475 5      -414.466          30.750    23395938.780    95802452.463 7      -414.466          45.000
R21  21808266.720   116700438.410 7      6270.559          44.000    21808266.760   116700438.425 7      6270.559          44.125    21808279.200    90767068.035 7      4877.101          47.625    21808279.140    90767065.037 7      4877.101          47.375
G30  23502734.820   123507699.462 7      5551.888          44.125    23502733.840   123507699.462 7      5551.888          42.250    23502751.860    96239836.260 7      4326.146          42.000    23502752.320    96239842.276 7      4326.146          45.000
R05  20665542.920   110469166.022 8       384.949          49.687    20665543.020   110469166.026 8       384.949          48.687    20665553.620    85920503.582 8       299.405          49.562    20665553.660    85920506.582 8       299.405          49.625
R04  24106814.080   129090900.311 6      -614.381          37.062    24106815.460   129090900.350 6      -614.381          36.250    24106830.600   100404089.483 7      -477.852          43.687    24106830.120   100404091.483 7      -477.852          43.250
G19  21561617.320   113307049.065 7       183.314          46.375    21561615.660   113307049.070 6       183.314          37.500    21561624.340    88291233.043 6       142.842          37.812
G17  22729684.980   119445300.578 7      -300.152          44.125    22729683.560   119445300.575 7      -300.152          42.375    22729698.220    93074313.442 7      -233.885          42.312    22729698.660    93074310.445 7      -233.885          45.437
> 2024 07 31 14 16 32.0000000  0 13
R06  21137758.540   112795133.108 6      3913.625          37.937    21137757.020   112795133.117 6      3913.625          36.562
G20  23982892.080   126030948.858 7      4746.580          42.750    23982890.920   126030948.860 5      4746.580          30.937    23982899.460    98205947.791 5      3698.634          30.562
G07  22465442.340   118056705.723 7      4270.461          45.000    22465441.480   118056705.730 7      4270.461          43.812    22465454.280    91992286.027 7      3327.632          43.562    22465454.560    91992303.033 7      3327.632          46.250
G06  20534236.540   107908138.366 8      3564.994          49.312    20534235.780   107908138.366 8      3564.994          50.312    20534242.860    84084289.349 8      2777.918          50.625    20534243.880    84084293.350 8      2777.918          51.937
G09  20837955.200   109504189.604 8       834.474          48.562    20837954.320   109504189.614 8       834.474          50.000    20837961.100    85327963.932 8       650.239          50.250    20837961.720    85327966.936 8       650.239          50.187
G11  22985964.660   120792056.296 7      5552.464          45.062    22985963.640   120792056.312 5      5552.464          34.187    22985969.640    94123697.294 5      4326.595          34.437    22985969.800    94123710.306 7      4326.595          47.812
G04  23396031.680   122946970.254 7      -531.959          43.687    23396030.820   122946970.264 5      -531.959          30.812    23396039.580    95802865.025 5      -414.514          30.187    23396040.040    95802867.018 7      -414.514          44.812
R21  21807094.660   116694168.209 7      6270.012          44.375    21807095.020   116694168.229 7      6270.012          44.687    21807107.480    90762191.218 8      4876.676          48.125    21807107.340    90762188.224 7      4876.676          47.312
G30  23501678.320   123502147.743 7      5551.846          43.937    23501677.440   123502147.740 7      5551.846          42.437    23501695.200    96235510.247 7      4326.114          42.562    23501696.180    96235516.250 7      4326.114          44.437
R05  20665471.080   110468781.159 8       384.860          48.812    20665470.880   110468781.166 8       384.860          48.687    20665481.700    85920204.245 8       299.335          49.812    20665481.420    85920207.245 8       299.335          50.187
R04  24106929.280   129091514.733 6      -614.155          37.875    24106930.320   129091514.780 6      -614.155          36.250    24106945.060   100404567.388 7      -477.676          44.125    24106944.800   100404569.392 7      -477.676          44.750
G19  21561582.580   113306866.071 7       182.875          46.812    21561580.880   113306866.076 6       182.875          37.500    21561589.560    88291090.441 6       142.500          37.750
G17  22729742.240   119445600.856 7      -300.295          44.812    22729740.720   119445600.861 7      -300.295          42.812    22729755.480    93074547.427 7      -233.996          42.625    22729755.960    93074544.432 7      -233.996          45.562
> 2024 07 31 14 16 33.0000000  0 13
R06  21137024.660   112791219.690 6      3913.304          37.937    21137023.780   112791219.690 6      3913.304          36.562
G20  23981988.740   126026202.387 7      4746.670          42.125    23981987.780   126026202.389 5      4746.670          30.937    23981996.220    98202249.245 5      3698.704          30.562
G07  22464629.820   118052435.413 7      4270.248          45.625    22464628.620   118052435.412 7      4270.248          44.062    22464641.600    91988958.514 7      3327.466          43.437    22464641.980    91988975.520 7      3327.466          47.500
G06  20533558.060   107904573.579 8      3564.654          49.500    20533557.420   107904573.581 8      3564.654          50.250    20533564.460    84081511.592 8      2777.653          50.812    20533565.460    84081515.597 8      2777.653          52.062
G09  20837796.240   109503355.204 8       834.245          48.875    20837795.580   109503355.211 8       834.245          50.187    20837802.240    85327313.745 8       650.061          50.250    20837802.820    85327316.746 8       650.061          49.812
G11  22984908.360   120786503.920 7      5552.561          44.687    22984907.120   120786503.925 5      5552.561          34.187    22984912.820    94119370.769 5      4326.671          34.000    22984913.360    94119383.765 7      4326.671          47.812
G04  23396132.980   122947502.294 7      -532.056          43.500    23396131.980   122947502.302 5      -532.056          30.062    23396140.860    95803279.598 5      -414.589          30.187    23396141.560    95803281.595 7      -414.589          44.812
R21  21805923.400   116687898.310 7      6269.764          43.812    21805923.360   116687898.312 7      6269.764          44.437    21805935.600    90757314.620 8      4876.483          48.375    21805935.960    90757311.623 7      4876.483          47.875
G30  23500622.040   123496595.985 7      5551.820          44.625    23500620.680   123496595.997 7      5551.820          42.312    23500638.260    96231184.206 6      4326.093          41.875    23500639.500    96231190.211 7      4326.093          44.062
R05  20665399.120   110468396.385 8       384.841          49.062    20665399.020   110468396.391 8       384.841          48.000    20665409.460    85919904.978 8       299.321          49.875    20665409.540    85919907.974 8       299.321          50.062
R04  24107043.760   129092128.882 6      -613.793          37.875    24107045.040   129092128.929 6      -613.793          36.250    24107059.800   100405045.068 7      -477.394          43.750    24107059.440   100405047.067 7      -477.394          44.250
G19  21561547.900   113306683.420 7       182.619          47.062    21561546.100   113306683.427 6       182.619          38.000    21561554.780    88290948.106 6       142.301          37.437
G17  22729799.720   119445901.236 7      -300.401          44.812    22729797.880   119445901.236 7      -300.401          42.750    22729812.440    93074781.481 7      -234.079          42.750    22729813.020    93074778.478 7      -234.079          45.187
> 2024 07 31 14 16 34.0000000  0 13
R06  21136291.380   112787306.679 6      3912.464          37.937    21136290.420   112787306.682 6      3912.464          36.562
G20  23981085.720   126021455.860 7      4746.473          42.125    23981084.660   126021455.865 5      4746.473          30.937    23981092.940    98198550.657 5      3698.550          30.562
G07  22463817.280   118048165.429 7      4269.692          45.187    22463816.140   118048165.433 7      4269.692          44.062    22463829.280    91985631.270 7      3327.033          43.625    22463829.560    91985648.278 7      3327.033          47.125
G06  20532879.980   107901009.243 8      3563.938          49.187    20532879.180   107901009.248 8      3563.938          50.562    20532886.200    84078734.192 8      2777.095          51.125    20532887.220    84078738.193 8      2777.095          52.062
G09  20837637.420   109502521.183 8       833.665          49.062    20837636.820   109502521.187 8       833.665          50.250    20837643.500    85326663.854 8       649.609          50.500    20837644.140    85326666.859 8       649.609          50.125
G11  22983851.540   120780951.692 7      5551.944          46.187    22983850.420   120780951.697 5      5551.944          34.062    22983856.300    94115044.370 5      4326.190          34.000    22983856.940    94115057.373 7      4326.190          47.375
G04  23396234.380   122948034.425 7      -532.462          42.187    23396233.120   122948034.432 5      -532.462          30.062    23396242.280    95803694.245 5      -414.905          30.187    23396242.720    95803696.246 7      -414.905          44.687
R21  21804751.580   116681628.799 7      6269.148          45.125    21804752.060   116681628.798 7      6269.148          44.437    21804764.160    90752438.329 7      4876.004          47.750    21804763.960    90752435.335 8      4876.004          48.062
G30  23499565.340   123491044.284 7      5551.562          44.312    23499564.160   123491044.286 7      5551.562          42.125    23499581.440    96226858.201 7      4325.893          42.250    23499582.300    96226864.217 7      4325.893          43.625
R05  20665326.860   110468011.792 8       384.351          49.125    20665327.080   110468011.801 8       384.351          48.937    20665337.600    85919605.852 8       298.940          49.812    20665337.700    85919608.848 8       298.940          49.562
R04  24107158.420   129092742.862 6      -614.015          37.875    24107160.440   129092742.918 6      -614.015          39.125    24107174.660   100405522.619 7      -477.567          43.937    24107174.040   100405524.620 7      -477.567          44.250
G19  21561513.100   113306501.227 7       181.855          46.812    21561511.360   113306501.232 6       181.855          37.812    21561520.060    88290806.130 6       141.705          38.125
G17  22729857.060   119446201.759 7      -300.794          44.687    22729855.060   119446201.761 7      -300.794          42.562    22729869.740    93075015.657 7      -234.385          42.187    22729870.280    93075012.666 7      -234.385          45.625
