     3.05           OBSERVATION DATA    MIXED               RINEX VERSION / TYPE
TPS2RIN 1.0.29.3920 TPS-USER            20240511 180135 UTC PGM / RUN BY / DATE
Win64 build Feb 23, 2024 (c) Topcon Positioning Systems     COMMENT
SRC: 20240503_FA00.tps                                      COMMENT
OPT: -S -v 3.05                                             COMMENT
Observer            Agency                                  OBSERVER / AGENCY
O0M3X53SBGM         TPS HIPER_SR        4.8 HSR Jul,08,2022 REC # / TYPE / VERS
FW: 4.8 HSR Jul,08,2022 p3                                  COMMENT
SN: HiPer SR 1212-12575                                     COMMENT
000                 TPSHIPER_SR     NONE                    ANT # / TYPE
        1.8000        0.0000        0.0000                  ANTENNA: DELTA H/E/N
DELTA H stands for **SLANT** height here!                   COMMENT
FA00                                                        MARKER NAME
  5391016.4046 -1598413.4213  3005016.8463                  APPROX POSITION XYZ
  2024     5     3    14    21   41.0000000     GPS         TIME OF FIRST OBS
  2024     5     3    14    26   45.0000000     GPS         TIME OF LAST OBS
     1.000                                                  INTERVAL
   305 EPOCHS                                               COMMENT
G   16 C1C L1C D1C S1C C1W L1W D1W S1W C2W L2W D2W S2W C2X  SYS / # / OBS TYPES
       L2X D2X S2X                                          SYS / # / OBS TYPES
R   16 C1C L1C D1C S1C C1P L1P D1P S1P C2P L2P D2P S2P C2C  SYS / # / OBS TYPES
       L2C D2C S2C                                          SYS / # / OBS TYPES
    19                                                      # OF SATELLITES
   G02   305   305   305   305   305   305   305   305   305PRN / # OF OBS
         305   305   305     0     0     0     0            PRN / # OF OBS
   G03   305   305   305   305   305   305   305   305   305PRN / # OF OBS
         305   305   305   305   305   305   305            PRN / # OF OBS
   G07   305   305   305   305   305   305   305   305   305PRN / # OF OBS
         305   305   305   305   305   305   305            PRN / # OF OBS
   G08   305   305   305   305   305   305   305   305   305PRN / # OF OBS
         305   305   305   305   305   305   305            PRN / # OF OBS
   G10   305   305   305   305   305   305   305   305   305PRN / # OF OBS
         305   305   305   305   305   305   305            PRN / # OF OBS
   G14   305   305   305   305   305   305   305   305   305PRN / # OF OBS
         305   305   305   305   305   305   305            PRN / # OF OBS
   G16   305   305   305   305   305   305   305   305   305PRN / # OF OBS
         305   305   305     0     0     0     0            PRN / # OF OBS
   G21   305   305   305   305   305   305   305   305   305PRN / # OF OBS
         305   305   305     0     0     0     0            PRN / # OF OBS
   G27   305   305   305   305   305   305   305   305   305PRN / # OF OBS
         305   305   305   305   305   305   305            PRN / # OF OBS
   G30   305   305   305   305   305   305   305   305   305PRN / # OF OBS
         305   305   305   195   195   195   195            PRN / # OF OBS
   G32   305   305   305   305   305   305   305   305   305PRN / # OF OBS
         305   305   305   305   305   305   305            PRN / # OF OBS
   R01   305   305   305   305   305   305   305   305   305PRN / # OF OBS
         305   305   305   305   305   305   305            PRN / # OF OBS
   R02   305   305   305   305   305   305   305   305   305PRN / # OF OBS
         305   305   305   305   305   305   305            PRN / # OF OBS
   R08   305   305   305   305   305   305   305   305   305PRN / # OF OBS
         305   305   305   305   305   305   305            PRN / # OF OBS
   R14   305   305   305   305   305   305   305   305   305PRN / # OF OBS
         305   305   305   305   305   305   305            PRN / # OF OBS
   R15   305   305   305   305   305   305   305   305   305PRN / # OF OBS
         305   305   305   305   305   305   305            PRN / # OF OBS
   R17   305   305   305   305   305   305   305   305   305PRN / # OF OBS
         305   305   305   305   305   305   305            PRN / # OF OBS
   R23   243   243   243   243   238   238   238   238     0PRN / # OF OBS
           0     0     0     0     0     0     0            PRN / # OF OBS
   R24   305   305   305   305   305   305   305   305   305PRN / # OF OBS
         305   305   305   305   305   305   305            PRN / # OF OBS
G L1C                                                       SYS / PHASE SHIFT
G L1W -0.25000                                              SYS / PHASE SHIFT
G L2W  0.00000                                              SYS / PHASE SHIFT
G L2X  0.25000                                              SYS / PHASE SHIFT
R L1C                                                       SYS / PHASE SHIFT
R L1P -0.25000                                              SYS / PHASE SHIFT
R L2P -0.25000                                              SYS / PHASE SHIFT
R L2C                                                       SYS / PHASE SHIFT
  8 R01  1 R02 -4 R08  6 R14 -7 R15  0 R17  4 R23  3 R24  2 GLONASS SLOT / FRQ #
                                                            GLONASS COD/PHS/BIS
    18    18  1929     7GPS                                 LEAP SECONDS
                                                            END OF HEADER
> 2024 05 03 14 21 41.0000000  0 18
G30  25134571.580   132083071.922 7      2282.326          46.687    25134569.940   132083071.929 4      2282.326          28.062    25134577.640   102921875.955 4      1778.435          28.062    25134578.400   102921889.968 6      1778.435          37.250
G02  21380502.200   112355294.688 7      2812.872          46.312    21380500.180   112355294.695 6      2812.872          39.562    21380501.860    87549579.205 6      2191.848          39.687
G03  22809415.160   119864301.984 7      6245.987          43.000    22809414.740   119864301.987 5      6245.987          35.500    22809424.560    93400802.156 5      4867.003          35.250    22809425.240    93400808.167 8      4867.003          49.500
G14  24666596.920   129623844.155 6      5995.942          40.312    24666596.000   129623844.165 4      5995.942          24.250    24666600.500   101005599.781 4      4672.163          24.187    24666601.400   101005609.780 6      4672.163          41.125
G08  20618028.220   108348462.425 8      2637.356          48.187    20618027.160   108348462.428 8      2637.356          49.062    20618032.140    84427391.428 8      2055.083          49.562    20618032.980    84427394.434 8      2055.083          50.625
G21  20792368.560   109264629.030 7      1824.054          46.875    20792367.040   109264629.037 6      1824.054          40.875    20792369.260    85141273.286 6      1421.340          40.937
R14  20271640.260   108059234.587 8       588.146          49.062    20271638.380   108059234.577 8       588.146          48.687    20271648.060    84046101.413 8       457.447          51.375    20271648.320    84046102.422 8       457.447          51.375
R24  20797912.100   111215771.190 7      1847.944          47.187    20797912.100   111215771.202 7      1847.944          46.687    20797920.500    86501196.736 8      1437.290          49.437    20797920.240    86501193.738 8      1437.290          49.625
G27  22053204.660   115890355.416 7       949.522          46.500    22053204.420   115890355.413 7       949.522          45.937    22053209.320    90304192.178 7       739.887          46.062    22053210.520    90304199.185 8       739.887          48.750
R02  22818912.460   121766136.078 7      6496.976          44.937    22818911.900   121766136.084 7      6496.976          44.062    22818927.560    94707084.698 7      5053.204          42.500    22818927.780    94707086.702 7      5053.204          43.312
G16  23443267.060   123195168.503 7      -819.439          44.125    23443265.520   123195168.508 5      -819.439          31.312    23443273.520    95996253.342 5      -638.524          31.250
R15  21415553.280   114438217.459 7      4415.001          46.187    21415553.380   114438217.449 7      4415.001          44.750    21415561.680    89007541.043 8      3433.890          48.375    21415561.540    89007542.049 8      3433.890          49.062
R17  21631992.840   115757161.577 7      3786.236          43.312    21631992.980   115757161.586 7      3786.236          43.750    21632002.680    90033393.488 8      2944.850          48.250    21632002.640    90033389.497 8      2944.850          49.875
G10  23808669.360   125115381.827 7      -239.092          45.375    23808668.140   125115381.830 7      -239.092          42.812    23808676.340    97492533.181 7      -186.306          43.187    23808675.940    97492535.190 7      -186.306          45.000
R08  23147412.460   123953331.888 6       948.492          41.500    23147413.540   123953331.924 6       948.492          40.500    23147424.600    96408193.005 7       737.716          44.937    23147424.700    96408198.009 7       737.716          45.500
G07  24207490.460   127211202.483 7      1404.536          44.937    24207488.840   127211202.485 4      1404.536          28.625    24207495.300    99125615.047 4      1094.444          28.500    24207495.060    99125638.038 6      1094.444          39.562
R01  21156691.340   113094643.997 7      4408.372          43.125    21156690.780   113094644.007 6      4408.372          41.875    21156701.660    87962557.273 7      3428.733          43.000    21156700.900    87962550.265 7      3428.733          43.375
G32  24996823.420   131359204.407 7      3535.522          43.687    24996822.440   131359204.407 5      3535.522          34.250    24996834.660   102357884.019 5      2754.952          34.625    24996835.540   102357889.036 6      2754.952          38.812
> 2024 05 03 14 21 42.0000000  0 18
G30  25134137.220   132080789.870 7      2281.963          46.687    25134135.400   132080789.872 4      2281.963          27.500    25134143.460   102920097.729 4      1778.153          28.062    25134143.460   102920111.731 6      1778.153          37.250
G02  21379966.960   112352482.119 7      2812.605          47.125    21379965.040   112352482.127 6      2812.605          39.750    21379966.720    87547387.596 6      2191.641          39.812
G03  22808226.860   119858056.275 7      6245.686          43.375    22808226.240   119858056.277 5      6245.686          35.625    22808236.140    93395935.377 5      4866.769          35.250    22808236.880    93395941.381 8      4866.769          48.937
G14  24665455.920   129617848.396 6      5995.740          39.625    24665454.940   129617848.409 4      5995.740          24.250    24665459.580   101000927.763 4      4672.005          24.187    24665460.280   101000937.765 6      4672.005          41.125
G08  20617526.400   108345825.320 8      2637.079          48.687    20617525.320   108345825.320 8      2637.079          49.312    20617530.320    84425336.541 8      2054.867          49.625    20617531.060    84425339.544 8      2054.867          50.625
G21  20792021.660   109262805.099 7      1823.867          47.875    20792019.940   109262805.101 6      1823.867          41.375    20792022.140    85139852.039 6      1421.195          41.062
R14  20271530.040   108058646.893 8       587.458          49.312    20271528.180   108058646.888 8       587.458          48.687    20271537.780    84045644.318 8       456.912          50.812    20271538.060    84045645.324 8       456.912          51.500
R24  20797566.400   111213923.481 7      1847.763          47.562    20797566.680   111213923.493 7      1847.763          47.500    20797575.080    86499759.627 8      1437.149          49.937    20797574.900    86499756.629 8      1437.149          49.625
G27  22053023.860   115889406.188 7       949.168          46.125    22053023.700   115889406.191 7       949.168          46.250    22053028.760    90303452.520 7       739.611          46.187    22053029.580    90303459.527 8       739.611          48.750
R02  22817695.220   121759639.212 7      6496.975          45.562    22817694.520   121759639.207 7      6496.975          44.125    22817709.780    94702031.584 7      5053.203          42.562    22817710.400    94702033.588 7      5053.203          42.750
G16  23443422.840   123195988.173 7      -819.621          44.062    23443421.460   123195988.173 5      -819.621          31.500    23443429.580    95996892.035 5      -638.666          31.250
R15  21414727.380   114433802.948 7      4414.233          46.187    21414727.060   114433802.949 7      4414.233          45.187    21414735.360    89004107.543 8      3433.292          48.500    21414735.620    89004108.554 8      3433.292          49.437
R17  21631285.780   115753375.406 7      3786.220          43.312    21631285.180   115753375.410 7      3786.220          44.000    21631295.240    90030448.682 8      2944.838          48.812    21631294.960    90030444.685 8      2944.838          49.062
G10  23808715.040   125115621.270 7      -239.488          45.625    23808713.800   125115621.273 7      -239.488          42.875    23808721.860    97492719.758 7      -186.614          43.125    23808721.780    97492721.761 7      -186.614          45.250
R08  23147235.600   123952383.914 6       947.522          41.500    23147236.600   123952383.963 6       947.522          40.500    23147247.620    96407455.694 7       736.962          45.187    23147247.700    96407460.698 7       736.962          45.125
G07  24207223.020   127209798.221 7      1404.162          44.375    24207221.600   127209798.221 4      1404.162          28.625    24207228.000    99124520.814 4      1094.152          28.812    24207228.020    99124543.817 6      1094.152          39.562
R01  21155866.420   113090236.051 7      4407.683          42.687    21155866.660   113090236.050 6      4407.683          41.875    21155877.580    87959128.866 7      3428.198          43.250    21155876.220    87959121.856 7      3428.198          43.812
G32  24996150.640   131355669.287 7      3534.864          42.812    24996149.660   131355669.287 5      3534.864          34.250    24996161.720   102355129.390 5      2754.440          34.625    24996162.400   102355134.401 6      2754.440          38.812
> 2024 05 03 14 21 43.0000000  0 18
G30  25133702.920   132078508.278 7      2281.309          46.625    25133701.200   132078508.283 4      2281.309          27.500    25133709.080   102918319.863 4      1777.644          28.062    25133710.220   102918333.863 6      1777.644          37.250
G02  21379431.880   112349669.787 7      2812.206          46.937    21379429.780   112349669.797 6      2812.206          39.812    21379431.560    87545196.168 6      2191.329          39.562
G03  22807038.100   119851810.820 7      6245.203          42.687    22807037.680   119851810.820 5      6245.203          35.625    22807047.760    93391068.796 5      4866.392          35.125    22807048.160    93391074.799 8      4866.392          49.125
G14  24664315.300   129611852.889 6      5995.192          40.375    24664314.000   129611852.905 4      5995.192          24.250    24664318.580   100996255.945 4      4671.578          24.187    24664319.260   100996265.937 6      4671.578          41.312
G08  20617024.500   108343188.503 8      2636.618          49.125    20617023.640   108343188.503 8      2636.618          49.562    20617028.600    84423281.878 8      2054.508          49.562    20617029.340    84423284.880 8      2054.508          50.687
G21  20791674.560   109260981.394 7      1823.528          47.625    20791672.780   109260981.399 6      1823.528          41.437    20791675.220    85138430.971 6      1420.931          41.062
R14  20271419.940   108058059.977 8       586.402          49.187    20271418.040   108058059.972 8       586.402          48.687    20271427.840    84045187.823 8       456.090          50.875    20271428.260    84045188.828 8       456.090          51.750
R24  20797220.700   111212075.833 7      1847.513          47.187    20797220.980   111212075.845 7      1847.513          47.187    20797229.560    86498322.569 8      1436.955          49.875    20797229.320    86498319.569 8      1436.955          49.937
G27  22052843.380   115888457.203 7       948.723          46.375    22052843.260   115888457.207 7       948.723          46.875    22052848.140    90302713.055 7       739.265          46.625    22052849.140    90302720.062 8       739.265          48.750
R02  22816477.800   121753142.382 7      6496.724          45.500    22816477.060   121753142.383 7      6496.724          44.375    22816492.380    94696978.517 7      5053.007          42.875    22816493.080    94696980.521 7      5053.007          42.812
G16  23443579.080   123196808.043 7      -820.083          43.562    23443577.760   123196808.045 5      -820.083          31.500    23443585.620    95997530.890 5      -639.025          31.437
R15  21413901.380   114429389.247 7      4413.239          46.375    21413901.260   114429389.250 7      4413.239          44.500    21413909.460    89000674.666 8      3432.519          48.562    21413909.700    89000675.677 8      3432.519          48.937
R17  21630578.000   115749589.348 7      3785.980          44.000    21630577.620   115749589.360 7      3785.980          44.000    21630587.680    90027503.976 8      2944.651          48.875    21630587.440    90027499.973 8      2944.651          48.937
G10  23808760.680   125115861.013 7      -240.046          45.750    23808759.380   125115861.018 7      -240.046          43.187    23808767.600    97492906.567 7      -187.049          43.062    23808767.340    97492908.573 7      -187.049          45.437
R08  23147058.760   123951436.619 6       946.891          41.687    23147059.900   123951436.653 6       946.891          40.500    23147070.820    96406718.895 7       736.471          44.937    23147070.820    96406723.897 7       736.471          45.062
G07  24206955.920   127208394.247 7      1403.854          44.062    24206954.540   127208394.246 4      1403.854          28.625    24206960.980    99123426.803 4      1093.912          28.812    24206960.540    99123449.792 6      1093.912          39.562
R01  21155041.740   113085828.789 7      4407.024          42.812    21155041.640   113085828.785 7      4407.024          42.187    21155053.100    87955700.991 7      3427.685          43.062    21155051.920    87955693.980 7      3427.685          43.375
G32  24995477.820   131352134.448 6      3534.604          41.437    24995476.980   131352134.450 5      3534.604          34.375    24995489.200   102352374.978 5      2754.237          34.437    24995490.020   102352379.993 6      2754.237          38.812
> 2024 05 03 14 21 44.0000000  0 18
G30  25133268.880   132076226.918 7      2281.096          47.000    25133267.100   132076226.925 4      2281.096          27.500    25133275.100   102916542.175 4      1777.477          27.437    25133276.380   102916556.174 6      1777.477          37.250
G02  21378896.720   112346857.529 7      2812.095          47.000    21378894.780   112346857.528 6      2812.095          39.687    21378896.420    87543004.792 6      2191.243          39.312
G03  22805849.560   119845565.373 7      6245.295          43.750    22805849.060   119845565.373 5      6245.295          35.312    22805859.260    93386202.222 5      4866.463          34.937    22805859.600    93386208.227 8      4866.463          49.000
G14  24663174.680   129605857.343 6      5995.386          39.625    24663173.080   129605857.353 4      5995.386          24.250    24663177.920   100991584.091 4      4671.729          24.187    24663178.140   100991594.085 6      4671.729          41.312
G08  20616522.880   108340551.839 8      2636.398          49.125    20616521.920   108340551.842 8      2636.398          48.187    20616526.840    84421227.335 8      2054.336          49.250    20616527.540    84421230.337 8      2054.336          50.375
G21  20791327.440   109259157.752 8      1823.442          48.125    20791325.840   109259157.757 6      1823.442          40.625    20791328.200    85137009.953 6      1420.864          40.812
R14  20271310.020   108057473.569 8       586.009          49.312    20271308.120   108057473.565 8       586.009          48.375    20271317.800    84044731.722 8       455.785          51.562    20271318.080    84044732.727 8       455.785          51.937
R24  20796875.140   111210228.072 8      1847.704          48.500    20796875.620   111210228.082 7      1847.704          46.250    20796884.080    86496885.418 8      1437.103          49.812    20796883.720    86496882.420 8      1437.103          49.875
G27  22052662.680   115887508.345 7       948.624          46.812    22052662.660   115887508.342 7       948.624          46.750    22052667.600    90301973.674 7       739.187          46.250    22052668.500    90301980.684 8       739.187          48.500
R02  22815260.160   121746645.412 7      6496.888          45.875    22815259.440   121746645.418 7      6496.888          44.562    22815274.740    94691925.335 7      5053.135          42.750    22815275.340    94691927.338 7      5053.135          43.125
G16  23443735.040   123197627.931 7      -820.155          43.437    23443733.820   123197627.936 5      -820.155          31.500    23443741.540    95998169.752 5      -639.082          31.437
R15  21413075.180   114424976.144 7      4412.672          46.375    21413075.500   114424976.132 7      4412.672          44.375    21413083.540    88997242.241 8      3432.079          48.750    21413083.860    88997243.253 8      3432.079          48.625
R17  21629870.280   115745803.260 7      3785.967          44.062    21629869.620   115745803.267 7      3785.967          43.500    21629880.440    90024559.242 8      2944.641          49.250    21629879.800    90024555.234 8      2944.641          49.375
G10  23808806.280   125116100.924 7      -240.181          45.500    23808805.080   125116100.929 7      -240.181          43.687    23808813.180    97493093.504 7      -187.154          43.562    23808813.180    97493095.511 7      -187.154          45.062
R08  23146882.100   123950489.946 6       946.201          41.687    23146882.880   123950489.978 6       946.201          40.625    23146893.940    96405982.594 7       735.934          45.375    23146893.840    96405987.596 7       735.934          45.375
G07  24206688.580   127206990.390 7      1403.595          43.937    24206687.340   127206990.390 4      1403.595          28.625    24206693.840    99122332.883 4      1093.710          28.812    24206694.260    99122355.876 6      1093.710          39.687
R01  21154217.420   113081422.137 7      4406.164          42.812    21154217.420   113081422.135 6      4406.164          41.750    21154229.080    87952273.601 7      3427.016          43.562    21154227.700    87952266.594 7      3427.016          44.000
G32  24994805.120   131348599.906 7      3534.196          42.062    24994804.420   131348599.911 5      3534.196          34.375    24994816.660   102349620.798 5      2753.919          34.500    24994817.440   102349625.812 6      2753.919          38.875
> 2024 05 03 14 21 45.0000000  0 18
G30  25132835.000   132073946.046 7      2280.548          46.875    25132833.140   132073946.048 4      2280.548          27.500    25132841.020   102914764.874 4      1777.050          27.437    25132841.700   102914778.875 6      1777.050          37.250
G02  21378361.460   112344045.536 7      2811.822          47.312    21378359.560   112344045.538 6      2811.822          39.812    21378361.360    87540813.630 6      2191.030          39.812
G03  22804661.140   119839320.176 7      6245.009          43.437    22804660.600   119839320.176 5      6245.009          35.312    22804670.740    93381335.845 5      4866.241          34.937    22804671.420    93381341.852 8      4866.241          49.000
G14  24662033.820   129599862.091 6      5995.141          40.437    24662032.260   129599862.101 4      5995.141          24.250    24662037.140   100986912.473 4      4671.539          24.187    24662037.580   100986922.466 6      4671.539          41.375
G08  20616021.120   108337915.509 8      2636.105          48.750    20616020.120   108337915.511 8      2636.105          49.625    20616025.240    84419173.051 8      2054.108          49.687    20616025.860    84419176.055 8      2054.108          50.625
G21  20790980.500   109257334.378 7      1823.221          47.812    20790978.880   109257334.383 6      1823.221          41.250    20790981.040    85135589.138 6      1420.692          41.187
R14  20271199.920   108056887.959 8       585.158          49.312    20271198.400   108056887.952 8       585.158          49.437    20271207.980    84044276.243 8       455.123          51.312    20271208.380    84044277.248 8       455.123          51.500
R24  20796529.860   111208380.427 7      1847.526          47.875    20796529.940   111208380.436 7      1847.526          47.500    20796538.500    86495448.365 8      1436.964          49.437    20796538.060    86495445.367 8      1436.964          50.187
G27  22052482.060   115886559.777 7       948.371          45.937    22052482.120   115886559.782 7       948.371          46.187    22052487.100    90301234.532 7       738.991          46.062    22052487.880    90301241.542 8       738.991          48.812
R02  22814042.460   121740148.481 7      6496.856          45.500    22814041.960   121740148.479 7      6496.856          45.125    22814057.120    94686872.168 7      5053.110          42.750    22814057.580    94686874.170 7      5053.110          43.125
G16  23443891.180   123198447.990 7      -820.237          43.562    23443889.720   123198447.992 5      -820.237          31.500    23443897.580    95998808.749 5      -639.145          31.437
R15  21412249.780   114420563.883 7      4411.802          46.125    21412249.480   114420563.868 7      4411.802          44.375    21412257.760    88993810.482 8      3431.402          48.750    21412258.020    88993811.497 8      3431.402          48.625
R17  21629163.020   115742017.301 7      3785.872          44.000    21629161.440   115742017.310 7      3785.872          43.375    21629173.080    90021614.611 8      2944.567          48.937    21629172.280    90021610.605 8      2944.567          49.375
G10  23808852.100   125116341.208 7      -240.535          45.187    23808850.900   125116341.213 7      -240.535          43.562    23808859.000    97493280.734 7      -187.430          43.500    23808858.940    97493282.737 7      -187.430          45.625
R08  23146705.680   123949544.058 6       945.413          41.687    23146705.760   123949544.086 6       945.413          40.625    23146717.360    96405246.901 7       735.321          45.250    23146717.260    96405251.901 7       735.321          45.125
G07  24206421.200   127205586.820 7      1403.425          44.062    24206420.080   127205586.823 4      1403.425          28.937    24206426.780    99121239.186 4      1093.578          28.812    24206426.600    99121262.189 6      1093.578          39.687
R01  21153392.940   113077016.179 7      4405.466          42.000    21153392.360   113077016.185 6      4405.466          41.750    21153404.620    87948846.755 7      3426.473          43.625    21153403.340    87948839.746 7      3426.473          43.937
G32  24994132.600   131345065.742 7      3533.870          42.125    24994131.900   131345065.742 5      3533.870          34.375    24994144.040   102346866.910 5      2753.665          34.500    24994144.580   102346871.923 6      2753.665          38.875
> 2024 05 03 14 21 46.0000000  0 18
G30  25132401.000   132071665.691 7      2280.094          47.250    25132399.260   132071665.694 4      2280.094          27.500    25132407.120   102912987.973 4      1776.697          27.437    25132407.900   102913001.969 6      1776.697          36.875
G02  21377826.400   112341233.868 7      2811.523          47.375    21377824.520   112341233.868 6      2811.523          39.937    21377826.260    87538622.721 6      2190.797          40.000
G03  22803472.640   119833075.350 7      6244.652          43.812    22803472.340   119833075.347 5      6244.652          35.312    22803482.300    93376469.748 5      4865.962          35.187    22803483.120    93376475.755 8      4865.962          49.062
G14  24660892.860   129593867.113 6      5994.797          40.750    24660891.420   129593867.123 4      5994.797          24.250    24660896.280   100982241.063 4      4671.271          24.187    24660896.900   100982251.067 6      4671.271          41.375
G08  20615519.580   108335279.544 8      2635.793          49.187    20615518.620   108335279.546 8      2635.793          48.750    20615523.560    84417119.055 8      2053.864          48.687    20615524.020    84417122.054 8      2053.864          50.750
G21  20790633.820   109255511.309 7      1822.944          47.812    20790631.920   109255511.311 6      1822.944          41.062    20790634.160    85134168.567 6      1420.476          41.062
R14  20271090.420   108056303.212 8       584.260          49.125    20271088.880   108056303.199 8       584.260          49.000    20271098.360    84043821.434 8       454.424          50.375    20271098.720    84043822.437 8       454.424          50.500
R24  20796184.060   111206532.886 8      1847.383          48.250    20796184.480   111206532.898 7      1847.383          47.000    20796193.020    86494011.388 8      1436.853          49.062    20796192.840    86494008.390 8      1436.853          49.562
G27  22052301.760   115885611.553 7       948.101          46.062    22052301.620   115885611.556 7       948.101          46.125    22052306.660    90300495.656 7       738.780          45.750    22052307.700    90300502.667 8       738.780          48.812
R02  22812825.140   121733651.702 7      6496.701          46.000    22812824.620   121733651.701 7      6496.701          44.812    22812839.380    94681819.137 7      5052.990          42.625    22812840.120    94681821.138 7      5052.990          42.937
G16  23444047.040   123199268.364 7      -820.554          43.375    23444045.780   123199268.366 5      -820.554          31.500    23444053.660    95999447.999 5      -639.393          31.312
R15  21411424.000   114416152.520 7      4410.870          45.187    21411423.860   114416152.513 7      4410.870          45.000    21411432.120    88990379.428 8      3430.677          48.687    21411432.220    88990380.439 7      3430.677          47.812
R17  21628455.460   115738231.518 7      3785.656          44.000    21628454.020   115738231.538 7      3785.656          43.437    21628465.740    90018670.123 8      2944.399          48.312    21628464.820    90018666.124 8      2944.399          49.000
G10  23808897.620   125116581.859 7      -240.863          45.937    23808896.700   125116581.862 7      -240.863          43.250    23808904.820    97493468.249 7      -187.685          42.875    23808904.780    97493470.253 7      -187.685          45.500
R08  23146528.520   123948598.967 7       944.530          42.062    23146529.860   123948599.001 6       944.530          40.625    23146541.080    96404511.832 7       734.635          45.187    23146540.660    96404516.832 7       734.635          45.187
G07  24206154.280   127204183.686 7      1402.942          43.500    24206153.100   127204183.691 4      1402.942          28.937    24206159.620    99120145.833 4      1093.201          29.062    24206159.740    99120168.828 6      1093.201          39.625
R01  21152568.780   113072611.031 7      4404.749          43.437    21152568.380   113072611.022 7      4404.749          42.250    21152581.000    87945420.523 7      3425.916          43.312    21152579.160    87945413.514 7      3425.916          43.562
G32  24993460.460   131341532.022 7      3533.428          43.375    24993459.500   131341532.025 5      3533.428          34.375    24993471.420   102344113.375 5      2753.321          34.437    24993471.680   102344118.385 6      2753.321          38.875
> 2024 05 03 14 21 47.0000000  0 18
G30  25131967.000   132069385.865 7      2279.513          47.500    25131965.340   132069385.873 4      2279.513          26.812    25131973.280   102911211.483 4      1776.244          27.437    25131974.060   102911225.475 6      1776.244          36.875
G02  21377291.420   112338422.522 7      2811.113          47.562    21377289.460   112338422.524 6      2811.113          39.812    21377291.260    87536432.063 6      2190.477          39.937
G03  22802284.640   119826830.846 7      6244.296          43.437    22802284.020   119826830.846 5      6244.296          35.500    22802294.160    93371603.909 5      4865.685          35.125    22802295.020    93371609.919 8      4865.685          49.250
G14  24659752.320   129587872.405 6      5994.572          39.437    24659750.760   129587872.415 4      5994.572          24.437    24659755.680   100977569.860 4      4671.095          24.187    24659755.760   100977579.855 6      4671.095          41.000
G08  20615018.000   108332643.944 8      2635.394          48.125    20615016.980   108332643.943 8      2635.394          49.250    20615022.040    84415065.340 8      2053.554          49.437    20615022.640    84415068.344 8      2053.554          50.562
G21  20790286.840   109253688.521 7      1822.653          47.000    20790285.120   109253688.526 6      1822.653          41.187    20790287.360    85132748.217 6      1420.249          41.125
R14  20270980.800   108055719.278 8       583.434          49.750    20270979.460   108055719.274 8       583.434          49.062    20270988.760    84043367.268 8       453.782          51.500    20270989.040    84043368.272 8       453.782          51.937
R24  20795838.680   111204685.441 8      1847.229          48.437    20795839.020   111204685.461 7      1847.229          47.750    20795847.500    86492574.495 8      1436.733          49.312    20795847.440    86492571.495 8      1436.733          50.312
G27  22052121.460   115884663.669 7       947.665          46.437    22052121.320   115884663.668 7       947.665          47.312    22052126.300    90299757.042 7       738.441          46.562    22052127.160    90299764.051 8       738.441          48.562
R02  22811607.560   121727155.103 7      6496.358          45.750    22811606.780   121727155.106 7      6496.358          44.937    22811621.700    94676766.247 7      5052.723          42.625    22811622.460    94676768.254 7      5052.723          42.750
G16  23444203.580   123200089.014 7      -820.892          43.187    23444201.960   123200089.019 5      -820.892          31.500    23444209.880    96000087.460 5      -639.656          31.312
R15  21410598.900   114411742.035 7      4409.994          44.875    21410598.140   114411742.036 7      4409.994          45.062    21410606.800    88986949.060 8      3429.996          48.500    21410606.940    88986950.068 7      3429.996          47.875
R17  21627748.080   115734445.917 7      3785.439          43.375    21627746.580   115734445.924 7      3785.439          43.437    21627758.460    90015725.763 8      2944.230          48.625    21627757.700    90015721.766 8      2944.230          50.125
G10  23808943.600   125116822.868 7      -241.235          45.437    23808942.560   125116822.868 7      -241.235          42.812    23808950.720    97493656.042 7      -187.976          42.625    23808950.860    97493658.048 7      -187.976          45.687
R08  23146351.660   123947654.616 7       943.802          42.062    23146352.980   123947654.658 6       943.802          40.937    23146364.560    96403777.345 7       734.068          45.312    23146364.360    96403782.349 7       734.068          45.375
G07  24205887.520   127202780.923 7      1402.554          44.125    24205886.300   127202780.930 4      1402.554          28.937    24205892.640    99119052.766 4      1092.900          29.062    24205892.440    99119075.767 6      1092.900          39.625
R01  21151745.220   113068206.642 7      4403.940          43.437    21151744.180   113068206.638 7      4403.940          42.250    21151756.960    87941994.898 7      3425.287          43.875    21151755.240    87941987.889 7      3425.287          44.250
G32  24992787.920   131337998.726 7      3532.975          42.000    24992787.180   131337998.728 5      3532.975          34.375    24992799.000   102341360.165 5      2752.968          34.625    24992799.560   102341365.179 6      2752.968          38.875
> 2024 05 03 14 21 48.0000000  0 18
G30  25131533.420   132067106.546 8      2279.180          48.375    25131531.720   132067106.551 4      2279.180          26.812    25131539.600   102909435.384 4      1775.984          27.437    25131540.640   102909449.372 6      1775.984          36.875
G02  21376756.760   112335611.469 8      2811.029          48.375    21376754.720   112335611.474 6      2811.029          40.125    21376756.340    87534241.634 6      2190.412          39.875
G03  22801096.640   119820586.645 7      6244.169          43.625    22801095.780   119820586.650 5      6244.169          35.500    22801105.780    93366738.306 5      4865.586          35.125    22801106.580    93366744.313 8      4865.586          49.312
G14  24658611.600   129581877.944 6      5994.467          39.562    24658610.160   129581877.951 4      5994.467          24.437    24658615.000   100972898.851 4      4671.013          24.187    24658615.360   100972908.863 6      4671.013          41.375
G08  20614516.740   108330008.701 8      2635.205          49.812    20614515.540   108330008.703 8      2635.205          48.562    20614520.640    84413011.904 8      2053.407          49.125    20614521.180    84413014.906 8      2053.407          50.937
G21  20789940.100   109251866.044 8      1822.501          48.562    20789938.300   109251866.051 6      1822.501          41.125    20789940.720    85131328.104 6      1420.131          40.937
R14  20270871.360   108055136.155 8       582.912          50.687    20270870.200   108055136.147 8       582.912          49.312    20270879.420    84042913.717 8       453.376          51.562    20270879.780    84042914.721 8       453.376          51.687
R24  20795493.100   111202838.140 8      1847.356          49.125    20795493.440   111202838.158 8      1847.356          48.125    20795502.040    86491137.702 8      1436.833          49.437    20795501.800    86491134.704 8      1436.833          50.187
G27  22051941.460   115883716.104 7       947.483          46.437    22051941.020   115883716.112 7       947.483          46.187    22051945.980    90299018.683 7       738.298          46.062    22051947.060    90299025.689 8       738.298          49.250
R02  22810390.220   121720658.636 7      6496.492          45.625    22810389.700   121720658.640 7      6496.492          44.562    22810404.780    94671713.458 7      5052.827          42.625    22810405.140    94671715.458 7      5052.827          43.125
G16  23444359.880   123200909.905 7      -820.863          43.687    23444358.240   123200909.913 5      -820.863          31.125    23444365.940    96000727.108 5      -639.633          31.312
R15  21409773.920   114407332.454 7      4409.200          45.562    21409773.080   114407332.458 7      4409.200          45.312    21409781.700    88983519.385 8      3429.378          48.312    21409781.580    88983520.390 7      3429.378          47.812
R17  21627040.640   115730660.519 7      3785.461          43.375    21627039.120   115730660.521 7      3785.461          43.500    21627051.160    90012781.557 8      2944.248          48.750    21627050.620    90012777.568 8      2944.248          50.125
G10  23808989.540   125117064.256 7      -241.417          45.125    23808988.620   125117064.258 7      -241.417          43.187    23808996.540    97493844.132 7      -188.117          43.125    23808996.720    97493846.138 7      -188.117          45.562
R08  23146175.660   123946711.076 7       943.244          42.062    23146177.540   123946711.109 6       943.244          40.937    23146188.380    96403043.466 7       733.634          45.562    23146188.120    96403048.470 7       733.634          45.062
G07  24205620.660   127201378.520 7      1402.435          44.000    24205619.500   127201378.527 4      1402.435          28.937    24205626.000    99117959.980 4      1092.807          29.062    24205626.440    99117982.977 6      1092.807          39.625
R01  21150921.520   113063803.018 7      4403.353          42.937    21150919.820   113063803.017 6      4403.353          41.937    21150933.360    87938569.859 7      3424.830          43.812    21150931.880    87938562.847 7      3424.830          44.250
G32  24992115.760   131334465.847 7      3532.758          42.937    24992114.800   131334465.849 5      3532.758          34.625    24992126.620   102338607.280 5      2752.799          34.625    24992126.460   102338612.299 6      2752.799          38.875
> 2024 05 03 14 21 49.0000000  0 18
G30  25131099.780   132064827.437 8      2278.919          48.375    25131098.120   132064827.442 4      2278.919          26.812    25131105.800   102907659.453 4      1775.781          27.437    25131107.060   102907673.457 6      1775.781          36.875
G02  21376221.780   112332800.480 8      2810.838          49.000    21376219.800   112332800.482 6      2810.838          40.062    21376221.480    87532051.251 6      2190.263          39.750
G03  22799908.380   119814342.415 7      6244.256          43.812    22799907.540   119814342.417 5      6244.256          35.750    22799917.560    93361872.678 5      4865.654          35.187    22799917.980    93361878.682 8      4865.654          49.437
G14  24657470.860   129575883.543 6      5994.297          39.875    24657469.540   129575883.553 4      5994.297          24.437    24657474.300   100968227.894 4      4670.881          24.187    24657474.920   100968237.908 6      4670.881          41.375
G08  20614015.200   108327373.616 8      2634.874          48.937    20614014.140   108327373.616 8      2634.874          50.375    20614019.180    84410958.591 8      2053.149          50.312    20614019.800    84410961.595 8      2053.149          50.312
G21  20789593.460   109250043.616 8      1822.302          48.000    20789591.520   109250043.626 6      1822.302          41.250    20789593.740    85129908.035 6      1419.976          41.187
R14  20270762.340   108054553.530 8       582.275          50.562    20270761.220   108054553.536 8       582.275          50.062    20270770.080    84042460.572 8       452.881          51.437    20270770.380    84042461.575 8       452.881          51.375
R24  20795147.480   111200990.797 8      1847.274          49.375    20795147.980   111200990.812 8      1847.274          48.875    20795156.540    86489700.879 8      1436.769          49.750    20795156.460    86489697.879 8      1436.769          50.250
G27  22051761.140   115882768.661 7       947.274          47.000    22051760.660   115882768.666 7       947.274          47.062    22051765.640    90298280.413 7       738.136          46.625    22051767.040    90298287.421 8       738.136          49.062
R02  22809172.620   121714162.044 7      6496.606          45.812    22809172.220   121714162.053 7      6496.606          45.562    22809186.720    94666660.564 7      5052.916          42.625    22809187.500    94666662.571 7      5052.916          42.812
G16  23444516.040   123201730.776 7      -820.944          43.437    23444514.380   123201730.784 5      -820.944          31.125    23444522.180    96001366.739 5      -639.696          31.062
R15  21408948.840   114402923.455 7      4408.630          47.687    21408948.140   114402923.448 7      4408.630          46.437    21408956.580    88980090.158 8      3428.935          48.500    21408956.420    88980091.160 8      3428.935          48.750
R17  21626333.720   115726875.042 7      3785.484          45.875    21626331.540   115726875.041 7      3785.484          44.375    21626343.520    90009837.298 8      2944.266          49.125    21626343.140    90009833.313 8      2944.266          49.812
G10  23809035.460   125117305.864 7      -241.849          45.937    23809034.680   125117305.869 7      -241.849          43.312    23809042.460    97494032.398 7      -188.454          43.687    23809042.700    97494034.405 7      -188.454          45.562
R08  23145999.780   123945768.164 7       942.440          42.062    23146001.140   123945768.209 6       942.440          41.312    23146012.400    96402310.103 7       733.009          45.437    23146012.040    96402315.103 7       733.009          45.562
G07  24205353.800   127199976.169 7      1402.277          44.187    24205352.660   127199976.174 4      1402.277          28.812    24205359.160    99116867.235 4      1092.684          29.062    24205359.700    99116890.232 6      1092.684          39.812
R01  21150098.000   113059399.958 7      4402.710          43.750    21150096.100   113059399.946 7      4402.710          43.187    21150110.120    87935145.252 7      3424.330          43.937    21150108.380    87935138.245 7      3424.330          44.562
G32  24991443.580   131330933.223 7      3532.397          43.000    24991442.560   131330933.225 5      3532.397          34.437    24991454.380   102335854.594 5      2752.517          34.625    24991455.560   102335859.613 6      2752.517          38.875
> 2024 05 03 14 21 50.0000000  0 18
G30  25130666.320   132062548.707 8      2278.223          48.562    25130664.580   132062548.714 4      2278.223          26.812    25130672.260   102905883.817 4      1775.239          27.125    25130673.500   102905897.807 6      1775.239          36.875
G02  21375686.800   112329989.624 8      2810.643          48.312    21375684.840   112329989.626 6      2810.643          39.937    21375686.700    87529860.976 6      2190.112          39.937
G03  22798720.060   119808098.363 7      6243.707          43.187    22798719.320   119808098.363 5      6243.707          35.750    22798729.400    93357007.192 5      4865.226          35.062    22798730.080    93357013.201 8      4865.226          49.125
G14  24656330.080   129569889.266 6      5994.060          39.437    24656328.840   129569889.276 4      5994.060          24.437    24656333.560   100963557.032 4      4670.696          24.187    24656333.920   100963567.042 6      4670.696          41.437
G08  20613513.800   108324738.715 8      2634.739          48.437    20613512.660   108324738.717 8      2634.739          49.750    20613517.740    84408905.424 8      2053.043          49.812    20613518.440    84408908.426 8      2053.043          50.500
G21  20789246.700   109248221.335 8      1822.057          48.750    20789244.800   109248221.340 6      1822.057          41.312    20789246.800    85128488.072 6      1419.785          40.937
R14  20270652.720   108053971.600 8       581.289          50.437    20270652.260   108053971.609 8       581.289          50.062    20270660.820    84042007.956 8       452.113          50.937    20270661.380    84042008.961 8       452.113          51.250
R24  20794802.140   111199143.408 8      1847.391          49.312    20794802.560   111199143.420 8      1847.391          48.937    20794811.000    86488264.019 8      1436.860          49.375    20794811.040    86488261.019 8      1436.860          49.812
G27  22051580.880   115881821.388 7       947.116          46.812    22051580.340   115881821.390 7       947.116          46.687    22051585.380    90297542.272 7       738.013          46.562    22051586.820    90297549.277 8       738.013          49.000
R02  22807955.160   121707665.474 7      6496.451          45.937    22807954.320   121707665.472 7      6496.451          45.375    22807969.200    94661607.686 7      5052.795          42.625    22807969.780    94661609.687 7      5052.795          42.937
G16  23444672.360   123202551.757 7      -821.188          43.562    23444670.460   123202551.767 5      -821.188          31.125    23444678.680    96002006.457 5      -639.887          31.062
R15  21408124.080   114398515.191 7      4407.753          47.562    21408123.040   114398515.174 7      4407.753          46.125    21408131.520    88976661.500 8      3428.252          48.312    21408131.700    88976662.504 8      3428.252          48.437
R17  21625626.460   115723089.556 7      3785.416          46.062    21625624.520   115723089.549 7      3785.416          44.375    21625636.020    90006893.029 8      2944.212          48.875    21625636.000    90006889.047 8      2944.212          49.875
G10  23809081.540   125117547.651 7      -241.871          45.750    23809080.620   125117547.658 7      -241.871          42.812    23809088.540    97494220.801 7      -188.471          43.250    23809088.580    97494222.806 7      -188.471          45.937
R08  23145823.380   123944825.899 7       941.939          43.000    23145825.860   123944825.951 6       941.939          41.312    23145836.100    96401577.231 7       732.619          45.125    23145835.820    96401582.236 7       732.619          45.750
G07  24205086.900   127198574.052 7      1401.735          44.187    24205085.840   127198574.054 4      1401.735          28.812    24205092.340    99115774.668 4      1092.261          29.062    24205092.800    99115797.659 6      1092.261          39.812
R01  21149274.040   113054997.504 7      4402.103          43.750    21149272.840   113054997.495 7      4402.103          43.187    21149286.520    87931721.132 7      3423.858          43.562    21149284.760    87931714.123 7      3423.858          43.500
G32  24990770.960   131327400.851 7      3532.337          42.312    24990770.380   131327400.853 5      3532.337          34.875    24990782.360   102333102.107 5      2752.470          34.625    24990783.180   102333107.130 6      2752.470          38.875
> 2024 05 03 14 21 51.0000000  0 18
G30  25130232.740   132060270.465 8      2278.249          48.687    25130231.020   132060270.472 4      2278.249          26.812    25130238.600   102904108.557 4      1775.259          27.125    25130238.080   102904122.564 6      1775.259          36.000
G02  21375151.820   112327179.097 7      2810.544          47.437    21375150.060   112327179.102 6      2810.544          40.125    21375151.900    87527670.959 6      2190.034          39.875
G03  22797531.960   119801854.677 7      6243.716          42.937    22797531.100   119801854.684 5      6243.716          35.562    22797541.280    93352141.992 5      4865.233          35.312    22797541.940    93352147.995 8      4865.233          49.562
G14  24655189.020   129563895.210 6      5994.250          39.500    24655188.100   129563895.217 4      5994.250          24.437    24655192.800   100958886.341 4      4670.844          24.187    24655193.160   100958896.345 6      4670.844          41.437
G08  20613012.360   108322104.158 8      2634.660          48.375    20613011.420   108322104.163 8      2634.660          49.625    20613016.440    84406852.524 8      2052.982          49.500    20613016.880    84406855.524 8      2052.982          50.687
G21  20788899.940   109246399.309 7      1822.135          47.500    20788897.960   109246399.319 6      1822.135          41.437    20788900.200    85127068.315 6      1419.845          41.000
R14  20270543.940   108053390.526 8       580.874          50.312    20270543.540   108053390.527 8       580.874          49.250    20270551.960    84041556.001 8       451.791          51.187    20270552.120    84041557.006 8       451.791          51.375
R24  20794456.720   111197296.119 8      1847.480          48.062    20794457.020   111197296.131 7      1847.480          47.750    20794465.740    86486827.238 8      1436.929          49.812    20794465.580    86486824.238 8      1436.929          50.187
G27  22051400.480   115880874.425 7       947.030          46.375    22051400.240   115880874.428 7       947.030          46.437    22051405.140    90296804.379 7       737.945          45.750    22051406.860    90296811.388 8       737.945          49.375
R02  22806737.900   121701169.050 7      6496.624          45.187    22806737.440   121701169.059 7      6496.624          44.875    22806752.120    94656554.933 7      5052.930          42.500    22806752.620    94656556.938 7      5052.930          43.000
G16  23444828.420   123203373.038 7      -821.270          43.187    23444826.800   123203373.048 5      -821.270          31.000    23444834.900    96002646.405 5      -639.950          31.062
R15  21407299.280   114394107.798 7      4407.147          46.562    21407298.440   114394107.789 7      4407.147          45.312    21407306.900    88973233.538 8      3427.781          48.625    21407306.760    88973234.538 8      3427.781          48.437
R17  21624919.100   115719304.231 7      3785.429          44.937    21624916.960   115719304.232 7      3785.429          44.125    21624928.600    90003948.892 8      2944.223          49.187    21624928.360    90003944.913 8      2944.223          49.312
G10  23809127.540   125117789.790 7      -242.081          45.437    23809126.600   125117789.797 7      -242.081          43.000    23809134.660    97494409.477 7      -188.634          42.750    23809134.640    97494411.481 7      -188.634          45.562
R08  23145647.140   123943884.396 7       941.369          43.000    23145649.940   123943884.448 6       941.369          41.312    23145660.420    96400844.949 7       732.176          45.125    23145660.380    96400849.952 7       732.176          45.312
G07  24204820.680   127197172.323 7      1401.751          44.312    24204819.180   127197172.323 4      1401.751          28.812    24204825.680    99114682.409 4      1092.274          28.937    24204826.100    99114705.401 6      1092.274          39.875
R01  21148450.800   113050595.796 7      4401.724          43.187    21148448.180   113050595.792 7      4401.724          42.625    21148463.120    87928297.585 7      3423.563          43.812    21148461.520    87928290.580 7      3423.563          44.000
G32  24990099.080   131323868.900 6      3532.055          41.750    24990098.300   131323868.899 5      3532.055          34.875    24990110.380   102330349.945 5      2752.251          34.812    24990111.780   102330354.958 6      2752.251          38.750
> 2024 05 03 14 21 52.0000000  0 18
G30  25129799.300   132057992.478 8      2277.832          48.062    25129797.540   132057992.483 4      2277.832          26.750    25129805.160   102902333.500 4      1774.934          27.125    25129804.820   102902347.503 6      1774.934          36.000
G02  21374616.940   112324368.610 7      2810.426          47.875    21374615.260   112324368.612 6      2810.426          39.750    21374617.080    87525480.969 6      2189.942          39.062
G03  22796343.680   119795610.967 7      6243.788          43.062    22796342.780   119795610.966 5      6243.788          35.000    22796353.140    93347276.768 5      4865.290          35.312    22796353.880    93347282.777 8      4865.290          49.500
G14  24654048.120   129557901.214 6      5993.956          38.875    24654047.500   129557901.221 4      5993.956          24.437    24654051.980   100954215.695 4      4670.615          24.187    24654052.200   100954225.705 6      4670.615          41.187
G08  20612511.080   108319469.738 8      2634.402          48.437    20612510.040   108319469.743 8      2634.402          48.812    20612515.100    84404799.730 8      2052.781          49.125    20612515.780    84404802.731 8      2052.781          50.687
G21  20788553.340   109244577.351 7      1821.919          47.812    20788551.280   109244577.362 6      1821.919          41.062    20788553.600    85125648.608 6      1419.677          41.000
R14  20270435.340   108052809.945 8       580.319          50.437    20270434.700   108052809.951 8       580.319          49.437    20270443.040    84041104.438 8       451.359          51.187    20270443.400    84041105.441 8       451.359          51.625
R24  20794111.400   111195448.727 8      1847.396          48.500    20794111.560   111195448.734 7      1847.396          47.250    20794120.320    86485390.374 8      1436.863          49.500    20794119.940    86485387.376 8      1436.863          49.937
G27  22051220.120   115879927.549 7       946.917          46.312    22051219.980   115879927.552 7       946.917          46.125    22051224.980    90296066.552 7       737.857          46.062    22051226.400    90296073.558 8       737.857          49.125
R02  22805520.540   121694672.504 7      6496.668          45.312    22805520.020   121694672.510 7      6496.668          44.187    22805534.240    94651502.072 7      5052.964          42.312    22805534.900    94651504.075 7      5052.964          42.687
G16  23444984.780   123204194.282 7      -821.265          42.312    23444983.180   123204194.289 5      -821.265          31.000    23444991.060    96003286.328 5      -639.946          31.375
R15  21406474.480   114389701.007 7      4406.498          45.250    21406473.660   114389701.013 7      4406.498          45.187    21406482.160    88969806.046 8      3427.276          48.437    21406482.160    88969807.054 8      3427.276          48.812
R17  21624211.600   115715518.831 7      3785.414          44.500    21624209.680   115715518.837 7      3785.414          43.062    21624221.160    90001004.698 8      2944.211          49.250    21624220.960    90001000.719 8      2944.211          49.500
G10  23809173.440   125118032.097 7      -242.375          44.750    23809172.800   125118032.099 7      -242.375          42.750    23809180.780    97494598.279 7      -188.864          42.750    23809180.780    97494600.280 7      -188.864          45.562
R08  23145471.920   123942943.501 7       940.616          43.000    23145474.320   123942943.551 6       940.616          41.312    23145484.980    96400113.142 7       731.590          45.562    23145484.700    96400118.142 7       731.590          45.687
G07  24204553.860   127195770.669 7      1401.514          43.500    24204552.460   127195770.674 4      1401.514          28.812    24204558.980    99113590.204 4      1092.089          28.937    24204559.520    99113613.207 6      1092.089          39.875
R01  21147627.600   113046194.665 7      4400.964          43.187    21147625.380   113046194.667 7      4400.964          42.625    21147639.960    87924874.490 7      3422.972          43.937    21147638.200    87924867.483 7      3422.972          44.062
G32  24989427.000   131320337.161 7      3531.725          42.250    24989426.340   131320337.161 5      3531.725          34.500    24989438.060   102327597.948 5      2751.993          34.812    24989438.960   102327602.968 6      2751.993          38.750
> 2024 05 03 14 21 53.0000000  0 18
G30  25129365.960   132055714.906 7      2277.569          47.500    25129364.300   132055714.911 4      2277.569          26.750    25129371.640   102900558.767 4      1774.729          27.125    25129372.280   102900572.778 6      1774.729          36.000
G02  21374082.140   112321558.351 8      2810.204          48.250    21374080.580   112321558.353 6      2810.204          39.437    21374082.280    87523291.159 6      2189.769          39.500
G03  22795155.600   119789367.554 7      6243.393          43.375    22795154.800   119789367.556 5      6243.393          35.000    22795165.020    93342411.779 5      4864.982          35.062    22795165.540    93342417.782 8      4864.982          49.187
G14  24652907.700   129551907.368 6      5994.010          39.437    24652906.940   129551907.375 4      5994.010          24.437    24652911.520   100949545.168 4      4670.657          24.187    24652912.200   100949555.172 6      4670.657          41.187
G08  20612009.740   108316835.591 8      2634.087          48.937    20612008.740   108316835.596 8      2634.087          49.000    20612013.860    84402747.145 8      2052.535          49.562    20612014.460    84402750.145 8      2052.535          50.562
G21  20788206.420   109242755.591 8      1821.763          48.562    20788204.600   109242755.598 6      1821.763          40.812    20788206.880    85124229.054 6      1419.556          41.000
R14  20270326.560   108052230.135 8       579.597          50.625    20270326.300   108052230.135 8       579.597          48.937    20270334.300    84040653.466 8       450.798          51.312    20270334.480    84040654.467 8       450.798          51.437
R24  20793765.880   111193601.349 7      1847.452          47.937    20793765.840   111193601.356 7      1847.452          46.687    20793774.600    86483953.527 8      1436.907          49.625    20793774.500    86483950.526 8      1436.907          50.187
G27  22051039.820   115878980.934 7       946.585          46.375    22051039.880   115878980.941 7       946.585          45.937    22051044.860    90295328.927 7       737.599          46.062    22051046.300    90295335.933 8       737.599          48.687
R02  22804303.200   121688176.000 7      6496.653          45.687    22804302.300   121688176.006 7      6496.653          44.500    22804317.000    94646449.252 7      5052.952          42.437    22804317.540    94646451.257 7      5052.952          42.812
G16  23445140.940   123205015.709 7      -821.475          43.750    23445139.600   123205015.717 5      -821.475          31.000    23445147.460    96003926.391 5      -640.111          31.375
R15  21405649.860   114385295.040 7      4405.665          45.312    21405649.260   114385295.042 7      4405.665          45.375    21405657.580    88966379.179 8      3426.628          48.500    21405657.780    88966380.187 8      3426.628          48.625
R17  21623503.460   115711733.575 7      3785.359          44.500    21623502.300   115711733.598 7      3785.359          43.062    21623513.520    89998060.623 8      2944.168          49.062    21623513.720    89998056.644 8      2944.168          49.062
G10  23809219.860   125118274.695 7      -242.802          45.312    23809218.840   125118274.692 7      -242.802          42.687    23809226.900    97494787.307 7      -189.196          42.625    23809226.940    97494789.309 7      -189.196          45.750
R08  23145296.960   123942003.329 6       939.848          41.937    23145298.620   123942003.360 6       939.848          41.312    23145309.540    96399381.879 7       730.993          45.312    23145309.160    96399386.881 7       730.993          45.687
G07  24204287.020   127194369.311 7      1401.323          43.187    24204285.780   127194369.313 4      1401.323          28.937    24204292.420    99112498.231 4      1091.940          28.937    24204292.700    99112521.230 6      1091.940          39.875
R01  21146804.580   113041794.232 7      4400.132          42.062    21146801.800   113041794.231 6      4400.132          41.500    21146816.920    87921451.933 7      3422.325          43.812    21146815.160    87921444.926 7      3422.325          44.437
G32  24988754.980   131316805.751 6      3531.390          41.687    24988754.260   131316805.756 5      3531.390          34.312    24988766.040   102324846.210 5      2751.732          34.812    24988766.780   102324851.222 6      2751.732          38.750
> 2024 05 03 14 21 54.0000000  0 18
G30  25128932.340   132053437.571 7      2277.223          47.562    25128930.820   132053437.576 4      2277.223          26.750    25128938.140   102898784.216 4      1774.460          27.125    25128940.280   102898798.229 6      1774.460          36.000
G02  21373547.540   112318748.136 7      2810.141          47.500    21373545.800   112318748.141 6      2810.141          39.875    21373547.500    87521101.383 6      2189.720          39.750
G03  22793967.600   119783124.080 7      6243.404          42.875    22793966.560   119783124.088 5      6243.404          35.125    22793977.040    93337546.740 5      4864.990          34.875    22793977.480    93337552.752 8      4864.990          49.312
G14  24651767.360   129545913.598 6      5993.765          38.875    24651766.320   129545913.608 4      5993.765          24.437    24651771.040   100944874.702 4      4670.466          24.187    24651771.040   100944884.697 6      4670.466          41.375
G08  20611508.540   108314201.562 8      2633.981          48.375    20611507.540   108314201.567 8      2633.981          49.187    20611512.560    84400694.658 8      2052.453          49.187    20611513.160    84400697.657 8      2052.453          50.625
G21  20787859.760   109240933.875 7      1821.686          47.437    20787857.920   109240933.883 6      1821.686          40.625    20787860.240    85122809.536 6      1419.496          40.625
R14  20270217.700   108051650.801 8       579.069          50.312    20270217.600   108051650.802 8       579.069          49.562    20270225.360    84040202.869 8       450.387          51.312    20270225.840    84040203.868 8       450.387          51.750
R24  20793420.460   111191753.883 8      1847.515          48.000    20793420.380   111191753.890 7      1847.515          47.250    20793429.320    86482516.611 8      1436.956          50.187    20793429.300    86482513.608 8      1436.956          50.312
G27  22050859.980   115878034.386 7       946.604          46.000    22050859.880   115878034.388 7       946.604          46.125    22050864.680    90294591.355 7       737.614          46.312    22050866.160    90294598.358 8       737.614          48.687
R02  22803085.740   121681679.336 7      6496.678          45.500    22803084.780   121681679.342 7      6496.678          44.250    22803099.340    94641396.301 7      5052.972          42.625    22803100.020    94641398.309 7      5052.972          42.750
G16  23445296.940   123205837.087 7      -821.348          43.750    23445295.820   123205837.095 5      -821.348          30.812    23445303.820    96004566.419 5      -640.011          31.375
R15  21404825.480   114380889.670 7      4405.012          45.625    21404824.620   114380889.663 7      4405.012          44.812    21404833.420    88962952.773 8      3426.120          48.437    21404833.000    88962953.782 8      3426.120          48.062
R17  21622796.380   115707948.250 7      3785.377          43.750    21622794.660   115707948.259 7      3785.377          42.875    21622806.120    89995116.474 8      2944.182          48.625    21622805.780    89995112.490 8      2944.182          48.687
G10  23809265.920   125118517.399 7      -242.631          44.312    23809264.960   125118517.402 7      -242.631          42.687    23809273.040    97494976.425 7      -189.063          42.437    23809273.420    97494978.423 7      -189.063          45.812
R08  23145121.180   123941063.690 6       939.305          41.937    23145123.080   123941063.731 6       939.305          40.562    23145133.800    96398651.058 7       730.571          45.437    23145133.820    96398656.061 7       730.571          46.125
G07  24204020.300   127192968.011 7      1401.184          44.062    24204019.100   127192968.014 4      1401.184          28.937    24204025.900    99111406.303 4      1091.831          28.937    24204026.400    99111429.308 6      1091.831          40.500
R01  21145981.280   113037394.299 7      4399.759          42.062    21145979.160   113037394.303 6      4399.759          41.500    21145993.860    87918029.773 7      3422.035          43.812    21145992.160    87918022.770 7      3422.035          44.312
G32  24988082.880   131313274.554 7      3531.213          42.687    24988082.460   131313274.556 5      3531.213          34.312    24988093.860   102322094.636 5      2751.595          34.500    24988094.160   102322099.646 6      2751.595          38.500
> 2024 05 03 14 21 55.0000000  0 18
G30  25128499.140   132051160.701 7      2276.644          47.812    25128497.680   132051160.703 4      2276.644          26.750    25128504.920   102897010.033 4      1774.009          27.125    25128505.460   102897024.044 6      1774.009          36.000
G02  21373012.840   112315938.167 7      2809.806          47.937    21373011.060   112315938.171 6      2809.806          40.312    21373012.800    87518911.796 6      2189.459          40.250
G03  22792779.540   119776880.914 7      6243.060          43.625    22792778.660   119776880.919 5      6243.060          35.125    22792788.920    93332681.944 5      4864.722          34.875    22792789.480    93332687.955 8      4864.722          49.937
G14  24650626.580   129539919.975 6      5993.569          38.875    24650625.780   129539919.982 4      5993.569          24.125    24650630.460   100940204.348 4      4670.314          24.000    24650630.840   100940214.354 6      4670.314          41.375
G08  20611007.500   108311567.820 8      2633.553          48.250    20611006.300   108311567.830 8      2633.553          49.000    20611011.420    84398642.393 8      2052.119          49.125    20611012.280    84398645.395 8      2052.119          50.875
G21  20787513.180   109239112.380 7      1821.408          47.500    20787511.340   109239112.387 6      1821.408          40.562    20787513.620    85121390.189 6      1419.279          40.562
R14  20270109.160   108051072.222 8       578.240          50.875    20270109.280   108051072.225 8       578.240          49.250    20270116.740    84039752.865 8       449.742          51.000    20270117.240    84039753.862 8       449.742          51.625
R24  20793075.080   111189906.444 7      1847.420          47.500    20793074.920   111189906.445 8      1847.420          48.000    20793083.760    86481079.709 8      1436.882          49.625    20793083.560    86481076.709 8      1436.882          49.875
G27  22050679.600   115877088.109 7       946.146          46.062    22050679.700   115877088.114 7       946.146          46.437    22050684.640    90293853.999 7       737.256          46.437    22050685.880    90293861.001 8       737.256          48.875
R02  22801868.460   121675182.715 7      6496.623          45.625    22801867.200   121675182.713 7      6496.623          44.062    22801882.060    94636343.390 7      5052.929          42.625    22801882.840    94636345.392 7      5052.929          42.875
G16  23445453.320   123206658.701 7      -821.650          42.812    23445452.220   123206658.709 5      -821.650          30.812    23445460.180    96005206.632 5      -640.247          30.937
R15  21404000.880   114376485.091 7      4404.226          46.312    21404000.540   114376485.073 7      4404.226          44.812    21404009.080    88959526.985 8      3425.509          48.312    21404008.860    88959527.992 8      3425.509          48.312
R17  21622089.220   115704163.010 7      3785.191          44.437    21622087.380   115704163.009 7      3785.191          43.250    21622098.880    89992172.397 8      2944.037          49.062    21622098.500    89992168.404 8      2944.037          48.750
G10  23809312.120   125118760.439 7      -243.191          45.375    23809311.100   125118760.439 7      -243.191          42.812    23809319.280    97495165.798 7      -189.500          42.250    23809319.800    97495167.799 7      -189.500          45.500
R08  23144945.460   123940124.736 7       938.589          42.062    23144947.300   123940124.772 6       938.589          40.562    23144958.620    96397920.755 7       730.013          45.062    23144958.360    96397925.755 7       730.013          45.187
G07  24203753.900   127191567.061 7      1400.807          43.625    24203752.480   127191567.066 4      1400.807          28.937    24203759.340    99110314.647 4      1091.538          28.937    24203759.700    99110337.640 6      1091.538          40.500
R01  21145158.060   113032995.106 7      4398.852          42.187    21145155.760   113032995.118 6      4398.852          41.375    21145170.880    87914608.187 7      3421.329          44.000    21145169.060    87914601.182 7      3421.329          45.062
G32  24987411.100   131309743.698 7      3530.670          42.875    24987410.400   131309743.700 5      3530.670          34.250    24987422.000   102319343.328 5      2751.171          34.500    24987422.580   102319348.336 6      2751.171          38.500
> 2024 05 03 14 21 56.0000000  0 18
G30  25128065.960   132048884.211 7      2276.182          47.562    25128064.560   132048884.216 4      2276.182          26.750    25128071.660   102895236.142 4      1773.648          26.250    25128072.960   102895250.148 6      1773.648          36.000
G02  21372478.020   112313128.391 8      2809.572          48.062    21372476.480   112313128.396 6      2809.572          39.875    21372478.100    87516722.361 6      2189.277          39.812
G03  22791591.400   119770637.935 7      6242.762          42.937    22791590.520   119770637.934 5      6242.762          35.125    22791601.100    93327817.293 5      4864.490          34.812    22791601.680    93327823.296 8      4864.490          48.750
G14  24649486.020   129533926.538 6      5993.359          38.937    24649485.400   129533926.546 4      5993.359          24.125    24649489.820   100935534.138 4      4670.150          24.000    24649489.920   100935544.150 6      4670.150          41.312
G08  20610506.300   108308934.351 8      2633.261          48.375    20610505.140   108308934.353 8      2633.261          48.375    20610510.280    84396590.335 8      2051.892          48.937    20610511.200    84396593.335 8      2051.892          50.312
G21  20787166.600   109237291.095 7      1821.116          47.562    20787164.700   109237291.100 6      1821.116          40.750    20787166.980    85119971.006 6      1419.051          40.500
R14  20270000.620   108050494.320 8       577.446          49.937    20270000.760   108050494.325 8       577.446          48.937    20270008.220    84039303.382 8       449.125          50.812    20270009.020    84039304.380 8       449.125          50.562
R24  20792729.500   111188059.036 7      1847.303          47.750    20792729.160   111188059.038 7      1847.303          46.500    20792738.280    86479642.835 8      1436.791          49.125    20792738.140    86479639.841 8      1436.791          49.250
G27  22050499.700   115876142.079 7       945.832          46.937    22050499.660   115876142.084 7       945.832          46.375    22050504.620    90293116.827 7       737.012          46.312    22050505.980    90293123.831 8       737.012          48.375
R02  22800650.680   121668686.144 7      6496.374          45.375    22800649.840   121668686.145 7      6496.374          44.125    22800664.560    94631290.513 7      5052.735          42.187    22800664.980    94631292.516 7      5052.735          42.875
G16  23445609.940   123207480.473 7      -822.021          42.875    23445608.660   123207480.481 5      -822.021          30.812    23445616.620    96005846.968 5      -640.536          30.937
R15  21403176.900   114372081.251 7      4403.388          45.125    21403176.380   114372081.242 7      4403.388          44.750    21403184.980    88956101.783 8      3424.857          48.312    21403184.740    88956102.787 7      3424.857          47.500
R17  21621381.360   115700377.786 7      3785.000          43.437    21621380.000   115700377.799 7      3785.000          43.250    21621391.320    89989228.343 8      2943.889          48.437    21621390.640    89989224.347 8      2943.889          48.125
G10  23809358.640   125119003.769 7      -243.598          45.062    23809357.380   125119003.768 7      -243.598          42.000    23809365.600    97495355.404 7      -189.817          42.062    23809365.720    97495357.408 7      -189.817          45.562
R08  23144770.480   123939186.505 7       937.803          42.062    23144772.020   123939186.549 6       937.803          40.562    23144783.340    96397191.024 7       729.402          45.312    23144783.280    96397196.022 7       729.402          45.312
G07  24203487.400   127190166.326 7      1400.493          44.000    24203485.940   127190166.331 4      1400.493          28.937    24203492.860    99109223.159 4      1091.293          28.937    24203493.540    99109246.158 6      1091.293          40.375
R01  21144335.260   113028596.608 7      4398.068          42.187    21144333.240   113028596.618 6      4398.068          41.375    21144348.100    87911187.137 7      3420.719          43.375    21144346.320    87911180.132 7      3420.719          44.562
G32  24986739.240   131306213.218 6      3530.188          41.937    24986738.520   131306213.215 5      3530.188          34.125    24986750.300   102316592.308 5      2750.796          34.500    24986750.660   102316597.325 6      2750.796          38.500
> 2024 05 03 14 21 57.0000000  0 18
G30  25127632.740   132046608.229 8      2275.765          48.000    25127631.220   132046608.237 4      2275.765          25.687    25127638.520   102893462.647 4      1773.324          26.250    25127639.120   102893476.633 6      1773.324          36.000
G02  21371943.680   112310318.936 7      2809.207          47.750    21371941.900   112310318.941 6      2809.207          39.500    21371943.580    87514533.173 6      2188.993          39.500
G03  22790403.360   119764395.289 7      6242.375          43.250    22790402.640   119764395.289 5      6242.375          35.062    22790413.120    93322952.900 5      4864.189          34.812    22790413.780    93322958.905 8      4864.189          49.437
G14  24648345.500   129527933.378 6      5993.108          39.125    24648344.800   129527933.383 4      5993.108          24.125    24648349.380   100930864.145 4      4669.954          24.000    24648349.600   100930874.137 6      4669.954          41.312
G08  20610005.100   108306301.231 8      2632.907          48.750    20610004.020   108306301.231 8      2632.907          49.250    20610009.300    84394538.553 8      2051.616          49.687    20610010.020    84394541.553 8      2051.616          50.562
G21  20786819.920   109235470.081 7      1820.853          47.812    20786818.120   109235470.088 6      1820.853          41.062    20786820.540    85118552.036 6      1418.846          41.375
R14  20269892.320   108049917.275 8       576.582          50.625    20269892.540   108049917.276 8       576.582          49.812    20269899.900    84038854.565 8       448.453          51.125    20269900.360    84038855.562 8       448.453          51.312
R24  20792384.140   111186211.738 7      1847.155          47.312    20792383.860   111186211.745 7      1847.155          46.937    20792392.940    86478206.052 8      1436.676          49.312    20792392.760    86478203.053 8      1436.676          50.125
G27  22050319.640   115875196.370 7       945.442          46.437    22050319.740   115875196.367 7       945.442          46.437    22050324.760    90292379.906 7       736.708          46.437    22050325.920    90292386.909 8       736.708          48.937
R02  22799433.140   121662189.731 7      6496.300          45.625    22799432.360   121662189.724 7      6496.300          44.250    22799447.420    94626237.761 7      5052.678          42.187    22799447.560    94626239.759 7      5052.678          42.687
G16  23445766.320   123208302.497 7      -822.217          42.687    23445764.980   123208302.502 5      -822.217          30.750    23445772.940    96006487.498 5      -640.688          30.937
R15  21402352.680   114367678.264 7      4402.562          45.625    21402352.380   114367678.265 7      4402.562          45.250    21402361.000    88952677.248 8      3424.215          48.312    21402360.680    88952678.248 8      3424.215          48.125
R17  21620673.720   115696592.769 7      3784.943          43.437    21620672.720   115696592.778 7      3784.943          43.125    21620684.060    89986284.442 8      2943.845          48.937    21620683.480    89986280.443 8      2943.845          48.687
G10  23809405.060   125119247.442 7      -243.942          44.250    23809403.660   125119247.439 6      -243.942          41.812    23809411.940    97495545.271 7      -190.085          42.125    23809412.160    97495547.271 7      -190.085          45.437
R08  23144595.720   123938249.024 7       937.155          42.062    23144596.580   123938249.068 6       937.155          40.500    23144607.980    96396461.870 7       728.898          45.875    23144608.060    96396466.870 7       728.898          45.812
G07  24203220.740   127188765.982 7      1400.101          43.250    24203219.440   127188765.985 4      1400.101          29.062    24203226.240    99108131.978 4      1090.988          28.937    24203226.880    99108154.973 6      1090.988          40.375
R01  21143512.540   113024198.888 6      4397.331          41.625    21143510.660   113024198.895 6      4397.331          41.500    21143525.520    87907766.686 7      3420.146          43.875    21143523.360    87907759.679 7      3420.146          44.625
G32  24986067.800   131302683.116 7      3529.896          42.750    24986066.760   131302683.113 5      3529.896          34.125    24986078.380   102313841.590 5      2750.569          34.437    24986079.200   102313846.596 6      2750.569          38.500
> 2024 05 03 14 21 58.0000000  0 18
G30  25127199.680   132044332.807 8      2275.050          48.000    25127198.340   132044332.812 4      2275.050          25.687    25127205.440   102891689.588 4      1772.766          26.250    25127206.080   102891703.587 5      1772.766          34.562
G02  21371409.020   112307509.820 7      2808.818          47.875    21371407.300   112307509.822 6      2808.818          39.687    21371409.000    87512344.256 6      2188.690          39.625
G03  22789215.480   119758152.919 7      6242.197          42.875    22789214.620   119758152.919 5      6242.197          35.062    22789225.280    93318088.725 5      4864.049          34.812    22789225.980    93318094.733 8      4864.049          49.375
G14  24647205.340   129521940.538 6      5992.595          38.812    24647204.620   129521940.543 4      5992.595          24.125    24647209.000   100926194.400 4      4669.554          24.000    24647209.640   100926204.406 6      4669.554          40.937
G08  20609504.280   108303668.537 8      2632.433          49.812    20609503.020   108303668.542 8      2632.433          49.437    20609508.200    84392487.106 8      2051.247          49.625    20609509.220    84392490.107 8      2051.247          51.000
G21  20786473.460   109233649.439 7      1820.395          47.625    20786471.640   109233649.444 6      1820.395          40.562    20786474.080    85117133.352 6      1418.489          40.625
R14  20269784.360   108049341.074 8       575.684          50.875    20269784.380   108049341.074 8       575.684          49.187    20269791.580    84038406.404 8       447.754          51.000    20269792.400    84038407.401 8       447.754          50.750
R24  20792038.600   111184364.665 7      1846.948          47.500    20792038.580   111184364.675 7      1846.948          47.375    20792047.380    86476769.439 8      1436.515          49.562    20792047.420    86476766.441 8      1436.515          49.812
G27  22050139.860   115874251.039 7       945.069          46.562    22050139.860   115874251.036 7       945.069          46.437    22050144.740    90291643.283 7       736.417          46.250    22050146.060    90291650.283 8       736.417          49.000
R02  22798215.780   121655693.513 7      6495.983          45.125    22798215.180   121655693.514 7      6495.983          44.312    22798229.900    94621185.164 7      5052.431          42.625    22798230.200    94621187.169 7      5052.431          43.062
G16  23445922.940   123209124.808 7      -822.588          43.375    23445921.340   123209124.808 5      -822.588          30.750    23445929.320    96007128.245 5      -640.978          30.937
R15  21401528.740   114363276.234 7      4401.552          46.000    21401528.400   114363276.240 7      4401.552          45.187    21401537.440    88949253.451 8      3423.429          48.750    21401536.660    88949254.447 8      3423.429          48.375
R17  21619966.820   115692808.030 7      3784.576          43.187    21619965.800   115692808.031 7      3784.576          43.250    21619976.880    89983340.750 8      2943.559          49.125    21619976.220    89983336.748 8      2943.559          48.750
G10  23809451.360   125119491.580 7      -244.504          44.687    23809450.100   125119491.580 7      -244.504          42.187    23809458.400    97495735.504 7      -190.523          42.187    23809458.460    97495737.511 7      -190.523          45.500
R08  23144420.860   123937312.498 6       936.067          41.687    23144421.540   123937312.543 6       936.067          40.500    23144433.440    96395733.457 7       728.052          45.375    23144433.340    96395738.457 7       728.052          45.500
G07  24202954.540   127187366.023 7      1399.652          43.375    24202953.100   127187366.025 4      1399.652          29.062    24202959.880    99107041.094 4      1090.638          28.937    24202960.920    99107064.091 6      1090.638          40.187
R01  21142690.260   113019802.010 7      4396.484          42.437    21142688.360   113019802.001 6      4396.484          41.500    21142703.000    87904346.882 7      3419.488          43.812    21142701.000    87904339.879 7      3419.488          45.000
G32  24985396.300   131299153.546 7      3529.216          42.750    24985395.020   131299153.548 5      3529.216          34.375    24985406.720   102311091.283 5      2750.039          34.437    24985407.980   102311096.306 6      2750.039          38.437
> 2024 05 03 14 21 59.0000000  0 18
G30  25126766.900   132042057.781 8      2274.556          48.062    25126765.300   132042057.786 4      2274.556          25.687    25126772.520   102889916.837 4      1772.381          26.250    25126772.460   102889930.823 5      1772.381          34.562
G02  21370874.380   112304700.917 7      2808.560          47.750    21370872.820   112304700.914 6      2808.560          40.250    21370874.420    87510155.498 6      2188.489          40.125
G03  22788027.860   119751910.783 7      6241.884          42.875    22788026.780   119751910.783 5      6241.884          34.562    22788037.380    93313224.729 5      4863.806          34.000    22788037.800    93313230.743 8      4863.806          49.125
G14  24646065.020   129515947.877 6      5992.354          39.250    24646064.120   129515947.885 4      5992.354          24.125    24646068.540   100921524.794 4      4669.367          24.000    24646068.540   100921534.804 6      4669.367          40.937
G08  20609003.360   108301036.122 8      2632.007          48.875    20609002.180   108301036.121 8      2632.007          49.437    20609007.300    84390435.871 8      2050.915          49.375    20609008.540    84390438.873 8      2050.915          51.062
G21  20786127.160   109231828.961 7      1820.207          47.500    20786125.180   109231828.969 6      1820.207          40.687    20786127.660    85115714.800 6      1418.343          41.125
R14  20269676.440   108048765.573 8       574.902          50.687    20269676.440   108048765.576 8       574.902          49.500    20269683.600    84037958.795 8       447.146          50.875    20269684.540    84037959.791 8       447.146          50.875
R24  20791692.920   111182517.584 7      1846.894          46.875    20791692.920   111182517.591 7      1846.894          46.812    20791702.000    86475332.823 8      1436.473          49.562    20791701.740    86475329.822 8      1436.473          50.187
G27  22049960.100   115873305.926 7       944.795          47.062    22049960.040   115873305.929 7       944.795          46.500    22049964.940    90290906.833 7       736.204          46.062    22049966.240    90290913.835 8       736.204          49.062
R02  22796998.500   121649197.292 7      6495.934          45.437    22796997.440   121649197.301 7      6495.934          44.500    22797012.500    94616132.570 7      5052.393          42.562    22797012.820    94616134.574 7      5052.393          43.000
G16  23446079.120   123209947.247 7      -822.736          43.125    23446077.860   123209947.250 5      -822.736          30.750    23446086.100    96007769.099 5      -641.093          30.437
R15  21400705.220   114358875.039 7      4400.631          46.937    21400704.900   114358875.022 7      4400.631          44.562    21400713.740    88945830.283 8      3422.713          48.000    21400713.020    88945831.275 8      3422.713          48.000
R17  21619259.480   115689023.347 7      3784.506          43.125    21619258.860   115689023.345 7      3784.506          43.125    21619269.520    89980397.110 8      2943.504          49.375    21619268.660    89980393.108 8      2943.504          48.437
G10  23809497.500   125119735.979 7      -244.716          43.937    23809496.580   125119735.984 7      -244.716          42.187    23809504.920    97495925.943 7      -190.688          42.125    23809505.280    97495927.947 7      -190.688          45.562
R08  23144246.500   123936376.656 6       935.359          41.687    23144247.400   123936376.700 6       935.359          40.500    23144258.340    96395005.579 7       727.502          45.125    23144258.580    96395010.584 7       727.502          45.687
G07  24202688.120   127185966.320 7      1399.360          43.875    24202686.680   127185966.320 4      1399.360          29.062    24202693.280    99105950.407 4      1090.411          28.937    24202694.760    99105973.414 6      1090.411          40.187
R01  21141867.740   113015405.792 7      4395.578          42.437    21141865.720   113015405.788 6      4395.578          41.437    21141880.340    87900927.611 7      3418.783          44.000    21141878.960    87900920.610 7      3418.783          44.562
G32  24984724.540   131295624.295 7      3528.792          42.000    24984723.480   131295624.295 5      3528.792          34.125    24984735.000   102308341.228 5      2749.708          34.375    24984736.180   102308346.243 6      2749.708          38.437
> 2024 05 03 14 22  0.0000000  0 18
G30  25126334.180   132039783.144 7      2274.485          47.750    25126332.360   132039783.144 4      2274.485          25.687    25126339.760   102888144.391 4      1772.326          26.250    25126339.640   102888158.397 5      1772.326          34.562
G02  21370340.040   112301892.190 7      2808.703          46.937    21370338.280   112301892.189 6      2808.703          40.062    21370339.920    87507966.882 6      2188.600          40.062
G03  22786839.640   119745668.883 7      6241.772          42.937    22786839.040   119745668.888 5      6241.772          34.875    22786849.320    93308360.920 5      4863.719          34.187    22786849.700    93308366.927 8      4863.719          49.812
G14  24644924.920   129509955.360 6      5992.525          39.687    24644923.840   129509955.371 4      5992.525          24.125    24644927.980   100916855.304 4      4669.500          24.000    24644928.960   100916865.310 6      4669.500          40.750
G08  20608502.300   108298403.930 8      2631.979          49.375    20608501.220   108298403.929 8      2631.979          49.312    20608506.460    84388384.810 8      2050.893          49.625    20608507.480    84388387.816 8      2050.893          50.687
G21  20785780.600   109230008.675 7      1820.252          47.687    20785778.800   109230008.682 6      1820.252          41.187    20785781.220    85114296.397 6      1418.378          41.125
R14  20269568.700   108048190.762 8       574.487          50.875    20269568.540   108048190.763 8       574.487          49.250    20269575.580    84037511.715 8       446.823          51.000    20269576.080    84037512.710 8       446.823          50.750
R24  20791347.620   111180670.484 7      1847.051          47.812    20791347.420   111180670.488 7      1847.051          46.937    20791356.500    86473896.185 8      1436.595          49.437    20791356.340    86473893.189 8      1436.595          49.875
G27  22049780.360   115872361.053 7       944.717          46.437    22049780.100   115872361.057 7       944.717          46.375    22049785.220    90290170.564 7       736.143          46.062    22049786.420    90290177.570 8       736.143          48.687
R02  22795780.940   121642701.087 7      6496.215          45.500    22795780.620   121642701.090 7      6496.215          44.562    22795795.220    94611079.979 7      5052.611          42.812    22795795.720    94611081.987 7      5052.611          43.375
G16  23446236.020   123210769.855 7      -822.591          43.312    23446234.220   123210769.862 5      -822.591          30.750    23446242.720    96008410.085 5      -640.980          30.437
R15  21399882.040   114354474.572 7      4400.173          47.437    21399881.520   114354474.538 7      4400.173          44.937    21399890.380    88942407.687 8      3422.357          48.687    21399889.680    88942408.678 8      3422.357          48.750
R17  21618552.380   115685238.704 7      3784.741          43.437    21618551.640   115685238.713 7      3784.741          43.125    21618562.140    89977453.507 8      2943.687          49.125    21618561.520    89977449.501 8      2943.687          48.375
G10  23809544.360   125119980.627 7      -244.688          44.000    23809543.060   125119980.629 7      -244.688          42.312    23809551.420    97496116.572 6      -190.666          41.812    23809551.720    97496118.578 7      -190.666          45.437
R08  23144071.800   123935441.515 6       934.646          41.437    23144073.600   123935441.570 6       934.646          40.750    23144083.760    96394278.252 7       726.947          45.812    23144084.020    96394283.250 7       726.947          45.625
G07  24202421.800   127184566.881 7      1399.434          43.375    24202420.400   127184566.880 4      1399.434          29.062    24202427.100    99104859.932 4      1090.468          28.937    24202427.620    99104882.933 6      1090.468          40.250
R01  21141045.560   113011010.197 6      4395.297          41.500    21141043.060   113011010.193 6      4395.297          41.437    21141058.000    87897508.817 7      3418.565          43.750    21141056.520    87897501.816 7      3418.565          44.562
G32  24984053.080   131292095.363 7      3528.662          42.500    24984051.860   131292095.365 5      3528.662          34.125    24984063.360   102305591.419 5      2749.607          34.187    24984064.220   102305596.427 6      2749.607          38.437
> 2024 05 03 14 22  1.0000000  0 18
G30  25125901.280   132037509.012 8      2274.016          48.500    25125899.700   132037509.017 4      2274.016          25.687    25125906.820   102886372.333 4      1771.960          26.250    25125907.340   102886386.336 5      1771.960          34.562
G02  21369805.780   112299083.773 7      2808.510          47.062    21369803.960   112299083.775 6      2808.510          40.000    21369805.440    87505778.509 6      2188.450          39.812
G03  22785652.260   119739427.220 7      6241.792          44.000    22785651.280   119739427.222 5      6241.792          34.875    22785661.540    93303497.294 5      4863.734          34.187    22785662.240    93303503.302 8      4863.734          49.312
G14  24643784.920   129503963.120 6      5992.339          39.437    24643783.480   129503963.130 4      5992.339          24.125    24643787.820   100912186.026 4      4669.355          24.000    24643788.720   100912196.019 6      4669.355          40.750
G08  20608001.460   108295772.092 8      2631.948          48.187    20608000.400   108295772.092 8      2631.948          49.250    20608005.580    84386334.028 8      2050.868          49.687    20608006.760    84386337.029 8      2050.868          50.812
G21  20785434.540   109228188.682 7      1820.013          47.750    20785432.380   109228188.690 6      1820.013          41.125    20785434.980    85112878.221 6      1418.192          41.312
R14  20269461.060   108047616.703 8       573.835          50.562    20269460.760   108047616.704 8       573.835          49.750    20269467.760    84037065.223 8       446.316          50.437    20269468.640    84037066.219 8       446.316          51.000
R24  20791002.040   111178823.507 8      1847.062          48.500    20791001.820   111178823.517 7      1847.062          46.687    20791011.040    86472459.654 8      1436.604          49.750    20791010.880    86472456.653 8      1436.604          50.250
G27  22049600.380   115871416.497 7       944.633          46.312    22049600.400   115871416.499 7       944.633          46.500    22049605.400    90289434.544 7       736.078          46.500    22049606.360    90289441.542 8       736.078          48.625
R02  22794563.440   121636204.997 7      6496.241          45.500    22794563.200   121636205.000 7      6496.241          44.187    22794577.660    94606027.481 7      5052.632          42.750    22794578.500    94606029.487 7      5052.632          42.937
G16  23446392.380   123211592.712 7      -822.781          43.250    23446390.980   123211592.719 5      -822.781          30.312    23446399.140    96009051.267 5      -641.128          30.437
R15  21399058.700   114350074.949 7      4399.352          46.062    21399057.900   114350074.926 7      4399.352          44.812    21399066.800    88938985.766 8      3421.718          48.562    21399066.400    88938986.747 8      3421.718          48.250
R17  21617845.120   115681454.269 7      3784.486          44.625    21617844.660   115681454.271 7      3784.486          43.625    21617855.100    89974510.056 8      2943.489          49.125    21617853.860    89974506.050 8      2943.489          48.437
G10  23809590.820   125120225.693 7      -245.040          43.687    23809589.760   125120225.695 7      -245.040          42.125    23809598.060    97496307.522 6      -190.940          41.812    23809598.240    97496309.531 7      -190.940          45.562
R08  23143897.300   123934507.126 6       934.350          41.437    23143898.540   123934507.173 6       934.350          40.750    23143909.340    96393551.501 7       726.717          46.000    23143909.380    96393556.505 7       726.717          45.875
G07  24202155.100   127183167.793 7      1399.079          43.312    24202154.180   127183167.795 4      1399.079          28.875    24202160.960    99103769.728 4      1090.192          28.937    24202161.560    99103792.727 6      1090.192          40.250
R01  21140223.420   113006615.371 6      4394.764          41.500    21140220.840   113006615.389 6      4394.764          41.375    21140235.740    87894090.636 7      3418.150          43.750    21140234.280    87894083.639 7      3418.150          45.062
G32  24983381.700   131288566.859 6      3528.484          41.937    24983380.480   131288566.856 5      3528.484          34.062    24983391.940   102302841.940 5      2749.468          34.187    24983392.640   102302846.948 6      2749.468          38.250
> 2024 05 03 14 22  2.0000000  0 18
G30  25125468.720   132035235.203 8      2273.379          48.375    25125467.040   132035235.207 4      2273.379          25.687    25125474.160   102884600.528 4      1771.465          25.000    25125474.780   102884614.526 5      1771.465          34.562
G02  21369271.260   112296275.492 7      2807.949          47.062    21369269.480   112296275.492 6      2807.949          39.937    21369271.000    87503590.236 6      2188.012          39.875
G03  22784464.060   119733185.741 7      6241.152          42.625    22784463.620   119733185.743 5      6241.152          34.437    22784473.980    93298633.812 5      4863.235          34.062    22784474.640    93298639.815 8      4863.235          49.437
G14  24642644.860   129497970.939 6      5991.952          39.312    24642643.220   129497970.950 3      5991.952          23.562    24642647.580   100907516.798 4      4669.054          24.000    24642648.100   100907526.804 6      4669.054          40.625
G08  20607500.820   108293140.452 8      2631.262          48.687    20607499.640   108293140.454 8      2631.262          49.437    20607504.860    84384283.403 8      2050.334          49.375    20607505.880    84384286.409 8      2050.334          51.062
G21  20785088.140   109226368.772 7      1819.609          46.875    20785086.120   109226368.779 6      1819.609          41.312    20785088.520    85111460.113 6      1417.877          41.375
R14  20269353.480   108047043.273 8       572.874          50.250    20269353.000   108047043.271 8       572.874          49.875    20269360.100    84036619.216 8       445.568          50.750    20269360.980    84036620.214 8       445.568          50.562
R24  20790656.760   111176976.482 7      1846.758          47.750    20790656.680   111176976.491 7      1846.758          47.125    20790665.820    86471023.077 8      1436.368          49.500    20790665.400    86471020.080 8      1436.368          50.000
G27  22049420.780   115870472.096 7       944.021          46.250    22049420.700   115870472.098 7       944.021          46.625    22049425.700    90288698.645 7       735.601          46.000    22049426.760    90288705.646 8       735.601          48.562
R02  22793345.920   121629708.909 7      6495.785          45.125    22793345.720   121629708.907 7      6495.785          44.312    22793360.560    94600974.985 7      5052.277          42.687    22793361.020    94600976.991 7      5052.277          42.750
G16  23446549.000   123212415.658 6      -823.361          41.812    23446547.480   123212415.663 5      -823.361          30.312    23446555.660    96009692.509 5      -641.580          30.312
R15  21398235.420   114345675.972 7      4398.442          44.500    21398234.960   114345675.965 7      4398.442          44.937    21398243.620    88935564.356 8      3421.010          48.875    21398243.060    88935565.333 8      3421.010          48.562
R17  21617137.860   115677669.795 7      3784.159          44.812    21617137.760   115677669.796 7      3784.159          44.125    21617147.780    89971566.578 8      2943.235          49.000    21617146.820    89971562.572 8      2943.235          48.812
G10  23809637.660   125120470.930 7      -245.705          43.875    23809636.440   125120470.932 6      -245.705          41.625    23809644.720    97496498.609 6      -191.459          41.187    23809645.000    97496500.616 7      -191.459          45.125
R08  23143722.580   123933573.375 6       933.250          41.437    23143724.520   123933573.427 6       933.250          41.062    23143734.840    96392825.254 7       725.861          45.875    23143734.980    96392830.256 7       725.861          45.250
G07  24201888.880   127181768.887 7      1398.517          42.875    24201887.940   127181768.887 4      1398.517          28.875    24201894.620    99102679.663 4      1089.753          28.937    24201894.800    99102702.662 6      1089.753          40.250
R01  21139400.940   113002221.166 6      4393.756          41.500    21139398.920   113002221.175 6      4393.756          41.375    21139413.920    87890672.919 7      3417.366          44.125    21139412.460    87890665.916 7      3417.366          44.437
G32  24982710.220   131285038.591 6      3527.856          41.937    24982709.060   131285038.593 5      3527.856          34.125    24982720.620   102300092.652 5      2748.979          34.437    24982721.400   102300097.657 6      2748.979          38.250
> 2024 05 03 14 22  3.0000000  0 18
G30  25125036.180   132032962.119 8      2273.094          48.062    25125034.540   132032962.121 4      2273.094          24.750    25125041.500   102882829.294 4      1771.242          25.000    25125043.140   102882843.298 5      1771.242          34.562
G02  21368736.820   112293467.743 7      2807.846          47.687    21368735.260   112293467.747 6      2807.846          39.812    21368736.720    87501402.383 6      2187.932          39.875
G03  22783276.600   119726944.727 7      6241.084          42.687    22783275.900   119726944.729 5      6241.084          34.250    22783286.360    93293770.690 5      4863.182          34.062    22783286.940    93293776.700 8      4863.182          49.312
G14  24641504.420   129491979.348 6      5991.638          39.125    24641503.100   129491979.358 3      5991.638          23.562    24641507.420   100902848.026 3      4668.809          23.500    24641508.040   100902858.036 6      4668.809          40.625
G08  20607000.100   108290509.442 8      2631.124          48.187    20606998.860   108290509.447 8      2631.124          49.625    20607004.140    84382233.268 8      2050.226          49.375    20607005.100    84382236.271 8      2050.226          51.125
G21  20784742.060   109224549.436 7      1819.482          47.437    20784740.000   109224549.439 6      1819.482          41.125    20784742.320    85110042.445 6      1417.778          41.250
R14  20269245.940   108046470.904 8       572.196          49.937    20269245.440   108046470.902 8       572.196          49.312    20269252.640    84036174.038 8       445.041          50.750    20269253.580    84036175.038 8       445.041          50.875
R24  20790311.240   111175129.920 7      1846.795          47.375    20790311.380   111175129.932 7      1846.795          47.250    20790320.440    86469586.861 8      1436.396          49.437    20790320.400    86469583.865 8      1436.396          49.875
G27  22049241.140   115869528.313 7       943.812          46.187    22049241.080   115869528.315 7       943.812          46.062    22049246.000    90287963.226 7       735.438          46.437    22049247.140    90287970.224 8       735.438          48.312
R02  22792128.360   121623213.230 7      6495.817          45.250    22792128.340   121623213.225 7      6495.817          43.687    22792143.480    94595922.798 7      5052.302          42.875    22792143.580    94595924.804 7      5052.302          42.750
G16  23446705.580   123213239.044 7      -823.263          42.437    23446704.320   123213239.051 5      -823.263          30.312    23446712.460    96010334.102 5      -641.503          30.312
R15  21397412.580   114341278.190 7      4397.511          44.500    21397412.120   114341278.183 7      4397.511          45.187    21397420.800    88932143.861 8      3420.286          48.812    21397420.480    88932144.840 8      3420.286          49.625
R17  21616430.960   115673885.746 7      3784.222          45.062    21616430.600   115673885.755 7      3784.222          43.562    21616440.620    89968623.435 8      2943.284          48.812    21616439.660    89968619.427 8      2943.284          48.750
G10  23809684.260   125120716.834 7      -245.811          43.375    23809683.240   125120716.836 6      -245.811          41.750    23809691.520    97496690.221 6      -191.541          41.437    23809691.820    97496692.223 7      -191.541          45.187
R08  23143548.020   123932640.756 6       932.548          41.500    23143550.420   123932640.800 6       932.548          41.062    23143560.780    96392099.877 7       725.315          45.187    23143560.720    96392104.881 7       725.315          45.250
G07  24201622.700   127180370.538 7      1398.431          42.187    24201621.920   127180370.540 4      1398.431          28.875    24201628.540    99101590.040 4      1089.686          28.937    24201629.140    99101613.033 6      1089.686          40.250
R01  21138579.340   112997828.035 6      4392.936          41.500    21138576.900   112997828.042 6      4392.936          41.437    21138591.680    87887256.041 7      3416.728          44.187    21138590.420    87887249.044 7      3416.728          44.562
G32  24982038.940   131281511.086 7      3527.442          42.062    24982037.820   131281511.085 5      3527.442          34.125    24982049.320   102297343.959 5      2748.656          34.437    24982051.100   102297348.984 6      2748.656          38.250
> 2024 05 03 14 22  4.0000000  0 18
G30  25124603.740   132030689.295 8      2272.646          48.062    25124601.900   132030689.302 4      2272.646          24.750    25124609.080   102881058.262 4      1770.893          25.000    25124609.440   102881072.254 5      1770.893          34.562
G02  21368202.440   112290660.038 7      2807.600          47.937    21368201.020   112290660.045 6      2807.600          39.937    21368202.480    87499214.567 6      2187.740          40.125
G03  22782089.000   119720703.802 7      6240.796          42.937    22782088.260   119720703.807 5      6240.796          34.250    22782098.700    93288907.642 5      4862.958          33.937    22782099.280    93288913.652 8      4862.958          49.062
G14  24640364.320   129485987.717 6      5991.519          39.625    24640363.060   129485987.721 3      5991.519          23.562    24640367.100   100898179.224 3      4668.716          23.500    24640367.980   100898189.224 6      4668.716          40.375
G08  20606499.460   108287878.514 7      2630.727          47.562    20606498.340   108287878.522 8      2630.727          49.687    20606503.540    84380183.198 8      2049.917          49.625    20606504.160    84380186.201 8      2049.917          51.062
G21  20784395.780   109222730.096 7      1819.327          47.875    20784393.800   109222730.098 6      1819.327          41.312    20784396.080    85108624.779 6      1417.657          40.937
R14  20269138.680   108045899.119 8       571.461          50.187    20269138.320   108045899.116 8       571.461          49.812    20269145.320    84035729.314 8       444.470          50.812    20269146.140    84035730.316 8       444.470          50.687
R24  20789966.120   111173283.181 7      1846.829          47.750    20789966.180   111173283.187 7      1846.829          47.687    20789975.040    86468150.505 8      1436.423          49.437    20789975.060    86468147.506 8      1436.423          50.187
G27  22049061.740   115868584.548 7       943.580          46.062    22049061.480   115868584.547 7       943.580          46.250    22049066.420    90287227.820 7       735.257          46.062    22049067.680    90287234.821 8       735.257          48.562
R02  22790911.320   121616717.417 7      6495.761          45.187    22790911.000   121616717.418 7      6495.761          43.687    22790925.600    94590870.514 7      5052.259          42.625    22790926.320    94590872.520 7      5052.259          43.375
G16  23446862.220   123214062.466 7      -823.506          43.000    23446861.000   123214062.471 5      -823.506          30.375    23446869.260    96010975.719 5      -641.693          30.312
R15  21396589.780   114336881.003 7      4396.826          44.625    21396589.160   114336880.996 7      4396.826          44.625    21396597.780    88928723.825 8      3419.754          48.812    21396597.940    88928724.815 8      3419.754          50.125
R17  21615723.700   115670101.630 7      3784.105          44.250    21615723.740   115670101.642 7      3784.105          43.937    21615733.520    89965680.234 8      2943.193          49.187    21615732.740    89965676.224 8      2943.193          48.875
G10  23809731.020   125120962.820 7      -246.084          42.812    23809730.020   125120962.814 6      -246.084          41.125    23809738.340    97496881.886 6      -191.754          40.937    23809738.900    97496883.890 7      -191.754          45.187
R08  23143374.380   123931708.562 6       931.796          41.500    23143376.000   123931708.610 6       931.796          41.062    23143386.940    96391374.844 7       724.730          45.687    23143386.700    96391379.846 7       724.730          45.750
G07  24201356.880   127178972.323 7      1398.181          42.687    24201355.940   127178972.325 4      1398.181          28.875    24201362.480    99100500.514 4      1089.491          28.812    24201363.280    99100523.507 6      1089.491          40.250
R01  21137757.260   112993435.334 6      4392.302          41.937    21137755.280   112993435.354 6      4392.302          41.437    21137769.960    87883839.507 7      3416.235          44.250    21137768.660    87883832.508 7      3416.235          44.187
G32  24981367.700   131277983.667 7      3527.369          42.187    24981366.520   131277983.664 5      3527.369          34.125    24981378.060   102294595.327 5      2748.600          34.312    24981378.680   102294600.337 6      2748.600          38.312
> 2024 05 03 14 22  5.0000000  0 18
G30  25124171.040   132028416.812 7      2272.438          47.312    25124169.380   132028416.815 4      2272.438          24.750    25124176.760   102879287.495 4      1770.731          25.000    25124176.960   102879301.489 5      1770.731          34.562
G02  21367668.500   112287852.488 7      2807.667          47.562    21367666.740   112287852.492 6      2807.667          40.437    21367668.180    87497026.864 6      2187.792          40.187
G03  22780901.320   119714462.998 7      6240.878          42.875    22780900.620   119714463.003 5      6240.878          34.312    22780911.160    93284044.687 5      4863.022          34.000    22780911.700    93284050.696 8      4863.022          49.375
G14  24639224.380   129479996.219 6      5991.602          38.812    24639222.780   129479996.222 3      5991.602          23.562    24639226.920   100893510.525 3      4668.781          23.500    24639227.820   100893520.519 6      4668.781          40.375
G08  20605998.940   108285247.814 8      2630.733          48.125    20605997.660   108285247.814 8      2630.733          48.937    20606002.880    84378133.294 8      2049.922          49.250    20606003.900    84378136.297 8      2049.922          50.437
G21  20784049.660   109220910.921 7      1819.281          47.187    20784047.540   109220910.926 6      1819.281          40.750    20784049.880    85107207.242 6      1417.621          40.625
R14  20269031.600   108045327.981 8       570.911          50.375    20269030.940   108045327.973 8       570.911          49.187    20269038.200    84035285.091 8       444.042          50.375    20269039.120    84035286.094 8       444.042          50.937
R24  20789620.720   111171436.431 8      1846.971          48.062    20789620.780   111171436.435 7      1846.971          47.000    20789629.720    86466714.142 8      1436.533          49.812    20789629.620    86466711.143 8      1436.533          50.000
G27  22048882.200   115867640.990 7       943.599          46.875    22048881.840   115867640.992 7       943.599          46.500    22048886.800    90286492.581 7       735.272          46.500    22048888.280    90286499.577 8       735.272          48.750
R02  22789694.100   121610221.546 7      6496.171          45.125    22789693.520   121610221.533 7      6496.171          44.000    22789708.420    94585818.182 7      5052.578          43.000    22789708.940    94585820.185 7      5052.578          43.312
G16  23447018.980   123214885.961 7      -823.412          42.625    23447017.760   123214885.969 5      -823.412          30.375    23447026.060    96011617.396 5      -641.620          30.312
R15  21395767.000   114332484.557 7      4396.363          45.500    21395766.140   114332484.542 7      4396.363          44.937    21395774.940    88925304.362 8      3419.393          48.687    21395775.360    88925305.369 8      3419.393          50.437
R17  21615016.580   115666317.517 7      3784.237          46.000    21615016.380   115666317.529 7      3784.237          43.937    21615026.220    89962737.041 8      2943.295          48.875    21615025.500    89962733.027 8      2943.295          49.000
G10  23809777.720   125121209.042 7      -246.039          43.375    23809776.680   125121209.039 6      -246.039          41.375    23809785.220    97497073.743 6      -191.719          40.875    23809785.240    97497075.749 7      -191.719          45.312
R08  23143200.300   123930777.020 6       931.582          41.687    23143201.940   123930777.064 6       931.582          41.000    23143212.940    96390650.309 7       724.564          45.875    23143212.640    96390655.313 7       724.564          45.312
G07  24201090.860   127177574.312 7      1398.032          42.437    24201089.980   127177574.315 4      1398.032          28.812    24201096.320    99099411.151 4      1089.375          28.812    24201096.900    99099434.142 6      1089.375          40.312
R01  21136935.760   112989043.294 6      4392.009          41.937    21136933.880   112989043.306 6      4392.009          41.250    21136948.240    87880423.475 7      3416.007          43.687    21136947.060    87880416.476 7      3416.007          43.875
G32  24980696.440   131274456.600 7      3527.113          42.312    24980695.220   131274456.599 5      3527.113          34.125    24980706.840   102291846.976 5      2748.400          34.312    24980707.140   102291851.990 6      2748.400          38.312
> 2024 05 03 14 22  6.0000000  0 18
G30  25123738.720   132026144.743 7      2271.785          47.250    25123736.960   132026144.745 4      2271.785          24.750    25123744.420   102877517.044 4      1770.222          25.000    25123745.820   102877531.049 5      1770.222          33.562
G02  21367134.320   112285045.137 7      2807.133          47.687    21367132.620   112285045.145 6      2807.133          39.875    21367134.020    87494839.320 6      2187.376          39.500
G03  22779713.840   119708222.449 7      6240.398          42.062    22779713.120   119708222.454 5      6240.398          34.312    22779723.640    93279181.929 5      4862.648          34.000    22779724.360    93279187.937 8      4862.648          49.000
G14  24638084.200   129474004.872 6      5991.125          39.437    24638082.600   129474004.879 3      5991.125          23.562    24638086.720   100888841.943 3      4668.409          23.500    24638087.220   100888851.932 6      4668.409          40.375
G08  20605498.140   108282617.320 8      2630.318          48.375    20605497.200   108282617.319 8      2630.318          49.250    20605502.300    84376083.557 8      2049.598          49.125    20605503.140    84376086.561 8      2049.598          50.250
G21  20783703.420   109219091.906 7      1818.836          47.562    20783701.380   109219091.911 6      1818.836          40.812    20783703.780    85105789.828 6      1417.275          40.750
R14  20268924.620   108044757.571 8       569.977          50.187    20268923.860   108044757.566 8       569.977          49.437    20268931.300    84034841.437 8       443.315          50.187    20268932.140    84034842.439 8       443.315          49.812
R24  20789275.280   111169589.628 7      1846.734          47.750    20789275.400   111169589.637 7      1846.734          47.000    20789284.220    86465277.745 8      1436.348          49.000    20789284.300    86465274.747 8      1436.348          49.125
G27  22048702.760   115866697.611 7       943.168          46.500    22048702.340   115866697.614 7       943.168          46.437    22048707.440    90285757.478 7       734.936          46.187    22048708.600    90285764.481 8       734.936          48.125
R02  22788476.780   121603725.714 7      6495.801          44.625    22788476.120   121603725.710 7      6495.801          43.500    22788491.080    94580765.894 7      5052.289          43.000    22788491.600    94580767.897 7      5052.289          43.375
G16  23447175.540   123215709.630 7      -823.804          42.750    23447174.560   123215709.635 5      -823.804          30.375    23447182.700    96012259.208 5      -641.925          30.125
R15  21394944.080   114328088.842 7      4395.286          45.500    21394943.580   114328088.838 7      4395.286          44.750    21394952.520    88921885.484 8      3418.556          48.125    21394952.800    88921886.499 8      3418.556          49.250
R17  21614309.600   115662533.484 7      3783.865          45.250    21614309.980   115662533.491 7      3783.865          44.125    21614319.240    89959793.898 8      2943.006          48.250    21614318.520    89959789.877 8      2943.006          48.375
G10  23809824.620   125121455.487 7      -246.621          43.750    23809823.700   125121455.492 6      -246.621          41.062    23809831.980    97497265.778 6      -192.172          40.875    23809831.780    97497267.783 7      -192.172          45.187
R08  23143026.560   123929846.173 6       930.398          41.687    23143028.100   123929846.213 6       930.398          41.000    23143039.280    96389926.315 7       723.643          45.250    23143038.880    96389931.313 7       723.643          45.312
G07  24200824.940   127176176.562 7      1397.666          43.437    24200823.980   127176176.567 4      1397.666          28.812    24200830.380    99098321.987 4      1089.090          28.812    24200830.700    99098344.984 6      1089.090          40.312
R01  21136114.380   112984651.932 6      4390.924          41.500    21136112.160   112984651.939 6      4390.924          41.500    21136126.620    87877007.966 7      3415.163          43.875    21136125.260    87877000.967 7      3415.163          44.187
G32  24980025.120   131270929.764 7      3526.619          42.125    24980023.920   131270929.772 5      3526.619          34.125    24980035.780   102289098.802 5      2748.014          34.312    24980036.540   102289103.815 6      2748.014          38.312
> 2024 05 03 14 22  7.0000000  0 18
G30  25123306.320   132023873.114 7      2271.119          47.750    25123304.720   132023873.122 4      2271.119          24.750    25123312.320   102875746.944 4      1769.703          25.000    25123311.220   102875760.945 5      1769.703          33.562
G02  21366600.260   112282238.042 7      2806.734          47.625    21366598.540   112282238.047 6      2806.734          40.125    21366599.800    87492651.971 6      2187.066          40.062
G03  22778526.400   119701982.134 7      6240.035          42.500    22778525.580   119701982.139 5      6240.035          34.187    22778535.980    93274319.352 5      4862.365          33.812    22778536.980    93274325.355 8      4862.365          49.125
G14  24636944.080   129468013.743 6      5990.633          39.812    24636942.220   129468013.748 3      5990.633          23.562    24636946.660   100884173.530 3      4668.025          23.500    24636947.380   100884183.526 6      4668.025          40.312
G08  20604997.540   108279987.154 8      2629.784          48.375    20604996.740   108279987.158 8      2629.784          49.375    20605001.800    84374034.083 8      2049.182          49.312    20605002.700    84374037.087 8      2049.182          50.687
G21  20783357.200   109217273.144 7      1818.305          47.437    20783355.260   109217273.148 6      1818.305          41.250    20783357.760    85104372.610 6      1416.861          41.187
R14  20268817.520   108044187.893 8       569.086          50.375    20268817.060   108044187.891 8       569.086          49.437    20268824.520    84034398.357 8       442.622          51.000    20268825.320    84034399.359 8       442.622          50.625
R24  20788929.860   111167742.950 8      1846.252          48.375    20788930.180   111167742.954 7      1846.252          47.062    20788938.900    86463841.437 8      1435.973          49.062    20788938.780    86463838.438 8      1435.973          49.750
G27  22048523.180   115865754.535 7       942.607          47.000    22048522.860   115865754.540 7       942.607          46.562    22048527.920    90285022.618 7       734.499          46.437    22048528.940    90285029.616 8       734.499          48.937
R02  22787259.300   121597229.963 7      6495.361          45.125    22787258.960   121597229.964 7      6495.361          44.000    22787273.560    94575713.663 7      5051.947          42.500    22787274.480    94575715.669 7      5051.947          43.062
G16  23447332.320   123216533.494 7      -824.221          43.375    23447331.300   123216533.504 5      -824.221          30.375    23447339.500    96012901.175 5      -642.250          30.125
R15  21394121.680   114323693.908 7      4394.350          45.187    21394121.260   114323693.909 7      4394.350          44.312    21394130.060    88918467.208 8      3417.828          48.875    21394130.480    88918468.229 8      3417.828          49.937
R17  21613602.660   115658749.555 7      3783.596          45.812    21613603.280   115658749.568 7      3783.596          44.250    21613612.140    89956850.846 8      2942.797          49.187    21613611.500    89956846.830 8      2942.797          49.500
G10  23809871.340   125121702.303 7      -247.363          43.312    23809870.760   125121702.308 6      -247.363          41.062    23809879.120    97497458.096 6      -192.750          40.875    23809879.040    97497460.101 7      -192.750          45.312
R08  23142852.920   123928916.093 6       929.339          41.500    23142854.040   123928916.124 6       929.339          41.000    23142865.460    96389202.907 7       722.819          45.812    23142865.120    96389207.907 7       722.819          45.812
G07  24200559.120   127174779.141 7      1397.080          42.562    24200557.980   127174779.146 4      1397.080          28.812    24200564.660    99097233.085 4      1088.634          28.812    24200564.640    99097256.086 6      1088.634          40.500
R01  21135293.020   112980261.279 6      4389.923          41.500    21135291.220   112980261.296 6      4389.923          41.500    21135305.560    87873593.025 7      3414.385          44.000    21135303.920    87873586.024 7      3414.385          44.500
G32  24979353.940   131267403.383 7      3525.844          42.312    24979352.900   131267403.391 5      3525.844          33.625    24979364.680   102286350.983 5      2747.411          34.312    24979365.120   102286355.985 6      2747.411          38.312
> 2024 05 03 14 22  8.0000000  0 18
G30  25122874.200   132021602.043 8      2271.037          48.062    25122872.540   132021602.051 4      2271.037          24.750    25122880.200   102873977.268 4      1769.639          25.000    25122879.440   102873991.273 5      1769.639          33.562
G02  21366066.100   112279431.333 7      2806.752          47.375    21366064.400   112279431.340 6      2806.752          39.562    21366065.640    87490464.927 6      2187.080          39.375
G03  22777339.080   119695742.147 7      6240.104          42.687    22777338.080   119695742.152 5      6240.104          34.187    22777348.440    93269457.035 5      4862.419          33.812    22777349.220    93269463.042 8      4862.419          49.437
G14  24635804.240   129462022.952 6      5990.964          39.687    24635802.100   129462022.962 3      5990.964          23.562    24635806.720   100879505.382 3      4668.284          23.500    24635806.880   100879515.384 6      4668.284          40.312
G08  20604497.280   108277357.473 8      2629.830          48.687    20604496.240   108277357.476 8      2629.830          49.062    20604501.460    84371984.978 8      2049.218          49.562    20604502.420    84371987.982 8      2049.218          50.812
G21  20783011.260   109215454.749 8      1818.476          48.187    20783009.180   109215454.756 6      1818.476          41.250    20783011.740    85102955.681 6      1416.994          41.125
R14  20268711.040   108043619.069 8       568.605          50.187    20268710.300   108043619.067 8       568.605          49.625    20268717.720    84033955.933 8       442.248          50.625    20268718.540    84033956.938 8       442.248          50.375
R24  20788584.860   111165896.481 7      1846.719          47.687    20788584.780   111165896.483 7      1846.719          47.062    20788593.480    86462405.292 8      1436.337          49.625    20788593.380    86462402.294 8      1436.337          49.625
G27  22048344.020   115864811.905 7       942.751          46.750    22048343.500   115864811.910 7       942.751          46.562    22048348.540    90284288.095 7       734.611          46.562    22048349.720    90284295.097 8       734.611          49.062
R02  22786041.920   121590734.406 7      6495.661          44.812    22786041.560   121590734.410 7      6495.661          43.687    22786056.540    94570661.578 7      5052.180          42.750    22786056.960    94570663.580 7      5052.180          43.062
G16  23447489.180   123217357.688 7      -824.163          42.437    23447488.060   123217357.701 5      -824.163          30.250    23447496.300    96013543.396 5      -642.205          30.125
R15  21393299.180   114319299.963 7      4393.793          45.750    21393299.000   114319299.959 7      4393.793          44.750    21393307.620    88915049.686 8      3417.395          48.937    21393307.740    88915050.705 8      3417.395          48.250
R17  21612895.340   115654965.868 7      3783.898          46.187    21612896.160   115654965.877 7      3783.898          44.875    21612905.260    89953907.978 8      2943.032          49.187    21612904.860    89953903.962 8      2943.032          50.125
G10  23809918.520   125121949.631 7      -247.314          43.500    23809917.720   125121949.631 6      -247.314          40.625    23809926.180    97497650.809 6      -192.712          40.250    23809926.220    97497652.812 7      -192.712          45.125
R08  23142679.940   123927986.984 6       929.007          41.500    23142680.600   123927987.015 6       929.007          40.812    23142692.020    96388480.265 7       722.561          46.187    23142691.620    96388485.267 7       722.561          45.750
G07  24200292.900   127173382.089 7      1397.160          43.562    24200292.200   127173382.094 4      1397.160          28.812    24200298.940    99096144.472 4      1088.696          28.500    24200299.840    99096167.454 6      1088.696          40.500
R01  21134471.960   112975871.532 6      4389.796          41.625    21134470.180   112975871.538 6      4389.796          41.437    21134484.240    87870178.773 7      3414.286          43.937    21134482.820    87870171.775 7      3414.286          44.562
G32  24978683.020   131263877.546 7      3525.907          42.062    24978682.100   131263877.556 5      3525.907          33.625    24978693.660   102283603.588 5      2747.460          33.812    24978694.340   102283608.590 6      2747.460          37.937
> 2024 05 03 14 22  9.0000000  0 18
G30  25122442.020   132019331.384 8      2270.526          48.437    25122440.480   132019331.389 4      2270.526          24.000    25122448.060   102872207.924 4      1769.241          24.312    25122448.200   102872221.930 5      1769.241          33.562
G02  21365531.920   112276624.821 7      2806.458          47.500    21365530.300   112276624.825 6      2806.458          39.562    21365531.680    87488278.035 6      2186.850          39.437
G03  22776151.420   119689502.405 7      6239.681          42.812    22776150.620   119689502.412 5      6239.681          34.125    22776161.080    93264594.906 5      4862.089          34.062    22776161.780    93264600.918 8      4862.089          49.375
G14  24634664.240   129456032.364 6      5990.610          39.437    24634662.220   129456032.374 3      5990.610          23.562    24634666.860   100874837.391 3      4668.008          23.500    24634667.180   100874847.389 6      4668.008          40.375
G08  20603996.920   108274728.072 8      2629.283          48.312    20603995.900   108274728.071 8      2629.283          49.062    20604001.080    84369936.093 8      2048.792          49.062    20604001.900    84369939.095 8      2048.792          50.687
G21  20782665.380   109213636.562 8      1818.093          48.125    20782663.320   109213636.569 6      1818.093          41.062    20782665.820    85101538.916 6      1416.695          41.062
R14  20268604.320   108043050.959 8       567.794          50.500    20268603.920   108043050.959 8       567.794          49.625    20268611.280    84033514.070 8       441.617          50.687    20268611.960    84033515.077 8       441.617          50.750
R24  20788239.380   111164050.047 8      1846.432          48.500    20788239.600   111164050.054 7      1846.432          47.000    20788248.460    86460969.179 8      1436.114          49.312    20788248.200    86460966.180 8      1436.114          50.062
G27  22048164.480   115863869.514 7       942.254          46.500    22048164.160   115863869.519 7       942.254          46.437    22048169.280    90283553.762 7       734.224          46.625    22048170.240    90283560.761 8       734.224          48.812
R02  22784824.640   121584238.930 7      6495.462          44.875    22784824.580   121584238.933 7      6495.462          43.687    22784839.060    94565609.553 7      5052.026          42.750    22784839.740    94565611.555 7      5052.026          43.250
G16  23447646.060   123218182.030 7      -824.376          42.312    23447644.900   123218182.040 5      -824.376          30.250    23447653.120    96014185.728 5      -642.371          30.125
R15  21392477.280   114314906.805 7      4392.815          46.937    21392476.820   114314906.796 7      4392.815          44.687    21392485.600    88911632.786 8      3416.634          48.875    21392485.780    88911633.799 8      3416.634          48.062
R17  21612188.340   115651182.263 7      3783.669          46.187    21612189.180   115651182.264 7      3783.669          44.312    21612198.160    89950965.174 8      2942.854          49.000    21612197.980    89950961.160 8      2942.854          50.562
G10  23809965.860   125122197.198 7      -247.640          43.312    23809964.900   125122197.193 6      -247.640          40.875    23809973.080    97497843.709 6      -192.966          40.312    23809973.240    97497845.713 7      -192.966          45.125
R08  23142506.500   123927058.577 6       928.130          41.500    23142507.220   123927058.608 6       928.130          40.812    23142518.660    96387758.166 7       721.879          45.875    23142518.040    96387763.170 7       721.879          45.562
G07  24200027.840   127171985.327 7      1396.807          43.312    24200026.340   127171985.332 4      1396.807          28.812    24200032.940    99095056.077 4      1088.421          28.500    24200033.280    99095079.060 6      1088.421          40.500
R01  21133650.680   112971482.514 7      4388.696          42.187    21133649.460   112971482.518 6      4388.696          41.437    21133663.040    87866765.093 7      3413.430          43.500    21133661.760    87866758.092 7      3413.430          44.250
G32  24978012.240   131260352.053 7      3525.294          42.312    24978011.180   131260352.061 5      3525.294          33.562    24978022.740   102280856.452 5      2746.982          33.875    24978022.760   102280861.461 6      2746.982          37.937
> 2024 05 03 14 22 10.0000000  0 18
G30  25122010.080   132017061.020 7      2270.479          47.125    25122008.640   132017061.027 4      2270.479          24.000    25122016.100   102870438.804 4      1769.204          24.312    25122016.900   102870452.801 5      1769.204          33.562
G02  21364997.800   112273818.400 8      2806.673          48.625    21364996.140   112273818.405 6      2806.673          39.812    21364997.400    87486091.214 6      2187.018          39.687
G03  22774964.200   119683262.744 7      6239.916          42.312    22774963.300   119683262.746 5      6239.916          34.125    22774973.740    93259732.839 5      4862.272          34.062    22774974.560    93259738.844 8      4862.272          49.687
G14  24633524.140   129450041.842 6      5990.785          38.750    24633522.280   129450041.855 3      5990.785          23.375    24633526.820   100870169.452 3      4668.144          23.500    24633527.360   100870179.448 6      4668.144          40.375
G08  20603496.780   108272098.778 8      2629.498          48.250    20603495.560   108272098.777 8      2629.498          49.437    20603500.760    84367887.291 8      2048.959          49.312    20603501.500    84367890.295 8      2048.959          50.687
G21  20782319.480   109211818.427 7      1818.384          47.750    20782317.240   109211818.437 6      1818.384          41.000    20782319.860    85100122.188 6      1416.923          40.875
R14  20268497.980   108042483.470 8       567.417          49.937    20268497.340   108042483.468 8       567.417          49.625    20268504.880    84033072.686 8       441.324          50.812    20268505.800    84033073.690 8       441.324          50.625
R24  20787894.200   111162203.493 7      1846.841          47.312    20787894.200   111162203.494 7      1846.841          46.937    20787902.980    86459532.963 8      1436.432          49.750    20787902.740    86459529.965 8      1436.432          49.375
G27  22047985.220   115862927.205 7       942.483          46.625    22047984.820   115862927.207 7       942.483          46.312    22047989.980    90282819.495 7       734.402          46.375    22047990.980    90282826.496 8       734.402          48.625
R02  22783607.960   121577743.378 7      6495.868          45.062    22783607.200   121577743.379 7      6495.868          43.687    22783621.780    94560557.472 7      5052.342          42.875    22783622.300    94560559.476 7      5052.342          43.187
G16  23447802.880   123219006.400 7      -824.089          42.375    23447801.680   123219006.411 5      -824.089          30.250    23447809.900    96014828.087 5      -642.147          30.187
R15  21391655.540   114310514.308 7      4392.561          46.375    21391654.940   114310514.290 7      4392.561          44.750    21391663.580    88908216.393 8      3416.436          48.250    21391663.380    88908217.400 7      3416.436          47.875
R17  21611481.000   115647398.647 7      3783.895          46.500    21611482.180   115647398.654 7      3783.895          44.500    21611491.120    89948022.364 8      2943.029          49.812    21611490.840    89948018.359 8      2943.029          50.687
G10  23810012.780   125122444.913 7      -247.524          43.062    23810011.780   125122444.918 6      -247.524          40.687    23810020.240    97498036.733 6      -192.876          40.187    23810020.580    97498038.735 7      -192.876          45.062
R08  23142333.220   123926130.703 6       927.952          41.687    23142333.440   123926130.742 6       927.952          40.812    23142345.620    96387036.492 7       721.741          46.062    23142344.960    96387041.492 7       721.741          45.812
G07  24199761.600   127170588.733 7      1396.656          42.812    24199760.620   127170588.736 4      1396.656          28.375    24199767.160    99093967.816 4      1088.303          28.500    24199767.260    99093990.815 6      1088.303          40.687
R01  21132829.960   112967093.996 7      4388.555          42.187    21132828.580   112967094.000 6      4388.555          41.437    21132842.080    87863351.802 7      3413.320          43.687    21132840.640    87863344.799 7      3413.320          44.312
G32  24977341.260   131256826.744 6      3525.400          41.562    24977340.340   131256826.746 5      3525.400          33.562    24977351.980   102278109.467 5      2747.065          33.875    24977352.220   102278114.473 6      2747.065          37.937
> 2024 05 03 14 22 11.0000000  0 18
G30  25121577.980   132014791.115 7      2269.530          47.187    25121576.600   132014791.120 4      2269.530          24.000    25121584.100   102868670.041 4      1768.465          24.312    25121585.220   102868684.056 5      1768.465          33.562
G02  21364463.860   112271012.248 8      2805.823          48.875    21364462.080   112271012.253 6      2805.823          39.875    21364463.420    87483904.604 6      2186.356          39.875
G03  22773777.100   119677023.377 7      6239.213          42.625    22773775.840   119677023.377 5      6239.213          34.000    22773786.340    93254870.999 5      4861.725          33.687    22773787.280    93254877.002 8      4861.725          49.562
G14  24632384.020   129444051.522 6      5990.012          39.250    24632382.320   129444051.532 3      5990.012          23.375    24632386.780   100865501.668 3      4667.541          23.500    24632387.340   100865511.657 6      4667.541          40.125
G08  20602996.320   108269469.791 8      2628.587          48.562    20602995.320   108269469.791 8      2628.587          49.562    20603000.480    84365838.732 8      2048.249          49.562    20603001.200    84365841.734 8      2048.249          50.500
G21  20781973.540   109210000.537 7      1817.599          47.437    20781971.240   109210000.547 6      1817.599          40.500    20781973.840    85098705.652 6      1416.311          40.625
R14  20268391.700   108041916.764 8       566.188          49.937    20268391.080   108041916.760 8       566.188          50.062    20268398.600    84032631.913 8       440.369          50.687    20268399.160    84032632.917 8       440.369          50.937
R24  20787549.140   111160356.978 8      1846.229          48.812    20787548.780   111160356.985 7      1846.229          47.000    20787557.640    86458096.794 8      1435.956          49.437    20787557.380    86458093.796 8      1435.956          49.625
G27  22047805.980   115861985.158 7       941.710          46.500    22047805.580   115861985.163 7       941.710          46.062    22047810.540    90282085.433 7       733.800          45.875    22047811.560    90282092.435 8       733.800          48.437
R02  22782390.860   121571247.910 7      6495.304          45.062    22782390.000   121571247.908 7      6495.304          43.750    22782404.320    94555505.458 7      5051.903          42.687    22782405.300    94555507.455 7      5051.903          43.062
G16  23447959.900   123219831.013 7      -824.864          42.937    23447958.620   123219831.020 4      -824.864          29.937    23447966.860    96015470.636 5      -642.751          30.187
R15  21390833.900   114306122.631 7      4391.113          45.875    21390833.060   114306122.613 7      4391.113          45.125    21390841.660    88904800.648 8      3415.310          48.375    21390841.560    88904801.653 8      3415.310          48.437
R17  21610774.480   115643615.160 7      3783.195          46.500    21610775.240   115643615.162 7      3783.195          44.437    21610784.140    89945079.648 8      2942.485          49.125    21610783.900    89945075.642 8      2942.485          49.812
G10  23810059.880   125122692.948 7      -248.488          43.500    23810059.180   125122692.948 6      -248.488          40.687    23810067.460    97498229.997 6      -193.627          40.312    23810067.640    97498231.995 7      -193.627          44.625
R08  23142160.260   123925203.556 6       926.453          41.687    23142160.500   123925203.604 6       926.453          40.562    23142172.480    96386315.383 7       720.574          45.875    23142171.860    96386320.383 7       720.574          46.062
G07  24199495.760   127169192.439 7      1396.076          43.250    24199494.780   127169192.441 4      1396.076          28.375    24199501.540    99092879.791 4      1087.851          28.500    24199502.140    99092902.777 6      1087.851          40.687
R01  21132009.220   112962706.206 7      4387.248          42.625    21132007.800   112962706.218 6      4387.248          41.437    21132021.540    87859939.088 7      3412.304          43.562    21132019.760    87859932.083 7      3412.304          44.562
G32  24976670.700   131253301.803 6      3524.459          41.312    24976669.640   131253301.803 5      3524.459          33.750    24976681.100   102275362.769 5      2746.332          33.875    24976681.260   102275367.774 6      2746.332          37.937
> 2024 05 03 14 22 12.0000000  0 18
G30  25121146.200   132012521.647 7      2269.555          47.312    25121144.560   132012521.651 4      2269.555          24.000    25121152.240   102866901.622 4      1768.484          24.312    25121152.980   102866915.629 5      1768.484          33.562
G02  21363930.020   112268206.343 7      2806.067          47.562    21363928.200   112268206.351 6      2806.067          39.812    21363929.500    87481718.188 6      2186.546          39.812
G03  22772589.720   119670784.231 7      6239.368          42.250    22772588.400   119670784.239 5      6239.368          34.000    22772599.100    93250009.339 5      4861.845          33.687    22772599.820    93250015.348 8      4861.845          49.687
G14  24631243.880   129438061.433 6      5990.172          39.250    24631242.380   129438061.443 3      5990.172          23.375    24631246.740   100860834.066 3      4667.666          23.437    24631247.520   100860844.054 6      4667.666          40.125
G08  20602496.040   108266841.125 7      2628.842          47.687    20602495.040   108266841.130 8      2628.842          49.875    20602500.200    84363790.425 8      2048.448          49.625    20602501.020    84363793.429 8      2048.448          51.250
G21  20781627.580   109208182.899 7      1817.901          47.375    20781625.380   109208182.904 6      1817.901          40.812    20781628.080    85097289.307 6      1416.546          40.812
R14  20268285.420   108041350.811 8       565.908          49.562    20268284.940   108041350.806 8       565.908          49.562    20268292.480    84032191.726 8       440.151          51.000    20268292.860    84032192.729 8       440.151          50.562
R24  20787203.820   111158510.598 7      1846.733          46.937    20787203.560   111158510.596 7      1846.733          46.812    20787212.340    86456660.714 8      1436.348          49.250    20787212.020    86456657.715 8      1436.348          49.812
G27  22047626.600   115861043.443 7       941.923          46.187    22047626.420   115861043.448 7       941.923          46.750    22047631.460    90281351.627 7       733.966          46.375    22047632.560    90281358.625 8       733.966          48.500
R02  22781173.520   121564752.495 7      6495.661          44.937    22781172.840   121564752.487 7      6495.661          43.500    22781187.200    94550453.483 7      5052.181          42.500    22781187.820    94550455.482 7      5052.181          42.875
G16  23448117.080   123220655.814 7      -824.692          42.062    23448115.580   123220655.822 4      -824.692          29.937    23448123.760    96016113.334 5      -642.617          30.187
R15  21390011.820   114301731.739 7      4390.753          46.000    21390011.160   114301731.743 7      4390.753          44.750    21390020.080    88901385.527 8      3415.030          48.875    21390019.800    88901386.534 8      3415.030          48.187
R17  21610067.600   115639831.791 7      3783.453          46.750    21610068.060   115639831.792 7      3783.453          44.875    21610077.280    89942137.027 8      2942.686          49.187    21610076.580    89942133.022 8      2942.686          50.000
G10  23810107.440   125122941.306 7      -248.125          43.187    23810106.280   125122941.306 6      -248.125          40.875    23810114.700    97498423.516 6      -193.344          40.437    23810115.040    97498425.521 7      -193.344          44.625
R08  23141986.620   123924277.125 6       926.480          41.437    23141987.480   123924277.167 6       926.480          40.562    23141999.200    96385594.821 7       720.596          46.125    23141998.640    96385599.817 7       720.596          45.875
G07  24199230.240   127167796.452 7      1396.144          43.500    24199229.280   127167796.449 4      1396.144          28.375    24199235.920    99091791.996 4      1087.904          28.500    24199236.340    99091814.989 6      1087.904          40.687
R01  21131188.640   112958319.166 7      4387.033          42.625    21131187.500   112958319.189 6      4387.033          41.812    21131200.640    87856526.950 7      3412.137          43.812    21131199.220    87856519.949 7      3412.137          44.500
G32  24975999.920   131249777.272 6      3524.680          41.500    24975998.840   131249777.269 5      3524.680          33.750    24976010.540   102272616.390 5      2746.504          33.875    24976010.780   102272621.390 6      2746.504          37.750
> 2024 05 03 14 22 13.0000000  0 18
G30  25120714.460   132010252.407 7      2268.974          47.312    25120712.880   132010252.417 4      2268.974          24.000    25120720.460   102865133.379 4      1768.031          24.312    25120721.320   102865147.382 5      1768.031          33.562
G02  21363396.100   112265400.451 7      2805.773          47.875    21363394.280   112265400.456 6      2805.773          39.937    21363395.560    87479531.777 6      2186.317          39.875
G03  22771402.320   119664545.096 6      6239.036          41.812    22771401.160   119664545.103 5      6239.036          33.812    22771411.820    93245147.681 5      4861.586          33.375    22771412.860    93245153.686 8      4861.586          49.250
G14  24630104.440   129432071.326 6      5989.929          39.625    24630102.600   129432071.333 3      5989.929          23.375    24630106.820   100856166.448 3      4667.477          23.437    24630107.460   100856176.440 6      4667.477          40.125
G08  20601995.960   108264212.554 8      2628.371          48.375    20601994.860   108264212.553 8      2628.371          49.250    20602000.040    84361742.186 8      2048.081          49.562    20602000.740    84361745.189 8      2048.081          50.812
G21  20781281.740   109206365.266 7      1817.547          47.375    20781279.640   109206365.269 6      1817.547          40.875    20781282.160    85095872.970 6      1416.271          41.125
R14  20268179.260   108040785.337 8       565.113          50.250    20268178.900   108040785.334 8       565.113          49.125    20268186.540    84031751.909 8       439.532          50.875    20268187.120    84031752.916 8       439.532          51.125
R24  20786858.540   111156664.073 8      1846.505          48.187    20786858.140   111156664.071 7      1846.505          47.187    20786866.980    86455224.525 8      1436.171          49.375    20786866.920    86455221.525 8      1436.171          49.562
G27  22047447.480   115860101.756 7       941.515          46.437    22047447.100   115860101.759 7       941.515          46.562    22047452.300    90280617.843 7       733.648          46.375    22047453.340    90280624.845 8       733.648          48.500
R02  22779956.060   121558256.882 7      6495.578          44.750    22779955.800   121558256.875 7      6495.578          43.625    22779970.320    94545401.358 7      5052.116          42.437    22779970.540    94545403.360 7      5052.116          42.687
G16  23448274.120   123221480.560 6      -824.879          41.812    23448272.500   123221480.568 4      -824.879          29.937    23448280.780    96016755.981 5      -642.763          30.187
R15  21389190.060   114297341.446 7      4389.798          45.375    21389189.780   114297341.447 7      4389.798          44.500    21389198.380    88897970.857 8      3414.287          48.937    21389198.180    88897971.861 8      3414.287          48.375
R17  21609360.200   115636048.261 7      3783.471          46.937    21609361.620   115636048.262 7      3783.471          44.687    21609370.080    89939194.284 8      2942.699          49.250    21609369.840    89939190.280 8      2942.699          50.250
G10  23810154.680   125123189.785 7      -248.585          42.812    23810153.520   125123189.788 6      -248.585          40.250    23810161.920    97498617.130 6      -193.702          40.000    23810162.380    97498619.135 7      -193.702          44.500
R08  23141813.560   123923351.213 6       925.420          41.437    23141814.140   123923351.255 6       925.420          40.500    23141826.260    96384874.669 7       719.771          46.125    23141825.960    96384879.669 7       719.771          46.562
G07  24198964.320   127166400.502 7      1395.865          43.750    24198963.580   127166400.506 4      1395.865          28.375    24198970.200    99090704.237 4      1087.687          28.312    24198970.840    99090727.237 6      1087.687          40.687
R01  21130368.200   112953932.621 7      4386.163          42.625    21130367.140   112953932.625 6      4386.163          41.812    21130380.040    87853115.182 7      3411.460          43.687    21130378.120    87853108.183 7      3411.460          44.562
G32  24975329.200   131246252.911 7      3524.062          42.375    24975328.200   131246252.908 5      3524.062          33.437    24975339.820   102269870.141 5      2746.023          33.625    24975340.380   102269875.143 6      2746.023          37.750
> 2024 05 03 14 22 14.0000000  0 18
G30  25120282.820   132007983.663 7      2268.483          47.562    25120281.160   132007983.673 4      2268.483          24.000    25120288.860   102863365.525 4      1767.649          24.312    25120288.640   102863379.530 5      1767.649          33.562
G02  21362862.280   112262594.866 7      2805.388          47.312    21362860.380   112262594.874 6      2805.388          39.937    21362861.640    87477345.611 6      2186.016          40.000
G03  22770214.860   119658306.270 6      6238.699          41.750    22770213.820   119658306.275 5      6238.699          33.812    22770224.540    93240286.269 5      4861.324          33.375    22770225.620    93240292.274 8      4861.324          49.375
G14  24628964.540   129426081.481 6      5989.781          38.812    24628962.700   129426081.489 3      5989.781          23.375    24628967.100   100851499.037 3      4667.362          23.437    24628967.700   100851509.014 6      4667.362          40.250
G08  20601495.960   108261584.337 8      2627.903          48.312    20601494.800   108261584.337 8      2627.903          49.625    20601499.900    84359694.227 8      2047.717          49.687    20601500.820    84359697.230 8      2047.717          50.812
G21  20780935.600   109204547.928 8      1817.075          48.000    20780933.740   109204547.930 6      1817.075          41.000    20780936.260    85094456.868 6      1415.903          40.812
R14  20268073.440   108040220.651 8       564.283          50.375    20268072.900   108040220.657 8       564.283          49.750    20268080.620    84031312.716 8       438.887          50.687    20268081.260    84031313.720 8       438.887          51.000
R24  20786513.560   111154817.644 8      1846.227          48.062    20786512.560   111154817.645 7      1846.227          47.750    20786521.680    86453788.418 8      1435.954          49.875    20786521.540    86453785.420 8      1435.954          50.312
G27  22047268.360   115859160.398 7       941.021          46.750    22047267.960   115859160.403 7       941.021          46.562    22047273.160    90279884.319 7       733.263          46.937    22047274.220    90279891.323 8       733.263          48.375
R02  22778738.540   121551761.427 7      6495.335          45.125    22778738.480   121551761.425 7      6495.335          43.750    22778752.760    94540349.356 7      5051.928          42.625    22778753.460    94540351.362 7      5051.928          43.375
G16  23448431.360   123222305.554 7      -825.137          42.125    23448429.560   123222305.561 4      -825.137          29.937    23448437.620    96017398.827 4      -642.964          29.500
R15  21388368.700   114292952.037 7      4388.932          46.125    21388368.560   114292952.039 7      4388.932          44.625    21388376.960    88894556.874 8      3413.614          48.437    21388376.700    88894557.870 8      3413.614          48.125
R17  21608653.600   115632264.969 7      3783.143          46.812    21608654.360   115632264.979 7      3783.143          45.562    21608663.260    89936251.730 8      2942.444          48.937    21608663.020    89936247.726 8      2942.444          50.250
G10  23810202.080   125123438.640 7      -249.138          43.062    23810200.880   125123438.645 6      -249.138          40.250    23810209.140    97498811.041 6      -194.133          40.000    23810209.540    97498813.042 7      -194.133          44.437
R08  23141641.380   123922426.091 6       924.454          41.437    23141641.760   123922426.131 6       924.454          40.500    23141653.620    96384155.124 7       719.020          46.125    23141653.440    96384160.124 7       719.020          46.375
G07  24198698.740   127165004.951 7      1395.384          43.000    24198697.820   127165004.956 4      1395.384          28.187    24198704.740    99089616.790 4      1087.313          28.312    24198704.980    99089639.791 6      1087.313          40.687
R01  21129547.420   112949546.843 7      4385.219          42.687    21129547.120   112949546.860 6      4385.219          41.812    21129559.580    87849704.032 7      3410.726          43.687    21129557.760    87849697.031 7      3410.726          44.312
G32  24974658.420   131242728.953 7      3523.540          42.812    24974657.560   131242728.947 5      3523.540          33.312    24974669.260   102267124.209 5      2745.616          33.625    24974670.480   102267129.224 6      2745.616          37.750
> 2024 05 03 14 22 15.0000000  0 18
G30  25119851.320   132005715.314 7      2267.965          47.500    25119849.300   132005715.322 4      2267.965          24.000    25119857.060   102861597.985 4      1767.245          24.312    25119858.580   102861611.981 5      1767.245          33.562
G02  21362328.420   112259789.484 7      2805.109          47.750    21362326.640   112259789.489 6      2805.109          39.562    21362327.840    87475159.597 6      2185.800          39.937
G03  22769027.640   119652067.631 7      6238.433          42.437    22769026.720   119652067.634 5      6238.433          33.500    22769037.580    93235424.998 5      4861.117          33.375    22769038.360    93235431.003 8      4861.117          49.437
G14  24627824.720   129420091.805 6      5989.549          38.937    24627823.000   129420091.810 3      5989.549          23.375    24627827.300   100846831.757 3      4667.181          23.437    24627828.260   100846841.746 6      4667.181          40.250
G08  20600995.720   108258956.383 8      2627.638          48.500    20600994.700   108258956.388 8      2627.638          49.812    20600999.840    84357646.472 8      2047.510          49.937    20601000.800    84357649.476 8      2047.510          50.562
G21  20780589.940   109202730.763 7      1816.884          47.812    20780587.920   109202730.770 6      1816.884          40.875    20780590.480    85093040.893 6      1415.753          41.000
R14  20267967.620   108039656.651 8       563.515          50.562    20267966.940   108039656.654 8       563.515          49.250    20267974.880    84030874.045 8       438.289          50.875    20267975.540    84030875.049 8       438.289          51.000
R24  20786168.180   111152971.215 8      1846.274          48.187    20786167.220   111152971.216 7      1846.274          47.187    20786176.340    86452352.307 8      1435.991          49.437    20786176.320    86452349.307 8      1435.991          49.937
G27  22047089.520   115858219.258 7       940.954          46.625    22047088.960   115858219.260 7       940.954          46.625    22047093.980    90279150.959 7       733.211          46.500    22047095.600    90279157.961 8       733.211          48.562
R02  22777521.480   121545266.043 7      6495.260          44.562    22777520.940   121545266.042 7      6495.260          43.750    22777535.400    94535297.400 7      5051.869          42.937    22777535.960    94535299.403 7      5051.869          43.250
G16  23448588.200   123223130.713 6      -825.384          41.875    23448586.560   123223130.723 4      -825.384          29.687    23448594.560    96018041.800 4      -643.156          29.500
R15  21387547.460   114288563.406 7      4388.126          45.562    21387547.200   114288563.405 7      4388.126          44.812    21387555.820    88891143.490 8      3412.987          48.812    21387555.220    88891144.476 8      3412.987          48.000
R17  21607946.740   115628481.736 7      3783.075          47.312    21607947.300   115628481.756 7      3783.075          44.875    21607956.120    89933309.222 8      2942.392          48.937    21607955.960    89933305.216 8      2942.392          49.937
G10  23810249.640   125123687.779 7      -249.403          43.250    23810248.360   125123687.781 6      -249.403          40.125    23810256.500    97499005.163 6      -194.340          39.875    23810256.940    97499007.161 7      -194.340          44.250
R08  23141469.180   123921501.679 6       923.956          41.375    23141469.280   123921501.705 6       923.956          40.500    23141480.860    96383436.122 7       718.632          45.812    23141480.540    96383441.122 7       718.632          45.687
G07  24198433.280   127163609.631 7      1395.071          43.562    24198432.360   127163609.633 4      1395.071          28.187    24198439.300    99088529.520 4      1087.069          28.312    24198439.100    99088552.521 6      1087.069          40.687
R01  21128727.280   112945161.733 7      4384.574          42.687    21128726.840   112945161.747 6      4384.574          41.812    21128739.640    87846293.391 7      3410.224          44.125    21128737.560    87846286.388 7      3410.224          44.125
G32  24973988.000   131239205.331 7      3523.382          42.437    24973986.980   131239205.333 5      3523.382          33.312    24973998.700   102264378.546 5      2745.492          33.625    24973999.540   102264383.552 6      2745.492          37.750
> 2024 05 03 14 22 16.0000000  0 18
G30  25119419.620   132003447.412 7      2267.933          47.625    25119417.560   132003447.419 3      2267.933          22.625    25119425.640   102859830.788 4      1767.220          24.312    25119427.140   102859844.790 5      1767.220          31.875
G02  21361794.720   112256984.365 7      2805.239          47.250    21361792.720   112256984.372 6      2805.239          39.750    21361794.000    87472973.796 6      2185.900          39.187
G03  22767840.200   119645829.250 6      6238.445          41.937    22767839.480   119645829.250 5      6238.445          33.500    22767850.320    93230563.928 5      4861.126          33.375    22767851.180    93230569.943 8      4861.126          48.750
G14  24626684.800   129414102.399 6      5989.582          38.500    24626683.300   129414102.404 3      5989.582          23.375    24626687.640   100842164.685 3      4667.207          23.437    24626688.660   100842174.677 6      4667.207          40.062
G08  20600495.600   108256328.789 8      2627.661          48.625    20600494.660   108256328.794 8      2627.661          48.812    20600499.780    84355598.997 8      2047.528          48.812    20600500.700    84355601.998 8      2047.528          50.187
G21  20780244.280   109200913.884 7      1816.918          47.687    20780242.200   109200913.889 6      1816.918          40.687    20780244.700    85091625.146 6      1415.780          40.625
R14  20267861.980   108039093.397 8       563.123          49.812    20267861.380   108039093.403 8       563.123          49.250    20267869.040    84030435.956 8       437.984          49.812    20267869.880    84030436.961 8       437.984          49.875
R24  20785822.760   111151124.930 7      1846.490          46.875    20785822.180   111151124.932 7      1846.490          47.812    20785831.160    86450916.308 8      1436.159          48.875    20785831.220    86450913.306 8      1436.159          48.875
G27  22046910.360   115857278.481 7       940.934          45.625    22046909.760   115857278.485 7       940.934          46.625    22046915.020    90278417.884 7       733.195          46.437    22046916.060    90278424.884 8       733.195          48.187
R02  22776304.640   121538770.804 7      6495.470          44.750    22776303.980   121538770.805 7      6495.470          43.750    22776317.940    94530245.566 7      5052.032          42.937    22776318.860    94530247.567 7      5052.032          43.312
G16  23448745.540   123223956.097 6      -825.259          41.750    23448743.720   123223956.105 4      -825.259          29.687    23448751.700    96018684.946 4      -643.059          29.500
R15  21386726.520   114284175.611 7      4387.583          46.687    21386725.840   114284175.612 7      4387.583          44.500    21386734.680    88887730.767 8      3412.565          48.625    21386734.240    88887731.753 8      3412.565          48.187
R17  21607239.660   115624698.634 7      3783.303          46.437    21607240.320   115624698.663 7      3783.303          45.187    21607249.200    89930366.817 8      2942.569          48.812    21607248.600    89930362.814 8      2942.569          49.812
G10  23810297.080   125123937.283 7      -249.291          42.937    23810295.820   125123937.290 6      -249.291          40.062    23810303.980    97499199.579 6      -194.253          39.500    23810304.300    97499201.586 7      -194.253          44.000
R08  23141296.500   123920578.121 6       923.469          41.375    23141296.620   123920578.162 6       923.469          40.750    23141308.320    96382717.813 7       718.254          45.812    23141308.220    96382722.813 7       718.254          45.625
G07  24198168.100   127162214.606 7      1395.062          42.437    24198167.040   127162214.605 4      1395.062          28.187    24198173.720    99087442.483 4      1087.061          28.312    24198174.020    99087465.476 6      1087.061          40.375
R01  21127906.900   112940777.403 7      4384.264          42.687    21127906.680   112940777.418 7      4384.264          42.000    21127919.020    87842883.361 7      3409.983          43.437    21127917.260    87842876.354 7      3409.983          44.000
G32  24973317.600   131235682.197 6      3523.296          41.687    24973316.540   131235682.192 5      3523.296          33.500    24973328.220   102261633.252 5      2745.425          33.625    24973329.580   102261638.258 6      2745.425          37.625
> 2024 05 03 14 22 17.0000000  0 18
G30  25118988.220   132001179.769 8      2267.463          48.437    25118986.160   132001179.777 3      2267.463          22.625    25118994.120   102858063.792 3      1766.854          23.250    25118996.180   102858077.790 5      1766.854          31.875
G02  21361260.680   112254179.292 7      2804.961          47.562    21361258.980   112254179.300 6      2804.961          39.687    21361260.240    87470788.023 6      2185.684          39.750
G03  22766653.180   119639590.916 6      6238.229          41.562    22766652.320   119639590.918 5      6238.229          33.500    22766663.060    93225702.901 5      4860.958          32.937    22766664.120    93225708.918 8      4860.958          49.375
G14  24625545.380   129408112.981 6      5989.404          38.562    24625543.420   129408112.993 3      5989.404          23.375    24625547.840   100837497.602 3      4667.068          23.437    24625548.820   100837507.591 6      4667.068          40.062
G08  20599995.680   108253701.253 8      2627.428          48.875    20599994.620   108253701.253 8      2627.428          49.000    20599999.700    84353551.564 8      2047.347          49.500    20600000.680    84353554.565 8      2047.347          51.062
G21  20779898.380   109199096.982 7      1816.845          47.875    20779896.480   109199096.987 6      1816.845          41.187    20779899.020    85090209.378 6      1415.724          41.062
R14  20267756.440   108038530.740 8       562.315          50.250    20267755.700   108038530.741 8       562.315          49.250    20267763.720    84029998.328 8       437.356          50.937    20267764.140    84029999.332 8       437.356          51.437
R24  20785477.640   111149278.437 7      1846.567          47.812    20785476.600   111149278.447 7      1846.567          47.500    20785485.600    86449480.153 8      1436.219          49.750    20785485.800    86449477.151 8      1436.219          49.437
G27  22046731.280   115856337.706 7       940.671          46.187    22046730.720   115856337.705 7       940.671          46.875    22046736.060    90277684.808 7       732.991          46.687    22046737.000    90277691.809 8       732.991          48.500
R02  22775087.100   121532275.424 7      6495.396          45.000    22775086.540   121532275.419 7      6495.396          43.312    22775101.200    94525193.618 7      5051.975          42.312    22775101.460    94525195.619 7      5051.975          42.937
G16  23448902.600   123224781.432 7      -825.428          42.750    23448900.680   123224781.440 4      -825.428          29.687    23448908.880    96019328.054 4      -643.191          29.500
R15  21385905.520   114279788.412 7      4386.805          46.625    21385905.100   114279788.419 7      4386.805          44.875    21385913.620    88884318.505 8      3411.959          48.625    21385913.560    88884319.499 8      3411.959          49.812
R17  21606532.160   115620915.407 7      3783.190          45.500    21606533.200   115620915.443 7      3783.190          44.937    21606542.160    89927424.317 8      2942.481          49.375    21606541.800    89927420.312 8      2942.481          49.625
G10  23810344.280   125124186.868 7      -249.627          42.687    23810343.260   125124186.870 6      -249.627          39.562    23810351.420    97499394.053 6      -194.514          39.375    23810351.440    97499396.060 7      -194.514          44.437
R08  23141123.600   123919655.052 6       922.770          41.375    23141124.920   123919655.081 6       922.770          40.750    23141136.000    96381999.867 7       717.710          45.812    23141135.960    96382004.865 7       717.710          45.812
G07  24197902.840   127160819.712 7      1394.713          43.125    24197901.620   127160819.714 4      1394.713          28.187    24197908.440    99086355.545 4      1086.789          28.312    24197908.920    99086378.543 6      1086.789          40.375
R01  21127086.840   112936393.534 7      4383.529          42.812    21127086.400   112936393.556 6      4383.529          41.812    21127098.860    87839473.693 7      3409.412          43.562    21127097.540    87839466.688 7      3409.412          44.500
G32  24972647.120   131232159.129 6      3522.891          41.625    24972646.040   131232159.129 5      3522.891          33.500    24972657.740   102258888.014 5      2745.110          33.375    24972658.440   102258893.024 6      2745.110          37.625
> 2024 05 03 14 22 18.0000000  0 18
G30  25118556.720   131998912.742 8      2266.624          48.500    25118554.720   131998912.747 3      2266.624          22.625    25118562.740   102856297.271 3      1766.200          23.250    25118562.980   102856311.271 5      1766.200          31.875
G02  21360726.980   112251374.643 7      2804.275          47.312    21360725.320   112251374.648 6      2804.275          39.875    21360726.440    87468602.582 6      2185.149          39.687
G03  22765465.840   119633353.023 6      6237.515          41.562    22765465.280   119633353.020 5      6237.515          33.500    22765476.060    93220842.213 5      4860.401          32.937    22765476.960    93220848.223 8      4860.401          49.437
G14  24624405.080   129402123.972 6      5988.607          38.875    24624403.640   129402123.985 3      5988.607          23.375    24624408.160   100832830.841 3      4666.447          23.437    24624408.920   100832840.831 6      4666.447          40.062
G08  20599495.860   108251074.216 8      2626.595          48.562    20599494.800   108251074.216 8      2626.595          49.750    20599499.820    84351504.522 8      2046.698          49.937    20599500.660    84351507.526 8      2046.698          50.875
G21  20779552.940   109197280.527 7      1816.067          47.312    20779550.700   109197280.531 6      1816.067          40.875    20779553.340    85088793.958 6      1415.117          40.562
R14  20267651.160   108037969.035 8       561.054          49.937    20267650.380   108037969.036 8       561.054          49.375    20267658.360    84029561.442 8       436.375          50.812    20267658.840    84029562.451 8       436.375          50.750
R24  20785132.180   111147432.260 7      1845.901          47.625    20785131.200   111147432.269 7      1845.901          47.437    20785140.480    86448044.237 8      1435.701          49.125    20785140.660    86448041.233 8      1435.701          49.687
G27  22046552.440   115855397.391 7       939.925          45.875    22046551.760   115855397.398 7       939.925          46.687    22046556.980    90276952.099 7       732.409          46.375    22046558.040    90276959.100 8       732.409          48.812
R02  22773869.680   121525780.267 7      6494.905          44.687    22773869.600   121525780.271 7      6494.905          43.312    22773883.400    94520141.842 7      5051.593          42.687    22773884.140    94520143.850 7      5051.593          42.687
G16  23449059.660   123225607.166 7      -826.121          42.562    23449057.740   123225607.177 4      -826.121          29.687    23449066.020    96019971.475 4      -643.731          29.812
R15  21385084.660   114275402.226 7      4385.449          46.625    21385084.220   114275402.232 7      4385.449          45.437    21385092.780    88880907.027 8      3410.905          48.312    21385093.120    88880908.038 8      3410.905          50.250
R17  21605824.980   115617132.506 7      3782.515          45.250    21605826.480   115617132.534 7      3782.515          45.312    21605835.240    89924482.057 8      2941.956          48.812    21605834.780    89924478.051 8      2941.956          49.437
G10  23810391.960   125124436.945 7      -250.324          42.625    23810390.880   125124436.949 6      -250.324          39.562    23810398.980    97499588.914 6      -195.058          39.687    23810398.900    97499590.913 7      -195.058          44.062
R08  23140951.240   123918732.940 6       921.480          41.500    23140952.320   123918732.984 6       921.480          40.750    23140963.840    96381282.677 7       716.707          45.937    23140963.540    96381287.675 7       716.707          46.125
G07  24197637.460   127159425.291 7      1394.022          42.812    24197636.380   127159425.290 4      1394.022          28.187    24197643.200    99085268.975 4      1086.251          28.062    24197643.340    99085291.971 6      1086.251          40.375
R01  21126266.900   112932010.602 7      4382.353          42.812    21126266.760   112932010.611 6      4382.353          41.812    21126278.980    87836064.734 7      3408.497          43.687    21126277.460    87836057.731 7      3408.497          44.437
G32  24971976.780   131228636.669 7      3521.951          42.125    24971975.800   131228636.671 5      3521.951          33.437    24971987.520   102256143.250 5      2744.378          33.375    24971988.520   102256148.258 6      2744.378          37.625
> 2024 05 03 14 22 19.0000000  0 18
G30  25118125.300   131996645.977 8      2266.663          48.437    25118123.400   131996645.982 3      2266.663          22.625    25118131.540   102854530.962 3      1766.231          23.250    25118130.520   102854544.967 5      1766.231          31.875
G02  21360193.220   112248570.052 7      2804.559          47.125    21360191.560   112248570.059 6      2804.559          39.875    21360192.680    87466417.188 6      2185.371          40.062
G03  22764278.840   119627115.175 6      6237.720          41.812    22764278.100   119627115.178 5      6237.720          33.500    22764289.140    93215981.561 5      4860.561          33.125    22764289.900    93215987.578 8      4860.561          49.625
G14  24623265.440   129396134.981 6      5988.877          39.437    24623263.860   129396134.997 3      5988.877          22.375    24623268.540   100828164.094 3      4666.658          23.437    24623269.120   100828174.079 6      4666.658          40.312
G08  20598996.200   108248447.285 7      2626.890          47.875    20598994.860   108248447.284 8      2626.890          48.750    20599000.000    84349457.562 8      2046.928          49.437    20599000.900    84349460.566 8      2046.928          50.625
G21  20779207.400   109195464.100 7      1816.391          47.750    20779205.080   109195464.107 6      1816.391          40.812    20779207.580    85087378.565 6      1415.370          41.062
R14  20267545.580   108037407.871 8       560.903          50.062    20267545.060   108037407.869 8       560.903          49.437    20267553.080    84029124.977 8       436.258          50.875    20267553.480    84029125.983 8       436.258          50.625
R24  20784786.860   111145585.976 7      1846.283          47.312    20784786.060   111145585.982 7      1846.283          46.125    20784795.040    86446608.232 8      1435.998          49.187    20784795.360    86446605.229 8      1435.998          49.812
G27  22046373.600   115854457.186 7       940.085          45.187    22046372.900   115854457.191 7       940.085          46.812    22046378.140    90276219.466 7       732.534          46.562    22046379.320    90276226.469 8       732.534          48.625
R02  22772652.520   121519284.972 7      6495.268          44.687    22772651.960   121519284.970 7      6495.268          43.500    22772666.660    94515089.962 7      5051.875          42.375    22772667.040    94515091.960 7      5051.875          42.687
G16  23449216.860   123226432.903 7      -825.805          42.250    23449214.820   123226432.916 4      -825.805          29.750    23449223.200    96020614.900 4      -643.484          29.812
R15  21384263.720   114271016.667 7      4385.263          46.500    21384263.740   114271016.660 7      4385.263          44.687    21384272.040    88877496.027 8      3410.760          48.437    21384272.420    88877497.047 8      3410.760          49.625
R17  21605118.220   115613349.546 7      3783.023          46.250    21605119.720   115613349.560 7      3783.023          44.687    21605128.380    89921539.740 8      2942.351          49.187    21605127.860    89921535.741 8      2942.351          49.875
G10  23810439.760   125124687.181 6      -250.237          41.937    23810438.400   125124687.184 6      -250.237          39.687    23810446.640    97499783.896 6      -194.989          39.250    23810446.720    97499785.896 7      -194.989          44.125
R08  23140779.300   123917811.395 6       921.223          41.500    23140779.800   123917811.434 6       921.223          40.437    23140791.780    96380565.911 7       716.507          45.625    23140791.660    96380570.909 7       716.507          46.250
G07  24197372.080   127158030.962 7      1394.292          43.250    24197371.000   127158030.964 4      1394.292          28.000    24197377.880    99084182.482 4      1086.462          28.062    24197378.640    99084205.483 6      1086.462          40.500
R01  21125447.620   112927628.189 7      4382.116          43.000    21125446.840   112927628.206 7      4382.116          42.187    21125459.040    87832656.203 7      3408.312          43.750    21125457.600    87832649.193 7      3408.312          44.125
G32  24971306.400   131225114.384 7      3522.110          42.312    24971305.480   131225114.389 5      3522.110          33.437    24971317.360   102253398.625 5      2744.501          33.625    24971318.320   102253403.621 6      2744.501          37.625
> 2024 05 03 14 22 20.0000000  0 18
G30  25117694.260   131994379.874 7      2265.904          47.875    25117692.260   131994379.876 3      2265.904          22.625    25117700.240   102852765.162 3      1765.640          23.250    25117701.000   102852779.175 5      1765.640          31.875
G02  21359659.780   112245765.928 8      2803.988          48.250    21359658.020   112245765.935 6      2803.988          39.750    21359659.080    87464232.153 6      2184.926          39.562
G03  22763091.980   119620877.808 6      6237.225          41.562    22763091.080   119620877.813 5      6237.225          33.500    22763102.300    93211121.283 5      4860.175          33.125    22763103.080    93211127.298 8      4860.175          49.500
G14  24622125.860   129390146.401 6      5988.397          38.250    24622124.160   129390146.419 3      5988.397          22.375    24622128.880   100823497.669 3      4666.283          23.437    24622129.800   100823507.655 6      4666.283          40.312
G08  20598496.380   108245820.889 8      2626.233          49.312    20598495.140   108245820.891 8      2626.233          49.625    20598500.100    84347411.018 8      2046.415          50.187    20598501.080    84347414.020 8      2046.415          50.875
G21  20778861.580   109193648.128 7      1815.855          47.750    20778859.420   109193648.135 6      1815.855          40.687    20778862.080    85085963.519 6      1414.952          40.250
R14  20267440.560   108036847.642 8       559.874          50.250    20267439.920   108036847.637 8       559.874          49.562    20267448.020    84028689.237 8       435.458          50.750    20267448.420    84028690.243 8       435.458          51.062
R24  20784441.920   111143739.956 7      1846.049          47.500    20784440.800   111143739.952 7      1846.049          47.125    20784449.840    86445172.433 8      1435.816          49.562    20784450.120    86445169.428 8      1435.816          49.437
G27  22046194.680   115853517.441 7       939.655          47.187    22046194.000   115853517.446 7       939.655          46.875    22046199.360    90275487.197 7       732.198          46.687    22046200.620    90275494.198 8       732.198          48.937
R02  22771435.100   121512789.941 7      6494.934          44.625    22771435.200   121512789.947 7      6494.934          43.625    22771449.260    94510038.288 7      5051.616          42.562    22771450.000    94510040.290 7      5051.616          42.875
G16  23449373.740   123227259.074 7      -826.262          42.125    23449371.940   123227259.081 4      -826.262          29.750    23449380.380    96021258.659 4      -643.841          29.812
R15  21383443.220   114266632.142 7      4384.174          47.375    21383443.220   114266632.125 7      4384.174          45.125    21383451.700    88874085.832 8      3409.913          48.187    21383452.080    88874086.858 8      3409.913          49.000
R17  21604411.700   115609566.917 7      3782.636          45.125    21604412.760   115609566.938 7      3782.636          44.812    21604421.700    89918597.698 8      2942.050          49.125    21604420.920    89918593.698 8      2942.050          49.875
G10  23810487.320   125124937.933 7      -250.893          42.812    23810486.020   125124937.936 6      -250.893          39.187    23810494.280    97499979.281 6      -195.501          39.625    23810494.140    97499981.281 7      -195.501          44.125
R08  23140607.620   123916890.760 6       920.307          41.500    23140607.680   123916890.789 6       920.307          40.437    23140619.800    96379849.856 7       715.795          46.125    23140619.780    96379854.856 7       715.795          46.187
G07  24197106.260   127156637.190 7      1393.634          43.000    24197105.800   127156637.192 4      1393.634          28.000    24197112.720    99083096.422 4      1085.949          28.062    24197113.600    99083119.417 6      1085.949          40.500
R01  21124627.900   112923246.725 7      4381.156          42.687    21124627.380   112923246.745 7      4381.156          42.187    21124639.160    87829248.397 7      3407.566          43.687    21124637.900    87829241.392 7      3407.566          44.125
G32  24970636.440   131221592.688 7      3521.585          42.062    24970635.400   131221592.693 5      3521.585          33.250    24970647.200   102250654.450 5      2744.092          33.625    24970647.180   102250659.460 6      2744.092          37.875
> 2024 05 03 14 22 21.0000000  0 18
G30  25117263.080   131992114.192 8      2265.326          48.187    25117261.160   131992114.199 3      2265.326          22.625    25117269.040   102850999.689 3      1765.189          23.250    25117270.000   102851013.685 5      1765.189          31.875
G02  21359126.140   112242962.030 7      2803.582          47.312    21359124.420   112242962.032 6      2803.582          39.750    21359125.560    87462047.297 6      2184.610          39.437
G03  22761904.920   119614640.651 7      6237.020          42.125    22761904.060   119614640.654 5      6237.020          33.187    22761915.360    93206261.171 5      4860.016          32.687    22761916.140    93206267.180 8      4860.016          49.125
G14  24620986.500   129384158.004 6      5988.291          38.250    24620984.600   129384158.017 3      5988.291          22.375    24620989.240   100818831.378 3      4666.201          22.250    24620990.460   100818841.349 6      4666.201          40.312
G08  20597996.480   108243194.758 8      2625.841          49.687    20597995.380   108243194.758 8      2625.841          49.125    20598000.420    84345364.685 8      2046.110          49.187    20598001.120    84345367.684 8      2046.110          50.812
G21  20778516.060   109191832.350 7      1815.562          47.500    20778514.020   109191832.355 6      1815.562          41.062    20778516.660    85084548.628 6      1414.724          41.000
R14  20267335.520   108036288.109 8       559.062          49.875    20267335.180   108036288.109 8       559.062          49.750    20267343.180    84028254.044 8       434.826          50.625    20267343.560    84028255.053 8       434.826          50.812
R24  20784096.720   111141893.928 7      1845.926          47.812    20784095.620   111141893.924 7      1845.926          46.750    20784104.560    86443736.631 8      1435.720          49.000    20784104.640    86443733.631 8      1435.720          50.125
G27  22046015.960   115852577.956 7       939.210          46.250    22046015.280   115852577.961 7       939.210          46.812    22046020.640    90274755.127 7       731.852          46.562    22046021.820    90274762.130 8       731.852          49.000
R02  22770218.220   121506295.014 7      6494.734          44.625    22770218.160   121506295.015 7      6494.734          43.625    22770232.200    94504986.689 7      5051.460          42.562    22770232.780    94504988.688 7      5051.460          43.125
G16  23449530.740   123228085.375 7      -826.506          42.812    23449529.200   123228085.383 4      -826.506          29.750    23449537.700    96021902.519 4      -644.031          29.812
R15  21382623.220   114262248.385 7      4383.276          47.062    21382622.860   114262248.372 7      4383.276          44.687    21382631.340    88870676.249 8      3409.215          49.000    21382631.700    88870677.264 8      3409.215          48.812
R17  21603704.760   115605784.369 7      3782.370          46.875    21603705.800   115605784.390 7      3782.370          45.562    21603714.880    89915655.712 8      2941.844          49.812    21603714.160    89915651.715 8      2941.844          49.437
G10  23810535.120   125125188.956 7      -251.266          42.625    23810533.620   125125188.953 6      -251.266          39.687    23810542.080    97500174.874 6      -195.791          39.562    23810542.240    97500176.873 7      -195.791          43.875
R08  23140436.020   123915970.790 6       919.464          41.375    23140436.100   123915970.821 6       919.464          40.437    23140448.280    96379134.321 7       715.139          45.687    23140448.120    96379139.323 7       715.139          46.187
G07  24196841.140   127155243.667 7      1393.229          42.625    24196840.660   127155243.667 4      1393.229          28.000    24196847.540    99082010.552 4      1085.633          28.062    24196848.080    99082033.541 6      1085.633          40.562
R01  21123807.960   112918865.961 7      4380.284          42.687    21123807.920   112918865.978 7      4380.284          42.500    21123819.820    87825841.136 7      3406.887          43.812    21123818.720    87825834.127 7      3406.887          44.250
G32  24969966.240   131218071.338 7      3521.102          42.625    24969965.300   131218071.343 5      3521.102          33.250    24969977.080   102247910.549 5      2743.716          33.500    24969977.680   102247915.564 6      2743.716          37.875
> 2024 05 03 14 22 22.0000000  0 18
G30  25116831.960   131989848.741 8      2265.235          48.437    25116829.980   131989848.748 3      2265.235          22.625    25116837.820   102849234.398 3      1765.119          23.250    25116839.340   102849248.411 5      1765.119          31.875
G02  21358592.600   112240158.156 7      2803.836          47.937    21358590.840   112240158.161 6      2803.836          39.750    21358591.920    87459862.462 6      2184.807          39.562
G03  22760718.440   119608403.539 6      6237.050          40.812    22760717.160   119608403.544 5      6237.050          33.187    22760728.560    93201401.095 5      4860.039          32.687    22760729.260    93201407.101 8      4860.039          49.250
G14  24619847.240   129378169.689 6      5988.188          38.687    24619845.080   129378169.701 3      5988.188          22.375    24619849.800   100814165.156 3      4666.120          22.250    24619850.780   100814175.135 6      4666.120          40.312
G08  20597496.880   108240568.775 8      2625.910          49.437    20597495.700   108240568.772 8      2625.910          49.875    20597500.700    84343318.462 8      2046.164          50.000    20597501.440    84343321.464 8      2046.164          50.875
G21  20778170.600   109190016.649 7      1815.585          47.687    20778168.440   109190016.654 6      1815.585          41.250    20778171.060    85083133.795 6      1414.742          41.312
R14  20267230.880   108035729.117 8       558.675          50.125    20267230.300   108035729.114 8       558.675          49.000    20267238.280    84027819.271 8       434.525          51.312    20267238.780    84027820.275 8       434.525          51.375
R24  20783751.260   111140047.817 7      1846.150          47.562    20783750.080   111140047.821 7      1846.150          46.937    20783759.380    86442300.773 8      1435.894          49.125    20783759.540    86442297.769 8      1435.894          49.375
G27  22045837.100   115851638.569 7       939.349          46.375    22045836.500   115851638.576 7       939.349          46.812    22045841.740    90274023.135 7       731.960          46.687    22045842.900    90274030.137 8       731.960          49.062
R02  22769000.940   121499800.026 7      6494.845          44.875    22769000.760   121499800.037 7      6494.845          43.625    22769014.900    94499935.054 7      5051.546          42.812    22769015.680    94499937.053 7      5051.546          42.937
G16  23449688.120   123228911.682 6      -826.382          41.687    23449686.540   123228911.695 4      -826.382          29.750    23449694.980    96022546.386 4      -643.934          29.625
R15  21381802.940   114257865.249 7      4382.755          45.312    21381802.380   114257865.248 7      4382.755          44.687    21381810.900    88867267.154 8      3408.809          48.750    21381811.160    88867268.159 8      3408.809          48.375
R17  21602997.800   115602001.733 7      3782.696          46.312    21602999.200   115602001.748 7      3782.696          45.000    21603007.920    89912713.662 8      2942.097          49.187    21603007.640    89912709.660 8      2942.097          49.875
G10  23810582.460   125125440.189 7      -251.326          42.125    23810581.540   125125440.186 6      -251.326          39.375    23810589.740    97500370.634 6      -195.839          39.187    23810590.440    97500372.628 7      -195.839          43.562
R08  23140263.660   123915051.433 6       919.034          41.375    23140264.340   123915051.466 6       919.034          40.250    23140276.500    96378419.268 7       714.804          46.375    23140276.480    96378424.270 7       714.804          46.437
G07  24196575.960   127153850.226 7      1393.317          42.250    24196575.360   127153850.228 4      1393.317          28.000    24196582.480    99080924.750 4      1085.702          28.062    24196582.820    99080947.751 6      1085.702          40.562
R01  21122988.680   112914485.737 7      4379.885          42.375    21122988.420   112914485.762 7      4379.885          42.000    21123000.120    87822434.301 7      3406.577          43.625    21122999.220    87822427.292 7      3406.577          44.250
G32  24969296.320   131214550.247 7      3520.952          42.375    24969295.060   131214550.249 5      3520.952          33.500    24969307.000   102245166.850 5      2743.599          33.500    24969308.260   102245171.864 6      2743.599          37.875
> 2024 05 03 14 22 23.0000000  0 18
G30  25116400.980   131987583.855 8      2264.785          48.000    25116399.040   131987583.860 3      2264.785          21.437    25116407.020   102847469.548 3      1764.768          23.250    25116408.460   102847483.524 5      1764.768          31.875
G02  21358059.360   112237354.666 7      2803.416          47.250    21358057.280   112237354.671 6      2803.416          40.187    21358058.340    87457677.924 6      2184.480          39.750
G03  22759531.600   119602166.797 6      6236.798          40.500    22759530.440   119602166.802 5      6236.798          33.187    22759541.760    93196541.305 5      4859.842          32.750    22759542.280    93196547.316 8      4859.842          49.062
G14  24618707.660   129372181.663 6      5987.834          38.437    24618705.600   129372181.675 3      5987.834          22.375    24618710.280   100809499.156 3      4665.845          22.250    24618710.780   100809509.133 6      4665.845          40.375
G08  20596997.180   108237943.170 8      2625.479          49.000    20596996.000   108237943.170 8      2625.479          49.687    20597001.020    84341272.538 8      2045.827          49.687    20597001.820    84341275.538 8      2045.827          50.750
G21  20777825.040   109188201.239 7      1815.414          47.625    20777822.920   109188201.246 6      1815.414          40.687    20777825.580    85081719.190 6      1414.609          40.875
R14  20267126.120   108035171.017 8       557.824          50.500    20267125.960   108035171.015 8       557.824          49.000    20267133.720    84027385.187 8       433.863          50.937    20267133.900    84027386.196 8       433.863          50.812
R24  20783406.080   111138201.814 7      1846.093          47.375    20783405.000   111138201.815 7      1846.093          46.750    20783413.980    86440864.989 8      1435.850          49.375    20783414.120    86440861.988 8      1435.850          49.500
G27  22045658.420   115850699.534 7       939.017          46.250    22045657.820   115850699.538 7       939.017          46.875    22045663.140    90273291.417 7       731.702          46.750    22045664.340    90273298.419 8       731.702          48.812
R02  22767783.960   121493305.270 7      6494.698          44.562    22767783.800   121493305.273 7      6494.698          43.562    22767797.820    94494883.589 7      5051.432          42.875    22767798.740    94494885.587 7      5051.432          43.312
G16  23449845.500   123229738.300 7      -826.614          42.750    23449843.760   123229738.310 4      -826.614          29.812    23449852.140    96023190.495 4      -644.115          29.625
R15  21380982.680   114253483.017 7      4381.866          45.687    21380982.340   114253483.032 7      4381.866          44.875    21380990.940    88863858.764 8      3408.118          48.812    21380990.920    88863859.771 8      3408.118          48.875
R17  21602290.820   115598219.354 7      3782.319          46.312    21602292.140   115598219.374 7      3782.319          44.500    21602301.100    89909771.813 8      2941.804          49.312    21602300.540    89909767.807 8      2941.804          49.437
G10  23810630.840   125125691.755 6      -251.716          41.812    23810629.580   125125691.752 6      -251.716          39.250    23810637.520    97500566.654 6      -196.142          39.250    23810637.760    97500568.650 7      -196.142          43.250
R08  23140092.540   123914132.841 6       918.209          41.187    23140092.920   123914132.878 6       918.209          40.250    23140105.000    96377704.805 7       714.162          46.250    23140104.960    96377709.808 7       714.162          46.187
G07  24196310.960   127152457.227 7      1393.014          42.062    24196310.280   127152457.229 4      1393.014          28.000    24196317.260    99079839.290 4      1085.466          28.062    24196318.080    99079862.276 6      1085.466          40.375
R01  21122169.640   112910106.314 7      4379.068          42.750    21122169.080   112910106.332 7      4379.068          42.000    21122181.240    87819028.082 7      3405.942          43.687    21122179.980    87819021.073 7      3405.942          44.187
G32  24968626.520   131211029.578 7      3520.380          42.437    24968625.160   131211029.577 5      3520.380          33.500    24968637.160   102242423.476 5      2743.153          33.687    24968638.300   102242428.490 6      2743.153          37.875
> 2024 05 03 14 22 24.0000000  0 18
G30  25115970.000   131985319.250 7      2264.589          47.937    25115968.080   131985319.255 3      2264.589          21.437    25115976.100   102845704.917 3      1764.615          23.250    25115977.000   102845718.917 5      1764.615          31.875
G02  21357525.800   112234551.251 7      2803.515          47.187    21357523.700   112234551.256 6      2803.515          40.187    21357524.920    87455493.448 6      2184.558          40.250
G03  22758344.820   119595930.150 6      6236.636          40.562    22758343.560   119595930.158 5      6236.636          33.000    22758354.760    93191681.588 5      4859.716          32.750    22758355.360    93191687.595 8      4859.716          49.500
G14  24617567.840   129366193.699 6      5987.929          38.437    24617566.220   129366193.717 3      5987.929          22.375    24617570.860   100804833.206 3      4665.919          22.250    24617571.820   100804843.200 6      4665.919          40.375
G08  20596497.580   108235317.776 8      2625.378          49.187    20596496.480   108235317.778 8      2625.378          49.375    20596501.500    84339226.776 8      2045.749          49.687    20596502.060    84339229.776 8      2045.749          50.687
G21  20777479.680   109186385.958 7      1815.430          47.562    20777477.600   109186385.963 6      1815.430          40.437    20777480.220    85080304.686 6      1414.621          40.500
R14  20267021.480   108034613.494 8       557.328          50.187    20267021.380   108034613.497 8       557.328          49.375    20267029.200    84026951.558 8       433.478          50.937    20267029.460    84026952.562 8       433.478          50.875
R24  20783060.780   111136355.842 7      1846.131          47.687    20783060.040   111136355.838 7      1846.131          46.750    20783068.860    86439429.229 8      1435.880          49.062    20783069.160    86439426.224 8      1435.880          49.562
G27  22045479.800   115849760.700 7       938.901          46.250    22045479.020   115849760.700 7       938.901          47.187    22045484.640    90272559.853 7       731.611          46.562    22045485.980    90272566.853 8       731.611          48.875
R02  22766566.800   121486810.410 7      6495.080          44.687    22766566.460   121486810.410 7      6495.080          43.687    22766580.700    94489832.042 7      5051.729          42.312    22766581.280    94489834.043 7      5051.729          43.000
G16  23450002.680   123230564.967 7      -826.605          42.812    23450001.080   123230564.974 4      -826.605          29.812    23450009.440    96023834.647 4      -644.108          29.625
R15  21380162.320   114249101.490 7      4381.273          45.000    21380162.480   114249101.502 7      4381.273          44.937    21380170.920    88860450.910 8      3407.657          48.812    21380170.780    88860451.925 8      3407.657          49.187
R17  21601584.080   115594436.907 7      3782.512          45.875    21601585.260   115594436.930 7      3782.512          45.062    21601594.380    89906829.921 8      2941.954          49.250    21601593.340    89906825.915 8      2941.954          49.312
G10  23810678.620   125125943.582 7      -251.790          42.250    23810677.500   125125943.584 6      -251.790          39.125    23810685.460    97500762.878 6      -196.200          39.062    23810685.840    97500764.885 7      -196.200          43.062
R08  23139921.320   123913214.948 6       917.664          41.187    23139921.500   123913214.987 6       917.664          40.250    23139933.500    96376990.889 7       713.738          46.312    23139933.600    96376995.895 7       713.738          45.937
G07  24196046.040   127151064.356 7      1392.883          42.562    24196045.220   127151064.358 4      1392.883          27.875    24196052.300    99078753.928 4      1085.363          28.062    24196052.440    99078776.916 6      1085.363          40.375
R01  21121350.700   112905727.518 7      4378.620          42.750    21121349.760   112905727.524 7      4378.620          42.250    21121361.920    87815622.345 7      3405.593          43.812    21121360.840    87815615.332 7      3405.593          44.312
G32  24967956.460   131207509.198 7      3520.330          43.187    24967955.260   131207509.198 5      3520.330          33.437    24967967.220   102239680.331 5      2743.115          33.687    24967969.220   102239685.345 6      2743.115          38.000
> 2024 05 03 14 22 25.0000000  0 18
G30  25115539.020   131983055.044 7      2263.962          47.875    25115537.240   131983055.049 3      2263.962          21.437    25115545.240   102843940.597 3      1764.126          23.250    25115545.560   102843954.581 5      1764.126          31.875
G02  21356992.380   112231748.032 7      2803.117          46.937    21356990.400   112231748.034 6      2803.117          40.000    21356991.540    87453309.120 6      2184.247          40.000
G03  22757158.060   119589693.668 7      6236.362          42.062    22757156.760   119589693.671 5      6236.362          33.000    22757168.200    93186821.996 5      4859.503          32.750    22757168.560    93186828.005 8      4859.503          49.125
G14  24616428.560   129360205.868 6      5987.754          38.250    24616426.880   129360205.883 3      5987.754          22.375    24616431.460   100800167.359 3      4665.783          22.250    24616432.440   100800177.353 6      4665.783          40.375
G08  20595997.920   108232692.586 8      2624.972          49.375    20595996.920   108232692.591 8      2624.972          49.000    20596001.980    84337181.173 8      2045.432          49.062    20596002.620    84337184.175 8      2045.432          51.187
G21  20777134.160   109184570.824 7      1815.062          47.937    20777132.300   109184570.829 6      1815.062          40.562    20777134.740    85078890.296 6      1414.334          40.562
R14  20266917.020   108034056.684 8       556.427          50.437    20266917.160   108034056.685 8       556.427          49.437    20266924.780    84026518.480 8       432.776          51.125    20266925.180    84026519.484 8       432.776          51.375
R24  20782715.620   111134509.846 7      1845.911          47.687    20782714.860   111134509.845 7      1845.911          46.812    20782723.600    86437993.452 8      1435.709          49.062    20782723.960    86437990.450 8      1435.709          49.875
G27  22045300.980   115848822.007 7       938.572          46.437    22045300.320   115848822.011 7       938.572          46.812    22045305.860    90271828.403 7       731.355          46.625    22045307.300    90271835.403 8       731.355          49.062
R02  22765349.660   121480315.528 7      6494.842          44.812    22765349.380   121480315.531 7      6494.842          43.687    22765363.740    94484780.475 7      5051.544          42.875    22765364.340    94484782.479 7      5051.544          42.812
G16  23450160.220   123231391.731 7      -826.777          42.187    23450158.620   123231391.738 4      -826.777          29.812    23450166.780    96024478.871 4      -644.242          29.625
R15  21379342.920   114244720.720 7      4380.374          45.500    21379343.000   114244720.718 7      4380.374          45.562    21379351.120    88857043.631 8      3406.957          48.750    21379351.100    88857044.657 8      3406.957          48.875
R17  21600877.140   115590654.536 7      3782.289          45.812    21600878.340   115590654.567 7      3782.289          45.000    21600887.520    89903888.080 8      2941.780          49.312    21600886.780    89903884.079 8      2941.780          49.375
G10  23810726.440   125126195.621 7      -252.209          42.937    23810725.500   125126195.623 6      -252.209          39.000    23810733.400    97500959.268 6      -196.526          39.125    23810733.880    97500961.263 7      -196.526          43.062
R08  23139750.160   123912297.693 6       916.792          41.187    23139750.420   123912297.724 6       916.792          40.312    23139762.380    96376277.460 7       713.060          46.062    23139762.080    96376282.464 7       713.060          46.125
G07  24195781.100   127149671.735 7      1392.459          43.187    24195780.300   127149671.740 4      1392.459          27.875    24195787.300    99077668.760 4      1085.033          28.062    24195787.280    99077691.749 6      1085.033          40.375
R01  21120531.620   112901349.322 7      4377.740          43.125    21120530.780   112901349.337 7      4377.740          42.250    21120543.000    87812217.088 7      3404.909          43.500    21120541.500    87812210.079 7      3404.909          43.812
G32  24967286.600   131203989.091 6      3519.827          41.687    24967285.420   131203989.088 5      3519.827          33.437    24967297.380   102236937.401 5      2742.722          33.437    24967298.360   102236942.419 6      2742.722          38.000
> 2024 05 03 14 22 26.0000000  0 18
G30  25115108.400   131980791.214 7      2263.707          47.500    25115106.300   131980791.219 3      2263.707          21.437    25115114.740   102842176.563 3      1763.927          21.000    25115114.920   102842190.551 5      1763.927          31.875
G02  21356458.800   112228945.019 7      2802.953          46.625    21356456.980   112228945.021 6      2802.953          39.875    21356458.180    87451124.957 6      2184.119          40.062
G03  22755971.000   119583457.376 6      6236.240          41.250    22755970.040   119583457.381 5      6236.240          32.812    22755981.340    93181962.562 5      4859.408          32.375    22755981.920    93181968.575 8      4859.408          49.187
G14  24615288.780   129354218.243 6      5987.702          38.062    24615287.500   129354218.261 3      5987.702          22.375    24615292.160   100795501.680 3      4665.742          22.250    24615292.520   100795511.680 6      4665.742          40.687
G08  20595498.360   108230067.690 8      2624.896          49.312    20595497.360   108230067.690 8      2624.896          49.062    20595502.400    84335135.798 8      2045.374          49.312    20595503.240    84335138.798 8      2045.374          50.687
G21  20776788.740   109182755.919 7      1814.851          47.562    20776786.900   109182755.923 6      1814.851          41.250    20776789.360    85077476.084 6      1414.169          41.000
R14  20266812.980   108033500.558 8       555.790          50.687    20266813.020   108033500.561 8       555.790          49.687    20266820.520    84026085.934 8       432.281          50.812    20266821.120    84026086.935 8       432.281          50.937
R24  20782370.680   111132663.939 7      1845.950          47.187    20782369.780   111132663.940 7      1845.950          47.125    20782378.480    86436557.751 8      1435.739          48.625    20782378.520    86436554.746 8      1435.739          49.000
G27  22045122.160   115847883.607 7       938.368          46.312    22045121.680   115847883.612 7       938.368          46.000    22045127.200    90271097.180 7       731.196          45.687    22045128.580    90271104.183 8       731.196          48.437
R02  22764132.380   121473820.633 7      6494.968          44.625    22764131.880   121473820.634 7      6494.968          43.312    22764146.340    94479728.905 7      5051.642          43.000    22764146.880    94479730.906 7      5051.642          43.125
G16  23450317.400   123232218.687 7      -826.985          42.437    23450316.240   123232218.697 4      -826.985          29.812    23450324.160    96025123.242 4      -644.404          29.687
R15  21378523.420   114240340.716 7      4379.674          45.375    21378523.340   114240340.725 7      4379.674          44.500    21378531.620    88853636.968 8      3406.413          48.187    21378531.480    88853637.985 7      3406.413          47.500
R17  21600170.840   115586872.248 7      3782.263          45.625    21600171.380   115586872.273 7      3782.263          44.875    21600180.700    89900946.299 8      2941.760          48.437    21600179.360    89900942.297 8      2941.760          48.500
G10  23810774.740   125126447.981 7      -252.461          43.312    23810773.660   125126447.986 6      -252.461          38.875    23810781.400    97501155.908 6      -196.723          38.625    23810781.400    97501157.915 7      -196.723          43.000
R08  23139578.600   123911381.214 6       916.168          40.937    23139579.560   123911381.250 6       916.168          40.312    23139591.260    96375564.649 7       712.575          45.812    23139590.560    96375569.653 7       712.575          46.000
G07  24195516.720   127148279.321 7      1392.433          42.937    24195515.320   127148279.326 4      1392.433          27.875    24195522.260    99076583.754 4      1085.013          28.062    24195522.780    99076606.749 6      1085.013          40.312
R01  21119712.880   112896971.864 7      4377.125          43.250    21119711.340   112896971.884 6      4377.125          41.875    21119723.760    87808812.407 7      3404.431          43.500    21119722.820    87808805.394 7      3404.431          43.750
G32  24966617.040   131200469.382 7      3519.508          42.500    24966615.660   131200469.381 5      3519.508          33.125    24966627.580   102234194.780 5      2742.474          33.437    24966627.900   102234199.786 6      2742.474          38.000
> 2024 05 03 14 22 27.0000000  0 18
G30  25114677.640   131978527.886 7      2263.236          47.375    25114675.560   131978527.894 3      2263.236          21.437    25114684.300   102840412.929 3      1763.560          21.000    25114685.740   102840426.923 5      1763.560          31.875
G02  21355925.560   112226142.270 7      2802.756          47.125    21355923.720   112226142.275 6      2802.756          39.750    21355924.720    87448940.994 6      2183.966          39.687
G03  22754784.720   119577221.446 6      6236.070          41.187    22754783.300   119577221.443 5      6236.070          32.812    22754794.500    93177103.402 5      4859.275          32.375    22754794.960    93177109.407 8      4859.275          49.125
G14  24614149.520   129348230.811 6      5987.546          38.062    24614148.120   129348230.826 3      5987.546          22.375    24614152.740   100790836.148 3      4665.620          22.250    24614153.300   100790846.150 6      4665.620          40.687
G08  20594998.900   108227443.058 8      2624.686          48.750    20594997.920   108227443.060 8      2624.686          49.375    20595002.920    84333090.630 8      2045.210          49.187    20595003.740    84333093.636 8      2045.210          50.937
G21  20776443.600   109180941.197 7      1814.844          47.687    20776441.480   109180941.202 6      1814.844          40.812    20776444.040    85076062.015 6      1414.164          40.687
R14  20266708.420   108032945.225 8       555.155          50.562    20266708.780   108032945.233 8       555.155          49.187    20266716.400    84025654.009 8       431.787          50.812    20266716.860    84025655.014 8       431.787          51.437
R24  20782024.920   111130817.967 7      1846.281          46.750    20782024.400   111130817.971 7      1846.281          46.437    20782032.980    86435121.995 8      1435.997          49.125    20782033.380    86435118.993 8      1435.997          49.500
G27  22044943.760   115846945.412 7       938.316          46.062    22044943.260   115846945.415 7       938.316          46.500    22044948.860    90270366.116 7       731.155          46.625    22044950.020    90270373.114 8       731.155          48.875
R02  22762915.700   121467325.821 7      6495.112          44.437    22762915.140   121467325.832 7      6495.112          43.562    22762929.420    94474677.411 7      5051.754          42.937    22762929.840    94474679.415 7      5051.754          42.750
G16  23450474.860   123233045.856 7      -827.012          42.187    23450473.640   123233045.866 4      -827.012          29.812    23450481.780    96025767.781 4      -644.425          29.687
R15  21377703.640   114235961.546 7      4378.957          46.000    21377703.860   114235961.550 7      4378.957          45.250    21377712.060    88850230.947 8      3405.855          48.750    21377711.400    88850231.941 7      3405.855          47.562
R17  21599463.860   115583090.088 7      3782.310          45.687    21599464.600   115583090.110 7      3782.310          45.000    21599473.760    89898004.614 8      2941.797          49.250    21599472.820    89898000.613 8      2941.797          49.125
G10  23810822.740   125126700.541 7      -252.441          42.562    23810821.660   125126700.548 6      -252.441          38.937    23810829.380    97501352.706 6      -196.707          38.937    23810829.880    97501354.700 7      -196.707          42.562
R08  23139407.600   123910465.318 6       915.834          40.937    23139408.180   123910465.363 6       915.834          40.312    23139420.320    96374852.284 7       712.316          46.000    23139419.880    96374857.288 7       712.316          46.812
G07  24195251.460   127146887.320 7      1392.132          42.375    24195250.520   127146887.325 4      1392.132          27.875    24195257.240    99075499.074 4      1084.778          28.062    24195257.740    99075522.065 6      1084.778          40.312
R01  21118893.640   112892595.053 7      4376.810          43.250    21118893.060   112892595.068 7      4376.810          42.250    21118905.280    87805408.219 7      3404.186          43.562    21118903.860    87805401.203 7      3404.186          43.937
G32  24965947.360   131196949.927 7      3519.543          42.937    24965945.960   131196949.926 5      3519.543          33.437    24965957.920   102231452.356 5      2742.501          33.625    24965959.360   102231457.366 6      2742.501          38.187
> 2024 05 03 14 22 28.0000000  0 18
G30  25114246.900   131976264.721 7      2262.937          47.812    25114245.160   131976264.726 3      2262.937          21.437    25114253.880   102838649.415 3      1763.327          21.000    25114253.860   102838663.373 5      1763.327          31.875
G02  21355392.100   112223339.515 7      2802.573          46.812    21355390.360   112223339.522 6      2802.573          39.937    21355391.300    87446757.034 6      2183.823          39.625
G03  22753597.740   119570985.430 6      6235.913          40.750    22753596.640   119570985.429 5      6235.913          32.687    22753607.940    93172244.176 5      4859.153          32.375    22753608.420    93172250.190 8      4859.153          49.437
G14  24613010.140   129342243.415 6      5987.309          37.812    24613008.980   129342243.433 3      5987.309          21.937    24613013.200   100786170.643 3      4665.436          22.250    24613013.880   100786180.635 6      4665.436          40.812
G08  20594499.420   108224818.564 8      2624.362          48.437    20594498.580   108224818.564 8      2624.362          49.250    20594503.560    84331045.572 8      2044.957          49.625    20594504.460    84331048.572 8      2044.957          50.937
G21  20776098.040   109179126.513 7      1814.678          47.062    20776096.200   109179126.515 6      1814.678          41.000    20776098.520    85074647.975 6      1414.034          40.625
R14  20266604.300   108032390.305 8       554.519          51.000    20266604.620   108032390.316 8       554.519          49.312    20266612.200    84025222.403 8       431.293          51.062    20266612.640    84025223.403 8       431.293          51.437
R24  20781679.700   111128971.926 7      1846.048          46.625    20781679.380   111128971.930 7      1846.048          46.312    20781687.780    86433686.187 8      1435.815          49.250    20781688.020    86433683.185 8      1435.815          49.375
G27  22044765.300   115846007.331 7       938.004          45.437    22044764.860   115846007.336 7       938.004          46.625    22044770.360    90269635.143 7       730.912          46.437    22044771.540    90269642.143 8       730.912          49.062
R02  22761698.080   121460830.889 7      6495.074          44.687    22761697.940   121460830.892 7      6495.074          43.562    22761712.440    94469625.810 7      5051.724          43.437    22761712.680    94469627.805 7      5051.724          42.875
G16  23450632.300   123233872.980 7      -827.220          43.000    23450631.000   123233872.987 4      -827.220          29.812    23450639.220    96026412.285 4      -644.587          29.687
R15  21376884.120   114231582.937 7      4378.239          46.375    21376884.420   114231582.935 7      4378.239          45.125    21376892.740    88846825.358 8      3405.297          48.375    21376891.980    88846826.339 7      3405.297          47.500
R17  21598756.400   115579307.764 7      3782.248          45.812    21598757.800   115579307.787 7      3782.248          44.500    21598766.920    89895062.812 8      2941.749          49.312    21598765.880    89895058.808 8      2941.749          48.625
G10  23810870.800   125126953.331 7      -252.863          43.937    23810869.980   125126953.334 6      -252.863          38.500    23810877.420    97501549.678 6      -197.036          38.687    23810878.020    97501551.674 7      -197.036          42.562
R08  23139237.240   123909550.079 6       914.978          40.937    23139237.160   123909550.118 6       914.978          40.312    23139249.280    96374140.429 7       711.650          46.562    23139248.960    96374145.433 7       711.650          46.625
G07  24194986.540   127145495.295 6      1391.932          41.687    24194985.620   127145495.295 4      1391.932          27.875    24194992.220    99074414.371 4      1084.622          27.687    24194993.120    99074437.362 6      1084.622          40.125
R01  21118074.620   112888218.833 7      4376.086          42.375    21118074.140   112888218.850 7      4376.086          42.250    21118086.560    87802004.492 7      3403.623          43.562    21118084.980    87801997.476 7      3403.623          44.187
G32  24965277.560   131193430.774 6      3519.012          41.750    24965276.120   131193430.771 5      3519.012          33.437    24965288.400   102228710.167 5      2742.087          33.625    24965289.940   102228715.171 6      2742.087          38.187
> 2024 05 03 14 22 29.0000000  0 18
G30  25113816.340   131974002.084 8      2262.259          48.562    25113814.300   131974002.086 3      2262.259          21.437    25113823.320   102836886.317 3      1762.799          21.000    25113822.180   102836900.295 5      1762.799          31.875
G02  21354858.760   112220537.062 7      2802.218          47.750    21354857.100   112220537.072 6      2802.218          39.500    21354858.060    87444573.306 6      2183.547          39.375
G03  22752410.940   119564749.778 6      6235.469          41.000    22752410.220   119564749.775 5      6235.469          32.687    22752421.300    93167385.237 5      4858.807          32.375    22752421.820    93167391.251 8      4858.807          49.125
G14  24611870.840   129336256.251 6      5987.072          37.187    24611869.440   129336256.269 3      5987.072          21.937    24611873.860   100781505.316 3      4665.251          22.250    24611874.920   100781515.304 6      4665.251          40.812
G08  20593999.940   108222194.420 8      2623.833          48.375    20593999.220   108222194.414 8      2623.833          49.375    20594004.200    84329000.779 8      2044.545          49.562    20594005.120    84329003.782 8      2044.545          51.000
G21  20775752.900   109177312.120 7      1814.218          46.937    20775750.940   109177312.122 6      1814.218          40.937    20775753.460    85073234.162 6      1413.676          40.875
R14  20266500.380   108031836.247 8       553.534          50.750    20266500.860   108031836.255 8       553.534          49.687    20266508.300    84024791.466 8       430.526          51.125    20266508.700    84024792.465 8       430.526          51.250
R24  20781334.600   111127125.938 7      1845.874          45.812    20781334.200   111127125.942 7      1845.874          47.000    20781342.640    86432250.419 8      1435.680          49.125    20781342.920    86432247.417 8      1435.680          49.375
G27  22044586.940   115845069.564 7       937.537          45.875    22044586.320   115845069.572 7       937.537          46.937    22044591.900    90268904.418 7       730.548          46.687    22044593.200    90268911.416 8       730.548          48.625
R02  22760480.920   121454336.172 7      6494.709          44.937    22760480.700   121454336.179 7      6494.709          43.437    22760495.500    94464574.378 7      5051.440          42.812    22760495.820    94464576.382 7      5051.440          43.312
G16  23450789.960   123234700.359 7      -827.569          42.500    23450788.240   123234700.366 4      -827.569          29.812    23450796.740    96027056.984 4      -644.859          29.750
R15  21376064.940   114227205.201 7      4377.239          46.750    21376065.380   114227205.194 7      4377.239          45.187    21376073.400    88843420.446 8      3404.519          48.750    21376072.780    88843421.428 8      3404.519          48.687
R17  21598050.100   115575525.588 7      3782.054          45.125    21598050.640   115575525.614 7      3782.054          44.375    21598059.940    89892121.119 8      2941.598          49.000    21598058.760    89892117.107 8      2941.598          48.500
G10  23810919.200   125127206.435 7      -253.320          43.625    23810918.320   125127206.437 6      -253.320          38.375    23810925.460    97501746.897 6      -197.392          38.625    23810925.860    97501748.894 7      -197.392          42.187
R08  23139066.340   123908635.520 6       914.207          41.562    23139066.480   123908635.567 6       914.207          40.312    23139078.460    96373429.107 7       711.050          46.312    23139078.180    96373434.111 7       711.050          46.625
G07  24194721.520   127144103.686 7      1391.353          42.312    24194720.740   127144103.688 4      1391.353          27.625    24194727.340    99073329.994 4      1084.171          27.687    24194727.780    99073352.987 6      1084.171          40.125
R01  21117256.140   112883843.401 7      4374.918          42.875    21117256.000   112883843.419 6      4374.918          41.875    21117267.980    87798601.378 7      3402.714          43.687    21117266.740    87798594.365 7      3402.714          44.000
G32  24964608.200   131189911.989 6      3518.554          41.937    24964606.500   131189911.986 5      3518.554          33.250    24964618.860   102225968.263 5      2741.730          33.375    24964619.660   102225973.273 6      2741.730          38.187
> 2024 05 03 14 22 30.0000000  0 18
G30  25113385.820   131971739.933 7      2261.924          47.812    25113383.960   131971739.933 3      2261.924          21.437    25113393.060   102835123.596 3      1762.538          21.000    25113391.600   102835137.546 5      1762.538          31.875
G02  21354325.420   112217734.925 8      2802.008          48.062    21354323.840   112217734.930 6      2802.008          40.062    21354324.780    87442389.821 6      2183.383          39.937
G03  22751224.740   119558514.439 6      6235.156          40.875    22751223.560   119558514.439 5      6235.156          32.687    22751234.760    93162526.540 5      4858.563          32.250    22751235.320    93162532.556 8      4858.563          49.062
G14  24610731.800   129330269.399 6      5986.667          37.187    24610730.140   129330269.415 3      5986.667          21.937    24610734.620   100776840.231 3      4664.935          21.937    24610735.680   100776850.228 6      4664.935          41.125
G08  20593501.000   108219570.636 8      2623.567          48.562    20593499.920   108219570.636 8      2623.567          49.312    20593504.920    84326956.276 8      2044.338          49.437    20593506.040    84326959.279 8      2044.338          50.687
G21  20775407.620   109175498.021 7      1813.976          46.625    20775405.720   109175498.023 6      1813.976          41.062    20775408.180    85071820.581 6      1413.488          41.000
R14  20266396.840   108031282.993 8       552.830          51.000    20266397.040   108031282.996 8       552.830          49.812    20266404.500    84024361.154 8       429.979          50.500    20266404.740    84024362.150 8       429.979          51.187
R24  20780989.340   111125280.119 7      1845.748          47.812    20780989.200   111125280.123 7      1845.748          47.437    20780997.400    86430814.780 8      1435.582          49.625    20780997.720    86430811.777 8      1435.582          49.500
G27  22044408.640   115844132.127 7       937.346          45.812    22044407.960   115844132.137 7       937.346          46.312    22044413.440    90268173.947 7       730.400          46.250    22044414.680    90268180.943 8       730.400          48.875
R02  22759263.800   121447841.656 7      6494.471          44.750    22759263.960   121447841.662 7      6494.471          43.687    22759278.220    94459523.107 7      5051.255          43.312    22759278.800    94459525.108 7      5051.255          43.437
G16  23450947.320   123235528.006 7      -827.817          42.750    23450945.920   123235528.016 4      -827.817          29.812    23450954.440    96027701.895 4      -645.053          29.750
R15  21375246.040   114222828.355 7      4376.374          45.750    21375246.220   114222828.351 7      4376.374          45.125    21375254.260    88840016.237 8      3403.847          48.437    21375254.080    88840017.229 8      3403.847          48.937
R17  21597343.120   115571743.618 7      3781.875          44.937    21597343.960   115571743.644 7      3781.875          44.625    21597353.200    89889179.589 8      2941.458          49.250    21597351.960    89889175.573 8      2941.458          48.375
G10  23810967.660   125127459.930 7      -253.631          43.625    23810966.480   125127459.935 6      -253.631          38.812    23810973.520    97501944.424 6      -197.634          38.375    23810973.980    97501946.424 7      -197.634          42.187
R08  23138895.060   123907721.831 6       913.386          41.562    23138896.120   123907721.864 6       913.386          40.312    23138907.780    96372718.449 7       710.411          46.437    23138907.540    96372723.454 7       710.411          46.562
G07  24194456.920   127142712.412 7      1391.114          42.812    24194455.980   127142712.415 4      1391.114          27.625    24194462.580    99072245.881 4      1083.985          27.687    24194462.980    99072268.876 6      1083.985          40.312
R01  21116437.980   112879468.723 7      4374.240          42.875    21116437.220   112879468.738 6      4374.240          41.875    21116449.880    87795198.857 7      3402.186          43.875    21116448.080    87795191.846 7      3402.186          43.812
G32  24963938.220   131186393.672 7      3518.089          42.375    24963937.080   131186393.672 5      3518.089          33.250    24963949.280   102223226.727 5      2741.368          33.375    24963950.700   102223231.737 6      2741.368          38.187
> 2024 05 03 14 22 31.0000000  0 18
G30  25112955.440   131969478.184 8      2261.389          48.812    25112953.540   131969478.187 3      2261.389          19.187    25112962.800   102833361.184 3      1762.121          21.000    25112962.520   102833375.166 4      1762.121          29.125
G02  21353792.200   112214932.945 7      2801.819          47.187    21353790.660   112214932.950 6      2801.819          39.687    21353791.580    87440206.462 6      2183.236          39.687
G03  22750038.360   119552279.298 6      6234.830          41.562    22750037.020   119552279.297 5      6234.830          32.437    22750048.200    93157667.998 5      4858.309          32.250    22750048.800    93157674.004 8      4858.309          49.312
G14  24609592.040   129324282.637 6      5986.727          37.187    24609590.860   129324282.650 3      5986.727          21.937    24609595.320   100772175.225 3      4664.982          21.937    24609596.740   100772185.211 6      4664.982          41.562
G08  20593001.560   108216947.049 8      2623.351          48.625    20593000.680   108216947.051 8      2623.351          49.437    20593005.680    84324911.924 8      2044.170          49.375    20593006.660    84324914.928 8      2044.170          50.937
G21  20775062.580   109173684.069 7      1813.658          47.625    20775060.620   109173684.074 6      1813.658          41.125    20775063.100    85070407.116 6      1413.240          41.062
R14  20266293.280   108030730.464 8       552.061          51.125    20266293.480   108030730.465 8       552.061          49.562    20266300.760    84023931.403 8       429.381          50.687    20266301.020    84023932.399 8       429.381          50.937
R24  20780644.260   111123434.273 7      1845.677          47.250    20780644.120   111123434.272 7      1845.677          46.812    20780652.020    86429379.120 8      1435.526          49.062    20780652.220    86429376.119 8      1435.526          49.250
G27  22044230.340   115843194.878 7       936.940          46.062    22044229.580   115843194.888 7       936.940          47.062    22044235.180    90267443.621 7       730.083          47.000    22044236.100    90267450.617 8       730.083          48.875
R02  22758046.820   121441347.106 7      6494.415          45.250    22758046.840   121441347.114 7      6494.415          43.687    22758060.660    94454471.808 7      5051.212          42.937    22758061.600    94454473.810 7      5051.212          43.437
G16  23451104.680   123236355.769 7      -828.065          42.250    23451103.480   123236355.781 4      -828.065          29.875    23451111.880    96028346.899 4      -645.245          29.750
R15  21374427.440   114218452.252 7      4375.543          45.812    21374427.000   114218452.254 7      4375.543          45.062    21374435.560    88836612.612 8      3403.200          48.625    21374435.480    88836613.608 8      3403.200          49.437
R17  21596636.460   115567961.723 7      3781.597          45.562    21596636.680   115567961.743 7      3781.597          44.937    21596646.420    89886238.111 8      2941.242          49.125    21596645.320    89886234.097 8      2941.242          48.937
G10  23811015.660   125127713.635 7      -253.975          43.312    23811014.800   125127713.640 6      -253.975          38.437    23811021.720    97502142.110 6      -197.902          38.562    23811022.620    97502144.108 6      -197.902          41.625
R08  23138724.260   123906808.792 6       912.379          41.375    23138725.460   123906808.831 6       912.379          40.125    23138737.320    96372008.306 7       709.628          46.687    23138737.020    96372013.310 7       709.628          46.875
G07  24194192.060   127141321.418 7      1390.695          42.750    24194191.380   127141321.423 4      1390.695          27.625    24194197.940    99071161.981 4      1083.658          27.687    24194197.860    99071184.969 6      1083.658          40.312
R01  21115620.020   112875094.663 7      4373.515          42.812    21115618.980   112875094.677 7      4373.515          42.250    21115631.860    87791796.818 7      3401.623          43.937    21115629.820    87791789.803 7      3401.623          44.437
G32  24963268.560   131182875.604 6      3517.667          40.875    24963267.700   131182875.609 5      3517.667          33.375    24963279.720   102220485.386 5      2741.039          33.687    24963281.440   102220490.396 6      2741.039          38.437
> 2024 05 03 14 22 32.0000000  0 18
G30  25112525.160   131967217.053 8      2261.170          48.375    25112523.160   131967217.058 3      2261.170          19.187    25112532.540   102831599.264 3      1761.950          21.000    25112531.540   102831613.260 4      1761.950          29.125
G02  21353259.380   112212131.420 7      2801.721          47.312    21353257.720   112212131.430 6      2801.721          39.437    21353258.560    87438023.458 6      2183.159          39.562
G03  22748851.860   119546044.498 6      6234.860          40.812    22748850.620   119546044.495 5      6234.860          32.437    22748861.780    93152809.717 5      4858.332          32.250    22748862.560    93152815.728 8      4858.332          49.062
G14  24608453.020   129318296.374 6      5986.384          37.812    24608451.680   129318296.384 3      5986.384          21.937    24608456.260   100767510.607 3      4664.715          21.937    24608457.720   100767520.602 6      4664.715          41.562
G08  20592502.400   108214324.017 8      2623.176          48.875    20592501.580   108214324.021 8      2623.176          49.500    20592506.560    84322868.003 8      2044.034          49.875    20592507.480    84322871.008 8      2044.034          50.625
G21  20774717.700   109171870.557 7      1813.710          47.937    20774715.600   109171870.562 6      1813.710          40.687    20774717.980    85068993.987 6      1413.280          40.687
R14  20266189.780   108030178.833 8       551.524          50.062    20266189.820   108030178.834 8       551.524          49.312    20266197.240    84023502.350 8       428.963          50.750    20266197.580    84023503.347 8       428.963          50.875
R24  20780299.020   111121588.756 7      1845.794          47.875    20780298.860   111121588.758 7      1845.794          46.562    20780306.960    86427943.720 8      1435.618          48.937    20780307.140    86427940.719 8      1435.618          49.437
G27  22044051.960   115842258.123 7       936.859          46.125    22044051.320   115842258.131 7       936.859          47.187    22044056.920    90266713.678 7       730.020          46.875    22044058.200    90266720.672 8       730.020          48.562
R02  22756829.720   121434852.747 7      6494.560          45.312    22756829.560   121434852.748 7      6494.560          43.750    22756844.020    94449420.643 7      5051.325          43.375    22756844.480    94449422.648 7      5051.325          43.125
G16  23451262.380   123237183.878 7      -828.125          42.750    23451261.100   123237183.886 4      -828.125          29.875    23451269.360    96028992.169 4      -645.292          29.750
R15  21373608.420   114214077.178 7      4374.954          45.625    21373608.360   114214077.182 7      4374.954          45.437    21373616.680    88833209.778 8      3402.742          49.000    21373616.800    88833210.783 8      3402.742          49.500
R17  21595929.720   115564180.117 7      3781.797          45.312    21595929.840   115564180.151 7      3781.797          44.125    21595939.660    89883296.874 8      2941.397          49.437    21595938.620    89883292.866 8      2941.397          49.437
G10  23811063.980   125127967.918 7      -254.023          43.812    23811063.280   125127967.921 6      -254.023          38.250    23811070.000    97502340.251 6      -197.940          38.187    23811070.900    97502342.245 6      -197.940          41.625
R08  23138553.940   123905896.747 6       912.099          41.375    23138555.060   123905896.789 6       912.099          40.125    23138567.040    96371298.940 7       709.410          46.125    23138566.760    96371303.944 7       709.410          46.625
G07  24193927.260   127139930.838 7      1390.692          42.125    24193926.460   127139930.838 4      1390.692          27.625    24193933.160    99070078.402 4      1083.656          27.687    24193933.260    99070101.380 6      1083.656          40.312
R01  21114801.560   112870721.540 7      4373.088          42.687    21114800.600   112870721.558 7      4373.088          42.250    21114813.780    87788395.501 7      3401.291          43.500    21114812.120    87788388.489 7      3401.291          44.375
G32  24962598.900   131179358.173 6      3517.552          41.125    24962598.260   131179358.177 5      3517.552          33.375    24962610.480   102217744.540 5      2740.950          33.687    24962612.000   102217749.561 6      2740.950          38.437
> 2024 05 03 14 22 33.0000000  0 18
G30  25112094.920   131964956.192 7      2260.468          47.875    25112092.820   131964956.200 3      2260.468          19.187    25112102.340   102829837.546 3      1761.404          21.000    25112101.760   102829851.499 4      1761.404          29.125
G02  21352726.100   112209329.982 7      2801.128          47.750    21352724.560   112209329.989 6      2801.128          39.750    21352725.540    87435840.521 6      2182.697          39.687
G03  22747665.440   119539809.803 6      6234.551          40.687    22747664.040   119539809.802 5      6234.551          32.562    22747675.300    93147951.523 5      4858.091          32.250    22747675.880    93147957.534 8      4858.091          49.062
G14  24607314.320   129312310.100 6      5986.107          37.437    24607312.580   129312310.113 3      5986.107          21.937    24607317.140   100762845.974 3      4664.499          21.937    24607318.520   100762855.963 7      4664.499          42.000
G08  20592003.460   108211701.144 8      2622.495          48.937    20592002.480   108211701.149 8      2622.495          49.375    20592007.360    84320824.208 8      2043.503          49.437    20592008.180    84320827.212 8      2043.503          51.187
G21  20774372.560   109170057.125 7      1813.112          47.500    20774370.340   109170057.133 6      1813.112          40.875    20774372.900    85067580.924 6      1412.815          41.000
R14  20266086.280   108029627.789 8       550.553          50.250    20266086.180   108029627.787 8       550.553          49.500    20266093.680    84023073.758 8       428.208          50.687    20266094.200    84023074.751 8       428.208          50.812
R24  20779953.940   111119743.140 8      1845.287          48.000    20779953.900   111119743.147 7      1845.287          47.000    20779961.680    86426508.245 8      1435.224          49.125    20779962.120    86426505.244 8      1435.224          49.687
G27  22043873.820   115841321.481 7       936.408          46.062    22043873.020   115841321.491 7       936.408          46.562    22043878.540    90265983.828 7       729.668          46.250    22043879.980    90265990.820 8       729.668          48.687
R02  22755612.940   121428358.292 7      6494.295          44.812    22755612.820   121428358.301 7      6494.295          43.625    22755627.080    94444369.419 7      5051.119          43.062    22755627.300    94444371.420 7      5051.119          42.875
G16  23451420.080   123238012.011 7      -828.348          43.062    23451418.680   123238012.024 4      -828.348          29.875    23451426.880    96029637.459 5      -645.466          30.062
R15  21372789.780   114209702.759 7      4373.772          45.312    21372789.800   114209702.760 7      4373.772          45.437    21372798.280    88829807.452 8      3401.822          48.812    21372798.100    88829808.458 8      3401.822          49.250
R17  21595223.360   115560398.476 7      3781.372          43.500    21595223.060   115560398.507 7      3781.372          44.125    21595232.780    89880355.600 8      2941.067          49.687    21595232.120    89880351.594 8      2941.067          49.437
G10  23811112.420   125128222.394 7      -254.867          43.812    23811111.700   125128222.401 6      -254.867          38.187    23811118.440    97502538.543 6      -198.598          38.250    23811119.180    97502540.531 6      -198.598          41.125
R08  23138383.700   123904985.363 6       910.791          41.375    23138384.800   123904985.397 6       910.791          40.125    23138396.980    96370590.079 7       708.393          46.812    23138396.480    96370595.082 7       708.393          47.000
G07  24193662.800   127138540.424 7      1390.049          42.500    24193661.980   127138540.418 4      1390.049          27.625    24193668.480    99068994.952 4      1083.155          27.500    24193669.100    99069017.930 6      1083.155          39.937
R01  21113983.620   112866349.030 7      4371.900          42.687    21113982.560   112866349.052 7      4371.900          42.312    21113995.700    87784994.668 7      3400.367          43.562    21113994.380    87784987.654 7      3400.367          43.937
G32  24961929.700   131175840.980 6      3516.802          41.875    24961928.880   131175840.985 5      3516.802          33.562    24961941.280   102215003.879 5      2740.365          33.937    24961942.380   102215008.891 6      2740.365          38.437
> 2024 05 03 14 22 34.0000000  0 18
G30  25111664.840   131962695.749 8      2260.251          48.375    25111662.860   131962695.754 3      2260.251          19.187    25111672.200   102828076.158 3      1761.234          21.000    25111674.320   102828090.123 4      1761.234          29.125
G02  21352193.220   112206528.748 7      2801.194          47.562    21352191.440   112206528.756 6      2801.194          40.125    21352192.520    87433657.741 6      2182.749          40.000
G03  22746478.960   119533575.355 6      6234.373          40.812    22746477.780   119533575.357 5      6234.373          32.562    22746488.840    93143093.526 5      4857.953          32.250    22746489.500    93143099.537 8      4857.953          48.812
G14  24606174.760   129306324.073 6      5985.887          37.437    24606173.360   129306324.086 3      5985.887          21.937    24606178.080   100758181.533 3      4664.327          21.937    24606179.340   100758191.527 7      4664.327          42.000
G08  20591504.440   108209078.529 8      2622.548          49.375    20591503.340   108209078.529 8      2622.548          48.875    20591508.260    84318780.608 8      2043.544          48.812    20591509.280    84318783.610 8      2043.544          50.812
G21  20774027.460   109168243.891 7      1813.129          47.687    20774025.360   109168243.899 6      1813.129          40.812    20774027.800    85066168.016 6      1412.828          41.125
R14  20265983.280   108029077.435 8       550.020          50.125    20265982.760   108029077.430 8       550.020          49.375    20265990.340    84022645.699 8       427.793          51.125    20265991.040    84022646.695 8       427.793          51.125
R24  20779609.000   111117897.540 8      1845.623          48.250    20779608.900   111117897.550 7      1845.623          46.687    20779616.640    86425072.778 8      1435.485          48.875    20779617.060    86425069.778 8      1435.485          48.687
G27  22043695.900   115840385.102 7       936.349          45.937    22043694.900   115840385.110 7       936.349          46.500    22043700.400    90265254.175 7       729.623          46.437    22043701.920    90265261.174 8       729.623          48.750
R02  22754395.620   121421863.888 7      6494.468          45.000    22754395.540   121421863.884 7      6494.468          43.625    22754409.960    94439318.218 7      5051.253          43.125    22754410.300    94439320.221 7      5051.253          43.125
G16  23451577.780   123238840.336 7      -828.373          42.437    23451576.240   123238840.349 5      -828.373          30.062    23451584.500    96030282.899 5      -645.485          30.062
R15  21371971.560   114205329.116 7      4373.285          45.875    21371971.220   114205329.120 7      4373.285          45.375    21371979.800    88826405.732 8      3401.444          48.687    21371979.800    88826406.737 8      3401.444          49.187
R17  21594516.900   115556616.905 7      3781.640          44.250    21594516.580   115556616.930 7      3781.640          44.062    21594526.380    89877414.371 8      2941.276          49.312    21594525.620    89877410.368 8      2941.276          49.500
G10  23811160.940   125128477.118 7      -254.877          44.437    23811160.020   125128477.123 6      -254.877          38.000    23811166.660    97502737.026 6      -198.605          37.875    23811167.000    97502739.022 6      -198.605          41.125
R08  23138213.440   123904074.659 6       910.456          41.500    23138214.800   123904074.693 6       910.456          40.062    23138226.960    96369881.752 7       708.132          46.562    23138226.440    96369886.757 7       708.132          46.375
G07  24193398.700   127137150.241 7      1390.094          42.000    24193397.440   127137150.238 4      1390.094          27.187    24193403.880    99067911.687 4      1083.190          27.500    24193404.720    99067934.675 6      1083.190          39.937
R01  21113165.740   112861977.196 7      4371.472          42.250    21113164.580   112861977.216 6      4371.472          41.875    21113178.220    87781594.354 7      3400.034          43.750    21113176.440    87781587.337 7      3400.034          44.187
G32  24961260.720   131172324.124 6      3516.728          41.937    24961259.740   131172324.126 5      3516.728          33.562    24961271.960   102212263.480 5      2740.307          33.937    24961272.720   102212268.490 6      2740.307          38.812
> 2024 05 03 14 22 35.0000000  0 19
G30  25111234.660   131960435.572 7      2259.812          47.187    25111232.680   131960435.579 3      2259.812          19.187    25111242.400   102826314.978 3      1760.893          21.000    25111243.880   102826328.975 4      1760.893          29.125
G02  21351660.260   112203727.604 7      2800.880          47.687    21351658.460   112203727.609 6      2800.880          40.187    21351659.520    87431475.030 6      2182.504          39.875
G03  22745292.720   119527341.025 6      6234.068          41.250    22745291.520   119527341.027 5      6234.068          32.562    22745302.500    93138235.613 5      4857.715          32.125    22745303.200    93138241.624 8      4857.715          49.625
G14  24605035.780   129300338.026 6      5985.806          37.625    24605034.040   129300338.039 3      5985.806          21.937    24605039.100   100753517.078 3      4664.264          21.937    24605040.280   100753527.076 7      4664.264          42.187
G08  20591005.360   108206456.057 8      2622.191          49.000    20591004.240   108206456.056 8      2622.191          49.062    20591009.280    84316737.121 8      2043.266          49.375    20591010.020    84316740.122 8      2043.266          50.312
G21  20773682.220   109166430.702 7      1812.986          46.562    20773680.300   109166430.706 6      1812.986          41.187    20773682.780    85064755.139 6      1412.716          41.375
R14  20265879.800   108028527.670 8       549.291          50.375    20265879.500   108028527.665 8       549.291          49.937    20265887.080    84022218.102 8       427.226          50.687    20265887.840    84022219.098 8       427.226          51.125
R24  20779263.700   111116051.839 7      1845.616          47.250    20779263.780   111116051.845 7      1845.616          47.375    20779271.360    86423637.230 8      1435.479          49.000    20779271.960    86423634.228 8      1435.479          49.437
G27  22043517.580   115839448.821 7       936.102          45.375    22043516.740   115839448.820 7       936.102          47.000    22043522.320    90264524.599 7       729.430          46.750    22043523.580    90264531.595 8       729.430          48.562
R02  22753178.520   121415369.452 7      6494.273          44.562    22753178.700   121415369.456 7      6494.273          43.437    22753192.820    94434267.012 7      5051.101          43.687    22753193.200    94434269.014 7      5051.101          43.250
G16  23451735.020   123239668.722 7      -828.635          42.562    23451733.840   123239668.732 5      -828.635          30.062    23451742.160    96030928.386 5      -645.690          30.062
R15  21371152.940   114200956.118 7      4372.467          46.187    21371153.040   114200956.119 7      4372.467          45.125    21371161.340    88823004.509 8      3400.808          48.875    21371161.220    88823005.514 8      3400.808          49.062
R17  21593809.740   115552835.277 7      3781.488          44.250    21593809.620   115552835.308 7      3781.488          44.062    21593819.820    89874473.112 8      2941.158          48.937    21593818.920    89874469.108 8      2941.158          49.437
G10  23811209.420   125128731.969 7      -255.088          43.937    23811208.680   125128731.969 6      -255.088          37.500    23811215.080    97502935.602 6      -198.770          37.750    23811215.720    97502937.599 6      -198.770          40.812
R08  23138043.340   123903164.502 6       909.648          41.500    23138044.800   123903164.552 6       909.648          40.062    23138056.840    96369173.867 7       707.504          46.062    23138056.600    96369178.871 7       707.504          46.937
G07  24193133.880   127135760.240 7      1389.713          42.187    24193132.980   127135760.239 4      1389.713          27.187    24193139.500    99066828.562 4      1082.893          27.500    24193140.360    99066851.551 6      1082.893          40.062
R23  23700661.220   126782555.344 6       591.535          38.250
R01  21112348.120   112857605.931 7      4370.748          42.250    21112346.620   112857605.943 6      4370.748          41.875    21112360.120    87778194.482 7      3399.470          43.625    21112358.680    87778187.468 7      3399.470          44.500
G32  24960591.420   131168807.488 6      3516.237          41.875    24960590.600   131168807.493 5      3516.237          33.750    24960602.800   102209523.254 5      2739.925          33.687    24960603.960   102209528.259 6      2739.925          38.812
> 2024 05 03 14 22 36.0000000  0 18
G30  25110804.620   131958175.822 7      2259.665          47.062    25110802.500   131958175.827 3      2259.665          19.187    25110812.380   102824554.124 3      1760.778          19.000    25110811.560   102824568.057 4      1760.778          29.125
G02  21351127.000   112200926.694 7      2800.871          47.625    21351125.460   112200926.696 6      2800.871          40.000    21351126.480    87429292.502 6      2182.497          39.562
G03  22744106.400   119521106.900 6      6234.073          41.500    22744105.180   119521106.900 5      6234.073          32.750    22744116.120    93133377.861 5      4857.719          32.125    22744116.960    93133383.869 8      4857.719          49.000
G14  24603897.120   129294352.199 6      5985.887          37.625    24603895.020   129294352.212 3      5985.887          22.500    24603900.040   100748852.800 3      4664.328          21.937    24603901.220   100748862.812 7      4664.328          42.375
G08  20590506.300   108203833.902 8      2622.197          49.125    20590505.260   108203833.904 8      2622.197          49.000    20590510.360    84314693.887 8      2043.271          49.000    20590510.980    84314696.887 8      2043.271          50.125
G21  20773337.240   109164617.770 7      1812.973          46.687    20773335.280   109164617.769 6      1812.973          40.875    20773337.840    85063342.465 6      1412.706          40.687
R14  20265776.760   108027978.646 8       548.710          50.125    20265776.440   108027978.647 8       548.710          49.062    20265784.040    84021791.083 8       426.774          50.187    20265784.580    84021792.080 8       426.774          49.812
R24  20778918.560   111114206.241 8      1845.762          48.437    20778918.640   111114206.243 7      1845.762          46.625    20778926.360    86422201.762 8      1435.592          49.000    20778926.800    86422198.759 8      1435.592          48.875
G27  22043339.460   115838512.854 7       935.904          45.437    22043338.640   115838512.859 7       935.904          46.187    22043344.080    90263795.277 7       729.276          46.687    22043345.360    90263802.271 8       729.276          48.187
R02  22751961.500   121408875.118 7      6494.411          45.000    22751961.600   121408875.124 7      6494.411          43.625    22751975.560    94429215.876 7      5051.209          43.250    22751976.200    94429217.883 7      5051.209          43.375
G16  23451893.140   123240497.267 7      -828.586          42.812    23451891.540   123240497.280 5      -828.586          30.062    23451899.920    96031574.000 5      -645.652          30.062
R15  21370334.640   114196583.913 7      4371.941          45.500    21370334.780   114196583.917 7      4371.941          44.500    21370343.180    88819603.908 8      3400.399          48.187    21370342.920    88819604.918 8      3400.399          48.750
R17  21593103.080   115549053.797 7      3781.572          45.125    21593102.580   115549053.814 7      3781.572          44.250    21593113.140    89871531.956 8      2941.222          48.625    21593112.160    89871527.946 8      2941.222          48.500
G10  23811258.260   125128987.180 7      -255.072          43.562    23811257.160   125128987.182 6      -255.072          37.250    23811263.480    97503134.466 6      -198.757          37.625    23811264.320    97503136.460 6      -198.757          40.812
R08  23137874.180   123902255.129 6       909.255          41.312    23137875.460   123902255.171 6       909.255          40.062    23137887.000    96368466.564 7       707.198          45.812    23137886.820    96368471.566 7       707.198          46.500
G07  24192869.280   127134370.496 6      1389.637          41.875    24192868.620   127134370.498 4      1389.637          27.187    24192875.020    99065745.639 4      1082.834          27.500    24192875.180    99065768.631 6      1082.834          40.062
R01  21111530.080   112853235.388 6      4370.388          41.687    21111529.160   112853235.402 6      4370.388          41.812    21111542.720    87774795.170 7      3399.191          43.312    21111541.400    87774788.157 7      3399.191          44.500
G32  24959922.080   131165291.249 6      3516.207          41.437    24959921.420   131165291.252 5      3516.207          33.437    24959933.620   102206783.334 5      2739.902          33.687    24959934.400   102206788.342 6      2739.902          38.812
> 2024 05 03 14 22 37.0000000  0 18
G30  25110374.600   131955916.543 7      2259.189          47.875    25110372.600   131955916.548 3      2259.189          19.187    25110382.760   102822793.643 3      1760.407          19.000    25110382.520   102822807.613 4      1760.407          29.125
G02  21350594.120   112198126.018 8      2800.683          48.875    21350592.480   112198126.020 6      2800.683          39.437    21350593.440    87427110.157 6      2182.351          39.812
G03  22742920.120   119514873.059 6      6233.844          41.562    22742918.860   119514873.059 5      6233.844          32.750    22742929.920    93128520.333 5      4857.540          32.375    22742930.760    93128526.334 8      4857.540          49.562
G14  24602757.640   129288366.619 6      5985.512          37.062    24602756.100   129288366.632 3      5985.512          22.500    24602761.020   100744188.711 3      4664.035          21.937    24602762.340   100744198.711 7      4664.035          42.375
G08  20590007.460   108201212.020 8      2621.793          49.062    20590006.440   108201212.022 8      2621.793          49.187    20590011.420    84312650.860 8      2042.955          49.812    20590011.960    84312653.862 8      2042.955          50.875
G21  20772992.360   109162805.045 7      1812.603          47.375    20772990.480   109162805.047 6      1812.603          40.375    20772992.880    85061929.955 6      1412.418          40.500
R14  20265673.820   108027430.401 8       548.001          50.250    20265673.680   108027430.398 8       548.001          49.250    20265681.060    84021364.668 8       426.223          50.875    20265681.740    84021365.664 8       426.223          50.437
R24  20778573.320   111112360.639 7      1845.617          47.625    20778573.540   111112360.643 7      1845.617          46.437    20778580.940    86420766.295 8      1435.480          48.875    20778581.600    86420763.293 8      1435.480          49.062
G27  22043161.460   115837577.074 7       935.715          46.625    22043160.580   115837577.082 7       935.715          46.062    22043166.020    90263066.095 7       729.128          46.250    22043167.460    90263073.092 8       729.128          49.062
R02  22750744.400   121402380.900 7      6494.222          45.187    22750744.540   121402380.901 7      6494.222          43.812    22750758.680    94424164.837 7      5051.062          43.500    22750759.040    94424166.844 7      5051.062          43.500
G16  23452050.640   123241326.018 7      -828.834          42.937    23452049.320   123241326.033 5      -828.834          30.062    23452057.740    96032219.769 5      -645.844          30.375
R15  21369516.580   114192212.524 7      4371.081          45.875    21369516.920   114192212.533 7      4371.081          45.500    21369525.180    88816203.942 8      3399.729          48.625    21369525.120    88816204.953 8      3399.729          48.562
R17  21592396.840   115545272.418 7      3781.423          44.750    21592396.060   115545272.444 7      3781.423          44.000    21592406.520    89868590.892 8      2941.106          49.187    21592405.520    89868586.880 8      2941.106          49.062
G10  23811306.720   125129242.651 7      -255.580          43.625    23811305.560   125129242.656 6      -255.580          37.062    23811311.900    97503333.534 6      -199.153          37.625    23811312.680    97503335.529 6      -199.153          40.062
R08  23137704.400   123901346.377 6       908.460          41.312    23137705.460   123901346.416 6       908.460          40.312    23137717.580    96367759.753 7       706.580          46.437    23137717.220    96367764.759 7       706.580          47.250
G07  24192604.800   127132981.093 7      1389.329          42.562    24192604.120   127132981.095 4      1389.329          27.187    24192610.640    99064662.983 4      1082.594          27.500    24192610.700    99064685.974 6      1082.594          40.062
R01  21110712.640   112848865.537 6      4369.492          41.687    21110711.500   112848865.551 6      4369.492          41.812    21110725.040    87771396.403 7      3398.494          43.437    21110723.900    87771389.392 7      3398.494          44.625
G32  24959253.200   131161775.334 6      3515.670          41.437    24959252.280   131161775.333 5      3515.670          33.437    24959264.540   102204043.666 5      2739.483          33.500    24959264.980   102204048.674 6      2739.483          38.562
> 2024 05 03 14 22 38.0000000  0 18
G30  25109944.860   131953657.551 7      2258.663          47.812    25109942.780   131953657.558 3      2258.663          19.187    25109952.620   102821033.385 3      1759.997          19.000    25109955.640   102821047.353 4      1759.997          29.125
G02  21350061.060   112195325.428 8      2800.392          48.250    21350059.540   112195325.435 6      2800.392          39.937    21350060.600    87424927.879 6      2182.123          39.625
G03  22741733.940   119508639.263 6      6233.608          41.375    22741732.840   119508639.260 5      6233.608          32.687    22741743.700    93123662.838 5      4857.357          32.375    22741744.340    93123668.849 8      4857.357          49.187
G14  24601619.000   129282381.047 6      5985.543          36.937    24601617.260   129282381.057 3      5985.543          22.500    24601622.060   100739524.627 3      4664.060          21.937    24601623.300   100739534.627 7      4664.060          42.750
G08  20589508.580   108198590.270 8      2621.445          49.000    20589507.500   108198590.269 8      2621.445          49.562    20589512.480    84310607.938 8      2042.685          49.500    20589513.000    84310610.940 8      2042.685          50.875
G21  20772647.080   109160992.378 7      1812.383          47.875    20772645.500   109160992.383 6      1812.383          40.937    20772648.060    85060517.487 6      1412.246          41.250
R14  20265570.960   108026882.731 8       547.142          50.500    20265571.000   108026882.728 8       547.142          49.000    20265578.280    84020938.698 8       425.555          50.375    20265578.900    84020939.697 8       425.555          50.875
R24  20778228.440   111110514.929 7      1845.530          47.625    20778228.600   111110514.928 7      1845.530          46.875    20778235.700    86419330.739 8      1435.412          48.687    20778236.200    86419327.736 8      1435.412          48.812
G27  22042983.460   115836641.394 7       935.376          46.187    22042982.600   115836641.402 7       935.376          46.812    22042987.960    90262336.998 7       728.864          46.812    22042989.040    90262343.994 8       728.864          48.812
R02  22749527.380   121395886.520 7      6494.170          45.437    22749527.240   121395886.521 7      6494.170          43.937    22749541.800    94419113.669 7      5051.021          43.312    22749542.140    94419115.672 7      5051.021          43.500
G16  23452208.420   123242154.745 7      -828.909          42.250    23452207.020   123242154.763 5      -828.909          30.500    23452215.440    96032865.520 5      -645.903          30.375
R15  21368698.760   114187841.802 7      4370.144          46.562    21368699.060   114187841.808 7      4370.144          45.250    21368707.320    88812804.490 8      3399.001          49.125    21368707.000    88812805.502 8      3399.001          48.687
R17  21591690.160   115541490.996 7      3781.349          45.375    21591689.280   115541491.014 7      3781.349          44.437    21591699.940    89865649.784 8      2941.049          49.312    21591698.880    89865645.768 8      2941.049          49.062
G10  23811355.460   125129498.250 7      -255.946          43.750    23811354.420   125129498.255 6      -255.946          36.812    23811360.680    97503532.703 6      -199.438          37.437    23811361.200    97503534.701 6      -199.438          40.062
R08  23137535.040   123900438.161 6       907.723          41.312    23137535.540   123900438.202 6       907.723          40.312    23137547.820    96367053.362 7       706.007          46.937    23137547.560    96367058.369 7       706.007          46.812
G07  24192340.360   127131591.814 7      1389.030          42.625    24192339.820   127131591.816 4      1389.030          27.187    24192346.200    99063580.424 4      1082.361          27.562    24192346.720    99063603.409 6      1082.361          40.062
R01  21109895.280   112844496.201 7      4368.857          42.000    21109894.220   112844496.208 6      4368.857          41.625    21109908.020    87767998.025 7      3398.000          43.750    21109906.540    87767991.012 7      3398.000          44.187
G32  24958583.980   131158259.597 6      3515.341          41.000    24958583.240   131158259.596 5      3515.341          33.375    24958595.460   102201304.139 5      2739.227          33.500    24958596.540   102201309.139 6      2739.227          38.562
> 2024 05 03 14 22 39.0000000  0 18
G30  25109515.080   131951398.994 8      2258.480          48.500    25109513.300   131951399.004 2      2258.480          17.625    25109522.960   102819273.463 3      1759.855          19.000    25109523.860   102819287.422 4      1759.855          29.125
G02  21349528.160   112192525.130 7      2800.342          47.875    21349526.680   112192525.135 6      2800.342          39.687    21349527.760    87422745.829 6      2182.085          39.312
G03  22740547.560   119502405.708 6      6233.483          41.437    22740546.540   119502405.708 5      6233.483          32.687    22740557.440    93118805.531 5      4857.259          32.375    22740558.100    93118811.540 8      4857.259          49.375
G14  24600480.920   129276395.785 6      5985.336          36.937    24600478.320   129276395.795 3      5985.336          22.500    24600483.000   100734860.789 3      4663.898          22.812    24600484.040   100734870.805 7      4663.898          42.875
G08  20589009.740   108195968.919 8      2621.266          48.812    20589008.660   108195968.921 8      2621.266          48.937    20589013.700    84308565.329 8      2042.545          49.312    20589014.580    84308568.331 8      2042.545          50.500
G21  20772302.220   109159180.027 7      1812.280          47.937    20772300.560   109159180.029 6      1812.280          40.937    20772303.060    85059105.263 6      1412.167          41.250
R14  20265468.620   108026335.748 8       546.715          50.187    20265468.160   108026335.751 8       546.715          49.625    20265475.660    84020513.268 8       425.223          50.562    20265476.540    84020514.268 8       425.223          50.937
R24  20777883.480   111108669.404 7      1845.587          47.812    20777883.460   111108669.408 7      1845.587          46.875    20777890.640    86417895.331 8      1435.457          49.062    20777891.080    86417892.332 8      1435.457          49.062
G27  22042805.360   115835706.119 7       935.144          46.500    22042804.480   115835706.123 7       935.144          46.625    22042810.020    90261608.206 7       728.684          46.625    22042811.140    90261615.204 8       728.684          48.750
R02  22748310.220   121389392.236 7      6494.283          45.062    22748310.200   121389392.240 7      6494.283          43.687    22748324.540    94414062.571 7      5051.109          43.562    22748325.040    94414064.573 7      5051.109          43.375
G16  23452366.180   123242983.701 7      -828.947          42.937    23452364.800   123242983.719 5      -828.947          30.500    23452373.180    96033511.452 5      -645.933          30.375
R15  21367880.640   114183471.924 7      4369.575          46.937    21367881.040   114183471.923 7      4369.575          44.437    21367889.480    88809405.692 8      3398.558          48.750    21367888.780    88809406.700 8      3398.558          48.625
R17  21590983.260   115537709.746 7      3781.341          45.750    21590982.820   115537709.761 7      3781.341          43.687    21590993.420    89862708.812 8      2941.043          49.437    21590992.200    89862704.798 8      2941.043          49.187
G10  23811404.520   125129754.355 7      -256.260          43.875    23811403.120   125129754.360 6      -256.260          37.500    23811409.180    97503732.262 6      -199.683          37.312    23811410.280    97503734.261 6      -199.683          40.062
R08  23137364.940   123899530.881 6       906.906          41.437    23137366.180   123899530.931 6       906.906          40.312    23137378.500    96366347.703 7       705.371          46.562    23137378.040    96366352.709 7       705.371          46.937
G07  24192076.220   127130202.806 7      1388.989          43.187    24192075.620   127130202.808 4      1388.989          27.500    24192081.960    99062498.072 4      1082.329          27.562    24192082.660    99062521.065 6      1082.329          40.062
R01  21109077.980   112840127.716 7      4368.229          42.375    21109076.720   112840127.715 6      4368.229          41.625    21109090.780    87764600.315 7      3397.512          43.812    21109089.440    87764593.303 7      3397.512          44.500
G32  24957915.040   131154744.380 6      3515.137          41.500    24957914.280   131154744.380 5      3515.137          33.375    24957926.500   102198565.017 5      2739.067          33.625    24957927.680   102198570.029 6      2739.067          38.562
> 2024 05 03 14 22 40.0000000  0 18
G30  25109085.560   131949140.955 7      2257.767          47.312    25109083.740   131949140.966 2      2257.767          17.625    25109093.420   102817513.946 3      1759.299          19.000    25109093.560   102817527.905 4      1759.299          29.125
G02  21348995.360   112189725.129 7      2799.751          47.812    21348993.800   112189725.134 6      2799.751          39.875    21348994.880    87420564.014 6      2181.624          39.875
G03  22739361.240   119496172.543 6      6232.939          41.250    22739360.460   119496172.537 5      6232.939          33.375    22739371.200    93113948.523 5      4856.835          32.812    22739372.020    93113954.532 8      4856.835          49.125
G14  24599341.820   129270410.785 6      5984.813          37.125    24599339.360   129270410.793 3      5984.813          22.500    24599344.140   100730197.155 3      4663.491          22.812    24599345.040   100730207.153 7      4663.491          42.875
G08  20588511.000   108193347.872 8      2620.914          48.937    20588509.780   108193347.880 8      2620.914          48.875    20588514.820    84306522.957 8      2042.271          49.250    20588515.740    84306525.959 8      2042.271          50.937
G21  20771957.500   109157367.909 7      1811.926          47.625    20771955.680   109157367.912 6      1811.926          40.750    20771958.160    85057693.225 6      1411.891          41.062
R14  20265366.200   108025789.653 8       545.590          49.937    20265365.900   108025789.654 8       545.590          49.125    20265373.300    84020088.521 8       424.348          50.687    20265374.100    84020089.523 8       424.348          50.812
R24  20777538.180   111106823.962 7      1845.290          47.562    20777538.360   111106823.963 7      1845.290          47.375    20777545.440    86416459.987 8      1435.226          49.125    20777545.920    86416456.986 8      1435.226          48.875
G27  22042627.580   115834771.103 7       934.890          45.875    22042626.620   115834771.108 7       934.890          46.750    22042632.060    90260879.618 7       728.485          46.500    22042633.100    90260886.615 8       728.485          48.625
R02  22747093.300   121382898.099 7      6494.035          45.250    22747093.180   121382898.103 7      6494.035          43.687    22747107.760    94409011.588 7      5050.916          43.750    22747108.040    94409013.592 7      5050.916          43.437
G16  23452523.900   123243812.958 7      -829.462          42.000    23452522.720   123243812.974 5      -829.462          30.500    23452530.940    96034157.616 5      -646.334          30.375
R15  21367063.180   114179102.912 7      4368.567          46.937    21367063.400   114179102.908 7      4368.567          44.375    21367071.740    88806007.569 8      3397.774          49.000    21367071.300    88806008.570 7      3397.774          47.812
R17  21590276.860   115533928.606 7      3781.078          44.187    21590276.180   115533928.626 7      3781.078          43.687    21590286.940    89859767.931 8      2940.839          49.500    21590285.740    89859763.919 8      2940.839          49.250
G10  23811453.160   125130010.690 7      -256.532          43.687    23811451.960   125130010.692 6      -256.532          36.875    23811457.880    97503932.002 6      -199.895          37.375    23811459.100    97503933.999 6      -199.895          39.187
R08  23137196.320   123898624.304 6       906.131          41.437    23137197.220   123898624.343 6       906.131          40.500    23137209.180    96365642.576 7       704.768          46.437    23137208.980    96365647.578 7       704.768          47.250
G07  24191811.980   127128814.218 7      1388.333          42.812    24191811.140   127128814.220 4      1388.333          27.500    24191817.720    99061416.047 4      1081.818          27.562    24191818.080    99061439.032 6      1081.818          40.250
R01  21108261.060   112835759.950 7      4367.412          42.375    21108258.780   112835759.949 6      4367.412          41.375    21108273.720    87761203.169 7      3396.876          43.875    21108272.520    87761196.158 7      3396.876          44.625
G32  24957246.180   131151229.544 6      3514.638          41.812    24957245.420   131151229.544 5      3514.638          33.500    24957257.740   102195826.190 5      2738.679          33.625    24957258.740   102195831.192 6      2738.679          38.562
> 2024 05 03 14 22 41.0000000  0 18
G30  25108656.020   131946883.508 8      2257.047          48.250    25108654.040   131946883.518 2      2257.047          17.625    25108663.720   102815754.888 3      1758.738          19.000    25108665.700   102815768.865 4      1758.738          29.125
G02  21348462.680   112186925.490 8      2799.283          48.250    21348461.140   112186925.493 6      2799.283          39.937    21348462.160    87418382.475 6      2181.259          39.562
G03  22738175.100   119489939.695 6      6232.674          41.125    22738174.560   119489939.687 5      6232.674          33.375    22738185.340    93109091.766 5      4856.629          32.812    22738185.900    93109097.778 8      4856.629          48.937
G14  24598202.400   129264426.109 6      5984.189          37.125    24598200.640   129264426.117 3      5984.189          22.500    24598205.440   100725533.769 3      4663.004          22.812    24598206.500   100725543.785 7      4663.004          42.937
G08  20588012.240   108190727.265 8      2620.312          48.812    20588011.200   108190727.270 8      2620.312          49.437    20588016.200    84304480.924 8      2041.801          49.625    20588017.140    84304483.929 8      2041.801          51.062
G21  20771612.820   109155556.139 7      1811.609          47.437    20771610.980   109155556.141 6      1811.609          40.687    20771613.420    85056281.456 6      1411.643          40.500
R14  20265263.540   108025244.419 8       544.735          49.875    20265263.540   108025244.417 8       544.735          49.062    20265271.060    84019664.448 8       423.683          50.812    20265271.880    84019665.451 8       423.683          51.000
R24  20777193.240   111104978.696 7      1845.075          47.875    20777193.620   111104978.703 7      1845.075          46.875    20777200.360    86415024.784 8      1435.058          49.312    20777200.800    86415021.786 8      1435.058          48.812
G27  22042450.120   115833836.461 7       934.331          46.500    22042448.840   115833836.466 7       934.331          46.750    22042454.260    90260151.326 7       728.050          46.437    22042454.920    90260158.326 8       728.050          48.437
R02  22745876.480   121376404.136 7      6493.728          44.625    22745876.580   121376404.142 7      6493.728          43.125    22745890.920    94403960.746 7      5050.677          43.375    22745891.260    94403962.750 7      5050.677          43.375
G16  23452681.940   123244642.471 7      -829.791          42.687    23452680.580   123244642.481 5      -829.791          30.500    23452688.740    96034803.979 4      -646.590          29.937
R15  21366245.920   114174734.860 7      4367.425          46.437    21366245.720   114174734.864 7      4367.425          45.562    21366254.460    88802610.203 8      3396.886          48.812    21366253.920    88802611.197 7      3396.886          47.562
R17  21589570.680   115530147.773 7      3780.572          44.187    21589569.600   115530147.787 7      3780.572          44.187    21589580.020    89856827.283 8      2940.445          49.562    21589579.060    89856823.271 8      2940.445          48.812
G10  23811502.120   125130267.462 7      -257.164          44.125    23811500.920   125130267.464 6      -257.164          36.375    23811506.660    97504132.084 6      -200.387          36.687    23811506.940    97504134.091 6      -200.387          39.187
R08  23137027.000   123897718.593 6       905.107          41.437    23137028.120   123897718.622 6       905.107          40.500    23137040.100    96364938.129 7       703.972          46.250    23137039.940    96364943.133 7       703.972          47.125
G07  24191547.580   127127426.040 7      1387.893          42.812    24191547.100   127127426.042 4      1387.893          27.500    24191553.740    99060334.348 4      1081.475          27.562    24191554.180    99060357.336 6      1081.475          40.250
R01  21107444.340   112831392.983 6      4366.480          41.000    21107442.060   112831393.006 6      4366.480          41.375    21107456.780    87757806.660 7      3396.151          43.750    21107455.660    87757799.649 7      3396.151          44.812
G32  24956577.400   131147715.171 7      3513.968          42.062    24956576.860   131147715.173 5      3513.968          33.500    24956589.020   102193087.728 5      2738.157          33.625    24956590.040   102193092.734 6      2738.157          38.562
> 2024 05 03 14 22 42.0000000  0 18
G30  25108226.360   131944626.538 8      2256.755          48.312    25108224.740   131944626.546 2      2256.755          17.625    25108234.420   102813996.202 3      1758.510          19.000    25108239.480   102814010.186 4      1758.510          29.125
G02  21347930.080   112184126.143 8      2799.286          48.937    21347928.480   112184126.146 6      2799.286          39.937    21347929.280    87416201.166 6      2181.262          39.625
G03  22736988.920   119483707.186 6      6232.467          40.812    22736988.580   119483707.180 5      6232.467          33.375    22736999.360    93104235.274 5      4856.468          32.562    22737000.240    93104241.281 8      4856.468          48.875
G14  24597062.980   129258441.685 6      5984.353          36.562    24597061.780   129258441.690 3      5984.353          22.500    24597066.660   100720870.583 3      4663.132          22.812    24597067.380   100720880.600 7      4663.132          43.437
G08  20587513.580   108188107.065 8      2619.983          49.000    20587512.580   108188107.067 8      2619.983          49.562    20587517.580    84302439.207 8      2041.546          49.437    20587518.400    84302442.209 8      2041.546          51.000
G21  20771267.860   109153744.720 8      1811.246          48.750    20771266.300   109153744.722 6      1811.246          40.750    20771268.740    85054869.961 6      1411.361          40.937
R14  20265161.700   108024700.009 8       544.028          50.312    20265161.520   108024700.007 8       544.028          49.125    20265169.020    84019241.012 8       423.133          51.000    20265169.660    84019242.014 8       423.133          50.437
R24  20776848.120   111103133.615 8      1844.984          48.125    20776848.560   111103133.619 8      1844.984          48.062    20776855.220    86413589.719 8      1434.988          49.187    20776855.860    86413586.718 8      1434.988          48.937
G27  22042272.300   115832902.205 7       934.148          46.375    22042271.040   115832902.215 7       934.148          46.500    22042276.340    90259423.334 7       727.907          46.562    22042277.680    90259430.334 8       727.907          48.687
R02  22744659.380   121369910.388 7      6493.690          44.750    22744659.520   121369910.394 7      6493.690          43.625    22744673.960    94398910.070 7      5050.648          44.000    22744674.100    94398912.072 7      5050.648          43.687
G16  23452839.940   123245472.288 7      -829.973          42.687    23452838.380   123245472.296 5      -829.973          30.062    23452846.680    96035450.584 4      -646.732          29.937
R15  21365429.080   114170367.670 7      4366.794          45.937    21365428.660   114170367.682 7      4366.794          44.812    21365437.180    88799213.507 8      3396.395          49.062    21365437.000    88799214.496 8      3396.395          48.437
R17  21588863.720   115526367.076 7      3780.682          45.937    21588862.660   115526367.094 7      3780.682          44.187    21588873.660    89853886.744 8      2940.530          49.125    21588872.600    89853882.734 8      2940.530          49.562
G10  23811550.940   125130524.659 7      -257.282          44.125    23811549.860   125130524.661 6      -257.282          36.000    23811555.280    97504332.497 6      -200.479          36.687    23811555.880    97504334.494 6      -200.479          39.187
R08  23136858.500   123896813.772 6       904.367          41.312    23136858.580   123896813.798 6       904.367          40.500    23136870.960    96364234.375 7       703.396          46.062    23136871.020    96364239.379 7       703.396          47.187
G07  24191283.580   127126038.198 6      1387.717          41.687    24191283.120   127126038.198 4      1387.717          27.500    24191289.680    99059252.907 4      1081.338          27.562    24191289.760    99059275.903 6      1081.338          40.250
R01  21106627.280   112827026.901 6      4365.741          41.000    21106625.420   112827026.921 6      4365.741          41.500    21106640.100    87754410.823 7      3395.576          43.687    21106638.640    87754403.809 7      3395.576          45.062
G32  24955909.000   131144201.307 7      3513.629          42.187    24955908.140   131144201.310 5      3513.629          33.562    24955920.320   102190349.658 5      2737.893          33.500    24955920.700   102190354.665 6      2737.893          38.562
> 2024 05 03 14 22 43.0000000  0 18
G30  25107797.060   131942370.052 7      2256.392          47.250    25107795.260   131942370.057 2      2256.392          17.625    25107804.940   102812237.893 3      1758.228          19.000    25107807.900   102812251.859 4      1758.228          29.125
G02  21347397.200   112181327.104 7      2799.056          47.812    21347395.880   112181327.109 6      2799.056          39.875    21347396.820    87414020.100 6      2181.082          40.000
G03  22735803.140   119477474.971 6      6232.194          41.125    22735802.740   119477474.966 5      6232.194          33.062    22735813.420    93099379.011 5      4856.255          32.562    22735814.000    93099385.021 8      4856.255          49.000
G14  24595924.340   129252457.569 6      5983.996          36.562    24595923.100   129252457.574 3      5983.996          22.500    24595927.900   100716207.640 3      4662.854          22.812    24595928.700   100716217.650 7      4662.854          43.375
G08  20587015.060   108185487.178 8      2619.786          48.812    20587013.980   108185487.182 8      2619.786          49.250    20587019.060    84300397.739 8      2041.391          49.625    20587019.960    84300400.740 8      2041.391          50.812
G21  20770923.560   109151933.554 7      1811.033          47.750    20770921.680   109151933.556 6      1811.033          41.125    20770924.060    85053458.665 6      1411.194          41.312
R14  20265059.740   108024156.340 8       543.437          49.812    20265059.420   108024156.343 8       543.437          49.250    20265067.040    84018818.160 8       422.673          51.000    20265067.600    84018819.164 8       422.673          50.750
R24  20776502.640   111101288.571 8      1845.039          48.250    20776503.420   111101288.588 7      1845.039          46.437    20776510.180    86412154.689 8      1435.030          49.250    20776510.740    86412151.691 8      1435.030          49.062
G27  22042094.300   115831968.254 7       933.968          45.875    22042093.360   115831968.264 7       933.968          46.375    22042098.740    90258695.578 7       727.768          46.500    22042099.500    90258702.580 8       727.768          48.437
R02  22743442.500   121363416.763 7      6493.682          44.875    22743442.240   121363416.780 7      6493.682          43.437    22743457.180    94393859.492 7      5050.642          43.875    22743457.340    94393861.497 7      5050.642          43.812
G16  23452998.040   123246302.292 7      -829.925          43.062    23452996.260   123246302.300 5      -829.925          30.062    23453004.560    96036097.330 4      -646.695          29.937
R15  21364611.920   114166001.359 7      4365.937          46.687    21364611.600   114166001.366 7      4365.937          44.625    21364620.100    88795817.485 8      3395.728          48.875    21364620.080    88795818.481 8      3395.728          49.375
R17  21588157.300   115522586.540 7      3780.491          44.562    21588156.180   115522586.552 7      3780.491          43.937    21588167.000    89850946.325 8      2940.382          49.062    21588166.220    89850942.309 8      2940.382          49.187
G10  23811600.040   125130782.226 7      -257.662          44.500    23811598.880   125130782.229 6      -257.662          36.187    23811604.040    97504533.199 6      -200.775          36.437    23811604.280    97504535.198 6      -200.775          39.187
R08  23136689.780   123895909.655 6       904.024          41.312    23136689.580   123895909.675 6       904.024          40.250    23136702.380    96363531.164 7       703.130          47.187    23136701.980    96363536.170 7       703.130          46.875
G07  24191019.720   127124650.695 7      1387.476          42.437    24191018.880   127124650.700 4      1387.476          27.500    24191025.560    99058171.725 4      1081.150          27.562    24191026.220    99058194.722 6      1081.150          40.312
R01  21105810.300   112822661.588 6      4364.900          41.875    21105808.820   112822661.597 6      4364.900          41.312    21105823.140    87751015.573 7      3394.923          43.562    21105822.020    87751008.562 7      3394.923          44.625
G32  24955240.240   131140687.841 6      3513.298          41.437    24955239.580   131140687.843 5      3513.298          33.562    24955251.660   102187611.902 5      2737.635          33.500    24955252.160   102187616.904 6      2737.635          38.562
> 2024 05 03 14 22 44.0000000  0 19
G30  25107367.820   131940113.874 7      2255.870          47.687    25107365.840   131940113.881 2      2255.870          17.625    25107375.680   102810479.826 3      1757.821          19.000    25107375.620   102810493.830 4      1757.821          29.125
G02  21346864.500   112178528.201 8      2798.622          48.312    21346863.340   112178528.206 6      2798.622          39.812    21346864.400    87411839.135 6      2180.744          39.875
G03  22734617.200   119471242.859 6      6231.889          41.937    22734616.720   119471242.851 5      6231.889          33.062    22734627.420    93094522.826 5      4856.017          32.875    22734628.140    93094528.833 8      4856.017          49.500
G14  24594785.780   129246473.476 6      5983.940          36.250    24594784.500   129246473.484 3      5983.940          22.500    24594789.120   100711544.710 3      4662.810          22.812    24594789.980   100711554.737 7      4662.810          43.875
G08  20586516.740   108182867.521 8      2619.417          48.750    20586515.400   108182867.521 8      2619.417          49.000    20586520.580    84298356.444 8      2041.104          49.500    20586521.420    84298359.448 8      2041.104          51.000
G21  20770578.660   109150122.482 7      1810.860          47.750    20770576.960   109150122.484 6      1810.860          40.812    20770579.460    85052047.442 6      1411.060          41.000
R14  20264957.640   108023613.257 8       542.587          50.125    20264957.400   108023613.260 8       542.587          49.937    20264965.280    84018395.760 8       422.012          50.750    20264966.020    84018396.764 8       422.012          51.000
R24  20776157.860   111099443.524 8      1844.978          48.000    20776158.560   111099443.539 7      1844.978          47.250    20776164.980    86410719.651 8      1434.983          48.937    20776165.620    86410716.656 8      1434.983          48.812
G27  22041916.320   115831034.523 7       933.483          46.562    22041915.680   115831034.526 7       933.483          46.937    22041920.960    90257967.990 7       727.389          46.500    22041922.000    90257974.990 8       727.389          48.375
R02  22742225.500   121356923.146 7      6493.363          44.812    22742225.960   121356923.152 7      6493.363          43.750    22742240.220    94388808.909 7      5050.394          44.000    22742240.200    94388810.917 7      5050.394          44.312
G16  23453156.120   123247132.428 7      -830.299          42.187    23453154.360   123247132.440 5      -830.299          30.062    23453162.540    96036744.179 5      -646.987          30.375
R15  21363794.780   114161635.754 7      4365.113          46.000    21363794.760   114161635.750 7      4365.113          45.312    21363803.200    88792422.008 8      3395.088          48.937    21363803.180    88792423.013 8      3395.088          49.687
R17  21587450.980   115518805.964 7      3780.404          45.125    21587450.080   115518805.968 7      3780.404          43.625    21587460.400    89848005.875 8      2940.314          49.000    21587459.680    89848001.859 8      2940.314          49.500
G10  23811649.000   125131040.020 7      -258.079          44.000    23811647.940   125131040.025 5      -258.079          35.812    23811653.080    97504734.078 6      -201.101          36.437    23811653.320    97504736.086 6      -201.101          38.375
R08  23136520.840   123895006.239 6       902.947          41.312    23136521.260   123895006.276 6       902.947          40.250    23136533.500    96362828.520 7       702.292          46.625    23136533.040    96362833.522 7       702.292          46.625
G07  24190755.900   127123263.376 7      1386.979          42.500    24190754.960   127123263.379 4      1386.979          27.437    24190761.600    99057090.694 4      1080.763          27.562    24190762.140    99057113.684 6      1080.763          40.312
R23  23699666.900   126777235.632 6       592.180          38.687
R01  21104994.100   112818296.879 6      4364.178          41.875    21104992.260   112818296.891 6      4364.178          41.312    21105006.680    87747620.810 7      3394.361          43.625    21105005.540    87747613.791 7      3394.361          45.000
G32  24954571.900   131137174.689 7      3512.914          42.062    24954571.120   131137174.686 5      3512.914          33.312    24954582.880   102184874.390 5      2737.336          33.750    24954584.940   102184879.396 6      2737.336          38.750
> 2024 05 03 14 22 45.0000000  0 19
G30  25106938.580   131937858.163 8      2255.414          48.375    25106936.480   131937858.171 2      2255.414          17.625    25106946.540   102808722.129 3      1757.465          19.000    25106945.180   102808736.101 4      1757.465          29.125
G02  21346332.140   112175729.490 8      2798.530          48.562    21346330.700   112175729.492 6      2798.530          39.687    21346331.680    87409658.323 6      2180.673          39.687
G03  22733431.540   119465010.984 6      6231.701          41.937    22733430.780   119465010.983 5      6231.701          33.187    22733441.560    93089666.831 5      4855.871          32.875    22733442.580    93089672.841 8      4855.871          49.187
G14  24593646.700   129240489.696 6      5983.458          36.250    24593645.720   129240489.701 3      5983.458          22.875    24593650.420   100706882.026 3      4662.435          22.812    24593651.400   100706892.041 7      4662.435          43.875
G08  20586018.320   108180248.094 8      2619.107          48.437    20586016.960   108180248.093 8      2619.107          49.375    20586022.060    84296315.331 8      2040.862          49.500    20586022.860    84296318.333 8      2040.862          50.687
G21  20770234.400   109148311.620 8      1810.627          48.312    20770232.460   109148311.623 6      1810.627          40.875    20770234.880    85050636.379 6      1410.878          40.937
R14  20264856.340   108023070.882 8       541.913          50.000    20264855.700   108023070.886 8       541.913          49.437    20264863.500    84017973.909 8       421.488          50.937    20264864.220    84017974.916 8       421.488          51.062
R24  20775812.780   111097598.518 8      1844.748          48.000    20775813.720   111097598.533 7      1844.748          47.437    20775819.840    86409284.648 8      1434.804          48.562    20775820.400    86409281.647 8      1434.804          49.000
G27  22041738.820   115830100.935 7       933.303          47.312    22041738.040   115830100.937 7       933.303          47.062    22041743.340    90257240.516 7       727.249          47.250    22041744.240    90257247.516 8       727.249          48.562
R02  22741008.760   121350429.449 7      6493.537          44.937    22741008.700   121350429.447 7      6493.537          43.500    22741023.160    94383758.266 7      5050.528          43.875    22741023.260    94383760.270 7      5050.528          43.375
G16  23453313.920   123247962.668 7      -830.483          42.812    23453312.340   123247962.683 5      -830.483          30.500    23453320.500    96037391.115 5      -647.130          30.375
R15  21362977.980   114157270.969 7      4364.229          46.062    21362977.560   114157270.965 7      4364.229          45.750    21362986.400    88789027.173 8      3394.400          48.562    21362986.500    88789028.182 8      3394.400          49.312
R17  21586744.980   115515025.543 7      3780.300          45.250    21586743.500   115515025.545 7      3780.300          44.062    21586754.060    89845065.545 8      2940.233          49.250    21586753.460    89845061.531 8      2940.233          49.625
G10  23811698.140   125131298.042 7      -258.438          43.937    23811696.980   125131298.045 5      -258.438          35.812    23811702.060    97504935.134 6      -201.380          36.250    23811702.160    97504937.143 6      -201.380          38.375
R08  23136352.320   123894103.426 6       902.167          41.312    23136352.320   123894103.454 6       902.167          40.250    23136364.980    96362126.324 7       701.685          46.437    23136364.440    96362131.328 7       701.685          47.000
G07  24190492.120   127121876.336 7      1386.752          42.125    24190491.060   127121876.336 4      1386.752          27.437    24190497.660    99056009.881 4      1080.586          27.562    24190498.160    99056032.874 6      1080.586          40.187
R23  23699555.120   126776643.277 6       592.232          38.687
R01  21104177.580   112813932.796 6      4363.514          41.750    21104175.400   112813932.811 6      4363.514          41.500    21104190.400    87744226.528 7      3393.844          43.625    21104189.140    87744219.512 7      3393.844          44.937
G32  24953903.300   131133661.824 6      3512.414          41.937    24953902.520   131133661.826 5      3512.414          33.312    24953914.580   102182137.101 5      2736.946          33.750    24953915.980   102182142.107 6      2736.946          38.750
