     3.05           OBSERVATION DATA    MIXED               RINEX VERSION / TYPE
TPS2RIN 1.0.29.3920 TPS-USER            20240511 180527 UTC PGM / RUN BY / DATE
Win64 build Feb 23, 2024 (c) Topcon Positioning Systems     COMMENT
SRC: 20240503_FA01.tps                                      COMMENT
OPT: -S -v 3.05                                             COMMENT
Observer            Agency                                  OBSERVER / AGENCY
O0M3X53SBGM         TPS HIPER_SR        4.8 HSR Jul,08,2022 REC # / TYPE / VERS
FW: 4.8 HSR Jul,08,2022 p3                                  COMMENT
SN: HiPer SR 1212-12575                                     COMMENT
000                 TPSHIPER_SR     NONE                    ANT # / TYPE
        1.8000        0.0000        0.0000                  ANTENNA: DELTA H/E/N
DELTA H stands for **SLANT** height here!                   COMMENT
FA01                                                        MARKER NAME
  5391015.3617 -1598429.6387  3005018.3664                  APPROX POSITION XYZ
  2024     5     3    14    59   46.0000000     GPS         TIME OF FIRST OBS
  2024     5     3    15     4   59.0000000     GPS         TIME OF LAST OBS
     1.000                                                  INTERVAL
   314 EPOCHS                                               COMMENT
G   16 C1C L1C D1C S1C C1W L1W D1W S1W C2W L2W D2W S2W C2X  SYS / # / OBS TYPES
       L2X D2X S2X                                          SYS / # / OBS TYPES
R   16 C1C L1C D1C S1C C1P L1P D1P S1P C2P L2P D2P S2P C2C  SYS / # / OBS TYPES
       L2C D2C S2C                                          SYS / # / OBS TYPES
    17                                                      # OF SATELLITES
   G02   314   314   314   314   314   314   314   314   314PRN / # OF OBS
         314   314   314     0     0     0     0            PRN / # OF OBS
   G03   314   314   314   314   314   314   314   314   314PRN / # OF OBS
         314   314   314   314   314   314   314            PRN / # OF OBS
   G08   314   314   314   314   314   314   314   314   314PRN / # OF OBS
         314   314   314   314   314   314   314            PRN / # OF OBS
   G10   232   232   232   232   232   232   232   232   232PRN / # OF OBS
         232   232   232   232   232   232   232            PRN / # OF OBS
   G14   314   314   314   314   314   314   314   314   314PRN / # OF OBS
         314   314   314   314   314   314   314            PRN / # OF OBS
   G16   314   314   314   314   314   314   314   314   314PRN / # OF OBS
         314   314   314     0     0     0     0            PRN / # OF OBS
   G21   314   314   314   314   314   314   314   314   314PRN / # OF OBS
         314   314   314     0     0     0     0            PRN / # OF OBS
   G27   314   314   314   314   314   314   314   314   314PRN / # OF OBS
         314   314   314   314   314   314   314            PRN / # OF OBS
   G32   314   314   314   314   314   314   314   314   314PRN / # OF OBS
         314   314   314   314   314   314   314            PRN / # OF OBS
   R01   314   314   314   314   314   314   314   314   314PRN / # OF OBS
         314   314   314   314   314   314   314            PRN / # OF OBS
   R02   314   314   314   314   314   314   314   314   314PRN / # OF OBS
         314   314   314   314   314   314   314            PRN / # OF OBS
   R14   314   314   314   314   314   314   314   314   314PRN / # OF OBS
         314   314   314   314   314   314   314            PRN / # OF OBS
   R15   314   314   314   314   314   314   314   314   314PRN / # OF OBS
         314   314   314   314   314   314   314            PRN / # OF OBS
   R16   314   314   314   314   314   314   314   314   314PRN / # OF OBS
         314   314   314   314   314   314   314            PRN / # OF OBS
   R17   314   314   314   314   314   314   314   314   314PRN / # OF OBS
         314   314   314   314   314   314   314            PRN / # OF OBS
   R18   314   314   314   314   314   314   314   314   314PRN / # OF OBS
         314   314   314   314   314   314   314            PRN / # OF OBS
   R24   314   314   314   314   314   314   314   314   314PRN / # OF OBS
         314   314   314   314   314   314   314            PRN / # OF OBS
G L1C                                                       SYS / PHASE SHIFT
G L1W -0.25000                                              SYS / PHASE SHIFT
G L2W  0.00000                                              SYS / PHASE SHIFT
G L2X  0.25000                                              SYS / PHASE SHIFT
R L1C                                                       SYS / PHASE SHIFT
R L1P -0.25000                                              SYS / PHASE SHIFT
R L2P -0.25000                                              SYS / PHASE SHIFT
R L2C                                                       SYS / PHASE SHIFT
  8 R01  1 R02 -4 R14 -7 R15  0 R16 -1 R17  4 R18 -3 R24  2 GLONASS SLOT / FRQ #
                                                            GLONASS COD/PHS/BIS
    18    18  1929     7GPS                                 LEAP SECONDS
                                                            END OF HEADER
> 2024 05 03 14 59 46.0000000  0 17
G02  21447900.700   112709472.494 7      2403.123          47.375    21447899.240   112709472.499 6      2403.123          40.125    21447899.800    87825572.165 6      1872.563          40.125
G03  21437628.060   112655516.580 7      5465.932          46.375    21437627.520   112655516.585 6      5465.932          39.500    21437634.640    87783539.805 6      4259.168          39.000    21437635.200    87783557.810 8      4259.168          50.500
R02  21319942.740   113767328.018 7      5928.517          47.875    21319942.300   113767328.013 7      5928.517          46.562    21319952.880    88485753.007 8      4611.069          49.000    21319953.280    88485755.012 8      4611.069          48.812
R01  20847288.140   111440703.363 7      2553.407          43.562    20847287.940   111440703.394 7      2553.407          43.375    20847295.940    86676144.211 7      1985.983          42.562    20847296.140    86676141.207 7      1985.983          42.812
G21  21278519.100   111819358.879 7      1474.688          47.062    21278517.180   111819358.884 6      1474.688          39.250    21278519.600    87131972.222 6      1149.107          39.062
G16  25050513.780   131641262.408 6     -1012.389          37.937    25050511.940   131641262.416 2     -1012.389          17.812    25050528.660   102577623.148 2      -788.875          17.000
G14  23386606.640   122897445.449 7      5294.056          45.250    23386606.160   122897445.459 5      5294.056          32.937    23386609.360    95764253.323 5      4125.238          32.687    23386609.680    95764264.300 7      4125.238          45.375
G08  20823192.460   109426609.920 8      1874.166          48.062    20823191.440   109426609.925 8      1874.166          48.500    20823196.820    85267505.503 8      1460.389          48.875    20823197.700    85267500.505 8      1460.389          50.750
R14  21519100.180   114708878.708 8      -707.807          48.500    21519099.980   114708878.703 7      -707.807          47.687    21519111.020    89218049.894 8      -550.516          49.562    21519111.080    89218050.894 8      -550.516          49.500
R24  21224397.340   113496384.442 7      1738.481          45.375    21224396.240   113496384.457 7      1738.481          44.562    21224404.320    88274998.295 7      1352.152          47.625    21224405.600    88274999.304 7      1352.152          46.750
R15  21128888.220   112906376.631 7      2485.500          45.812    21128889.020   112906376.624 7      2485.500          45.437    21128897.280    87816103.723 7      1933.167          47.750    21128896.780    87816103.726 7      1933.167          47.687
R17  21245207.480   113687388.281 7      3637.274          45.000    21245207.340   113687388.293 7      3637.274          44.375    21245216.100    88423568.831 8      2828.991          48.562    21245216.140    88423566.834 8      2828.991          48.937
G10  25224333.040   132554760.774 7      -706.438          42.125    25224331.920   132554760.773 5      -706.438          35.312    25224341.780   103289460.884 5      -550.471          35.375    25224341.260   103289463.890 6      -550.471          39.312
G32  24858301.720   130631264.789 7      2538.558          42.750    24858301.240   130631264.786 6      2538.558          41.375    24858311.180   101790639.363 6      1978.097          40.812    24858311.860   101790643.362 7      1978.097          46.375
G27  22965358.000   120683743.578 7       338.496          45.000    22965356.860   120683743.585 7       338.496          43.812    22965365.240    94039301.796 7       263.763          43.937    22965366.300    94039307.791 7       263.763          46.937
R16  23929283.560   127825932.471 7      5514.458          42.312    23929283.160   127825932.467 7      5514.458          42.062    23929293.500    99420211.481 7      4289.023          43.187    23929293.480    99420211.486 7      4289.023          43.875
R18  23944890.100   127819444.510 7      4542.118          42.250    23944890.080   127819444.511 7      4542.118          42.312    23944900.800    99415171.340 7      3532.758          43.062    23944900.860    99415171.345 7      3532.758          43.187
> 2024 05 03 14 59 47.0000000  0 17
G02  21447443.500   112707069.555 7      2403.018          47.750    21447442.000   112707069.560 6      2403.018          39.625    21447442.480    87823699.747 6      1872.481          39.687
G03  21436588.140   112650051.143 7      5465.212          47.562    21436587.480   112650051.148 6      5465.212          39.562    21436594.420    87779281.028 6      4258.607          39.312    21436595.140    87779299.031 8      4258.607          49.750
R02  21318831.340   113761399.928 8      5927.926          48.000    21318831.440   113761399.921 7      5927.926          47.250    21318841.980    88481142.276 8      4610.609          49.125    21318842.060    88481144.282 8      4610.609          49.062
R01  20846810.460   111438150.481 7      2552.590          43.250    20846810.980   111438150.511 7      2552.590          43.375    20846818.400    86674158.640 7      1985.347          42.687    20846818.760    86674155.634 7      1985.347          42.437
G21  21278238.340   111817884.266 7      1474.683          47.625    21278236.620   111817884.271 6      1474.683          39.625    21278238.920    87130823.173 6      1149.104          39.500
G16  25050706.280   131642274.843 6     -1012.446          37.937    25050704.600   131642274.851 2     -1012.446          16.750    25050721.420   102578412.040 2      -788.919          17.000
G14  23385599.420   122892151.613 7      5293.772          45.875    23385598.860   122892151.620 5      5293.772          32.937    23385602.240    95760128.254 5      4125.017          32.687    23385602.540    95760139.228 7      4125.017          46.187
G08  20822835.820   109424736.163 8      1873.685          48.000    20822834.880   109424736.171 8      1873.685          48.500    20822840.260    85266045.435 8      1460.014          49.375    20822841.260    85266040.437 8      1460.014          51.062
R14  21519233.160   114709586.820 8      -708.219          49.062    21519232.840   114709586.815 7      -708.219          47.375    21519243.820    89218600.635 8      -550.837          49.437    21519244.100    89218601.636 8      -550.837          49.375
R24  21224072.200   113494646.160 7      1738.358          45.562    21224071.160   113494646.169 7      1738.358          44.437    21224079.440    88273646.295 7      1352.056          47.500    21224080.540    88273647.302 7      1352.056          47.375
R15  21128423.400   112903891.651 7      2484.651          46.625    21128424.020   112903891.639 7      2484.651          45.437    21128432.200    87814170.957 7      1932.506          47.750    21128431.800    87814170.958 7      1932.506          47.437
R17  21244527.980   113683751.162 7      3637.303          45.062    21244527.640   113683751.175 7      3637.303          44.437    21244536.240    88420739.959 8      2829.014          48.375    21244536.560    88420737.962 8      2829.014          48.500
G10  25224467.400   132555467.584 6      -706.743          41.187    25224466.600   132555467.583 5      -706.743          35.312    25224476.140   103290011.645 5      -550.709          35.437    25224475.960   103290014.635 6      -550.709          39.500
G32  24857818.760   130628726.680 7      2538.129          42.562    24857818.220   130628726.683 6      2538.129          41.250    24857828.180   101788661.618 6      1977.763          40.687    24857829.260   101788665.621 7      1977.763          46.062
G27  22965293.760   120683405.411 7       338.061          44.375    22965292.580   120683405.419 7       338.061          43.375    22965300.900    94039038.288 7       263.424          42.812    22965301.960    94039044.281 7       263.424          47.062
R16  23928251.260   127820418.407 7      5513.971          42.875    23928250.380   127820418.410 7      5513.971          42.187    23928261.100    99415922.766 7      4288.644          43.312    23928260.840    99415922.769 7      4288.644          44.187
R18  23944039.300   127814902.503 7      4542.135          42.062    23944039.280   127814902.498 7      4542.135          42.312    23944050.160    99411638.672 7      3532.772          42.687    23944049.780    99411638.675 7      3532.772          42.687
> 2024 05 03 14 59 48.0000000  0 17
G02  21446986.300   112704666.743 8      2402.461          48.000    21446984.660   112704666.748 6      2402.461          39.750    21446985.420    87821827.428 6      1872.048          39.687
G03  21435548.160   112644586.146 7      5464.431          46.812    21435547.520   112644586.148 6      5464.431          39.312    21435554.540    87775022.592 6      4257.998          39.125    21435555.120    87775040.593 8      4257.998          50.062
R02  21317720.800   113755472.302 7      5927.056          47.750    21317720.540   113755472.292 7      5927.056          47.125    21317731.120    88476531.909 8      4609.932          48.937    21317731.440    88476533.910 8      4609.932          49.125
R01  20846332.760   111435598.501 7      2551.274          44.250    20846333.780   111435598.527 7      2551.274          43.687    20846341.260    86672173.771 7      1984.324          42.687    20846341.100    86672170.765 7      1984.324          42.562
G21  21277957.520   111816409.774 7      1474.138          47.687    21277956.060   111816409.779 6      1474.138          40.000    21277958.300    87129674.218 6      1148.679          39.875
G16  25050898.380   131643287.308 6     -1012.891          38.437    25050897.400   131643287.315 2     -1012.891          16.750    25050914.120   102579200.956 2      -789.266          17.000
G14  23384591.980   122886858.192 7      5292.826          45.687    23384591.680   122886858.199 5      5292.826          33.437    23384595.320    95756003.509 5      4124.280          33.187    23384595.800    95756014.491 7      4124.280          46.812
G08  20822479.380   109422862.796 8      1872.850          48.437    20822478.340   109422862.801 8      1872.850          49.625    20822483.920    85264585.670 8      1459.363          49.562    20822484.820    85264580.674 8      1459.363          50.562
R14  21519366.240   114710295.358 8      -709.100          48.812    21519365.880   114710295.354 7      -709.100          47.687    21519376.660    89219151.717 8      -551.522          49.562    21519377.000    89219152.719 8      -551.522          50.000
R24  21223747.460   113492907.945 7      1737.792          45.875    21223746.040   113492907.959 7      1737.792          45.187    21223754.100    88272294.352 7      1351.616          47.312    21223755.320    88272295.361 7      1351.616          47.687
R15  21127958.960   112901407.506 7      2483.340          47.062    21127958.920   112901407.488 7      2483.340          45.750    21127967.420    87812238.842 8      1931.487          48.187    21127966.920    87812238.840 8      1931.487          48.187
R17  21243848.580   113680114.122 7      3636.684          45.687    21243847.860   113680114.129 7      3636.684          44.687    21243856.680    88417911.152 8      2828.532          48.500    21243856.680    88417909.152 8      2828.532          48.187
G10  25224602.220   132556174.462 7      -707.240          42.125    25224601.120   132556174.464 5      -707.240          35.000    25224610.800   103290562.466 5      -551.096          35.437    25224610.300   103290565.465 6      -551.096          39.500
G32  24857335.960   130626189.124 7      2536.837          42.625    24857335.340   130626189.131 6      2536.837          41.250    24857345.300   101786684.309 6      1976.756          41.187    24857346.080   101786688.319 7      1976.756          46.125
G27  22965228.980   120683067.533 7       337.420          43.562    22965228.240   120683067.533 7       337.420          43.750    22965236.680    94038774.996 7       262.925          43.437    22965237.500    94038780.989 7       262.925          47.000
R16  23927218.940   127814904.959 7      5512.676          42.875    23927218.320   127814904.962 7      5512.676          42.437    23927228.760    99411634.529 7      4287.637          43.250    23927228.960    99411634.538 7      4287.637          43.875
R18  23943188.580   127810360.512 7      4541.587          42.562    23943188.440   127810360.513 6      4541.587          41.875    23943199.020    99408106.021 7      3532.345          42.687    23943198.940    99408106.019 7      3532.345          42.625
> 2024 05 03 14 59 49.0000000  0 17
G02  21446528.900   112702264.246 8      2402.472          48.187    21446527.480   112702264.251 6      2402.472          40.625    21446528.280    87819955.354 6      1872.056          40.437
G03  21434508.160   112639121.778 7      5464.160          46.812    21434507.840   112639121.781 6      5464.160          39.250    21434514.720    87770764.650 6      4257.787          38.875    21434515.660    87770782.653 8      4257.787          50.062
R02  21316610.140   113749545.295 8      5926.830          48.375    21316609.980   113749545.291 7      5926.830          47.250    21316620.380    88471922.023 8      4609.757          49.312    21316620.520    88471924.027 8      4609.757          49.375
R01  20845855.780   111433047.546 7      2550.553          44.000    20845856.660   111433047.574 7      2550.553          43.812    20845864.060    86670189.705 7      1983.763          42.812    20845863.980    86670186.699 7      1983.763          42.687
G21  21277677.200   111814935.529 7      1474.252          46.875    21277675.700   111814935.531 6      1474.252          39.187    21277677.720    87128525.458 6      1148.768          39.250
G16  25051091.820   131644299.900 6     -1012.599          38.437    25051090.000   131644299.905 2     -1012.599          16.750    25051106.860   102579989.969 2      -789.038          17.000
G14  23383584.820   122881565.365 7      5292.639          45.562    23383584.360   122881565.372 5      5292.639          33.437    23383588.500    95751879.230 5      4124.134          33.187    23383588.640    95751890.229 7      4124.134          47.812
G08  20822123.000   109420989.961 8      1872.661          48.750    20822121.920   109420989.964 8      1872.661          48.687    20822127.440    85263126.312 8      1459.216          49.812    20822128.480    85263121.313 8      1459.216          51.000
R14  21519499.400   114711004.502 8      -709.322          49.687    21519498.860   114711004.500 7      -709.322          47.812    21519510.000    89219703.266 8      -551.695          49.250    21519510.080    89219704.269 8      -551.695          49.562
R24  21223422.240   113491169.970 7      1737.905          45.812    21223421.220   113491169.982 7      1737.905          45.312    21223429.060    88270942.594 7      1351.704          47.500    21223430.120    88270943.599 7      1351.704          47.312
R15  21127494.380   112898924.375 7      2482.797          46.437    21127494.180   112898924.368 7      2482.797          44.625    21127502.560    87810307.524 8      1931.065          48.187    21127502.300    87810307.527 8      1931.065          48.187
R17  21243168.960   113676477.311 7      3636.903          46.000    21243168.380   113676477.318 7      3636.903          45.000    21243176.900    88415082.521 8      2828.702          48.250    21243177.220    88415080.520 8      2828.702          48.500
G10  25224736.600   132556881.627 7      -707.204          42.000    25224735.580   132556881.632 5      -707.204          34.875    25224745.260   103291113.503 5      -551.068          35.250    25224744.900   103291116.507 6      -551.068          39.500
G32  24856853.080   130623652.150 7      2536.736          42.875    24856852.480   130623652.158 6      2536.736          41.312    24856862.440   101784707.453 6      1976.677          41.187    24856863.280   101784711.454 7      1976.677          46.625
G27  22965164.880   120682730.066 7       337.252          43.687    22965163.980   120682730.068 7       337.252          43.437    22965172.400    94038512.028 7       262.794          43.125    22965173.200    94038518.021 7       262.794          46.937
R16  23926187.020   127809392.235 7      5512.446          42.687    23926186.780   127809392.225 7      5512.446          42.437    23926197.040    99407346.849 7      4287.458          43.437    23926197.020    99407346.854 7      4287.458          44.187
R18  23942337.700   127805818.699 7      4541.783          42.562    23942337.700   127805818.703 7      4541.783          42.875    23942348.260    99404573.504 7      3532.498          42.687    23942347.980    99404573.509 7      3532.498          43.187
> 2024 05 03 14 59 50.0000000  0 17
G02  21446071.720   112699861.628 8      2402.448          48.062    21446070.200   112699861.635 6      2402.448          39.812    21446071.100    87818083.180 6      1872.037          39.937
G03  21433468.560   112633657.572 7      5463.951          47.312    21433467.940   112633657.574 6      5463.951          39.687    21433475.020    87766506.832 6      4257.624          39.437    21433475.780    87766524.839 8      4257.624          50.312
R02  21315499.420   113743618.491 8      5926.550          48.187    21315499.440   113743618.490 7      5926.550          46.312    21315509.860    88467312.293 8      4609.539          48.812    21315509.920    88467314.296 8      4609.539          48.875
R01  20845378.760   111430497.213 7      2549.879          44.312    20845379.760   111430497.241 7      2549.879          43.750    20845387.020    86668206.113 7      1983.240          42.937    20845387.020    86668203.109 7      1983.240          43.125
G21  21277396.480   111813461.134 7      1474.288          47.062    21277395.160   111813461.139 6      1474.288          39.562    21277397.140    87127376.581 6      1148.796          39.625
G16  25051284.640   131645312.217 6     -1012.315          38.875    25051282.500   131645312.219 2     -1012.315          16.750    25051299.380   102580778.769 2      -788.817          17.000
G14  23382577.460   122876272.685 7      5292.411          44.812    23382577.060   122876272.695 5      5292.411          33.250    23382581.460    95747755.072 5      4123.957          33.437    23382581.680    95747766.081 7      4123.957          47.687
G08  20821766.540   109419117.230 8      1872.514          48.312    20821765.580   109419117.232 8      1872.514          48.625    20821771.020    85261667.041 8      1459.102          49.062    20821772.180    85261662.045 8      1459.102          51.500
R14  21519632.400   114711713.781 8      -709.573          48.750    21519631.920   114711713.779 7      -709.573          47.750    21519642.860    89220254.922 8      -551.890          49.437    21519643.060    89220255.924 8      -551.890          49.437
R24  21223097.220   113489431.776 7      1738.115          45.250    21223096.120   113489431.786 7      1738.115          44.812    21223104.100    88269590.660 7      1351.867          47.250    21223105.300    88269591.664 7      1351.867          47.250
R15  21127029.620   112896441.841 7      2482.006          46.437    21127029.920   112896441.836 7      2482.006          45.375    21127038.180    87808376.664 7      1930.449          47.625    21127037.960    87808376.667 8      1930.449          48.250
R17  21242489.100   113672840.278 7      3636.972          45.750    21242488.820   113672840.291 7      3636.972          45.187    21242497.260    88412253.722 8      2828.756          48.312    21242497.300    88412251.718 8      2828.756          48.000
G10  25224871.320   132557588.632 6      -707.050          41.812    25224870.160   132557588.634 5      -707.050          34.875    25224879.940   103291664.416 5      -550.948          35.250    25224879.460   103291667.416 6      -550.948          39.375
G32  24856370.300   130621115.453 6      2536.425          41.687    24856369.780   130621115.457 6      2536.425          41.062    24856379.840   101782730.810 6      1976.435          41.375    24856380.640   101782734.811 7      1976.435          46.312
G27  22965100.740   120682392.598 7       337.259          44.312    22965099.800   120682392.605 7       337.259          43.812    22965108.120    94038249.068 7       262.799          43.187    22965108.480    94038255.063 7       262.799          46.687
R16  23925155.060   127803879.842 7      5511.993          42.687    23925154.460   127803879.840 7      5511.993          42.687    23925164.580    99403059.436 7      4287.106          43.312    23925164.820    99403059.441 7      4287.106          43.937
R18  23941486.860   127801276.575 7      4542.103          43.000    23941486.800   127801276.576 7      4542.103          42.875    23941497.360    99401040.738 7      3532.747          42.750    23941497.060    99401040.743 7      3532.747          43.000
> 2024 05 03 14 59 51.0000000  0 17
G02  21445614.880   112697459.283 8      2402.259          48.187    21445613.040   112697459.288 6      2402.259          40.250    21445613.860    87816211.227 6      1871.890          40.125
G03  21432429.040   112628193.982 7      5463.447          46.875    21432428.220   112628193.982 6      5463.447          39.375    21432435.300    87762249.494 6      4257.231          39.187    21432435.980    87762267.495 8      4257.231          49.562
R02  21314388.980   113737692.288 8      5926.031          48.125    21314388.600   113737692.281 7      5926.031          46.687    21314399.060    88462703.028 8      4609.135          48.187    21314399.400    88462705.033 8      4609.135          48.750
R01  20844901.580   111427947.909 7      2548.831          44.125    20844902.860   111427947.940 7      2548.831          43.937    20844910.100    86666223.323 7      1982.424          42.812    20844910.100    86666220.319 7      1982.424          42.875
G21  21277116.140   111811986.986 7      1474.126          46.562    21277114.660   111811986.991 6      1474.126          39.437    21277116.640    87126227.890 6      1148.669          39.000
G16  25051477.180   131646324.668 6     -1012.498          39.187    25051475.000   131646324.665 2     -1012.498          16.750    25051491.860   102581567.672 2      -788.959          17.000
G14  23381570.660   122870980.623 7      5291.879          44.875    23381570.020   122870980.635 5      5291.879          33.250    23381574.300    95743631.389 5      4123.542          33.437    23381574.720    95743642.400 7      4123.542          47.625
G08  20821410.400   109417245.023 7      1872.009          47.562    20821409.320   109417245.028 8      1872.009          48.937    20821414.840    85260208.179 8      1458.708          49.000    20821415.840    85260203.181 8      1458.708          50.437
R14  21519765.600   114712423.610 8      -709.955          48.500    21519765.080   114712423.607 7      -709.955          47.500    21519775.960    89220807.002 8      -552.187          48.687    21519776.180    89220808.005 8      -552.187          48.625
R24  21222772.300   113487693.754 7      1737.996          44.562    21222771.100   113487693.768 7      1737.996          45.250    21222779.040    88268238.868 7      1351.774          47.437    21222780.160    88268239.867 7      1351.774          46.437
R15  21126565.180   112893960.295 7      2481.150          45.812    21126565.240   112893960.296 7      2481.150          45.375    21126573.800    87806446.573 7      1929.784          47.312    21126573.660    87806446.579 7      1929.784          47.375
R17  21241809.080   113669203.449 7      3636.737          44.875    21241809.480   113669203.469 7      3636.737          44.437    21241817.520    88409425.081 8      2828.573          48.125    21241817.840    88409423.080 7      2828.573          47.937
G10  25225006.080   132558295.888 7      -707.312          42.375    25225004.900   132558295.891 5      -707.312          35.062    25225014.460   103292215.525 5      -551.152          35.250    25225015.000   103292218.537 6      -551.152          39.375
G32  24855887.600   130618579.380 7      2535.865          43.062    24855887.200   130618579.377 6      2535.865          40.625    24855897.240   101780754.639 6      1975.999          40.375    24855898.140   101780758.646 7      1975.999          46.437
G27  22965036.480   120682055.548 7       336.911          45.187    22965035.540   120682055.550 7       336.911          43.250    22965044.060    94037986.421 7       262.528          43.000    22965044.400    94037992.414 7       262.528          46.562
R16  23924123.000   127798368.170 7      5511.385          43.375    23924123.160   127798368.176 7      5511.385          42.625    23924133.040    99398772.583 7      4286.633          43.500    23924133.020    99398772.581 7      4286.633          44.062
R18  23940635.960   127796734.656 7      4541.893          42.875    23940635.900   127796734.657 7      4541.893          42.375    23940646.260    99397508.135 7      3532.584          42.687    23940646.300    99397508.135 7      3532.584          42.875
> 2024 05 03 14 59 52.0000000  0 17
G02  21445157.760   112695057.078 8      2402.110          48.125    21445155.880   112695057.082 6      2402.110          40.062    21445156.780    87814339.379 6      1871.774          39.750
G03  21431389.240   112622730.847 7      5462.806          46.875    21431388.680   112622730.852 6      5462.806          39.812    21431395.680    87757992.512 6      4256.732          39.625    21431396.160    87758010.517 8      4256.732          50.437
R02  21313278.280   113731766.508 8      5925.515          48.562    21313278.120   113731766.504 7      5925.515          46.125    21313288.720    88458094.098 8      4608.734          48.750    21313288.760    88458096.104 8      4608.734          48.937
R01  20844425.200   111425399.490 7      2547.863          44.812    20844426.220   111425399.515 7      2547.863          43.937    20844433.700    86664241.217 7      1981.671          42.750    20844433.520    86664238.214 7      1981.671          43.250
G21  21276835.760   111810512.930 7      1473.979          47.375    21276834.020   111810512.938 6      1473.979          39.500    21276836.040    87125079.278 6      1148.555          39.437
G16  25051669.380   131647337.119 6     -1012.644          39.312    25051667.600   131647337.119 2     -1012.644          16.750    25051684.600   102582356.576 2      -789.073          17.250
G14  23380563.580   122865688.967 7      5291.402          43.937    23380562.800   122865688.980 5      5291.402          32.812    23380567.500    95739508.023 5      4123.170          32.812    23380567.780    95739519.047 7      4123.170          47.000
G08  20821054.200   109415373.193 7      1871.547          47.312    20821053.120   109415373.195 8      1871.547          49.000    20821058.640    85258749.608 8      1458.348          48.812    20821059.400    85258744.608 8      1458.348          50.875
R14  21519898.840   114713133.798 8      -710.429          49.125    21519898.300   114713133.801 7      -710.429          47.750    21519909.120    89221359.371 8      -552.556          49.125    21519909.460    89221360.373 8      -552.556          48.937
R24  21222447.200   113485955.777 7      1737.877          45.812    21222446.260   113485955.786 7      1737.877          45.250    21222454.200    88266887.100 8      1351.682          48.000    21222455.320    88266888.097 7      1351.682          46.750
R15  21126100.900   112891479.620 7      2480.278          46.312    21126100.700   112891479.613 7      2480.278          45.625    21126109.560    87804517.159 7      1929.105          47.500    21126109.320    87804517.164 7      1929.105          47.812
R17  21241129.520   113665566.617 7      3636.797          45.312    21241129.800   113665566.640 7      3636.797          44.875    21241138.180    88406596.438 8      2828.620          48.062    21241138.080    88406594.439 8      2828.620          48.250
G10  25225140.560   132559003.266 7      -707.461          42.375    25225139.480   132559003.268 5      -707.461          35.187    25225149.200   103292766.724 5      -551.268          35.062    25225149.060   103292769.722 6      -551.268          39.375
G32  24855405.040   130616043.805 7      2535.263          42.625    24855404.740   130616043.804 6      2535.263          40.875    24855414.760   101778778.870 6      1975.530          40.750    24855415.620   101778782.875 7      1975.530          46.187
G27  22964972.420   120681718.771 7       336.439          44.750    22964971.720   120681718.776 7       336.439          43.687    22964980.060    94037723.996 7       262.161          43.187    22964980.580    94037729.993 7       262.161          46.750
R16  23923091.180   127792857.070 7      5510.866          43.375    23923091.160   127792857.066 7      5510.866          42.625    23923101.580    99394486.161 7      4286.229          43.375    23923101.420    99394486.162 7      4286.229          43.625
R18  23939784.820   127792192.742 7      4541.804          42.125    23939784.800   127792192.743 7      4541.804          42.312    23939795.500    99393975.537 7      3532.514          42.625    23939795.600    99393975.548 7      3532.514          42.937
> 2024 05 03 14 59 53.0000000  0 17
G02  21444700.620   112692654.938 7      2402.015          47.437    21444698.640   112692654.943 6      2402.015          39.875    21444699.660    87812467.582 6      1871.700          39.812
G03  21430349.700   112617268.096 7      5462.503          46.500    21430349.280   112617268.098 6      5462.503          39.750    21430356.080    87753735.827 6      4256.496          39.625    21430356.720    87753753.828 8      4256.496          50.375
R02  21312167.940   113725841.097 8      5925.136          48.562    21312167.760   113725841.090 7      5925.136          47.062    21312178.280    88453485.449 8      4608.439          49.125    21312178.540    88453487.455 8      4608.439          49.000
R01  20843948.260   111422851.881 7      2547.029          45.437    20843949.400   111422851.906 7      2547.029          43.750    20843957.100    86662259.745 7      1981.022          42.812    20843957.000    86662256.742 7      1981.022          42.812
G21  21276555.320   111809038.906 7      1473.913          47.062    21276553.660   111809038.911 6      1473.913          39.062    21276555.640    87123930.687 6      1148.503          39.375
G16  25051861.620   131648349.467 6     -1012.300          39.312    25051860.180   131648349.467 2     -1012.300          16.750    25051877.320   102583145.398 2      -788.805          17.250
G14  23379556.580   122860397.656 7      5290.968          44.312    23379555.900   122860397.669 5      5290.968          32.812    23379560.360    95735384.928 5      4122.832          32.812    23379561.020    95735395.951 7      4122.832          46.687
G08  20820697.940   109413501.673 8      1871.256          48.562    20820696.920   109413501.675 8      1871.256          48.625    20820702.440    85257291.278 8      1458.121          49.312    20820703.320    85257286.278 8      1458.121          51.062
R14  21520031.960   114713844.271 8      -710.723          48.562    21520031.640   114713844.272 7      -710.723          47.687    21520042.400    89221911.951 8      -552.785          49.125    21520042.620    89221912.951 8      -552.785          49.000
R24  21222122.100   113484217.802 7      1737.869          45.687    21222121.100   113484217.803 7      1737.869          45.375    21222129.020    88265535.334 7      1351.676          47.562    21222130.340    88265536.332 7      1351.676          47.312
R15  21125636.580   112888999.725 7      2479.425          46.437    21125636.720   112888999.723 7      2479.425          45.312    21125645.340    87802588.352 7      1928.442          47.812    21125645.200    87802588.354 7      1928.442          47.625
R17  21240449.600   113661929.779 7      3636.771          46.125    21240450.120   113661929.800 7      3636.771          45.250    21240458.400    88403767.785 8      2828.599          48.437    21240458.720    88403765.783 8      2828.599          49.000
G10  25225275.280   132559710.652 7      -707.509          42.125    25225274.120   132559710.657 5      -707.509          35.250    25225283.660   103293317.934 5      -551.306          35.187    25225283.340   103293320.940 6      -551.306          39.125
G32  24854922.680   130613508.647 7      2534.890          42.125    24854922.120   130613508.647 6      2534.890          41.187    24854932.320   101776803.423 6      1975.239          40.875    24854933.300   101776807.432 7      1975.239          46.687
G27  22964908.180   120681382.196 7       336.340          44.812    22964907.700   120681382.198 7       336.340          43.875    22964916.080    94037461.724 7       262.083          43.687    22964916.520    94037467.715 7       262.083          47.062
R16  23922059.760   127787346.464 7      5510.185          42.812    23922059.600   127787346.468 7      5510.185          42.250    23922069.940    99390200.140 7      4285.700          43.437    23922069.820    99390200.143 7      4285.700          44.437
R18  23938934.160   127787650.767 7      4541.885          43.062    23938934.440   127787650.768 7      4541.885          42.312    23938944.700    99390442.890 7      3532.577          43.125    23938944.760    99390442.893 7      3532.577          42.937
> 2024 05 03 14 59 54.0000000  0 17
G02  21444243.480   112690253.024 7      2402.080          47.500    21444241.660   112690253.029 6      2402.080          40.000    21444242.600    87810595.961 6      1871.751          40.000
G03  21429310.240   112611805.899 7      5462.161          47.062    21429309.760   112611805.904 6      5462.161          39.125    21429316.760    87749479.575 6      4256.230          39.687    21429317.260    87749497.576 8      4256.230          50.562
R02  21311057.720   113719916.196 8      5924.878          48.312    21311057.420   113719916.196 7      5924.878          46.812    21311067.940    88448877.209 8      4608.238          49.250    21311068.160    88448879.213 8      4608.238          49.062
R01  20843471.880   111420305.263 7      2546.267          45.125    20843473.280   111420305.291 7      2546.267          44.062    20843480.820    86660279.049 7      1980.430          43.125    20843480.780    86660276.045 7      1980.430          42.875
G21  21276274.740   111807565.076 8      1474.001          48.125    21276273.240   111807565.084 6      1474.001          39.625    21276275.120    87122782.250 6      1148.572          39.562
G16  25052054.780   131649361.945 6     -1012.244          39.000    25052052.840   131649361.942 2     -1012.244          16.750    25052069.880   102583934.319 2      -788.761          17.250
G14  23378549.720   122855106.868 7      5290.749          45.125    23378549.120   122855106.884 5      5290.749          32.812    23378553.120    95731262.236 5      4122.661          32.750    23378553.860    95731273.257 7      4122.661          45.750
G08  20820341.880   109411630.615 8      1871.108          48.062    20820340.980   109411630.619 8      1871.108          49.250    20820346.440    85255833.315 8      1458.007          49.562    20820347.240    85255828.315 8      1458.007          50.875
R14  21520165.320   114714555.206 8      -710.828          48.937    21520165.040   114714555.204 8      -710.828          48.062    21520175.760    89222464.888 8      -552.866          49.187    21520176.080    89222465.890 8      -552.866          49.125
R24  21221797.100   113482480.017 7      1737.976          44.875    21221796.160   113482480.024 7      1737.976          45.562    21221804.540    88264183.730 7      1351.759          47.562    21221805.140    88264184.724 7      1351.759          47.187
R15  21125172.740   112886520.789 7      2478.773          46.250    21125172.860   112886520.780 7      2478.773          45.625    21125181.480    87800660.291 7      1927.935          47.375    21125181.400    87800660.293 7      1927.935          47.625
R17  21239770.300   113658293.087 7      3636.860          45.812    21239770.680   113658293.107 7      3636.860          44.687    21239778.760    88400939.248 8      2828.669          48.375    21239778.760    88400937.246 8      2828.669          49.062
G10  25225409.920   132560418.261 7      -707.346          42.625    25225408.600   132560418.265 5      -707.346          35.250    25225418.120   103293869.316 5      -551.179          35.375    25225418.560   103293872.313 6      -551.179          39.125
G32  24854440.600   130610974.112 7      2534.428          42.687    24854439.800   130610974.114 6      2534.428          41.312    24854450.100   101774828.466 6      1974.879          40.750    24854450.880   101774832.473 7      1974.879          46.375
G27  22964844.320   120681045.987 7       336.311          44.937    22964843.620   120681045.989 7       336.311          43.625    22964852.160    94037199.734 7       262.061          43.437    22964852.740    94037205.730 7       262.061          47.000
R16  23921028.680   127781836.563 7      5509.832          42.375    23921028.040   127781836.556 7      5509.832          42.250    23921038.260    99385914.656 7      4285.425          43.562    23921038.240    99385914.663 7      4285.425          44.062
R18  23938083.460   127783108.872 7      4542.131          42.750    23938083.360   127783108.875 7      4542.131          42.625    23938093.820    99386910.313 7      3532.768          42.812    23938094.140    99386910.316 7      3532.768          43.062
> 2024 05 03 14 59 55.0000000  0 17
G02  21443786.360   112687851.228 7      2401.568          47.500    21443784.700   112687851.238 6      2401.568          39.562    21443785.380    87808724.436 6      1871.351          39.500
G03  21428270.980   112606344.110 7      5461.574          47.062    21428270.360   112606344.112 6      5461.574          39.500    21428277.320    87745223.640 6      4255.772          39.375    21428278.000    87745241.643 8      4255.772          50.437
R02  21309947.340   113713991.761 8      5924.096          48.312    21309947.140   113713991.759 7      5924.096          47.125    21309957.680    88444269.322 8      4607.630          49.250    21309957.780    88444271.327 8      4607.630          49.062
R01  20842995.960   111417759.482 7      2545.252          45.125    20842996.880   111417759.510 7      2545.252          43.937    20843004.500    86658299.005 7      1979.640          43.312    20843004.600    86658296.000 7      1979.640          43.375
G21  21275994.380   111806091.341 7      1473.457          47.750    21275992.820   111806091.346 6      1473.457          39.062    21275994.700    87121633.885 6      1148.149          39.250
G16  25052247.200   131650374.382 6     -1012.514          39.062    25052245.460   131650374.385 2     -1012.514          16.750    25052262.660   102584723.211 2      -788.972          17.250
G14  23377543.020   122849816.453 7      5290.107          45.375    23377542.640   122849816.471 5      5290.107          32.875    23377546.280    95727139.834 5      4122.162          32.750    23377546.460    95727150.852 7      4122.162          45.250
G08  20819985.840   109409759.943 7      1870.354          47.875    20819984.960   109409759.945 8      1870.354          48.750    20819990.460    85254375.644 8      1457.419          49.062    20819991.260    85254370.645 8      1457.419          51.000
R14  21520298.720   114715266.545 8      -711.630          48.625    21520298.400   114715266.546 7      -711.630          47.500    21520309.300    89223018.150 8      -553.490          49.187    21520309.500    89223019.152 8      -553.490          49.375
R24  21221471.800   113480742.289 7      1737.612          45.062    21221471.160   113480742.301 7      1737.612          45.000    21221479.420    88262832.165 7      1351.476          47.750    21221480.200    88262833.160 7      1351.476          47.437
R15  21124709.300   112884042.663 7      2477.571          46.187    21124709.020   112884042.656 7      2477.571          45.125    21124717.920    87798732.859 8      1927.000          48.250    21124717.440    87798732.862 7      1927.000          47.812
R17  21239090.860   113654656.391 7      3636.537          45.750    21239091.200   113654656.411 7      3636.537          44.625    21239099.080    88398110.707 8      2828.417          48.437    21239099.260    88398108.703 8      2828.417          48.687
G10  25225544.520   132561125.964 7      -707.834          42.437    25225543.380   132561125.966 5      -707.834          35.000    25225552.960   103294420.769 5      -551.559          35.375    25225553.320   103294423.770 6      -551.559          39.125
G32  24853958.000   130608440.039 7      2533.721          42.125    24853957.620   130608440.036 6      2533.721          40.625    24853967.760   101772853.864 6      1974.328          40.625    24853968.420   101772857.871 7      1974.328          46.687
G27  22964780.280   120680710.048 7       335.704          45.312    22964779.640   120680710.048 7       335.704          43.750    22964788.100    94036937.960 7       261.588          43.312    22964788.740    94036943.953 7       261.588          47.000
R16  23919997.780   127776327.199 7      5508.840          42.375    23919996.440   127776327.187 7      5508.840          42.062    23920007.320    99381629.590 7      4284.653          44.187    23920006.860    99381629.593 7      4284.653          43.875
R18  23937232.600   127778566.953 7      4541.901          42.750    23937232.920   127778566.948 7      4541.901          43.187    23937242.820    99383377.707 7      3532.589          42.687    23937242.960    99383377.708 7      3532.589          42.750
> 2024 05 03 14 59 56.0000000  0 17
G02  21443329.360   112685449.617 7      2401.618          47.375    21443327.560   112685449.619 6      2401.618          40.562    21443328.440    87806853.048 6      1871.391          40.250
G03  21427231.840   112600882.893 7      5461.105          46.812    21427231.320   112600882.892 6      5461.105          39.750    21427238.020    87740968.152 6      4255.406          39.750    21427238.700    87740986.155 8      4255.406          50.562
R02  21308837.520   113708067.852 8      5923.800          48.312    21308837.180   113708067.850 7      5923.800          47.125    21308847.560    88439661.843 8      4607.400          49.250    21308847.700    88439663.849 8      4607.400          49.187
R01  20842520.080   111415214.650 7      2544.596          44.812    20842521.060   111415214.672 7      2544.596          44.562    20842528.740    86656319.693 7      1979.130          43.375    20842528.220    86656316.688 7      1979.130          43.187
G21  21275713.820   111804617.716 7      1473.659          47.750    21275712.380   111804617.721 6      1473.659          39.500    21275714.380    87120485.604 6      1148.305          39.375
G16  25052440.200   131651386.867 6     -1012.238          39.250    25052438.220   131651386.872 2     -1012.238          16.750    25052455.340   102585512.140 2      -788.757          17.250
G14  23376536.280   122844526.535 7      5289.734          45.625    23376536.160   122844526.548 5      5289.734          32.875    23376539.420    95723017.822 5      4121.870          32.750    23376539.380    95723028.827 7      4121.870          44.937
G08  20819630.000   109407889.673 8      1870.227          48.062    20819629.060   109407889.675 8      1870.227          49.062    20819634.540    85252918.293 8      1457.319          48.625    20819635.500    85252913.294 8      1457.319          51.000
R14  21520432.740   114715978.354 8      -711.887          48.500    21520432.020   114715978.357 7      -711.887          47.937    21520442.780    89223571.775 8      -553.690          49.000    21520443.420    89223572.775 8      -553.690          49.312
R24  21221146.760   113479004.662 7      1737.735          44.375    21221146.380   113479004.669 7      1737.735          44.937    21221154.660    88261480.669 7      1351.572          47.500    21221155.460    88261481.664 7      1351.572          47.187
R15  21124245.360   112881565.478 7      2476.796          46.000    21124245.520   112881565.468 7      2476.796          45.125    21124254.420    87796806.153 7      1926.397          47.750    21124254.420    87796806.156 8      1926.397          48.250
R17  21238411.060   113651019.829 7      3636.564          45.000    21238411.560   113651019.847 7      3636.564          44.812    21238419.720    88395282.270 8      2828.438          48.500    21238419.460    88395280.266 8      2828.438          48.937
G10  25225679.520   132561833.781 7      -707.800          42.687    25225678.120   132561833.788 5      -707.800          34.625    25225687.440   103294972.318 5      -551.533          35.062    25225687.600   103294975.336 6      -551.533          39.250
G32  24853475.720   130605906.521 6      2533.300          41.312    24853475.560   130605906.526 6      2533.300          41.125    24853485.840   101770879.702 6      1974.000          40.687    24853486.380   101770883.703 7      1974.000          46.562
G27  22964716.260   120680374.422 7       335.708          44.312    22964715.880   120680374.425 7       335.708          43.562    22964724.260    94036676.429 7       261.591          43.062    22964724.660    94036682.422 7       261.591          46.937
R16  23918966.460   127770818.441 7      5508.584          42.812    23918965.440   127770818.442 7      5508.584          42.062    23918975.860    99377345.012 7      4284.454          43.250    23918975.500    99377345.016 7      4284.454          44.500
R18  23936381.500   127774025.138 7      4541.799          43.625    23936381.540   127774025.138 7      4541.799          43.250    23936392.160    99379845.193 7      3532.510          42.687    23936392.060    99379845.194 7      3532.510          42.812
> 2024 05 03 14 59 57.0000000  0 17
G02  21442872.400   112683048.134 7      2401.415          47.125    21442870.580   112683048.144 6      2401.415          40.062    21442871.520    87804981.767 6      1871.233          39.937
G03  21426192.840   112595422.099 7      5460.480          46.562    21426191.920   112595422.101 6      5460.480          39.625    21426198.900    87736712.992 6      4254.919          39.250    21426199.520    87736731.002 8      4254.919          49.875
R02  21307727.500   113702144.407 8      5923.162          48.062    21307727.020   113702144.408 7      5923.162          47.000    21307737.680    88435054.732 8      4606.904          49.187    21307737.700    88435056.737 8      4606.904          49.187
R01  20842044.100   111412670.721 7      2543.491          44.937    20842045.100   111412670.746 7      2543.491          43.937    20842053.140    86654341.086 7      1978.271          43.687    20842052.540    86654338.079 7      1978.271          43.437
G21  21275433.460   111803144.212 7      1473.470          47.875    21275431.820   111803144.219 6      1473.470          39.062    21275433.900    87119337.421 6      1148.158          39.187
G16  25052633.060   131652399.371 6     -1012.503          39.250    25052631.080   131652399.373 2     -1012.503          17.375    25052648.140   102586301.083 2      -788.963          17.250
G14  23375529.980   122839237.034 7      5289.304          46.312    23375529.620   122839237.050 5      5289.304          32.375    23375532.860    95718896.133 5      4121.536          32.312    23375532.780    95718907.126 7      4121.536          44.625
G08  20819274.140   109406019.805 8      1869.652          48.625    20819273.300   109406019.810 8      1869.652          48.625    20819278.740    85251461.252 8      1456.871          49.250    20819279.700    85251456.254 8      1456.871          51.125
R14  21520565.800   114716690.565 8      -712.397          49.250    21520565.600   114716690.563 8      -712.397          48.062    21520576.380    89224125.704 8      -554.087          49.000    21520576.480    89224126.707 8      -554.087          49.187
R24  21220822.060   113477267.083 7      1737.540          46.875    21220821.300   113477267.082 7      1737.540          45.500    21220829.700    88260129.217 7      1351.420          47.562    21220830.380    88260130.205 7      1351.420          47.187
R15  21123782.420   112879089.150 7      2475.946          47.000    21123781.840   112879089.130 7      2475.946          45.375    21123790.700    87794880.112 7      1925.736          47.875    21123790.520    87794880.117 8      1925.736          48.000
R17  21237731.640   113647383.326 7      3636.468          46.000    21237731.620   113647383.341 7      3636.468          45.000    21237739.980    88392453.881 8      2828.364          48.937    21237740.080    88392451.879 8      2828.364          49.000
G10  25225814.020   132562541.742 7      -708.001          42.562    25225812.800   132562541.749 5      -708.001          34.687    25225822.320   103295523.978 5      -551.689          34.812    25225822.200   103295526.984 6      -551.689          39.250
G32  24852993.980   130603373.507 7      2532.564          42.500    24852993.520   130603373.512 6      2532.564          41.437    24853003.580   101768905.925 6      1973.426          41.125    24853004.220   101768909.928 7      1973.426          46.625
G27  22964652.620   120680039.098 7       335.117          44.812    22964652.140   120680039.095 7       335.117          43.250    22964660.460    94036415.130 7       261.130          43.000    22964660.920    94036421.125 7       261.130          47.312
R16  23917934.560   127765310.325 7      5507.841          42.562    23917933.980   127765310.320 7      5507.841          42.062    23917944.800    99373060.919 7      4283.876          43.812    23917944.700    99373060.919 7      4283.876          44.125
R18  23935530.980   127769483.299 7      4541.825          42.750    23935530.980   127769483.305 7      4541.825          43.250    23935541.540    99376312.660 7      3532.531          42.687    23935541.580    99376312.662 7      3532.531          42.812
> 2024 05 03 14 59 58.0000000  0 17
G02  21442415.380   112680646.761 7      2401.342          47.687    21442413.600   112680646.769 6      2401.342          39.937    21442414.580    87803110.567 6      1871.175          40.000
G03  21425153.460   112589961.657 7      5460.221          46.562    21425152.880   112589961.660 6      5460.221          39.875    21425159.820    87732458.105 6      4254.717          39.625    21425160.600    87732476.108 8      4254.717          50.625
R02  21306617.100   113696221.333 8      5922.917          48.750    21306617.240   113696221.331 7      5922.917          47.250    21306627.520    88430447.899 8      4606.713          49.062    21306627.720    88430449.904 8      4606.713          49.312
R01  20841567.960   111410127.618 7      2542.776          45.375    20841569.200   111410127.643 7      2542.776          44.562    20841577.280    86652363.123 7      1977.715          43.187    20841577.000    86652360.118 7      1977.715          44.125
G21  21275153.240   111801670.760 7      1473.477          47.187    21275151.520   111801670.768 6      1473.477          39.250    21275153.520    87118189.279 6      1148.164          39.562
G16  25052825.760   131653411.743 6     -1012.271          39.250    25052823.860   131653411.745 2     -1012.271          17.375    25052840.800   102587089.924 2      -788.783          17.250
G14  23374523.520   122833947.920 7      5288.911          45.937    23374523.120   122833947.925 5      5288.911          32.375    23374526.260    95714774.741 5      4121.229          32.312    23374526.680    95714785.732 7      4121.229          45.187
G08  20818918.420   109404150.250 8      1869.466          48.500    20818917.360   109404150.250 8      1869.466          48.937    20818922.960    85250004.455 8      1456.727          49.000    20818923.660    85249999.456 8      1456.727          50.500
R14  21520699.360   114717403.027 8      -712.568          48.687    21520699.380   114717403.025 8      -712.568          48.000    21520709.980    89224679.835 8      -554.220          48.875    21520710.240    89224680.837 8      -554.220          49.187
R24  21220497.500   113475529.515 7      1737.585          46.125    21220496.460   113475529.519 7      1737.585          45.812    21220504.960    88258777.777 7      1351.455          47.812    21220505.520    88258778.769 7      1351.455          47.750
R15  21123319.180   112876613.594 7      2475.195          46.187    21123318.400   112876613.585 7      2475.195          45.187    21123327.420    87792954.682 8      1925.152          48.375    21123327.300    87792954.689 8      1925.152          48.375
R17  21237052.400   113643746.807 7      3636.558          46.187    21237052.220   113643746.827 7      3636.558          45.000    21237060.520    88389625.477 8      2828.434          48.375    21237060.660    88389623.480 8      2828.434          48.937
G10  25225948.420   132563249.802 6      -708.015          41.812    25225947.560   132563249.807 5      -708.015          34.687    25225957.000   103296075.712 5      -551.700          34.812    25225957.380   103296078.716 6      -551.700          39.250
G32  24852511.840   130600840.935 7      2532.419          42.500    24852511.560   130600840.939 6      2532.419          41.375    24852521.760   101766932.494 6      1973.313          40.187    24852522.780   101766936.501 7      1973.313          47.187
G27  22964588.660   120679703.953 7       335.078          43.875    22964588.300   120679703.953 7       335.078          43.000    22964596.860    94036153.976 7       261.099          42.812    22964597.360    94036159.967 7       261.099          46.937
R16  23916903.860   127759802.758 7      5507.300          42.562    23916903.260   127759802.754 7      5507.300          42.062    23916913.680    99368777.262 7      4283.455          43.937    23916913.380    99368777.263 7      4283.455          44.375
R18  23934680.240   127764941.395 7      4541.936          43.062    23934679.920   127764941.394 7      4541.936          42.812    23934690.680    99372780.066 7      3532.617          42.937    23934690.560    99372780.069 7      3532.617          42.750
> 2024 05 03 14 59 59.0000000  0 17
G02  21441958.440   112678245.552 7      2401.234          47.437    21441956.740   112678245.557 6      2401.234          40.187    21441957.600    87801239.493 6      1871.091          40.125
G03  21424114.680   112584501.746 7      5459.691          47.000    21424113.840   112584501.743 6      5459.691          39.500    21424120.980    87728203.635 6      4254.304          39.187    21424121.620    87728221.636 8      4254.304          50.687
R02  21305507.320   113690298.729 8      5922.453          48.437    21305507.020   113690298.735 7      5922.453          47.125    21305517.700    88425841.445 8      4606.352          49.312    21305517.580    88425843.451 8      4606.352          48.750
R01  20841092.440   111407585.421 7      2541.815          45.125    20841093.560   111407585.441 7      2541.815          44.187    20841101.820    86650385.857 7      1976.967          43.312    20841101.480    86650382.854 7      1976.967          43.500
G21  21274872.900   111800197.446 7      1473.323          46.750    21274871.300   111800197.453 6      1473.323          39.125    21274873.180    87117041.239 6      1148.044          39.125
G16  25053017.980   131654424.160 6     -1012.259          38.750    25053016.540   131654424.159 2     -1012.259          17.375    25053033.540   102587878.800 2      -788.773          17.250
G14  23373517.100   122828659.255 7      5288.579          45.000    23373516.640   122828659.257 5      5288.579          32.500    23373519.940    95710653.706 5      4120.971          32.500    23373520.420    95710664.695 7      4120.971          45.187
G08  20818562.840   109402281.108 8      1869.024          48.375    20818561.720   109402281.113 8      1869.024          48.687    20818567.380    85248547.983 8      1456.382          49.062    20818568.100    85248542.983 8      1456.382          51.125
R14  21520833.080   114718115.950 8      -712.974          48.062    21520833.020   114718115.945 7      -712.974          47.750    21520843.980    89225234.320 8      -554.535          48.750    21520844.020    89225235.320 8      -554.535          48.687
R24  21220172.200   113473792.059 7      1737.447          45.875    21220171.300   113473792.060 7      1737.447          45.500    21220180.340    88257426.420 7      1351.348          47.562    21220180.780    88257427.411 7      1351.348          47.875
R15  21122856.020   112874138.955 7      2474.286          46.562    21122855.300   112874138.940 7      2474.286          45.062    21122864.400    87791029.958 7      1924.445          47.875    21122864.260    87791029.963 8      1924.445          48.187
R17  21236372.700   113640110.336 7      3636.513          45.187    21236372.880   113640110.354 7      3636.513          45.000    21236380.960    88386797.113 8      2828.399          48.625    21236381.000    88386795.114 8      2828.399          48.250
G10  25226083.060   132563957.958 7      -708.079          42.375    25226082.400   132563957.958 5      -708.079          34.812    25226091.760   103296627.519 5      -551.750          35.187    25226091.680   103296630.513 6      -551.750          39.312
G32  24852030.100   130598308.885 6      2531.905          41.937    24852029.800   130598308.885 6      2531.905          41.000    24852039.740   101764959.469 6      1972.913          40.687    24852040.920   101764963.472 7      1972.913          46.625
G27  22964525.140   120679369.121 7       334.814          44.312    22964524.600   120679369.120 7       334.814          43.562    22964533.040    94035893.061 7       260.894          43.187    22964533.600    94035899.054 7       260.894          47.062
R16  23915872.720   127754295.792 6      5506.816          41.937    23915872.540   127754295.786 6      5506.816          41.875    23915882.560    99364494.060 7      4283.079          43.562    23915882.400    99364494.061 7      4283.079          44.500
R18  23933829.340   127760399.556 7      4542.053          42.062    23933829.360   127760399.547 7      4542.053          43.437    23933839.500    99369247.521 7      3532.708          43.062    23933839.780    99369247.521 7      3532.708          43.000
> 2024 05 03 15 00  0.0000000  0 17
G02  21441501.500   112675844.557 7      2400.849          47.250    21441499.740   112675844.562 6      2400.849          39.687    21441500.840    87799368.586 6      1870.791          39.687
G03  21423075.840   112579042.395 7      5459.042          46.812    21423075.000   112579042.392 6      5459.042          39.687    21423082.020    87723949.599 6      4253.799          39.687    21423082.640    87723967.598 8      4253.799          50.312
R02  21304397.640   113684376.674 8      5921.719          48.125    21304397.160   113684376.685 7      5921.719          46.625    21304408.040    88421235.415 8      4605.781          48.812    21304407.960    88421237.418 8      4605.781          49.125
R01  20840617.560   111405044.194 7      2540.646          44.812    20840618.200   111405044.201 7      2540.646          44.250    20840626.920    86648409.339 7      1976.058          43.437    20840626.340    86648406.336 7      1976.058          43.500
G21  21274592.420   111798724.301 7      1472.874          47.687    21274590.920   111798724.309 6      1472.874          39.562    21274592.840    87115893.335 6      1147.694          39.250
G16  25053211.040   131655436.724 6     -1012.759          39.250    25053209.300   131655436.726 2     -1012.759          17.375    25053226.060   102588667.792 2      -789.163          17.250
G14  23372510.600   122823371.097 7      5287.883          45.250    23372510.200   122823371.104 5      5287.883          32.500    23372513.920    95706533.065 5      4120.428          32.500    23372514.480    95706544.052 7      4120.428          45.812
G08  20818207.240   109400412.451 8      1868.285          49.187    20818206.160   109400412.451 8      1868.285          48.875    20818211.660    85247091.881 8      1455.806          49.000    20818212.440    85247086.881 8      1455.806          50.625
R14  21520966.960   114718829.395 8      -713.706          48.375    21520966.880   114718829.379 7      -713.706          47.625    21520977.600    89225789.207 8      -555.105          48.687    21520977.820    89225790.210 8      -555.105          48.812
R24  21219847.620   113472054.764 7      1737.098          45.437    21219846.580   113472054.765 7      1737.098          45.437    21219855.640    88256075.187 7      1351.076          47.875    21219855.620    88256076.177 7      1351.076          47.875
R15  21122392.860   112871665.216 7      2473.260          45.750    21122392.460   112871665.206 7      2473.260          44.687    21122401.380    87789105.943 7      1923.646          47.875    21122401.280    87789105.950 7      1923.646          47.750
R17  21235692.780   113636473.972 7      3636.269          46.125    21235692.960   113636473.995 7      3636.269          44.937    21235701.500    88383968.836 8      2828.209          48.250    21235701.520    88383966.833 8      2828.209          48.812
G10  25226217.820   132564666.297 7      -708.598          42.687    25226217.120   132564666.294 5      -708.598          34.937    25226226.560   103297179.468 5      -552.154          35.250    25226226.080   103297182.465 6      -552.154          39.312
G32  24851548.500   130595777.398 7      2531.110          42.000    24851547.980   130595777.405 6      2531.110          40.875    24851558.060   101762986.889 6      1972.293          40.625    24851559.320   101762990.894 7      1972.293          46.562
G27  22964461.540   120679034.662 7       334.184          44.750    22964461.020   120679034.664 7       334.184          43.437    22964469.380    94035632.439 7       260.403          43.562    22964469.960    94035638.430 7       260.403          47.000
R16  23914842.160   127748789.476 6      5505.848          41.937    23914841.420   127748789.482 6      5505.848          41.875    23914851.700    99360211.380 7      4282.326          43.812    23914851.620    99360211.385 7      4282.326          44.375
R18  23932978.520   127755857.837 7      4541.669          42.500    23932978.340   127755857.836 7      4541.669          43.187    23932988.900    99365715.077 7      3532.409          42.687    23932988.920    99365715.080 7      3532.409          43.187
> 2024 05 03 15 00  1.0000000  0 17
G02  21441044.620   112673443.618 7      2400.890          46.687    21441042.800   112673443.626 6      2400.890          39.625    21441043.880    87797497.731 6      1870.823          39.687
G03  21422036.960   112573583.380 7      5458.829          47.312    21422036.200   112573583.382 6      5458.829          39.500    21422043.240    87719695.827 6      4253.633          39.562    21422043.940    87719713.828 8      4253.633          49.625
R02  21303287.860   113678454.961 8      5921.500          48.250    21303287.580   113678454.967 7      5921.500          46.750    21303298.040    88416629.642 8      4605.611          48.500    21303298.260    88416631.646 8      4605.611          48.750
R01  20840142.020   111402503.748 7      2540.057          45.312    20840143.000   111402503.758 7      2540.057          43.625    20840151.680    86646433.443 7      1975.600          43.000    20840150.980    86646430.441 7      1975.600          43.250
G21  21274312.040   111797251.157 7      1473.144          47.375    21274310.600   111797251.162 6      1473.144          39.312    21274312.460    87114745.430 6      1147.905          39.250
G16  25053403.980   131656449.127 6     -1012.347          39.562    25053401.920   131656449.132 2     -1012.347          17.375    25053418.800   102589456.656 2      -788.841          17.250
G14  23371504.360   122818083.254 7      5287.767          43.500    23371503.780   122818083.264 5      5287.767          32.562    23371507.660    95702412.675 5      4120.338          32.500    23371508.360    95702423.669 7      4120.338          46.125
G08  20817851.800   109398544.063 8      1868.172          48.687    20817850.640   109398544.068 8      1868.172          48.000    20817856.160    85245635.998 8      1455.718          48.125    20817856.840    85245631.000 8      1455.718          50.375
R14  21521101.080   114719543.064 8      -713.912          48.562    21521100.660   114719543.056 7      -713.912          47.437    21521111.780    89226344.283 8      -555.265          48.875    21521111.740    89226345.286 8      -555.265          48.312
R24  21219522.660   113470317.447 7      1737.336          46.125    21219521.720   113470317.446 7      1737.336          45.125    21219530.960    88254723.940 7      1351.262          47.625    21219531.040    88254724.930 7      1351.262          47.812
R15  21121930.040   112869192.225 7      2472.546          45.937    21121929.460   112869192.224 7      2472.546          44.937    21121938.640    87787182.512 7      1923.091          47.312    21121938.140    87787182.513 7      1923.091          47.562
R17  21235013.300   113632837.603 7      3636.425          45.312    21235013.320   113632837.623 7      3636.425          44.812    21235021.880    88381140.551 7      2828.331          47.625    21235022.060    88381138.545 8      2828.331          48.125
G10  25226352.700   132565374.666 7      -708.496          42.062    25226351.800   132565374.663 5      -708.496          34.937    25226361.420   103297731.445 5      -552.075          35.250    25226360.820   103297734.455 6      -552.075          39.312
G32  24851066.800   130593246.373 7      2530.860          42.187    24851066.400   130593246.378 6      2530.860          41.187    24851076.560   101761014.660 6      1972.098          40.812    24851077.420   101761018.661 7      1972.098          46.312
G27  22964398.200   120678700.407 7       334.004          44.875    22964397.460   120678700.407 7       334.004          43.125    22964405.880    94035371.973 7       260.263          42.687    22964406.220    94035377.970 7       260.263          47.000
R16  23913811.200   127743283.678 7      5505.381          42.000    23913810.620   127743283.687 6      5505.381          41.750    23913820.900    99355929.093 7      4281.963          43.812    23913821.100    99355929.099 7      4281.963          44.250
R18  23932127.660   127751315.998 7      4541.857          42.375    23932127.380   127751316.005 7      4541.857          43.187    23932137.960    99362182.548 7      3532.556          42.687    23932137.740    99362182.557 7      3532.556          42.625
> 2024 05 03 15 00  2.0000000  0 17
G02  21440587.640   112671042.764 7      2400.760          47.125    21440586.020   112671042.774 6      2400.760          39.750    21440586.920    87795626.939 6      1870.722          39.750
G03  21420998.160   112568124.770 7      5458.427          47.500    21420997.420   112568124.770 6      5458.427          39.437    21421004.400    87715442.371 6      4253.319          39.312    21421005.180    87715460.372 8      4253.319          50.250
R02  21302177.860   113672533.640 8      5921.157          48.625    21302177.780   113672533.640 7      5921.157          46.562    21302188.280    88412024.170 8      4605.344          48.875    21302188.500    88412026.176 8      4605.344          48.937
R01  20839667.120   111399964.104 7      2539.272          45.687    20839667.980   111399964.121 7      2539.272          44.000    20839676.680    86644458.172 7      1974.990          43.437    20839675.920    86644455.173 7      1974.990          43.500
G21  21274031.640   111795778.076 7      1473.005          47.375    21274030.360   111795778.084 6      1473.005          39.437    21274032.220    87113597.579 6      1147.796          39.687
G16  25053596.080   131657461.468 6     -1012.313          38.937    25053594.560   131657461.475 2     -1012.313          17.375    25053611.540   102590245.472 2      -788.816          17.250
G14  23370498.200   122812795.829 7      5287.270          44.250    23370497.600   122812795.842 5      5287.270          32.562    23370501.460    95698292.603 5      4119.951          32.500    23370502.240    95698303.606 7      4119.951          46.375
G08  20817496.140   109396675.990 8      1867.877          48.875    20817495.160   109396675.995 8      1867.877          48.750    20817500.640    85244180.356 8      1455.488          48.437    20817501.460    85244175.355 8      1455.488          50.812
R14  21521234.700   114720257.090 8      -714.250          48.875    21521234.440   114720257.083 7      -714.250          47.062    21521245.420    89226899.631 8      -555.528          48.687    21521245.660    89226900.633 8      -555.528          49.000
R24  21219197.640   113468580.130 7      1737.231          46.375    21219197.080   113468580.134 7      1737.231          45.312    21219206.180    88253372.700 7      1351.180          47.625    21219206.060    88253373.688 8      1351.180          48.250
R15  21121467.660   112866720.081 7      2471.614          45.562    21121466.800   112866720.080 7      2471.614          44.875    21121476.100    87785259.734 7      1922.367          47.875    21121475.840    87785259.732 7      1922.367          47.312
R17  21234333.460   113629201.269 7      3636.223          46.062    21234333.940   113629201.297 7      3636.223          45.562    21234342.640    88378312.300 8      2828.173          48.062    21234342.560    88378310.296 8      2828.173          49.125
G10  25226487.560   132566083.078 7      -708.514          42.062    25226486.480   132566083.086 5      -708.514          35.125    25226496.280   103298283.461 5      -552.089          35.312    25226495.520   103298286.459 6      -552.089          38.937
G32  24850585.420   130590715.745 6      2530.475          41.687    24850584.840   130590715.750 6      2530.475          41.062    24850595.080   101759042.751 6      1971.799          40.562    24850595.840   101759046.749 7      1971.799          46.625
G27  22964334.620   120678366.302 7       334.006          44.750    22964333.880   120678366.307 7       334.006          44.062    22964342.260    94035111.632 7       260.265          43.625    22964342.980    94035117.625 7       260.265          47.187
R16  23912780.520   127737778.389 7      5505.049          42.187    23912780.360   127737778.393 6      5505.049          41.750    23912790.460    99351647.206 7      4281.705          43.750    23912790.680    99351647.209 7      4281.705          44.125
R18  23931276.880   127746774.122 7      4541.985          42.812    23931276.780   127746774.128 7      4541.985          42.875    23931286.920    99358649.979 7      3532.655          42.812    23931286.960    99358649.980 7      3532.655          42.875
> 2024 05 03 15 00  3.0000000  0 17
G02  21440130.920   112668642.024 7      2400.670          46.125    21440129.160   112668642.029 6      2400.670          40.250    21440130.160    87793756.229 6      1870.652          40.000
G03  21419959.520   112562666.598 7      5458.042          46.125    21419958.760   112562666.595 6      5458.042          39.687    21419965.800    87711189.250 6      4253.020          39.812    21419966.500    87711207.251 8      4253.020          50.375
R02  21301068.680   113666612.785 7      5920.644          47.875    21301068.200   113666612.784 7      5920.644          46.875    21301078.900    88407419.072 8      4604.945          48.750    21301079.180    88407421.077 8      4604.945          49.687
R01  20839191.860   111397425.392 7      2538.291          45.187    20839193.020   111397425.399 7      2538.291          43.937    20839202.040    86642483.615 7      1974.226          43.625    20839201.340    86642480.615 7      1974.226          44.062
G21  21273751.240   111794305.074 7      1473.007          46.937    21273750.040   111794305.079 6      1473.007          39.312    21273751.860    87112449.781 6      1147.798          39.500
G16  25053788.200   131658473.814 6     -1012.261          39.625    25053787.320   131658473.821 2     -1012.261          17.375    25053804.380   102591034.292 2      -788.774          17.500
G14  23369492.240   122807508.785 7      5286.842          44.000    23369491.300   122807508.801 5      5286.842          32.562    23369495.580    95694172.829 5      4119.617          32.500    23369496.380    95694183.844 7      4119.617          46.187
G08  20817140.800   109394808.303 8      1867.495          48.312    20817139.760   109394808.305 8      1867.495          49.000    20817145.220    85242725.014 8      1455.191          49.062    20817146.200    85242720.014 8      1455.191          50.437
R14  21521368.960   114720971.484 8      -714.576          48.625    21521368.480   114720971.479 7      -714.576          47.687    21521379.580    89227455.260 8      -555.781          48.875    21521379.720    89227456.265 8      -555.781          48.687
R24  21218872.840   113466842.880 7      1737.226          46.437    21218872.280   113466842.887 7      1737.226          45.937    21218881.620    88252021.506 8      1351.176          48.000    21218881.360    88252022.498 8      1351.176          48.500
R15  21121005.360   112864248.771 7      2470.900          45.625    21121004.380   112864248.767 7      2470.900          44.500    21121013.440    87783337.598 7      1921.811          47.625    21121013.240    87783337.602 8      1921.811          48.125
R17  21233654.320   113625564.908 7      3636.454          45.750    21233654.180   113625564.933 7      3636.454          45.187    21233663.100    88375484.017 8      2828.353          48.750    21233662.880    88375482.015 8      2828.353          49.312
G10  25226622.120   132566791.589 6      -708.482          41.812    25226621.220   132566791.591 5      -708.482          35.437    25226631.100   103298835.543 5      -552.064          35.187    25226630.660   103298838.547 6      -552.064          38.937
G32  24850103.940   130588185.650 7      2529.822          42.125    24850103.360   130588185.661 6      2529.822          41.312    24850113.560   101757071.254 6      1971.290          41.562    24850114.320   101757075.255 7      1971.290          46.437
G27  22964271.220   120678032.524 7       333.658          44.562    22964270.380   120678032.523 7       333.658          43.562    22964278.780    94034851.534 7       259.993          43.125    22964279.400    94034857.531 7       259.993          47.312
R16  23911749.920   127732273.670 7      5504.493          42.187    23911749.480   127732273.682 6      5504.493          41.812    23911760.000    99347365.764 7      4281.272          43.750    23911760.440    99347365.764 7      4281.272          44.937
R18  23930425.940   127742232.224 7      4541.965          42.812    23930425.580   127742232.225 7      4541.965          43.250    23930436.280    99355117.392 7      3532.640          42.812    23930436.080    99355117.399 7      3532.640          42.812
> 2024 05 03 15 00  4.0000000  0 17
G02  21439674.180   112666241.429 7      2400.702          47.250    21439672.300   112666241.434 6      2400.702          40.375    21439673.380    87791885.636 6      1870.677          40.062
G03  21418921.120   112557208.924 7      5457.476          47.312    21418920.320   112557208.921 6      5457.476          39.562    21418927.240    87706936.523 6      4252.579          39.437    21418927.780    87706954.526 8      4252.579          50.562
R02  21299959.060   113660692.398 8      5920.278          48.125    21299958.760   113660692.399 7      5920.278          47.187    21299969.480    88402814.337 8      4604.660          49.250    21299969.660    88402816.340 8      4604.660          49.375
R01  20838717.340   111394887.549 7      2537.599          44.687    20838718.180   111394887.559 7      2537.599          43.812    20838727.140    86640509.739 7      1973.688          44.187    20838726.220    86640506.740 7      1973.688          44.375
G21  21273471.000   111792832.198 7      1472.975          47.562    21273469.660   111792832.206 6      1472.975          39.500    21273471.520    87111302.090 6      1147.772          39.500
G16  25053981.420   131659486.165 6     -1012.259          39.375    25053979.980   131659486.175 2     -1012.259          17.375    25053996.980   102591823.119 2      -788.774          17.500
G14  23368485.980   122802222.175 7      5286.564          44.062    23368485.380   122802222.188 5      5286.564          32.375    23368489.520    95690053.394 5      4119.401          32.187    23368490.100    95690064.409 7      4119.401          46.000
G08  20816785.440   109392940.997 8      1867.245          48.437    20816784.400   109392941.002 8      1867.245          49.062    20816789.940    85241269.972 8      1454.996          48.875    20816791.060    85241264.971 8      1454.996          51.000
R14  21521503.160   114721686.289 8      -714.870          49.000    21521502.620   114721686.284 7      -714.870          47.187    21521513.680    89228011.215 8      -556.010          48.687    21521513.820    89228012.217 8      -556.010          48.875
R24  21218547.980   113465105.689 7      1737.324          46.062    21218547.500   113465105.693 7      1737.324          46.312    21218556.980    88250670.357 7      1351.252          47.937    21218556.700    88250671.345 8      1351.252          48.750
R15  21120542.840   112861778.343 7      2470.192          46.437    21120541.980   112861778.344 7      2470.192          44.812    21120551.260    87781416.155 8      1921.260          48.062    21120550.840    87781416.156 7      1921.260          47.875
R17  21232974.760   113621928.640 7      3636.444          45.500    21232975.420   113621928.652 7      3636.444          45.750    21232983.520    88372655.796 8      2828.345          48.187    21232983.420    88372653.796 8      2828.345          48.937
G10  25226757.000   132567500.235 6      -708.495          41.875    25226756.200   132567500.238 5      -708.495          35.000    25226765.860   103299387.733 5      -552.074          35.187    25226765.580   103299390.739 6      -552.074          38.937
G32  24849622.580   130585656.055 7      2529.537          42.312    24849621.940   130585656.057 6      2529.537          41.687    24849632.060   101755100.139 6      1971.068          41.187    24849632.820   101755104.142 7      1971.068          46.500
G27  22964207.360   120677699.013 7       333.466          44.500    22964206.880   120677699.012 7       333.466          42.937    22964215.400    94034591.651 7       259.844          42.875    22964216.080    94034597.649 7       259.844          47.000
R16  23910719.540   127726769.536 7      5503.949          42.125    23910719.440   127726769.545 6      5503.949          41.812    23910729.500    99343084.774 7      4280.849          44.375    23910729.680    99343084.775 7      4280.849          44.875
R18  23929574.960   127737690.351 7      4542.108          42.187    23929574.740   127737690.351 7      4542.108          43.250    23929585.500    99351584.828 7      3532.750          42.937    23929585.240    99351584.833 7      3532.750          42.937
> 2024 05 03 15 00  5.0000000  0 17
G02  21439217.500   112663840.921 7      2400.183          46.562    21439215.560   112663840.926 6      2400.183          40.250    21439216.560    87790015.112 6      1870.272          40.125
G03  21417882.580   112551751.614 7      5456.907          47.062    21417881.700   112551751.614 6      5456.907          39.812    21417888.700    87702684.082 6      4252.135          39.500    21417889.400    87702702.081 8      4252.135          50.312
R02  21298849.660   113654772.390 8      5919.556          48.375    21298849.240   113654772.391 7      5919.556          46.562    21298859.900    88398209.896 8      4604.099          49.187    21298860.140    88398211.902 8      4604.099          49.250
R01  20838242.640   111392350.527 7      2536.345          44.687    20838243.300   111392350.531 7      2536.345          43.500    20838253.080    86638536.501 7      1972.713          43.812    20838251.880    86638533.496 7      1972.713          44.625
G21  21273190.540   111791359.354 7      1472.547          47.875    21273189.380   111791359.364 6      1472.547          39.125    21273191.260    87110154.419 6      1147.439          39.187
G16  25054173.840   131660498.424 6     -1012.371          40.187    25054172.600   131660498.434 2     -1012.371          17.375    25054189.680   102592611.870 2      -788.860          17.500
G14  23367480.420   122796935.956 7      5285.780          45.000    23367479.580   122796935.969 5      5285.780          32.375    23367483.460    95685934.263 5      4118.790          32.187    23367483.780    95685945.274 7      4118.790          45.437
G08  20816430.140   109391074.011 8      1866.556          48.812    20816429.160   109391074.019 8      1866.556          48.750    20816434.640    85239815.183 8      1454.459          49.312    20816435.800    85239810.181 8      1454.459          50.937
R14  21521637.340   114722401.426 8      -715.510          48.312    21521636.820   114722401.419 7      -715.510          47.750    21521647.760    89228567.427 8      -556.508          48.687    21521648.160    89228568.427 8      -556.508          48.812
R24  21218223.160   113463368.444 7      1736.945          47.187    21218222.700   113463368.454 7      1736.945          45.687    21218232.280    88249319.169 7      1350.957          47.750    21218231.720    88249320.161 8      1350.957          48.250
R15  21120080.820   112859308.713 7      2469.083          45.500    21120079.660   112859308.701 7      2469.083          44.562    21120089.000    87779495.324 8      1920.398          48.125    21120088.800    87779495.325 7      1920.398          47.437
R17  21232295.320   113618292.314 7      3636.075          45.062    21232295.660   113618292.321 7      3636.075          45.562    21232304.160    88369827.542 8      2828.059          48.625    21232304.040    88369825.545 8      2828.059          49.000
G10  25226892.120   132568208.909 7      -709.038          42.062    25226891.080   132568208.916 5      -709.038          35.000    25226900.720   103299939.950 5      -552.497          35.187    25226900.500   103299942.958 6      -552.497          39.125
G32  24849141.080   130583126.867 6      2528.711          41.875    24849140.640   130583126.869 6      2528.711          41.437    24849150.820   101753129.345 6      1970.424          41.875    24849151.500   101753133.356 7      1970.424          46.687
G27  22964144.020   120677365.707 7       332.919          44.000    22964143.560   120677365.707 7       332.919          43.500    22964152.000    94034331.926 7       259.418          42.812    22964152.560    94034337.926 7       259.418          47.250
R16  23909688.980   127721265.890 7      5503.122          42.125    23909689.160   127721265.896 6      5503.122          41.812    23909698.800    99338804.157 7      4280.206          44.000    23909699.040    99338804.162 7      4280.206          44.812
R18  23928724.060   127733148.463 7      4541.826          42.500    23928724.040   127733148.462 7      4541.826          43.250    23928734.900    99348052.251 7      3532.532          42.875    23928734.420    99348052.252 7      3532.532          43.062
> 2024 05 03 15 00  6.0000000  0 17
G02  21438760.620   112661440.487 7      2400.343          46.875    21438758.820   112661440.489 6      2400.343          39.937    21438759.680    87788144.643 6      1870.397          39.687
G03  21416844.060   112546294.696 7      5456.580          46.750    21416843.360   112546294.693 6      5456.580          39.750    21416850.280    87698431.940 6      4251.881          39.812    21416851.100    87698449.939 8      4251.881          50.250
R02  21297740.380   113648852.744 8      5919.397          48.437    21297739.960   113648852.745 7      5919.397          47.187    21297750.700    88393605.731 8      4603.976          48.812    21297751.060    88393607.737 8      4603.976          49.687
R01  20837768.120   111389814.352 7      2535.619          45.437    20837768.960   111389814.353 7      2535.619          44.125    20837778.640    86636563.916 7      1972.148          43.875    20837777.520    86636560.915 7      1972.148          44.125
G21  21272910.400   111789886.567 7      1472.689          47.687    21272909.120   111789886.572 6      1472.689          39.187    21272911.100    87109006.790 6      1147.550          39.187
G16  25054366.880   131661510.617 6     -1012.389          39.312    25054365.200   131661510.627 2     -1012.389          17.375    25054382.360   102593400.576 2      -788.874          17.500
G14  23366474.460   122791650.087 7      5285.596          45.625    23366473.920   122791650.094 5      5285.596          32.062    23366477.440    95681815.403 5      4118.646          32.187    23366478.060    95681826.410 7      4118.646          45.125
G08  20816074.860   109389207.344 8      1866.452          48.187    20816073.940   109389207.346 8      1866.452          48.625    20816079.440    85238360.632 8      1454.378          48.812    20816080.380    85238355.631 8      1454.378          50.750
R14  21521771.340   114723116.838 8      -715.684          48.500    21521771.060   114723116.834 7      -715.684          47.687    21521781.960    89229123.850 8      -556.643          48.875    21521782.200    89229124.853 8      -556.643          48.875
R24  21217898.040   113461631.264 7      1737.106          47.187    21217897.860   113461631.268 7      1737.106          45.687    21217907.560    88247968.024 7      1351.083          47.875    21217907.140    88247969.021 8      1351.083          48.437
R15  21119618.520   112856839.867 7      2468.355          46.437    21119617.660   112856839.860 7      2468.355          44.875    21119627.240    87777575.108 7      1919.831          47.812    21119627.000    87777575.110 7      1919.831          47.937
R17  21231615.960   113614655.985 7      3636.257          46.312    21231615.700   113614655.997 7      3636.257          44.875    21231624.600    88366999.292 8      2828.200          48.687    21231624.520    88366997.299 8      2828.200          48.562
G10  25227026.960   132568917.663 6      -708.770          41.937    25227026.040   132568917.673 5      -708.770          34.937    25227035.520   103300492.233 5      -552.288          35.062    25227035.140   103300495.228 6      -552.288          39.125
G32  24848660.000   130580598.149 7      2528.453          42.250    24848659.520   130580598.157 6      2528.453          41.312    24848669.680   101751158.924 6      1970.223          40.875    24848670.260   101751162.929 7      1970.223          46.687
G27  22964080.660   120677032.619 7       332.825          44.500    22964080.200   120677032.616 7       332.825          43.187    22964088.560    94034072.369 7       259.344          42.687    22964089.260    94034078.368 7       259.344          47.125
R16  23908658.540   127715762.829 7      5502.719          42.062    23908659.180   127715762.830 6      5502.719          41.687    23908668.960    99334523.997 7      4279.892          44.000    23908669.340    99334523.999 7      4279.892          44.625
R18  23927873.420   127728606.494 7      4542.005          42.812    23927873.160   127728606.500 7      4542.005          43.312    23927883.320    99344519.614 7      3532.671          43.250    23927883.800    99344519.615 7      3532.671          43.500
> 2024 05 03 15 00  7.0000000  0 17
G02  21438303.960   112659040.294 7      2400.202          46.250    21438302.120   112659040.296 6      2400.202          40.000    21438302.920    87786274.365 6      1870.288          39.562
G03  21415805.860   112540838.353 7      5456.187          46.562    21415805.140   112540838.355 6      5456.187          39.875    21415811.980    87694180.250 6      4251.575          39.187    21415812.640    87694198.253 8      4251.575          50.562
R02  21296631.140   113642933.742 7      5918.841          47.937    21296630.720   113642933.737 7      5918.841          47.125    21296641.360    88389002.067 8      4603.543          49.375    21296641.600    88389004.075 8      4603.543          49.625
R01  20837293.980   111387279.163 7      2534.819          44.875    20837294.720   111387279.172 7      2534.819          43.875    20837304.520    86634592.113 7      1971.526          44.562    20837303.180    86634589.110 7      1971.526          44.062
G21  21272630.460   111788413.993 7      1472.534          47.562    21272628.780   111788414.000 6      1472.534          39.187    21272630.780    87107859.334 6      1147.429          39.500
G16  25054559.660   131662522.923 6     -1012.163          39.187    25054557.900   131662522.931 3     -1012.163          18.062    25054575.080   102594189.365 2      -788.698          17.500
G14  23365468.540   122786364.740 7      5285.223          44.687    23365468.400   122786364.743 5      5285.223          32.062    23365471.400    95677696.952 5      4118.355          32.062    23365471.840    95677707.950 7      4118.355          44.875
G08  20815719.820   109387341.202 8      1865.974          48.625    20815718.800   109387341.204 8      1865.974          48.625    20815724.340    85236906.496 8      1454.006          48.812    20815725.220    85236901.494 8      1454.006          50.875
R14  21521905.620   114723832.794 8      -716.087          48.187    21521905.340   114723832.797 7      -716.087          47.375    21521916.260    89229680.703 8      -556.957          48.125    21521916.460    89229681.707 8      -556.957          49.500
R24  21217573.140   113459894.241 7      1737.098          46.750    21217573.320   113459894.248 7      1737.098          45.437    21217583.040    88246617.013 8      1351.076          48.375    21217582.600    88246618.007 8      1351.076          49.062
R15  21119156.800   112854371.942 7      2467.606          45.750    21119155.600   112854371.938 7      2467.606          44.625    21119165.400    87775655.611 7      1919.249          47.750    21119164.960    87775655.617 8      1919.249          48.125
R17  21230936.580   113611019.814 7      3636.235          44.875    21230936.620   113611019.831 7      3636.235          44.687    21230945.040    88364171.161 8      2828.183          48.437    21230944.940    88364169.166 8      2828.183          48.687
G10  25227162.140   132569626.630 6      -708.905          41.625    25227161.040   132569626.638 5      -708.905          34.750    25227170.520   103301044.671 5      -552.394          35.062    25227170.640   103301047.679 6      -552.394          39.125
G32  24848178.700   130578070.057 6      2528.008          41.812    24848178.500   130578070.056 6      2528.008          41.750    24848188.620   101749188.978 6      1969.876          41.187    24848189.100   101749192.978 7      1969.876          46.500
G27  22964017.320   120676699.918 7       332.647          44.312    22964016.900   120676699.922 7       332.647          43.875    22964025.180    94033813.125 7       259.205          43.437    22964025.760    94033819.127 7       259.205          47.250
R16  23907628.540   127710260.463 7      5502.085          42.187    23907628.960   127710260.461 6      5502.085          41.687    23907638.960    99330244.376 7      4279.399          44.062    23907639.200    99330244.379 7      4279.399          44.687
R18  23927022.880   127724064.620 7      4541.982          43.312    23927022.400   127724064.623 7      4541.982          43.437    23927033.060    99340987.046 7      3532.652          43.125    23927033.100    99340987.051 7      3532.652          43.187
> 2024 05 03 15 00  8.0000000  0 17
G02  21437847.220   112656640.306 7      2399.934          46.500    21437845.420   112656640.308 6      2399.934          40.062    21437846.280    87784404.245 6      1870.078          39.937
G03  21414767.880   112535382.567 7      5455.488          47.062    21414767.000   112535382.572 6      5455.488          39.312    21414773.800    87689928.995 6      4251.030          39.187    21414774.560    87689947.000 8      4251.030          50.937
R02  21295522.020   113637015.241 7      5918.311          47.625    21295521.680   113637015.229 7      5918.311          46.687    21295532.280    88384398.791 8      4603.131          48.937    21295532.580    88384400.796 8      4603.131          48.625
R01  20836819.960   111384744.915 7      2533.845          44.687    20836820.240   111384744.924 7      2533.845          43.875    20836830.740    86632621.032 7      1970.769          44.250    20836829.480    86632618.032 7      1970.769          44.437
G21  21272350.040   111786941.566 7      1472.284          47.437    21272348.580   111786941.574 6      1472.284          40.062    21272350.580    87106711.987 6      1147.234          40.125
G16  25054752.420   131663535.332 6     -1012.533          39.750    25054750.580   131663535.342 3     -1012.533          18.062    25054767.700   102594978.235 2      -788.987          17.500
G14  23364462.980   122781079.911 7      5284.582          44.625    23364462.840   122781079.916 5      5284.582          32.062    23364465.640    95673578.903 5      4117.856          32.062    23364466.120    95673589.896 7      4117.856          45.187
G08  20815364.780   109385475.465 7      1865.581          47.875    20815363.740   109385475.467 8      1865.581          48.687    20815369.280    85235452.670 8      1453.699          48.937    20815370.080    85235447.671 8      1453.699          50.750
R14  21522040.200   114724549.246 8      -716.646          48.687    21522039.880   114724549.246 7      -716.646          47.625    21522050.920    89230237.933 8      -557.392          48.687    21522050.920    89230238.937 8      -557.392          49.187
R24  21217248.500   113458157.352 7      1736.846          46.687    21217248.320   113458157.359 7      1736.846          45.687    21217258.380    88245266.097 8      1350.880          48.125    21217257.840    88245267.094 8      1350.880          49.375
R15  21118695.120   112851904.979 7      2466.531          45.812    21118693.720   112851904.974 7      2466.531          44.875    21118703.740    87773736.862 7      1918.413          47.562    21118703.420    87773736.864 8      1918.413          48.125
R17  21230257.040   113607383.784 7      3635.912          45.875    21230256.880   113607383.815 7      3635.912          45.562    21230265.560    88361343.151 8      2827.931          48.625    21230265.340    88361341.154 8      2827.931          48.687
G10  25227297.220   132570335.740 7      -709.081          42.000    25227296.060   132570335.744 5      -709.081          34.750    25227305.600   103301597.219 5      -552.531          35.062    25227305.440   103301600.233 6      -552.531          39.000
G32  24847697.900   130575542.498 7      2527.385          42.687    24847697.320   130575542.500 6      2527.385          41.437    24847707.620   101747219.457 6      1969.391          41.125    24847708.580   101747223.456 7      1969.391          46.500
G27  22963954.040   120676367.571 7       332.170          43.250    22963953.620   120676367.570 7       332.170          43.312    22963961.960    94033554.140 7       258.834          43.312    22963962.380    94033560.139 7       258.834          47.500
R16  23906598.520   127704758.740 7      5501.405          42.187    23906599.040   127704758.739 6      5501.405          41.187    23906608.860    99325965.263 7      4278.871          44.125    23906609.360    99325965.262 7      4278.871          44.562
R18  23926171.800   127719522.837 7      4541.740          43.500    23926171.560   127719522.846 7      4541.740          43.437    23926182.360    99337454.552 7      3532.464          43.375    23926182.020    99337454.557 7      3532.464          43.187
> 2024 05 03 15 00  9.0000000  0 17
G02  21437390.480   112654240.437 7      2399.473          47.375    21437388.840   112654240.442 6      2399.473          39.875    21437389.600    87782534.221 6      1869.719          39.750
G03  21413729.500   112529927.218 7      5454.783          47.062    21413728.840   112529927.220 6      5454.783          39.375    21413735.600    87685678.077 6      4250.480          39.250    21413736.340    87685696.078 8      4250.480          49.750
R02  21294413.100   113631097.181 8      5917.487          48.062    21294412.780   113631097.168 7      5917.487          47.250    21294423.180    88379795.863 8      4602.490          49.250    21294423.660    88379797.866 8      4602.490          49.375
R01  20836345.840   111382211.555 7      2532.676          45.125    20836346.500   111382211.550 7      2532.676          44.375    20836357.040    86630650.638 7      1969.859          44.437    20836355.480    86630647.637 7      1969.859          44.187
G21  21272069.660   111785469.208 7      1471.984          46.812    21272068.460   111785469.215 6      1471.984          39.187    21272070.500    87105564.694 6      1147.001          39.375
G16  25054944.880   131664547.686 6     -1012.747          39.687    25054943.180   131664547.696 3     -1012.747          18.062    25054960.460   102595767.061 2      -789.154          17.500
G14  23363457.320   122775795.456 7      5283.877          44.437    23363457.200   122775795.461 5      5283.877          32.125    23363460.240    95669461.147 5      4117.307          32.062    23363460.620    95669472.148 7      4117.307          45.062
G08  20815009.820   109383610.122 8      1864.769          48.312    20815008.820   109383610.127 8      1864.769          48.812    20815014.260    85233999.158 8      1453.067          49.125    20815015.220    85233994.159 8      1453.067          51.000
R14  21522174.840   114725266.049 8      -717.297          48.875    21522174.100   114725266.042 7      -717.297          47.562    21522185.140    89230795.436 8      -557.898          48.375    21522185.480    89230796.438 8      -557.898          48.937
R24  21216923.560   113456420.506 7      1736.441          46.875    21216923.540   113456420.513 7      1736.441          45.687    21216933.520    88243915.217 8      1350.565          48.500    21216932.960    88243916.215 8      1350.565          48.312
R15  21118233.720   112849438.823 7      2465.464          45.000    21118232.580   112849438.818 7      2465.464          44.625    21118242.220    87771818.740 8      1917.583          48.625    21118241.980    87771818.741 8      1917.583          48.125
R17  21229577.260   113603747.747 7      3635.759          45.500    21229577.500   113603747.767 7      3635.759          45.062    21229586.160    88358515.118 8      2827.812          48.437    21229585.840    88358513.114 8      2827.812          48.875
G10  25227432.040   132571044.959 7      -709.636          42.062    25227430.980   132571044.967 5      -709.636          34.937    25227440.540   103302149.862 5      -552.963          35.062    25227439.920   103302152.866 6      -552.963          39.000
G32  24847217.240   130573015.464 7      2526.311          43.062    24847216.540   130573015.461 6      2526.311          41.937    24847226.680   101745250.338 6      1968.554          41.500    24847227.600   101745254.343 7      1968.554          46.812
G27  22963890.820   120676035.484 7       331.486          43.687    22963890.420   120676035.492 7       331.486          43.312    22963898.820    94033295.375 7       258.300          43.000    22963899.240    94033301.376 7       258.300          47.000
R16  23905568.900   127699257.587 7      5500.361          42.000    23905568.960   127699257.591 6      5500.361          41.187    23905579.120    99321686.592 7      4278.058          43.937    23905579.480    99321686.595 7      4278.058          44.812
R18  23925320.820   127714981.025 7      4541.587          43.125    23925320.620   127714981.017 7      4541.587          43.250    23925331.380    99333922.023 7      3532.346          43.437    23925331.120    99333922.024 7      3532.346          43.500
> 2024 05 03 15 00 10.0000000  0 17
G02  21436933.780   112651840.775 7      2399.663          46.687    21436932.100   112651840.779 6      2399.663          39.562    21436932.880    87780664.356 6      1869.867          39.500
G03  21412691.600   112524472.352 7      5454.699          47.562    21412690.760   112524472.354 6      5454.699          39.812    21412697.640    87681427.538 6      4250.414          39.875    21412698.300    87681445.543 8      4250.414          50.625
R02  21293304.000   113625179.568 7      5917.479          47.625    21293303.760   113625179.561 7      5917.479          46.562    21293314.200    88375193.288 8      4602.484          48.750    21293314.800    88375195.292 8      4602.484          49.250
R01  20835872.320   111379679.191 7      2532.006          45.125    20835872.440   111379679.189 7      2532.006          43.750    20835883.440    86628681.026 7      1969.338          44.375    20835881.820    86628678.018 7      1969.338          44.750
G21  21271789.820   111783997.054 7      1472.213          46.750    21271788.380   111783997.059 6      1472.213          39.500    21271790.320    87104417.558 6      1147.179          39.250
G16  25055137.640   131665560.069 6     -1012.260          40.000    25055135.960   131665560.079 3     -1012.260          18.062    25055153.200   102596555.908 2      -788.774          17.500
G14  23362451.920   122770511.499 7      5283.813          44.125    23362451.520   122770511.509 5      5283.813          32.125    23362454.760    95665343.783 5      4117.257          32.312    23362455.540    95665354.782 7      4117.257          45.250
G08  20814654.980   109381745.204 8      1864.883          48.500    20814653.940   109381745.204 8      1864.883          49.312    20814659.440    85232545.972 8      1453.156          49.125    20814660.280    85232540.972 8      1453.156          51.062
R14  21522309.360   114725983.237 8      -717.343          48.375    21522308.820   114725983.232 7      -717.343          47.062    21522319.740    89231353.240 8      -557.934          48.187    21522320.200    89231354.247 8      -557.934          48.875
R24  21216598.760   113454683.815 7      1736.749          46.812    21216598.800   113454683.827 7      1736.749          45.500    21216608.940    88242564.461 8      1350.805          48.187    21216608.220    88242565.462 8      1350.805          49.000
R15  21117772.660   112846973.612 7      2464.786          44.875    21117771.120   112846973.605 7      2464.786          45.375    21117781.080    87769901.348 7      1917.056          47.875    21117780.800    87769901.353 8      1917.056          48.062
R17  21228898.120   113600111.854 7      3635.960          45.687    21228898.020   113600111.869 7      3635.960          44.937    21228906.740    88355687.199 8      2827.969          48.562    21228906.480    88355685.195 8      2827.969          48.562
G10  25227567.100   132571754.381 6      -709.409          41.562    25227565.900   132571754.389 5      -709.409          34.875    25227575.580   103302702.658 5      -552.786          35.062    25227575.000   103302705.666 6      -552.786          39.000
G32  24846736.580   130570488.943 7      2526.497          42.625    24846735.760   130570488.942 6      2526.497          41.375    24846745.860   101743281.626 6      1968.699          41.062    24846746.720   101743285.625 7      1968.699          46.562
G27  22963827.900   120675703.713 7       331.813          44.562    22963827.180   120675703.712 7       331.813          43.375    22963835.780    94033036.839 7       258.555          43.000    22963836.040    94033042.841 7       258.555          47.187
R16  23904539.340   127693757.072 7      5500.232          42.000    23904539.200   127693757.067 6      5500.232          41.312    23904549.240    99317408.416 7      4277.959          43.937    23904549.480    99317408.416 7      4277.959          44.875
R18  23924470.440   127710439.316 7      4541.800          43.687    23924469.780   127710439.307 7      4541.800          43.500    23924480.320    99330389.583 7      3532.511          43.000    23924480.380    99330389.582 7      3532.511          43.437
> 2024 05 03 15 00 11.0000000  0 17
G02  21436477.180   112649441.291 8      2399.358          48.062    21436475.540   112649441.296 6      2399.358          39.937    21436476.140    87778794.627 6      1869.630          39.625
G03  21411653.560   112519017.964 7      5454.057          47.625    21411652.780   112519017.969 6      5454.057          39.812    21411659.740    87677177.372 6      4249.915          39.562    21411660.460    87677195.373 8      4249.915          49.687
R02  21292195.200   113619262.409 8      5916.867          48.250    21292194.740   113619262.410 8      5916.867          48.000    21292205.220    88370591.058 8      4602.007          48.687    21292205.940    88370593.065 8      4602.007          49.312
R01  20835399.000   111377147.698 7      2531.018          45.625    20835398.960   111377147.692 7      2531.018          44.187    20835409.720    86626712.079 7      1968.570          44.000    20835408.460    86626709.074 7      1968.570          44.750
G21  21271509.520   111782525.027 7      1471.902          47.250    21271508.200   111782525.034 6      1471.902          38.937    21271510.180    87103270.530 6      1146.937          39.000
G16  25055330.400   131666572.470 6     -1012.544          39.750    25055328.740   131666572.477 3     -1012.544          18.062    25055345.900   102597344.772 2      -788.995          17.500
G14  23361446.340   122765228.021 7      5283.310          44.750    23361445.880   122765228.039 5      5283.310          32.250    23361449.400    95661226.791 5      4116.865          32.312    23361450.260    95661237.798 7      4116.865          45.125
G08  20814299.980   109379880.683 8      1864.346          48.812    20814299.120   109379880.686 8      1864.346          49.312    20814304.700    85231093.101 8      1452.737          49.125    20814305.620    85231088.101 8      1452.737          50.625
R14  21522443.980   114726700.821 8      -717.812          49.000    21522443.320   114726700.816 7      -717.812          47.875    21522454.180    89231911.353 8      -558.298          48.187    21522454.900    89231912.355 8      -558.298          48.250
R24  21216274.260   113452947.199 7      1736.574          47.437    21216274.060   113452947.211 7      1736.574          46.687    21216284.320    88241213.764 8      1350.669          48.000    21216283.480    88241214.769 8      1350.669          48.937
R15  21117311.600   112844509.270 7      2463.915          45.937    21117309.900   112844509.258 7      2463.915          45.562    21117319.700    87767984.638 8      1916.378          48.000    21117319.540    87767984.640 7      1916.378          47.875
R17  21228218.320   113596476.028 7      3635.760          45.187    21228218.400   113596476.051 7      3635.760          46.375    21228227.380    88352859.338 8      2827.813          48.125    21228227.420    88352857.333 8      2827.813          48.625
G10  25227701.980   132572463.919 7      -709.636          42.187    25227701.040   132572463.923 5      -709.636          34.875    25227710.460   103303255.543 5      -552.963          34.875    25227710.560   103303258.555 6      -552.963          38.750
G32  24846255.480   130567962.971 7      2525.829          43.250    24846255.120   130567962.973 6      2525.829          41.625    24846265.280   101741313.341 6      1968.178          41.312    24846265.840   101741317.343 7      1968.178          46.500
G27  22963764.760   120675372.230 7       331.311          44.562    22963764.120   120675372.230 7       331.311          43.250    22963772.720    94032778.535 7       258.164          42.937    22963772.900    94032784.541 7       258.164          46.937
R16  23903509.840   127688257.224 7      5499.556          42.750    23903509.440   127688257.220 6      5499.556          41.312    23903519.280    99313130.758 7      4277.433          44.187    23903519.980    99313130.757 7      4277.433          44.250
R18  23923619.700   127705897.667 7      4541.560          44.437    23923618.980   127705897.662 7      4541.560          44.062    23923629.720    99326857.191 7      3532.325          43.000    23923629.400    99326857.192 7      3532.325          43.312
> 2024 05 03 15 00 12.0000000  0 17
G02  21436020.760   112647041.858 7      2399.159          47.687    21436018.940   112647041.865 6      2399.159          40.187    21436019.680    87776924.945 6      1869.474          39.875
G03  21410615.560   112513564.007 7      5453.581          47.000    21410614.860   112513564.009 6      5453.581          39.625    21410621.800    87672927.538 6      4249.544          39.375    21410622.400    87672945.537 8      4249.544          50.312
R02  21291086.240   113613345.672 8      5916.325          48.562    21291085.900   113613345.673 8      5916.325          48.187    21291096.460    88365989.165 8      4601.586          48.812    21291097.120    88365991.171 8      4601.586          49.500
R01  20834925.520   111374616.976 7      2530.188          46.250    20834924.940   111374616.972 7      2530.188          45.000    20834936.540    86624743.747 7      1967.924          43.875    20834934.900    86624740.744 7      1967.924          44.562
G21  21271229.340   111781052.994 7      1471.832          47.187    21271228.020   111781053.002 6      1471.832          39.562    21271230.100    87102123.491 6      1146.882          39.687
G16  25055523.220   131667584.797 6     -1012.359          40.125    25055521.420   131667584.804 3     -1012.359          18.062    25055538.320   102598133.576 2      -788.851          17.500
G14  23360440.940   122759944.900 7      5282.753          44.062    23360440.380   122759944.918 5      5282.753          32.250    23360444.060    95657110.079 5      4116.431          32.062    23360444.940    95657121.078 7      4116.431          45.437
G08  20813945.360   109378016.475 8      1863.886          48.125    20813944.420   109378016.478 8      1863.886          49.625    20813949.920    85229640.471 8      1452.379          49.375    20813950.940    85229635.473 8      1452.379          50.250
R14  21522578.340   114727418.829 8      -718.386          49.062    21522578.120   114727418.824 7      -718.386          47.750    21522588.640    89232469.799 8      -558.745          48.562    21522589.500    89232470.804 8      -558.745          49.000
R24  21215949.680   113451210.516 8      1736.471          48.187    21215949.400   113451210.525 7      1736.471          47.250    21215959.640    88239863.008 7      1350.588          47.812    21215958.720    88239864.015 8      1350.588          48.750
R15  21116850.700   112842045.757 7      2462.901          47.000    21116849.160   112842045.752 7      2462.901          46.312    21116858.800    87766068.574 7      1915.590          47.687    21116858.860    87766068.574 7      1915.590          47.687
R17  21227538.860   113592840.140 7      3635.701          47.375    21227539.140   113592840.160 7      3635.701          46.625    21227547.920    88350031.428 8      2827.768          48.062    21227547.840    88350029.422 8      2827.768          49.250
G10  25227836.940   132573173.435 7      -709.705          42.500    25227836.080   132573173.440 5      -709.705          34.812    25227845.500   103303808.417 5      -553.017          34.875    25227845.720   103303811.422 6      -553.017          38.750
G32  24845774.760   130565437.437 7      2524.972          43.125    24845774.580   130565437.437 6      2524.972          40.437    24845784.560   101739345.397 6      1967.511          40.500    24845785.420   101739349.393 7      1967.511          46.437
G27  22963701.800   120675040.971 7       330.882          45.875    22963701.100   120675040.971 7       330.882          44.000    22963709.720    94032520.411 7       257.830          43.375    22963710.080    94032526.415 7       257.830          47.187
R16  23902480.680   127682757.876 7      5498.836          43.500    23902480.720   127682757.874 7      5498.836          42.312    23902490.140    99308853.490 7      4276.873          43.562    23902490.140    99308853.493 7      4276.873          44.437
R18  23922768.980   127701355.924 7      4541.555          45.187    23922768.040   127701355.930 7      4541.555          44.062    23922778.880    99323324.731 7      3532.321          42.312    23922779.040    99323324.731 7      3532.321          43.187
> 2024 05 03 15 00 13.0000000  0 17
G02  21435564.260   112644642.645 8      2399.160          48.000    21435562.360   112644642.647 6      2399.160          40.062    21435563.180    87775055.424 6      1869.476          40.000
G03  21409577.940   112508110.594 8      5453.153          48.437    21409577.280   112508110.593 6      5453.153          39.812    21409584.160    87668678.125 6      4249.210          39.625    21409584.840    87668696.130 8      4249.210          50.750
R02  21289977.500   113607429.573 8      5916.007          48.937    21289977.340   113607429.563 7      5916.007          47.500    21289987.760    88361387.755 8      4601.339          49.500    21289988.460    88361389.760 8      4601.339          49.437
R01  20834452.320   111372087.349 7      2529.293          46.000    20834451.820   111372087.340 7      2529.293          44.875    20834463.620    86622776.262 7      1967.228          44.625    20834461.900    86622773.259 7      1967.228          44.875
G21  21270949.460   111779581.179 7      1471.869          47.687    21270947.820   111779581.190 6      1471.869          39.750    21270950.160    87100976.621 6      1146.911          39.687
G16  25055715.980   131668597.269 6     -1012.371          39.937    25055714.140   131668597.276 3     -1012.371          18.062    25055731.020   102598922.494 2      -788.860          17.500
G14  23359435.720   122754662.254 7      5282.455          44.812    23359435.040   122754662.267 5      5282.455          31.937    23359438.700    95652993.726 5      4116.199          32.062    23359439.400    95653004.729 7      4116.199          45.375
G08  20813590.860   109376152.790 8      1863.611          48.812    20813589.820   109376152.795 8      1863.611          49.812    20813595.280    85228188.251 8      1452.164          49.750    20813596.300    85228183.253 8      1452.164          50.937
R14  21522713.320   114728137.322 8      -718.733          48.750    21522712.880   114728137.315 7      -718.733          47.687    21522723.800    89233028.619 8      -559.014          48.562    21522724.060    89233029.624 8      -559.014          48.687
R24  21215625.020   113449474.038 8      1736.542          48.062    21215624.500   113449474.048 7      1736.542          47.250    21215635.060    88238512.419 8      1350.644          48.375    21215634.280    88238513.428 8      1350.644          49.062
R15  21116389.740   112839583.122 7      2462.200          46.750    21116388.660   112839583.123 7      2462.200          46.062    21116397.860    87764153.191 8      1915.045          48.125    21116397.740    87764153.192 8      1915.045          48.187
R17  21226859.460   113589204.389 7      3635.684          47.375    21226859.300   113589204.409 7      3635.684          46.687    21226868.340    88347203.626 8      2827.754          48.562    21226868.380    88347201.618 8      2827.754          49.250
G10  25227972.260   132573883.262 7      -709.879          42.125    25227971.220   132573883.267 5      -709.879          34.812    25227980.720   103304361.528 5      -553.153          34.937    25227979.980   103304364.532 6      -553.153          38.937
G32  24845294.340   130562912.527 7      2524.772          42.625    24845294.000   130562912.532 6      2524.772          40.875    24845304.180   101737377.934 6      1967.355          40.562    24845304.660   101737381.943 7      1967.355          46.250
G27  22963638.800   120674710.130 7       330.786          45.437    22963638.120   120674710.132 7       330.786          44.187    22963646.780    94032262.609 7       257.755          43.375    22963647.120    94032268.614 7       257.755          47.062
R16  23901450.820   127677259.177 7      5498.490          43.500    23901450.900   127677259.164 7      5498.490          42.312    23901460.660    99304576.718 7      4276.604          43.625    23901460.960    99304576.718 7      4276.604          44.312
R18  23921917.800   127696814.245 7      4541.685          44.812    23921917.220   127696814.246 7      4541.685          44.562    23921927.740    99319792.316 7      3532.422          42.937    23921927.880    99319792.323 7      3532.422          43.312
> 2024 05 03 15 00 14.0000000  0 17
G02  21435107.560   112642243.443 7      2399.163          47.250    21435105.940   112642243.445 6      2399.163          40.062    21435106.660    87773185.918 6      1869.478          39.937
G03  21408540.220   112502657.522 7      5452.845          47.062    21408539.660   112502657.519 6      5452.845          40.437    21408546.340    87664428.984 6      4248.970          39.687    21408546.940    87664446.990 8      4248.970          50.250
R02  21288868.760   113601513.793 8      5915.580          48.125    21288868.900   113601513.783 7      5915.580          47.187    21288879.120    88356786.603 8      4601.006          48.937    21288879.860    88356788.607 8      4601.006          49.687
R01  20833979.080   111369558.396 7      2528.464          44.937    20833978.260   111369558.386 7      2528.464          43.562    20833990.520    86620809.294 7      1966.583          44.562    20833988.880    86620806.289 7      1966.583          44.750
G21  21270669.520   111778109.323 7      1471.797          46.875    21270667.900   111778109.333 6      1471.797          39.062    21270670.020    87099829.723 6      1146.855          39.187
G16  25055908.160   131669609.615 6     -1012.313          40.875    25055906.700   131669609.625 3     -1012.313          18.062    25055923.560   102599711.315 3      -788.815          18.562
G14  23358430.540   122749379.935 7      5282.108          44.812    23358429.920   122749379.942 5      5282.108          31.937    23358433.480    95648877.633 5      4115.928          32.062    23358434.120    95648888.636 7      4115.928          45.437
G08  20813236.180   109374289.328 8      1863.251          48.000    20813235.160   109374289.328 8      1863.251          48.562    20813240.600    85226736.198 8      1451.884          49.312    20813241.920    85226731.201 8      1451.884          51.000
R14  21522848.060   114728856.093 8      -718.920          48.250    21522847.860   114728856.093 7      -718.920          47.562    21522858.560    89233587.663 8      -559.160          48.687    21522858.880    89233588.665 8      -559.160          49.000
R24  21215300.180   113447737.500 7      1736.461          46.312    21215299.520   113447737.506 7      1736.461          45.250    21215310.180    88237161.773 8      1350.580          48.562    21215309.340    88237162.782 8      1350.580          49.562
R15  21115929.040   112837121.241 7      2461.491          45.812    21115927.700   112837121.237 7      2461.491          45.437    21115937.200    87762238.395 8      1914.493          48.250    21115937.080    87762238.395 7      1914.493          47.875
R17  21226179.800   113585568.550 7      3635.843          44.437    21226180.260   113585568.565 7      3635.843          45.562    21226188.940    88344375.749 8      2827.878          48.562    21226189.000    88344373.743 8      2827.878          49.312
G10  25228106.940   132574592.975 6      -709.839          41.937    25228106.280   132574592.975 5      -709.839          34.812    25228115.740   103304914.550 5      -553.121          34.750    25228115.740   103304917.541 6      -553.121          38.937
G32  24844814.300   130560387.945 7      2524.318          42.625    24844813.600   130560387.944 6      2524.318          40.812    24844823.680   101735410.731 6      1967.001          40.625    24844824.340   101735414.724 7      1967.001          46.812
G27  22963575.940   120674379.402 7       330.583          44.875    22963575.020   120674379.404 7       330.583          43.312    22963583.780    94032004.892 7       257.597          43.187    22963584.400    94032010.896 7       257.597          47.500
R16  23900421.500   127671760.934 7      5497.955          42.812    23900421.280   127671760.941 7      5497.955          42.437    23900431.500    99300300.321 7      4276.187          43.812    23900431.620    99300300.324 7      4276.187          44.500
R18  23921066.860   127692272.513 7      4541.765          43.812    23921066.500   127692272.503 7      4541.765          43.812    23921076.780    99316259.857 7      3532.484          43.187    23921076.960    99316259.860 7      3532.484          43.437
> 2024 05 03 15 00 15.0000000  0 17
G02  21434651.120   112639844.320 7      2399.078          47.625    21434649.320   112639844.322 6      2399.078          40.312    21434650.360    87771316.473 6      1869.412          40.187
G03  21407502.320   112497204.848 7      5452.531          47.125    21407502.020   112497204.847 6      5452.531          39.750    21407508.660    87660180.157 6      4248.726          40.062    21407509.560    87660198.158 8      4248.726          50.500
R02  21287760.140   113595598.401 8      5915.153          48.000    21287760.420   113595598.393 7      5915.153          47.625    21287770.520    88352185.744 8      4600.674          48.937    21287771.340    88352187.750 8      4600.674          48.875
R01  20833505.840   111367030.245 7      2527.661          43.625    20833504.760   111367030.251 7      2527.661          43.375    20833517.680    86618842.963 7      1965.959          44.750    20833515.900    86618839.959 7      1965.959          45.562
G21  21270389.200   111776637.511 7      1471.713          47.312    21270387.760   111776637.521 6      1471.713          39.562    21270389.980    87098682.857 6      1146.789          39.250
G16  25056100.860   131670621.892 6     -1012.359          40.562    25056099.280   131670621.902 3     -1012.359          18.062    25056116.180   102600500.082 3      -788.851          18.562
G14  23357425.080   122744097.983 7      5281.743          45.312    23357424.880   122744097.990 5      5281.743          31.937    23357428.500    95644761.826 5      4115.644          32.062    23357429.180    95644772.823 7      4115.644          45.000
G08  20812881.780   109372426.177 8      1862.917          48.000    20812880.620   109372426.179 8      1862.917          48.687    20812886.120    85225284.394 8      1451.624          49.625    20812887.020    85225279.394 8      1451.624          50.562
R14  21522983.040   114729575.180 8      -719.250          48.250    21522982.560   114729575.175 7      -719.250          47.187    21522993.360    89234146.943 7      -559.417          47.875    21522993.800    89234147.947 8      -559.417          48.625
R24  21214975.640   113446000.993 7      1736.342          45.687    21214974.760   113446001.005 7      1736.342          45.625    21214985.120    88235811.163 7      1350.489          47.875    21214985.080    88235812.172 8      1350.489          48.812
R15  21115469.040   112834660.161 7      2460.664          46.062    21115467.000   112834660.152 7      2460.664          44.812    21115476.560    87760324.213 8      1913.850          48.062    21115476.400    87760324.216 8      1913.850          48.000
R17  21225500.440   113581932.745 7      3635.793          45.125    21225500.700   113581932.752 7      3635.793          45.000    21225509.520    88341547.896 8      2827.839          48.375    21225509.440    88341545.895 8      2827.839          49.000
G10  25228241.880   132575302.731 6      -709.862          41.375    25228241.240   132575302.730 5      -709.862          34.500    25228250.760   103305467.606 5      -553.139          34.750    25228250.360   103305470.612 6      -553.139          38.937
G32  24844334.040   130557863.783 7      2523.907          42.812    24844333.300   130557863.783 6      2523.907          41.687    24844343.280   101733443.854 6      1966.680          41.500    24844344.200   101733447.853 7      1966.680          46.437
G27  22963513.120   120674048.873 7       330.408          43.500    22963512.160   120674048.881 7       330.408          43.625    22963520.920    94031747.336 7       257.461          43.250    22963521.180    94031753.339 7       257.461          47.062
R16  23899392.140   127666263.226 7      5497.309          42.812    23899392.120   127666263.225 6      5497.309          41.687    23899402.520    99296024.332 7      4275.685          43.875    23899402.560    99296024.331 7      4275.685          44.187
R18  23920215.980   127687730.703 7      4541.769          43.875    23920215.420   127687730.691 7      4541.769          44.125    23920226.320    99312727.341 7      3532.487          43.062    23920226.100    99312727.346 7      3532.487          42.937
> 2024 05 03 15 00 16.0000000  0 17
G02  21434194.600   112637445.448 7      2398.900          46.687    21434192.700   112637445.451 6      2398.900          40.250    21434193.740    87769447.221 6      1869.273          40.000
G03  21406464.960   112491752.712 7      5452.010          47.500    21406464.600   112491752.714 6      5452.010          40.000    21406471.080    87655931.741 6      4248.320          39.687    21406472.160    87655949.743 8      4248.320          50.750
R02  21286651.760   113589683.558 8      5914.812          48.062    21286651.940   113589683.553 7      5914.812          47.062    21286662.000    88347585.317 8      4600.409          48.687    21286662.720    88347587.323 8      4600.409          49.312
R01  20833032.980   111364503.192 7      2526.704          44.000    20833032.480   111364503.185 7      2526.704          43.375    20833045.180    86616877.473 7      1965.214          44.875    20833043.300    86616874.470 7      1965.214          45.062
G21  21270109.100   111775165.925 7      1471.654          47.937    21270107.700   111775165.932 6      1471.654          39.187    21270109.840    87097536.165 6      1146.743          39.312
G16  25056293.540   131671634.243 6     -1012.176          39.875    25056291.940   131671634.253 3     -1012.176          18.062    25056308.980   102601288.904 3      -788.709          18.562
G14  23356420.320   122738816.533 7      5281.251          46.187    23356420.060   122738816.541 5      5281.251          32.250    23356423.500    95640646.411 5      4115.260          32.062    23356424.000    95640657.414 7      4115.260          45.250
G08  20812527.340   109370563.563 8      1862.502          48.687    20812526.120   109370563.566 8      1862.502          49.125    20812531.720    85223833.007 8      1451.300          49.187    20812532.540    85223828.007 8      1451.300          50.625
R14  21523118.180   114730294.673 8      -719.621          48.187    21523117.680   114730294.663 7      -719.621          47.312    21523128.300    89234706.538 8      -559.705          48.375    21523128.840    89234707.538 8      -559.705          48.437
R24  21214650.680   113444264.703 7      1736.418          46.562    21214650.140   113444264.712 7      1736.418          45.437    21214660.600    88234460.713 8      1350.547          48.187    21214660.320    88234461.725 8      1350.547          48.875
R15  21115008.500   112832199.984 7      2459.728          45.500    21115006.680   112832199.978 7      2459.728          44.687    21115016.300    87758410.740 7      1913.122          47.812    21115016.080    87758410.745 8      1913.122          48.125
R17  21224821.240   113578297.090 7      3635.599          45.375    21224820.940   113578297.111 7      3635.599          44.687    21224830.100    88338720.175 8      2827.688          48.375    21224830.060    88338718.176 8      2827.688          48.937
G10  25228376.940   132576012.786 6      -709.967          41.312    25228376.380   132576012.786 5      -709.967          34.500    25228385.820   103306020.904 5      -553.221          34.687    25228385.240   103306023.914 6      -553.221          38.937
G32  24843853.860   130555340.349 7      2523.334          42.625    24843853.000   130555340.346 6      2523.334          41.812    24843863.160   101731477.534 6      1966.235          41.187    24843863.720   101731481.535 7      1966.235          46.750
G27  22963449.940   120673718.791 7       330.171          44.062    22963449.340   120673718.799 7       330.171          43.125    22963458.100    94031490.117 7       257.276          42.875    22963458.500    94031496.120 7       257.276          46.875
R16  23898363.340   127660766.196 6      5496.798          41.875    23898363.280   127660766.195 6      5496.798          41.687    23898373.500    99291748.865 7      4275.287          44.187    23898373.580    99291748.863 7      4275.287          44.000
R18  23919365.200   127683188.928 7      4541.918          43.312    23919365.040   127683188.921 7      4541.918          43.062    23919375.320    99309194.855 7      3532.603          43.000    23919375.320    99309194.858 7      3532.603          42.937
> 2024 05 03 15 00 17.0000000  0 17
G02  21433738.200   112635046.882 7      2398.664          47.187    21433736.480   112635046.887 6      2398.664          40.312    21433737.240    87767578.210 6      1869.089          40.062
G03  21405427.720   112486301.161 7      5451.446          47.562    21405427.200   112486301.161 6      5451.446          40.375    21405433.840    87651683.782 6      4247.880          39.687    21405434.700    87651701.788 8      4247.880          50.375
R02  21285543.640   113583769.254 8      5914.201          48.187    21285543.880   113583769.257 7      5914.201          47.312    21285553.800    88342985.318 8      4599.934          49.187    21285554.280    88342987.325 8      4599.934          49.500
R01  20832560.440   111361977.114 7      2525.854          43.937    20832559.880   111361977.102 7      2525.854          43.125    20832572.600    86614912.746 7      1964.553          44.750    20832571.040    86614909.743 7      1964.553          45.187
G21  21269829.180   111773694.599 7      1471.498          46.812    21269827.740   111773694.609 6      1471.498          39.375    21269829.880    87096389.679 6      1146.622          39.375
G16  25056486.120   131672646.673 6     -1012.182          40.750    25056484.600   131672646.686 3     -1012.182          18.625    25056501.580   102602077.790 3      -788.713          18.562
G14  23355415.540   122733535.722 7      5280.709          46.062    23355415.200   122733535.729 5      5280.709          32.250    23355418.460    95636531.491 5      4114.838          32.062    23355419.100    95636542.487 7      4114.838          44.875
G08  20812172.920   109368701.428 8      1862.111          48.562    20812171.880   109368701.431 8      1862.111          48.562    20812177.440    85222381.991 8      1450.996          49.000    20812178.200    85222376.991 8      1450.996          50.687
R14  21523253.340   114731014.653 8      -720.077          48.250    21523252.800   114731014.649 7      -720.077          47.187    21523263.440    89235266.514 8      -560.060          48.562    21523264.000    89235267.517 8      -560.060          48.812
R24  21214325.800   113442528.573 7      1736.382          46.187    21214325.500   113442528.582 7      1736.382          45.125    21214336.200    88233110.395 8      1350.519          48.187    21214335.620    88233111.404 8      1350.519          49.312
R15  21114548.160   112829740.845 7      2458.741          45.812    21114546.760   112829740.846 7      2458.741          44.625    21114556.060    87756498.076 8      1912.354          48.125    21114555.920    87756498.081 7      1912.354          47.750
R17  21224141.660   113574661.628 7      3635.704          46.250    21224141.960   113574661.646 7      3635.704          44.875    21224150.680    88335892.583 8      2827.769          49.000    21224150.540    88335890.577 8      2827.769          48.562
G10  25228512.080   132576723.114 6      -710.220          41.437    25228511.460   132576723.117 5      -710.220          34.500    25228521.060   103306574.407 5      -553.418          34.687    25228520.340   103306577.408 6      -553.418          39.000
G32  24843373.740   130552817.478 7      2522.889          43.125    24843372.920   130552817.483 6      2522.889          41.437    24843383.180   101729511.674 6      1965.887          41.187    24843383.820   101729515.673 7      1965.887          46.437
G27  22963387.360   120673389.059 7       329.886          44.125    22963386.420   120673389.061 7       329.886          42.937    22963395.360    94031233.172 7       257.054          42.812    22963395.680    94031239.179 7       257.054          47.562
R16  23897334.600   127655269.963 6      5496.073          41.937    23897334.400   127655269.969 6      5496.073          41.750    23897344.260    99287474.022 7      4274.724          43.750    23897344.320    99287474.021 7      4274.724          44.125
R18  23918514.480   127678647.412 7      4541.650          43.625    23918514.000   127678647.410 7      4541.650          43.625    23918524.400    99305662.569 7      3532.395          43.125    23918524.660    99305662.574 7      3532.395          42.812
> 2024 05 03 15 00 18.0000000  0 17
G02  21433281.660   112632648.339 7      2398.633          46.937    21433279.980   112632648.342 6      2398.633          39.625    21433280.900    87765709.210 6      1869.064          39.875
G03  21404390.520   112480850.042 7      5451.030          47.187    21404389.840   112480850.042 6      5451.030          40.187    21404396.320    87647436.165 6      4247.556          39.812    21404397.320    87647454.166 8      4247.556          50.312
R02  21284435.320   113577855.361 8      5913.795          48.187    21284435.440   113577855.356 7      5913.795          47.875    21284445.580    88338385.627 8      4599.618          49.000    21284445.920    88338387.633 8      4599.618          49.312
R01  20832087.940   111359451.812 7      2525.034          44.312    20832086.880   111359451.800 7      2525.034          42.687    20832100.320    86612948.622 7      1963.915          44.750    20832098.240    86612945.617 7      1963.915          45.812
G21  21269549.300   111772223.244 7      1471.457          46.500    21269547.740   111772223.257 6      1471.457          39.187    21269549.900    87095243.169 6      1146.590          39.312
G16  25056678.680   131673659.108 6     -1012.358          40.062    25056677.260   131673659.124 3     -1012.358          18.625    25056694.220   102602866.682 3      -788.850          18.562
G14  23354410.620   122728255.212 7      5280.402          45.625    23354410.480   122728255.220 5      5280.402          32.250    23354413.580    95632416.810 5      4114.599          32.187    23354414.280    95632427.799 7      4114.599          44.750
G08  20811818.680   109366839.580 8      1861.812          48.312    20811817.600   109366839.579 8      1861.812          48.437    20811823.060    85220931.200 8      1450.763          49.250    20811823.700    85220926.198 8      1450.763          50.625
R14  21523388.560   114731735.028 8      -720.478          48.375    21523387.920   114731735.026 7      -720.478          46.625    21523398.580    89235826.806 8      -560.372          48.250    21523399.200    89235827.809 8      -560.372          48.937
R24  21214001.520   113440792.326 7      1736.276          45.937    21214001.080   113440792.338 7      1736.276          45.000    21214011.300    88231759.980 8      1350.437          48.125    21214010.820    88231760.995 8      1350.437          49.125
R15  21114088.000   112827282.488 7      2458.032          45.437    21114086.760   112827282.486 7      2458.032          44.562    21114095.800    87754586.027 8      1911.803          48.000    21114095.800    87754586.034 8      1911.803          48.437
R17  21223462.200   113571026.096 7      3635.591          44.562    21223462.640   113571026.114 7      3635.591          44.687    21223471.360    88333064.954 8      2827.682          48.250    21223471.440    88333062.948 8      2827.682          48.562
G10  25228647.200   132577433.346 6      -710.195          41.125    25228646.660   132577433.345 5      -710.195          34.375    25228656.120   103307127.836 5      -553.398          34.375    25228656.000   103307130.845 6      -553.398          39.000
G32  24842893.440   130550295.005 7      2522.317          42.750    24842892.940   130550295.008 6      2522.317          41.500    24842903.060   101727546.113 6      1965.442          41.562    24842903.800   101727550.114 7      1965.442          46.562
G27  22963324.600   120673059.536 7       329.567          44.250    22963323.780   120673059.539 7       329.567          43.375    22963332.680    94030976.397 7       256.805          42.937    22963333.040    94030982.405 7       256.805          47.312
R16  23896305.420   127649774.175 6      5495.581          41.937    23896305.360   127649774.170 6      5495.581          41.750    23896315.320    99283199.515 7      4274.340          43.312    23896315.460    99283199.515 7      4274.340          43.875
R18  23917663.160   127674105.802 7      4541.670          43.625    23917663.280   127674105.806 7      4541.670          43.625    23917673.780    99302130.210 7      3532.410          42.500    23917673.920    99302130.217 7      3532.410          43.187
> 2024 05 03 15 00 19.0000000  0 17
G02  21432825.400   112630249.844 7      2398.469          47.750    21432823.460   112630249.851 6      2398.469          39.875    21432824.340    87763840.259 6      1868.937          39.562
G03  21403353.200   112475399.238 7      5450.691          47.812    21403352.540   112475399.240 6      5450.691          39.500    21403359.120    87643188.790 6      4247.292          39.750    21403359.860    87643206.795 8      4247.292          50.312
R02  21283327.460   113571941.849 8      5913.396          48.375    21283327.140   113571941.853 7      5913.396          47.625    21283337.340    88333786.238 8      4599.308          48.750    21283337.980    88333788.243 8      4599.308          48.875
R01  20831615.480   111356927.333 7      2524.194          43.500    20831614.380   111356927.329 7      2524.194          42.625    20831628.120    86610985.145 7      1963.262          44.750    20831626.300    86610982.137 7      1963.262          45.437
G21  21269269.200   111770751.932 7      1471.360          45.750    21269267.760   111770751.942 6      1471.360          38.937    21269270.080    87094096.691 6      1146.515          39.125
G16  25056871.800   131674671.404 6     -1012.263          40.187    25056869.880   131674671.419 3     -1012.263          18.625    25056886.960   102603655.466 3      -788.776          18.562
G14  23353405.920   122722975.032 7      5280.016          45.062    23353405.620   122722975.036 5      5280.016          32.250    23353408.920    95628302.383 5      4114.299          32.187    23353409.640    95628313.374 7      4114.299          45.437
G08  20811464.300   109364978.044 8      1861.448          48.250    20811463.380   109364978.046 8      1861.448          48.750    20811468.760    85219480.654 8      1450.479          49.375    20811469.500    85219475.653 8      1450.479          50.812
R14  21523524.000   114732455.688 8      -720.838          48.000    21523523.080   114732455.686 7      -720.838          47.125    21523533.760    89236387.309 8      -560.651          48.437    21523534.480    89236388.314 8      -560.651          48.500
R24  21213676.800   113439056.119 7      1736.186          46.125    21213676.160   113439056.133 7      1736.186          45.687    21213686.340    88230409.597 8      1350.367          48.500    21213686.480    88230410.612 8      1350.367          49.062
R15  21113628.200   112824824.892 7      2457.225          46.187    21113627.220   112824824.888 7      2457.225          44.500    21113635.820    87752674.560 8      1911.175          48.000    21113636.160    87752674.564 8      1911.175          48.062
R17  21222783.140   113567390.522 7      3635.618          45.625    21222783.000   113567390.539 7      3635.618          44.125    21222791.860    88330237.282 8      2827.703          48.875    21222792.000    88330235.277 8      2827.703          49.500
G10  25228782.680   132578143.671 6      -710.392          41.125    25228781.760   132578143.679 5      -710.392          34.375    25228791.460   103307681.340 5      -553.552          34.625    25228790.840   103307684.350 6      -553.552          39.000
G32  24842413.680   130547772.988 7      2521.794          42.562    24842413.160   130547772.990 6      2521.794          41.812    24842423.140   101725580.905 7      1965.034          42.312    24842424.400   101725584.912 7      1965.034          46.625
G27  22963262.100   120672730.216 7       329.291          43.437    22963261.060   120672730.221 7       329.291          42.750    22963270.060    94030719.780 7       256.591          42.500    22963270.800    94030725.781 7       256.591          47.187
R16  23895276.980   127644278.892 7      5494.978          42.250    23895276.820   127644278.901 6      5494.978          41.375    23895286.700    99278925.408 7      4273.872          43.375    23895286.540    99278925.410 7      4273.872          44.125
R18  23916812.340   127669564.065 7      4541.713          43.562    23916812.120   127669564.066 7      4541.713          43.312    23916823.220    99298597.750 7      3532.443          43.000    23916823.080    99298597.755 7      3532.443          43.062
> 2024 05 03 15 00 20.0000000  0 17
G02  21432368.960   112627851.829 7      2397.694          47.000    21432367.180   112627851.839 6      2397.694          39.687    21432367.920    87761971.682 6      1868.333          39.937
G03  21402316.120   112469949.249 7      5449.555          47.125    21402315.460   112469949.251 6      5449.555          39.875    21402322.100    87638942.049 6      4246.407          39.750    21402322.720    87638960.056 8      4246.407          50.187
R02  21282219.460   113566029.135 8      5912.271          48.562    21282219.140   113566029.136 7      5912.271          46.687    21282229.460    88329187.466 8      4598.433          49.375    21282229.780    88329189.474 8      4598.433          49.750
R01  20831143.780   111354404.116 7      2522.509          43.500    20831142.260   111354404.106 7      2522.509          42.625    20831156.180    86609022.638 7      1961.952          44.187    20831154.360    86609019.633 7      1961.952          45.312
G21  21268989.220   111769281.055 7      1470.658          47.375    21268987.860   111769281.060 6      1470.658          39.125    21268990.040    87092950.554 6      1145.967          39.187
G16  25057064.300   131675684.013 6     -1012.922          40.375    25057062.480   131675684.023 3     -1012.922          18.625    25057079.700   102604444.491 3      -789.290          18.562
G14  23352401.320   122717695.607 7      5279.185          44.937    23352400.860   122717695.618 5      5279.185          32.250    23352404.280    95624188.551 5      4113.651          32.187    23352405.060    95624199.545 7      4113.651          45.437
G08  20811110.280   109363117.220 8      1860.460          48.500    20811109.360   109363117.220 8      1860.460          49.000    20811114.740    85218030.660 8      1449.709          49.000    20811115.500    85218025.660 8      1449.709          50.937
R14  21523658.820   114733177.084 8      -721.762          48.250    21523658.500   114733177.082 7      -721.762          47.000    21523669.160    89236948.390 8      -561.370          48.750    21523669.460    89236949.391 8      -561.370          48.625
R24  21213352.100   113437320.390 7      1735.405          45.250    21213351.420   113437320.397 7      1735.405          45.625    21213361.840    88229059.579 8      1349.760          48.250    21213361.720    88229060.599 8      1349.760          49.562
R15  21113168.500   112822368.477 7      2455.881          46.625    21113167.500   112822368.479 7      2455.881          45.000    21113176.300    87750764.021 8      1910.130          48.375    21113176.120    87750764.026 8      1910.130          48.125
R17  21222103.360   113563755.351 7      3635.020          45.250    21222103.460   113563755.372 7      3635.020          44.937    21222112.500    88327409.932 8      2827.238          48.375    21222112.780    88327407.932 8      2827.238          49.000
G10  25228917.960   132578854.420 6      -710.954          41.687    25228917.060   132578854.433 5      -710.954          34.187    25228926.540   103308235.175 5      -553.990          34.625    25228926.240   103308238.178 6      -553.990          39.125
G32  24841934.300   130545251.787 7      2520.779          42.750    24841933.360   130545251.790 6      2520.779          41.875    24841943.380   101723616.327 6      1964.244          41.500    24841944.600   101723620.328 7      1964.244          46.250
G27  22963199.540   120672401.464 7       328.514          44.125    22963198.560   120672401.466 7       328.514          43.187    22963207.380    94030463.605 7       255.985          42.562    22963208.100    94030469.609 7       255.985          47.187
R16  23894248.720   127638784.557 7      5493.820          42.562    23894247.740   127638784.558 6      5493.820          41.937    23894258.100    99274652.034 7      4272.971          43.875    23894257.760    99274652.035 7      4272.971          43.687
R18  23915961.800   127665022.714 7      4541.201          43.562    23915961.500   127665022.699 7      4541.201          43.687    23915972.240    99295065.576 7      3532.045          43.250    23915972.760    99295065.581 7      3532.045          43.625
> 2024 05 03 15 00 21.0000000  0 17
G02  21431912.520   112625454.361 7      2397.496          47.062    21431911.080   112625454.371 6      2397.496          39.812    21431911.740    87760103.523 6      1868.179          39.437
G03  21401279.160   112464500.147 7      5448.915          47.312    21401278.560   112464500.147 6      5448.915          39.625    21401285.180    87634695.998 6      4245.908          39.625    21401285.880    87634714.001 8      4245.908          49.937
R02  21281111.280   113560117.273 8      5911.782          48.125    21281111.460   113560117.279 7      5911.782          47.500    21281121.280    88324589.361 8      4598.052          48.562    21281121.680    88324591.369 8      4598.052          48.687
R01  20830672.000   111351882.181 7      2521.574          43.437    20830670.420   111351882.164 7      2521.574          43.062    20830684.340    86607061.121 7      1961.224          44.312    20830682.640    86607058.116 7      1961.224          45.250
G21  21268709.760   111767810.683 7      1470.471          46.875    21268707.960   111767810.690 6      1470.471          39.125    21268710.240    87091804.811 6      1145.822          39.250
G16  25057257.440   131676697.042 6     -1013.000          40.500    25057255.140   131676697.052 3     -1013.000          18.625    25057272.520   102605233.844 3      -789.350          18.562
G14  23351396.580   122712417.069 7      5278.435          44.250    23351396.100   122712417.079 5      5278.435          32.062    23351399.920    95620075.404 5      4113.067          31.937    23351400.840    95620086.394 7      4113.067          45.875
G08  20810756.300   109361257.192 8      1859.944          48.375    20810755.340   109361257.197 8      1859.944          48.750    20810760.780    85216581.287 8      1449.307          49.000    20810761.480    85216576.292 8      1449.307          50.187
R14  21523794.320   114733899.285 8      -722.319          48.187    21523794.020   114733899.283 7      -722.319          47.062    21523804.580    89237510.090 8      -561.804          48.125    21523804.960    89237511.094 8      -561.804          48.625
R24  21213027.600   113435585.140 7      1735.345          45.500    21213027.300   113435585.149 7      1735.345          44.500    21213037.200    88227709.942 7      1349.712          47.750    21213037.180    88227710.958 8      1349.712          48.375
R15  21112708.920   112819913.313 7      2454.889          46.312    21112708.040   112819913.314 7      2454.889          45.437    21112716.960    87748854.443 8      1909.358          48.187    21112716.560    87748854.447 7      1909.358          47.312
R17  21221424.040   113560120.662 7      3634.804          45.250    21221424.460   113560120.683 7      3634.804          44.937    21221433.100    88324582.945 8      2827.070          48.062    21221433.620    88324580.946 8      2827.070          48.687
G10  25229053.520   132579565.692 6      -711.056          41.750    25229052.440   132579565.702 5      -711.056          34.187    25229061.640   103308789.410 5      -554.070          34.312    25229061.880   103308792.406 6      -554.070          39.125
G32  24841454.440   130542731.506 7      2520.045          43.562    24841453.820   130542731.511 6      2520.045          41.562    24841463.840   101721652.484 6      1963.671          41.687    24841464.880   101721656.487 7      1963.671          46.625
G27  22963137.320   120672073.447 7       328.025          43.312    22963135.980   120672073.458 7       328.025          42.937    22963144.960    94030208.006 7       255.604          42.500    22963145.400    94030214.011 7       255.604          46.687
R16  23893220.100   127633291.208 7      5493.236          42.562    23893219.780   127633291.211 6      5493.236          41.937    23893229.620    99270379.429 7      4272.517          43.250    23893229.500    99270379.428 7      4272.517          44.000
R18  23915111.160   127660481.791 7      4540.897          43.687    23915110.900   127660481.784 7      4540.897          43.500    23915121.720    99291533.755 7      3531.809          43.250    23915121.520    99291533.760 7      3531.809          43.187
> 2024 05 03 15 00 22.0000000  0 17
G02  21431456.480   112623056.888 7      2397.521          47.125    21431454.860   112623056.888 6      2397.521          39.812    21431455.640    87758235.352 6      1868.198          39.812
G03  21400242.340   112459051.372 7      5448.699          47.250    21400241.700   112459051.372 6      5448.699          40.000    21400248.240    87630450.203 6      4245.739          39.687    21400248.820    87630468.204 8      4245.739          50.125
R02  21280003.660   113554205.736 8      5911.563          48.437    21280003.640   113554205.744 8      5911.563          48.062    21280013.480    88319991.508 8      4597.883          48.812    21280014.000    88319993.511 8      4597.883          48.687
R01  20830200.100   111349360.979 7      2520.955          43.187    20830198.420   111349360.970 7      2520.955          42.375    20830212.860    86605100.194 7      1960.743          44.500    20830210.960    86605097.185 7      1960.743          45.375
G21  21268429.800   111766340.266 7      1470.560          47.250    21268428.200   111766340.276 6      1470.560          39.000    21268430.280    87090659.030 6      1145.891          38.875
G16  25057450.720   131677709.942 6     -1012.743          40.062    25057448.040   131677709.949 3     -1012.743          18.625    25057465.340   102606023.094 3      -789.150          18.562
G14  23350392.000   122707138.761 7      5278.265          43.812    23350391.500   122707138.772 5      5278.265          32.062    23350395.640    95615962.441 5      4112.934          31.937    23350396.440    95615973.442 7      4112.934          46.125
G08  20810402.200   109359397.414 8      1859.704          48.937    20810401.440   109359397.422 8      1859.704          49.375    20810406.880    85215132.112 8      1449.120          49.000    20810407.780    85215127.114 8      1449.120          50.562
R14  21523929.860   114734621.720 7      -722.533          47.750    21523929.540   114734621.720 7      -722.533          46.812    21523940.080    89238071.977 7      -561.970          47.750    21523940.360    89238072.982 7      -561.970          47.937
R24  21212703.220   113433849.767 7      1735.469          44.812    21212702.580   113433849.782 7      1735.469          45.250    21212712.320    88226360.208 8      1349.809          48.000    21212712.260    88226361.227 8      1349.809          48.125
R15  21112249.380   112817458.820 7      2454.122          46.625    21112248.640   112817458.818 7      2454.122          45.750    21112257.560    87746945.403 7      1908.762          47.687    21112257.400    87746945.407 7      1908.762          47.687
R17  21220744.940   113556485.864 7      3634.975          45.625    21220745.260   113556485.884 7      3634.975          44.750    21220754.100    88321755.884 8      2827.203          48.312    21220753.940    88321753.886 8      2827.203          48.375
G10  25229189.000   132580276.919 6      -711.127          40.937    25229187.740   132580276.929 5      -711.127          34.187    25229197.120   103309343.611 5      -554.125          34.312    25229197.000   103309346.613 6      -554.125          39.125
G32  24840974.780   130540211.567 7      2519.833          44.125    24840974.220   130540211.569 6      2519.833          41.937    24840984.220   101719688.889 6      1963.507          41.812    24840984.840   101719692.896 7      1963.507          46.437
G27  22963074.980   120671745.562 7       327.958          44.000    22963073.700   120671745.564 7       327.958          43.000    22963082.600    94029952.497 7       255.552          42.562    22963083.120    94029958.504 7       255.552          46.687
R16  23892191.680   127627798.331 7      5492.638          42.875    23892191.780   127627798.332 6      5492.638          41.750    23892201.420    99266107.183 7      4272.052          43.125    23892201.560    99266107.184 7      4272.052          43.500
R18  23914260.340   127655940.715 7      4541.124          43.750    23914260.220   127655940.713 7      4541.124          43.812    23914270.960    99288001.807 7      3531.986          42.437    23914271.240    99288001.814 7      3531.986          43.312
> 2024 05 03 15 00 23.0000000  0 17
G02  21431000.300   112620659.601 7      2397.124          46.750    21430998.760   112620659.601 6      2397.124          40.375    21430999.500    87756367.338 6      1867.889          40.250
G03  21399205.500   112453603.109 7      5447.931          47.250    21399204.900   112453603.106 6      5447.931          40.500    21399211.340    87626204.807 6      4245.141          40.250    21399212.000    87626222.812 8      4245.141          50.500
R02  21278896.000   113548294.714 8      5910.690          48.562    21278896.060   113548294.725 7      5910.690          47.250    21278905.800    88315394.050 8      4597.203          49.187    21278906.360    88315396.058 8      4597.203          49.000
R01  20829728.520   111346840.718 7      2519.702          42.687    20829726.920   111346840.716 7      2519.702          42.375    20829741.200    86603139.991 7      1959.768          45.125    20829739.800    86603136.982 7      1959.768          45.562
G21  21268150.200   111764870.012 7      1470.035          47.625    21268148.300   111764870.020 6      1470.035          39.375    21268150.640    87089513.378 6      1145.482          39.437
G16  25057643.280   131678722.889 6     -1013.050          40.687    25057640.840   131678722.899 3     -1013.050          18.625    25057658.060   102606812.384 3      -789.390          18.562
G14  23349387.720   122701860.974 7      5277.507          44.687    23349387.040   122701860.987 5      5277.507          31.812    23349391.400    95611849.886 5      4112.343          31.937    23349392.140    95611860.878 7      4112.343          45.812
G08  20810048.580   109357538.051 8      1859.098          49.062    20810047.640   109357538.056 8      1859.098          49.000    20810053.020    85213683.260 8      1448.648          49.625    20810053.940    85213678.262 8      1448.648          50.875
R14  21524065.600   114735344.592 8      -723.117          48.250    21524065.180   114735344.593 7      -723.117          46.875    21524075.700    89238634.205 8      -562.424          48.187    21524076.460    89238635.210 8      -562.424          48.375
R24  21212378.380   113432114.453 7      1735.250          46.375    21212378.220   113432114.462 7      1735.250          45.625    21212387.560    88225010.515 8      1349.639          48.187    21212388.200    88225011.534 8      1349.639          48.500
R15  21111790.960   112815005.285 7      2452.991          46.812    21111789.680   112815005.279 7      2452.991          45.875    21111798.300    87745037.094 8      1907.882          48.437    21111798.160    87745037.099 8      1907.882          48.625
R17  21220065.720   113552851.175 7      3634.647          45.000    21220065.980   113552851.192 7      3634.647          44.812    21220074.500    88318928.904 8      2826.948          48.500    21220074.740    88318926.904 8      2826.948          48.375
G10  25229324.320   132580988.306 7      -711.509          42.375    25229323.140   132580988.314 5      -711.509          34.250    25229332.360   103309897.937 5      -554.423          34.375    25229332.160   103309900.945 6      -554.423          38.812
G32  24840495.200   130537692.185 7      2519.071          43.937    24840494.780   130537692.187 7      2519.071          42.125    24840504.920   101717725.732 6      1962.912          41.875    24840505.640   101717729.735 7      1962.912          46.687
G27  22963012.680   120671417.989 7       327.287          43.312    22963011.420   120671417.994 7       327.287          43.187    22963020.260    94029697.241 7       255.029          42.937    22963020.640    94029703.242 7       255.029          47.062
R16  23891163.900   127622306.088 7      5491.837          42.375    23891163.240   127622306.081 6      5491.837          41.750    23891173.320    99261835.443 7      4271.429          43.312    23891173.060    99261835.443 7      4271.429          43.437
R18  23913409.640   127651399.725 7      4540.853          43.437    23913409.440   127651399.734 7      4540.853          43.562    23913420.200    99284469.940 7      3531.774          42.562    23913420.380    99284469.945 7      3531.774          42.812
> 2024 05 03 15 00 24.0000000  0 17
G02  21430544.140   112618262.467 7      2396.941          46.937    21430542.560   112618262.469 6      2396.941          40.250    21430543.320    87754499.441 6      1867.746          40.250
G03  21398168.640   112448155.316 7      5447.545          47.750    21398168.260   112448155.318 6      5447.545          40.187    21398174.780    87621959.782 6      4244.840          39.937    21398175.420    87621977.787 8      4244.840          49.687
R02  21277788.300   113542384.228 8      5910.098          48.875    21277788.300   113542384.236 7      5910.098          47.562    21277798.300    88310797.012 8      4596.743          49.187    21277798.520    88310799.019 8      4596.743          49.312
R01  20829257.340   111344321.389 7      2518.813          42.687    20829255.440   111344321.375 7      2518.813          42.250    20829269.800    86601180.503 7      1959.077          44.937    20829268.340    86601177.494 7      1959.077          45.812
G21  21267870.580   111763399.879 7      1469.877          47.125    21267868.560   111763399.884 6      1469.877          39.187    21267870.800    87088367.820 6      1145.359          39.187
G16  25057836.000   131679735.881 6     -1013.081          40.375    25057833.620   131679735.889 3     -1013.081          18.625    25057851.040   102607601.706 3      -789.414          19.500
G14  23348383.820   122696583.610 7      5276.982          44.062    23348382.940   122696583.618 5      5276.982          31.812    23348387.180    95607737.656 5      4111.934          31.937    23348387.600    95607748.655 7      4111.934          46.375
G08  20809694.860   109355679.117 8      1858.655          48.750    20809693.900   109355679.122 8      1858.655          49.250    20809699.280    85212234.737 8      1448.302          49.812    20809700.120    85212229.739 8      1448.302          50.875
R14  21524201.180   114736067.904 8      -723.605          48.687    21524200.780   114736067.902 7      -723.605          47.000    21524211.420    89239196.771 8      -562.804          48.250    21524211.940    89239197.775 8      -562.804          48.562
R24  21212054.100   113430379.246 7      1735.016          45.375    21212053.900   113430379.258 7      1735.016          45.812    21212062.640    88223660.909 8      1349.457          48.000    21212063.640    88223661.929 8      1349.457          48.562
R15  21111331.420   112812552.651 7      2452.035          46.437    21111330.660   112812552.647 7      2452.035          45.625    21111339.380    87743129.492 8      1907.139          48.875    21111339.280    87743129.495 8      1907.139          48.687
R17  21219386.800   113549216.523 7      3634.446          44.375    21219386.620   113549216.541 7      3634.446          44.437    21219395.520    88316101.959 8      2826.791          48.562    21219395.500    88316099.953 8      2826.791          48.125
G10  25229459.480   132581699.833 6      -711.682          41.625    25229458.640   132581699.840 5      -711.682          34.250    25229467.780   103310452.375 5      -554.557          34.375    25229467.420   103310455.377 6      -554.557          38.812
G32  24840015.920   130535173.357 7      2518.442          43.875    24840015.580   130535173.359 7      2518.442          42.625    24840025.600   101715763.015 7      1962.422          42.000    24840026.220   101715767.020 7      1962.422          46.500
G27  22962950.120   120671090.735 7       327.038          44.000    22962949.240   120671090.748 7       327.038          43.312    22962957.920    94029442.237 7       254.835          43.187    22962958.260    94029448.243 7       254.835          46.812
R16  23890135.800   127616814.405 7      5491.278          42.375    23890135.300   127616814.403 6      5491.278          41.750    23890145.000    99257564.136 7      4270.994          43.437    23890145.260    99257564.133 7      4270.994          43.187
R18  23912558.940   127646858.750 7      4540.810          43.312    23912558.940   127646858.754 7      4540.810          43.625    23912569.720    99280938.069 7      3531.741          42.875    23912569.500    99280938.076 7      3531.741          43.187
> 2024 05 03 15 00 25.0000000  0 17
G02  21430087.860   112615865.419 7      2397.064          46.875    21430086.480   112615865.422 6      2397.064          40.250    21430087.200    87752631.614 6      1867.842          39.937
G03  21397132.180   112442707.920 7      5447.301          47.562    21397131.700   112442707.922 6      5447.301          39.937    21397138.200    87617715.062 6      4244.650          39.750    21397138.740    87617733.065 8      4244.650          50.250
R02  21276680.680   113536474.041 8      5910.075          48.375    21276680.680   113536474.044 7      5910.075          47.562    21276690.520    88306200.204 8      4596.725          48.687    21276691.080    88306202.209 8      4596.725          48.562
R01  20828786.360   111341802.833 7      2518.245          42.687    20828784.580   111341802.810 7      2518.245          42.375    20828799.040    86599221.622 7      1958.635          45.062    20828797.280    86599218.610 7      1958.635          45.437
G21  21267590.720   111761929.765 7      1470.163          47.000    21267588.820   111761929.770 6      1470.163          39.625    21267591.020    87087222.274 6      1145.582          39.562
G16  25058028.300   131680748.703 6     -1012.621          40.937    25058026.420   131680748.713 3     -1012.621          18.625    25058043.980   102608390.892 3      -789.055          19.500
G14  23347379.800   122691306.640 7      5276.837          44.625    23347378.920   122691306.648 5      5276.837          31.812    23347383.000    95603625.733 5      4111.821          31.937    23347383.280    95603636.728 7      4111.821          45.750
G08  20809341.100   109353820.484 8      1858.485          48.625    20809340.260   109353820.487 8      1858.485          48.312    20809345.580    85210786.448 8      1448.170          48.875    20809346.760    85210781.450 8      1448.170          51.187
R14  21524336.560   114736791.499 8      -723.649          48.062    21524336.520   114736791.497 7      -723.649          46.687    21524347.120    89239759.560 8      -562.838          48.312    21524347.540    89239760.565 8      -562.838          48.625
R24  21211729.360   113428644.049 7      1735.191          46.375    21211729.560   113428644.064 7      1735.191          45.437    21211737.860    88222311.312 7      1349.593          47.937    21211739.080    88222312.333 8      1349.593          48.187
R15  21110872.860   112810100.865 7      2451.487          47.000    21110872.180   112810100.866 7      2451.487          45.500    21110880.500    87741222.546 8      1906.712          48.312    21110880.500    87741222.553 8      1906.712          48.812
R17  21218707.440   113545581.869 7      3634.685          45.875    21218707.260   113545581.887 7      3634.685          44.812    21218716.280    88313275.005 8      2826.977          48.625    21218716.240    88313273.000 8      2826.977          48.875
G10  25229594.700   132582411.396 6      -711.601          40.937    25229594.080   132582411.403 5      -711.601          34.250    25229603.380   103311006.838 5      -554.495          34.312    25229602.580   103311009.848 6      -554.495          38.812
G32  24839536.660   130532654.944 7      2518.112          44.625    24839536.240   130532654.949 7      2518.112          42.375    24839546.400   101713800.617 7      1962.166          42.187    24839547.400   101713804.626 7      1962.166          46.875
G27  22962887.720   120670763.659 7       326.982          43.937    22962887.020   120670763.666 7       326.982          43.312    22962895.780    94029187.367 7       254.791          43.125    22962896.000    94029193.370 7       254.791          46.812
R16  23889108.260   127611323.275 7      5491.011          42.250    23889107.400   127611323.268 7      5491.011          42.187    23889117.340    99253293.253 7      4270.787          43.312    23889117.460    99253293.252 7      4270.787          43.687
R18  23911707.920   127642317.742 7      4541.071          44.562    23911708.400   127642317.745 7      4541.071          43.625    23911719.100    99277406.180 7      3531.944          43.375    23911718.760    99277406.180 7      3531.944          43.187
> 2024 05 03 15 00 26.0000000  0 17
G02  21429632.060   112613468.437 7      2396.685          47.500    21429630.220   112613468.442 6      2396.685          39.937    21429631.040    87750763.838 6      1867.547          39.875
G03  21396095.440   112437260.902 7      5446.570          47.000    21396095.260   112437260.902 6      5446.570          39.625    21396101.620    87613470.636 6      4244.080          39.437    21396102.400    87613488.644 8      4244.080          50.000
R02  21275573.340   113530564.270 8      5909.395          48.687    21275573.040   113530564.279 7      5909.395          47.125    21275583.140    88301603.726 8      4596.196          48.875    21275583.560    88301605.729 8      4596.196          49.187
R01  20828315.200   111339285.111 7      2517.036          43.000    20828313.360   111339285.099 7      2517.036          42.375    20828327.920    86597263.400 7      1957.695          45.375    20828326.120    86597260.392 7      1957.695          45.250
G21  21267310.860   111760459.706 7      1469.808          46.937    21267309.060   111760459.713 6      1469.808          39.187    21267311.220    87086076.775 6      1145.305          38.937
G16  25058220.860   131681761.490 6     -1012.876          40.625    25058219.080   131681761.495 3     -1012.876          18.625    25058236.720   102609180.053 3      -789.254          19.500
G14  23346375.480   122686030.012 7      5276.229          45.750    23346374.820   122686030.017 5      5276.229          32.125    23346378.940    95599514.075 5      4111.348          32.062    23346379.260    95599525.070 7      4111.348          45.750
G08  20808987.580   109351962.162 8      1857.987          49.375    20808986.620   109351962.169 8      1857.987          49.125    20808992.100    85209338.406 8      1447.782          49.812    20808993.020    85209333.409 8      1447.782          50.562
R14  21524472.280   114737515.387 8      -724.261          48.750    21524472.360   114737515.382 7      -724.261          47.000    21524482.920    89240322.574 8      -563.314          48.125    21524483.200    89240323.578 8      -563.314          48.125
R24  21211405.100   113426908.893 7      1734.985          45.500    21211405.120   113426908.902 7      1734.985          45.312    21211413.300    88220961.744 8      1349.433          48.000    21211414.360    88220962.763 8      1349.433          48.187
R15  21110414.000   112807649.858 7      2450.414          46.937    21110413.580   112807649.856 7      2450.414          45.312    21110421.700    87739316.204 8      1905.877          48.500    21110421.820    87739316.211 8      1905.877          48.562
R17  21218027.940   113541947.154 7      3634.546          45.250    21218028.040   113541947.171 7      3634.546          44.750    21218036.820    88310448.004 8      2826.869          48.187    21218036.980    88310446.001 8      2826.869          49.000
G10  25229730.280   132583123.025 6      -711.850          41.375    25229729.440   132583123.032 5      -711.850          34.312    25229738.820   103311561.350 5      -554.689          34.375    25229738.280   103311564.348 6      -554.689          38.875
G32  24839057.580   130530136.971 7      2517.584          44.250    24839057.240   130530136.970 7      2517.584          42.062    24839067.140   101711838.562 7      1961.754          42.125    24839068.080   101711842.571 7      1961.754          46.875
G27  22962825.440   120670436.809 7       326.534          44.375    22962824.880   120670436.814 7       326.534          43.125    22962833.540    94028932.672 7       254.442          43.062    22962833.900    94028938.676 7       254.442          47.187
R16  23888080.260   127605832.650 7      5490.226          42.750    23888079.600   127605832.649 7      5490.226          42.187    23888089.220    99249022.765 7      4270.176          43.125    23888089.700    99249022.766 7      4270.176          43.500
R18  23910857.560   127637776.623 7      4540.969          43.937    23910857.600   127637776.619 7      4540.969          43.500    23910868.340    99273874.190 7      3531.865          43.000    23910868.340    99273874.199 7      3531.865          42.625
> 2024 05 03 15 00 27.0000000  0 17
G02  21429176.040   112611071.747 7      2396.539          47.125    21429174.280   112611071.752 6      2396.539          40.000    21429174.940    87748896.287 6      1867.433          40.125
G03  21395059.120   112431814.510 7      5446.176          47.625    21395058.720   112431814.510 6      5446.176          39.812    21395065.160    87609226.696 6      4243.773          39.812    21395065.980    87609244.698 8      4243.773          49.937
R02  21274466.040   113524655.155 8      5908.770          48.375    21274465.720   113524655.164 7      5908.770          47.375    21274475.680    88297007.758 8      4595.710          48.812    21274476.120    88297009.764 8      4595.710          49.062
R01  20827844.620   111336768.418 7      2516.140          43.000    20827842.700   111336768.422 7      2516.140          42.000    20827857.060    86595305.980 7      1956.998          44.750    20827855.340    86595302.969 7      1956.998          45.687
G21  21267031.300   111758989.901 7      1469.697          47.250    21267029.300   111758989.909 6      1469.697          39.375    21267031.640    87084931.471 6      1145.218          39.312
G16  25058413.840   131682774.448 6     -1012.969          40.750    25058411.980   131682774.453 3     -1012.969          19.875    25058429.440   102609969.350 3      -789.326          19.500
G14  23345371.580   122680753.961 7      5275.832          45.687    23345370.880   122680753.966 5      5275.832          32.125    23345374.720    95595402.865 5      4111.038          32.062    23345375.200    95595413.858 7      4111.038          45.500
G08  20808634.060   109350104.410 8      1857.457          49.437    20808633.040   109350104.412 8      1857.457          49.250    20808638.540    85207890.805 8      1447.369          49.687    20808639.360    85207885.806 8      1447.369          51.250
R14  21524608.300   114738239.826 8      -724.649          48.687    21524608.280   114738239.827 7      -724.649          47.625    21524618.640    89240886.023 8      -563.616          48.625    21524619.240    89240887.027 8      -563.616          48.562
R24  21211080.440   113425173.974 7      1734.770          45.812    21211080.620   113425173.994 7      1734.770          45.187    21211088.640    88219612.367 7      1349.266          47.937    21211089.720    88219613.382 7      1349.266          47.812
R15  21109955.500   112805199.840 7      2449.618          46.625    21109954.660   112805199.841 7      2449.618          45.625    21109963.380    87737410.632 8      1905.259          48.750    21109963.420    87737410.639 7      1905.259          47.937
R17  21217348.740   113538312.695 7      3634.356          45.562    21217348.860   113538312.710 7      3634.356          45.062    21217357.720    88307621.203 8      2826.722          48.687    21217357.740    88307619.197 8      2826.722          48.750
G10  25229865.680   132583834.917 6      -712.039          41.937    25229865.000   132583834.922 5      -712.039          34.312    25229874.300   103312116.067 5      -554.835          34.375    25229874.280   103312119.066 6      -554.835          38.875
G32  24838578.920   130527619.682 7      2516.887          44.625    24838578.100   130527619.682 7      2516.887          42.312    24838588.060   101709877.043 6      1961.210          41.875    24838589.300   101709881.046 7      1961.210          46.812
G27  22962763.160   120670110.400 7       326.210          44.125    22962762.740   120670110.407 7       326.210          43.437    22962771.420    94028678.324 7       254.190          43.187    22962771.960    94028684.325 7       254.190          47.125
R16  23887052.080   127600342.808 7      5489.469          42.750    23887052.040   127600342.812 6      5489.469          41.812    23887061.880    99244752.890 7      4269.587          43.125    23887062.180    99244752.890 7      4269.587          43.500
R18  23910006.660   127633235.694 7      4540.876          44.062    23910006.860   127633235.695 7      4540.876          43.625    23910017.440    99270342.361 7      3531.793          42.750    23910017.320    99270342.366 7      3531.793          43.375
> 2024 05 03 15 00 28.0000000  0 17
G02  21428719.840   112608675.306 7      2396.540          47.437    21428718.220   112608675.311 6      2396.540          40.562    21428719.020    87747028.931 6      1867.434          40.375
G03  21394022.760   112426368.704 7      5445.803          47.687    21394022.440   112426368.701 6      5445.803          39.375    21394028.820    87604983.213 6      4243.483          39.500    21394029.700    87605001.216 8      4243.483          49.812
R02  21273358.960   113518746.604 8      5908.500          48.375    21273358.640   113518746.610 7      5908.500          47.250    21273368.460    88292412.220 8      4595.500          48.812    21273368.920    88292414.228 8      4595.500          48.625
R01  20827374.020   111334252.732 7      2515.365          42.687    20827372.140   111334252.734 7      2515.365          42.062    20827386.780    86593349.332 7      1956.395          44.687    20827384.860    86593346.322 7      1956.395          45.687
G21  21266751.520   111757520.307 7      1469.729          46.875    21266749.680   111757520.314 6      1469.729          39.250    21266752.060    87083786.330 6      1145.243          39.187
G16  25058606.160   131683787.495 6     -1012.808          41.062    25058604.740   131683787.500 3     -1012.808          19.875    25058622.200   102610758.717 3      -789.201          19.500
G14  23344367.760   122675478.476 7      5275.414          45.375    23344367.080   122675478.481 5      5275.414          32.250    23344370.760    95591292.099 5      4110.713          32.062    23344371.400    95591303.096 7      4110.713          46.000
G08  20808280.540   109348247.122 8      1857.234          49.000    20808279.620   109348247.127 8      1857.234          48.625    20808285.140    85206443.568 8      1447.195          49.500    20808285.820    85206438.569 8      1447.195          50.500
R14  21524744.460   114738964.799 8      -724.969          48.000    21524744.280   114738964.796 7      -724.969          46.937    21524754.780    89241449.884 8      -563.865          48.500    21524755.400    89241450.889 8      -563.865          48.625
R24  21210756.340   113423439.189 7      1735.008          44.750    21210756.440   113423439.199 7      1735.008          45.500    21210764.000    88218263.082 7      1349.451          47.812    21210765.180    88218264.097 7      1349.451          47.500
R15  21109497.460   112802750.754 7      2448.955          46.937    21109496.620   112802750.755 7      2448.955          45.437    21109504.920    87735505.790 7      1904.743          47.875    21109505.080    87735505.792 8      1904.743          48.375
R17  21216669.860   113534678.399 7      3634.475          45.437    21216669.740   113534678.417 7      3634.475          44.875    21216678.660    88304794.529 8      2826.814          48.312    21216678.780    88304792.527 8      2826.814          48.875
G10  25230001.280   132584547.016 6      -711.959          41.000    25230000.500   132584547.010 5      -711.959          34.750    25230009.800   103312670.941 5      -554.773          34.437    25230009.800   103312673.941 6      -554.773          38.875
G32  24838099.560   130525102.983 7      2516.507          44.875    24838099.340   130525102.985 7      2516.507          42.125    24838109.140   101707915.982 7      1960.915          42.375    24838110.340   101707919.987 7      1960.915          46.750
G27  22962701.440   120669784.378 7       325.996          44.062    22962700.640   120669784.380 7       325.996          43.062    22962709.420    94028424.274 7       254.023          42.875    22962710.000    94028430.278 7       254.023          47.187
R16  23886024.880   127594853.692 7      5488.992          42.687    23886024.280   127594853.680 6      5488.992          41.812    23886033.900    99240483.561 7      4269.216          43.000    23886034.460    99240483.562 7      4269.216          43.562
R18  23909156.300   127628694.883 7      4541.051          43.687    23909156.120   127628694.884 7      4541.051          43.187    23909166.820    99266810.619 7      3531.929          43.000    23909166.860    99266810.624 7      3531.929          43.375
> 2024 05 03 15 00 29.0000000  0 17
G02  21428263.960   112606278.960 7      2396.360          46.875    21428262.200   112606278.965 6      2396.360          40.500    21428263.000    87745161.650 6      1867.293          40.062
G03  21392986.500   112420923.310 7      5445.286          47.312    21392986.160   112420923.309 6      5445.286          40.312    21392992.520    87600740.055 6      4243.080          40.125    21392993.360    87600758.058 8      4243.080          49.437
R02  21272251.040   113512838.468 8      5908.036          48.312    21272251.220   113512838.472 7      5908.036          47.375    21272261.300    88287817.012 8      4595.139          48.812    21272261.620    88287819.018 8      4595.139          49.312
R01  20826903.520   111331737.889 7      2514.499          42.812    20826901.180   111331737.893 7      2514.499          42.062    20826916.120    86591393.342 7      1955.721          44.937    20826914.560    86591390.335 7      1955.721          45.125
G21  21266471.960   111756050.765 7      1469.619          46.937    21266469.900   111756050.775 6      1469.619          39.562    21266472.380    87082641.237 6      1145.157          39.625
G16  25058799.120   131684800.503 6     -1012.876          41.312    25058797.480   131684800.508 3     -1012.876          19.875    25058815.100   102611548.052 3      -789.254          19.500
G14  23343364.060   122670203.340 7      5275.040          45.000    23343363.400   122670203.348 5      5275.040          32.250    23343367.120    95587181.607 5      4110.421          32.250    23343367.800    95587192.608 7      4110.421          46.062
G08  20807927.140   109346390.190 8      1856.910          48.312    20807926.240   109346390.190 8      1856.910          48.375    20807931.740    85204996.600 8      1446.942          48.875    20807932.760    85204991.604 8      1446.942          50.750
R14  21524880.640   114739690.102 7      -725.313          47.562    21524880.240   114739690.097 7      -725.313          47.437    21524890.820    89242013.998 8      -564.132          48.125    21524891.400    89242015.005 8      -564.132          48.750
R24  21210431.760   113421704.431 7      1734.847          45.625    21210432.080   113421704.449 7      1734.847          45.625    21210439.520    88216913.827 7      1349.325          47.875    21210440.660    88216914.841 7      1349.325          47.187
R15  21109038.960   112800302.478 7      2447.951          47.375    21109038.900   112800302.484 7      2447.951          45.812    21109046.980    87733601.577 8      1903.962          48.125    21109046.960    87733601.586 8      1903.962          48.375
R17  21215990.540   113531044.109 7      3634.350          45.375    21215990.660   113531044.127 7      3634.350          44.375    21215999.320    88301967.861 8      2826.717          48.625    21215999.600    88301965.863 8      2826.717          49.312
G10  25230136.680   132585259.165 6      -712.119          40.937    25230136.040   132585259.168 5      -712.119          34.750    25230145.420   103313225.869 5      -554.898          34.437    25230144.700   103313228.877 6      -554.898          39.062
G32  24837621.040   130522586.741 7      2516.139          44.062    24837620.380   130522586.743 7      2516.139          42.750    24837630.280   101705955.276 7      1960.627          42.500    24837631.460   101705959.281 7      1960.627          46.687
G27  22962639.460   120669458.584 7       325.795          43.500    22962638.660   120669458.583 7       325.795          43.125    22962647.500    94028170.403 7       253.866          42.750    22962648.140    94028176.406 7       253.866          47.000
R16  23884997.560   127589365.119 7      5488.402          42.312    23884997.140   127589365.112 6      5488.402          41.812    23885006.480    99236214.670 7      4268.757          42.750    23885006.700    99236214.671 7      4268.757          43.625
R18  23908305.820   127624154.042 7      4540.980          43.187    23908305.860   127624154.043 7      4540.980          43.625    23908316.000    99263278.854 7      3531.873          43.250    23908316.420    99263278.863 7      3531.873          43.125
> 2024 05 03 15 00 30.0000000  0 17
G02  21427807.740   112603882.756 7      2395.721          47.375    21427806.160   112603882.753 6      2395.721          40.062    21427807.000    87743294.476 6      1866.796          40.187
G03  21391950.680   112415478.399 7      5444.244          47.875    21391950.080   112415478.396 6      5444.244          40.000    21391956.440    87596497.274 6      4242.268          39.750    21391957.080    87596515.279 8      4242.268          49.687
R02  21271144.280   113506930.805 8      5906.990          48.437    21271144.300   113506930.811 7      5906.990          47.062    21271154.060    88283222.167 8      4594.325          49.000    21271154.560    88283224.175 8      4594.325          49.500
R01  20826433.360   111329223.975 7      2513.033          42.875    20826431.520   111329223.963 6      2513.033          41.875    20826445.840    86589438.068 7      1954.581          45.375    20826444.160    86589435.056 7      1954.581          46.000
G21  21266192.460   111754581.347 7      1468.967          47.187    21266190.360   111754581.352 6      1468.967          39.312    21266192.800    87081496.231 6      1144.650          39.125
G16  25058992.080   131685813.543 6     -1013.404          40.937    25058990.400   131685813.548 3     -1013.404          19.875    25059007.840   102612337.412 3      -789.666          19.500
G14  23342360.300   122664928.664 7      5273.945          44.250    23342359.500   122664928.677 5      5273.945          32.250    23342363.280    95583071.468 5      4109.567          32.250    23342364.180    95583082.483 7      4109.567          46.125
G08  20807574.000   109344533.665 8      1855.886          48.562    20807573.000   109344533.670 8      1855.886          48.812    20807578.480    85203549.961 8      1446.145          49.187    20807579.560    85203544.965 8      1446.145          50.437
R14  21525016.600   114740415.844 7      -726.399          47.875    21525016.400   114740415.840 7      -726.399          46.875    21525027.120    89242578.459 8      -564.977          48.312    21525027.380    89242579.465 8      -564.977          48.625
R24  21210107.440   113419969.759 7      1734.124          44.562    21210107.620   113419969.774 7      1734.124          44.937    21210114.900    88215564.642 7      1348.763          47.625    21210116.280    88215565.657 7      1348.763          46.875
R15  21108581.240   112797855.070 7      2446.497          47.125    21108580.820   112797855.074 7      2446.497          45.937    21108589.040    87731698.031 8      1902.831          48.312    21108588.900    87731698.036 7      1902.831          47.937
R17  21215311.500   113527409.864 7      3633.843          46.125    21215311.720   113527409.868 7      3633.843          45.062    21215320.400    88299141.220 8      2826.322          48.687    21215320.380    88299139.222 8      2826.322          48.750
G10  25230272.140   132585971.441 6      -712.728          41.562    25230271.560   132585971.448 5      -712.728          34.312    25230280.860   103313780.891 5      -555.373          34.500    25230279.980   103313783.892 6      -555.373          39.062
G32  24837141.760   130520071.016 7      2515.094          44.125    24837141.720   130520071.018 7      2515.094          42.500    24837151.700   101703994.975 7      1959.813          42.875    24837152.720   101703998.984 7      1959.813          46.937
G27  22962577.260   120669133.097 7       324.976          43.562    22962576.660   120669133.100 7       324.976          43.187    22962585.660    94027916.769 7       253.228          42.625    22962586.280    94027922.772 7       253.228          46.812
R16  23883970.140   127583877.140 7      5487.252          42.312    23883969.160   127583877.134 7      5487.252          42.125    23883979.060    99231946.245 7      4267.862          43.000    23883979.140    99231946.246 7      4267.862          43.187
R18  23907455.080   127619613.217 7      4540.355          43.937    23907454.860   127619613.213 7      4540.355          43.562    23907465.500    99259747.105 7      3531.387          43.437    23907465.920    99259747.112 7      3531.387          43.312
> 2024 05 03 15 00 31.0000000  0 17
G02  21427351.840   112601486.615 7      2396.256          47.812    21427350.240   112601486.620 6      2396.256          40.562    21427350.920    87741427.357 6      1867.213          40.750
G03  21390914.520   112410033.859 8      5444.519          48.187    21390913.840   112410033.859 6      5444.519          39.750    21390920.240    87592254.779 6      4242.482          39.437    21390920.840    87592272.787 8      4242.482          49.687
R02  21270037.320   113501023.457 8      5907.289          48.625    21270037.100   113501023.458 7      5907.289          46.875    21270047.060    88278627.567 8      4594.558          48.937    21270047.380    88278629.573 8      4594.558          48.750
R01  20825963.160   111326710.802 7      2512.921          42.875    20825960.800   111326710.804 7      2512.921          42.250    20825975.780    86587483.382 7      1954.494          44.937    20825974.020    86587480.377 7      1954.494          45.375
G21  21265912.580   111753111.936 7      1469.512          47.062    21265910.780   111753111.936 6      1469.512          39.062    21265913.120    87080351.234 6      1145.075          38.937
G16  25059184.880   131686826.490 6     -1012.907          41.250    25059183.340   131686826.495 3     -1012.907          19.875    25059200.600   102613126.700 3      -789.278          19.500
G14  23341356.480   122659654.340 7      5274.326          44.812    23341355.680   122659654.355 5      5274.326          32.000    23341359.560    95578961.611 5      4109.864          32.187    23341360.180    95578972.625 7      4109.864          45.937
G08  20807220.740   109342677.410 8      1856.185          49.312    20807219.840   109342677.412 8      1856.185          48.875    20807225.280    85202103.527 8      1446.378          49.062    20807226.140    85202098.527 8      1446.378          50.687
R14  21525152.980   114741141.880 7      -725.977          47.875    21525152.740   114741141.870 7      -725.977          47.125    21525163.040    89243143.145 8      -564.649          48.500    21525163.800    89243144.149 8      -564.649          48.000
R24  21209783.080   113418235.062 7      1734.732          46.937    21209783.440   113418235.077 7      1734.732          46.000    21209790.380    88214215.423 7      1349.236          47.125    21209791.700    88214216.438 7      1349.236          46.937
R15  21108122.880   112795408.458 7      2446.381          47.250    21108122.820   112795408.465 7      2446.381          45.812    21108131.140    87729795.113 8      1902.741          48.125    21108131.060    87729795.116 7      1902.741          47.500
R17  21214632.400   113523775.574 7      3634.471          45.187    21214632.240   113523775.584 7      3634.471          44.687    21214641.280    88296314.554 7      2826.811          47.750    21214641.260    88296312.558 8      2826.811          48.125
G10  25230407.660   132586683.721 6      -712.225          41.125    25230406.920   132586683.729 5      -712.225          34.437    25230416.420   103314335.915 5      -554.981          34.375    25230415.800   103314338.918 6      -554.981          39.062
G32  24836663.260   130517555.685 7      2515.200          44.125    24836663.140   130517555.687 7      2515.200          42.750    24836673.140   101702034.979 7      1959.896          42.250    24836674.080   101702038.984 7      1959.896          46.812
G27  22962515.420   120668807.756 7       325.345          44.312    22962514.900   120668807.763 7       325.345          42.937    22962523.560    94027663.256 7       253.516          42.750    22962524.280    94027669.257 7       253.516          46.937
R16  23882943.040   127578389.694 7      5487.424          42.500    23882942.280   127578389.679 7      5487.424          42.125    23882952.060    99227678.225 7      4267.996          42.625    23882952.060    99227678.221 7      4267.996          43.375
R18  23906604.160   127615072.320 7      4541.064          43.000    23906604.040   127615072.316 7      4541.064          43.812    23906614.940    99256215.303 7      3531.939          43.000    23906614.920    99256215.304 7      3531.939          43.500
> 2024 05 03 15 00 32.0000000  0 17
G02  21426895.900   112599090.579 7      2396.080          47.187    21426894.240   112599090.581 6      2396.080          39.875    21426895.160    87739560.316 6      1867.075          39.625
G03  21389878.420   112404589.764 7      5443.969          47.062    21389878.020   112404589.763 6      5443.969          40.000    21389884.200    87588012.631 6      4242.054          39.625    21389884.660    87588030.632 8      4242.054          49.562
R02  21268930.200   113495116.544 8      5906.759          48.500    21268929.920   113495116.550 7      5906.759          47.000    21268940.160    88274033.314 8      4594.146          48.187    21268940.520    88274035.319 8      4594.146          48.500
R01  20825492.920   111324198.562 7      2511.898          43.312    20825491.460   111324198.563 7      2511.898          42.250    20825505.840    86585529.415 7      1953.699          44.500    20825504.180    86585526.406 7      1953.699          45.875
G21  21265633.180   111751642.589 7      1469.428          47.187    21265631.120   111751642.594 6      1469.428          38.875    21265633.440    87079206.292 6      1145.009          39.000
G16  25059377.920   131687839.369 6     -1012.797          41.250    25059376.160   131687839.377 3     -1012.797          19.875    25059393.500   102613915.934 3      -789.192          19.500
G14  23340352.880   122654380.420 7      5273.833          44.250    23340352.080   122654380.436 5      5273.833          32.000    23340356.040    95574852.062 5      4109.481          32.187    23340356.360    95574863.069 7      4109.481          45.750
G08  20806867.580   109340821.526 8      1855.711          48.250    20806866.600   109340821.528 8      1855.711          48.687    20806872.020    85200657.383 8      1446.009          48.500    20806872.860    85200652.386 8      1446.009          50.500
R14  21525288.800   114741868.225 7      -726.376          47.750    21525288.800   114741868.223 7      -726.376          46.500    21525299.400    89243708.078 8      -564.959          48.062    21525299.800    89243709.085 8      -564.959          48.250
R24  21209458.660   113416500.422 7      1734.683          46.250    21209458.960   113416500.437 7      1734.683          45.750    21209465.820    88212866.258 7      1349.198          47.000    21209467.020    88212867.269 7      1349.198          47.000
R15  21107665.380   112792962.672 7      2445.492          47.875    21107665.100   112792962.673 7      2445.492          46.125    21107673.420    87727892.829 8      1902.050          48.375    21107673.240    87727892.832 7      1902.050          47.312
R17  21213953.040   113520141.278 7      3634.422          44.125    21213953.460   113520141.285 7      3634.422          44.312    21213962.380    88293487.879 8      2826.772          48.062    21213962.360    88293485.882 8      2826.772          48.812
G10  25230543.480   132587396.105 6      -712.333          41.625    25230542.380   132587396.109 5      -712.333          34.437    25230552.140   103314891.016 5      -555.065          34.375    25230551.680   103314894.012 6      -555.065          38.750
G32  24836184.980   130515040.846 7      2514.683          44.687    24836184.600   130515040.851 7      2514.683          42.125    24836194.540   101700075.368 7      1959.494          42.000    24836195.220   101700079.377 7      1959.494          46.875
G27  22962453.740   120668482.692 7       325.001          44.562    22962453.000   120668482.700 7       325.001          43.250    22962461.820    94027409.953 7       253.247          43.062    22962462.360    94027415.955 7       253.247          46.687
R16  23881915.700   127572902.806 7      5486.661          42.375    23881915.000   127572902.785 6      5486.661          41.625    23881924.520    99223410.639 7      4267.403          42.812    23881924.920    99223410.637 7      4267.403          43.062
R18  23905753.500   127610531.367 7      4541.084          43.125    23905753.780   127610531.368 7      4541.084          43.062    23905764.100    99252683.452 7      3531.954          42.625    23905764.160    99252683.455 7      3531.954          42.687
> 2024 05 03 15 00 33.0000000  0 17
G02  21426440.000   112596694.685 7      2395.781          47.437    21426438.300   112596694.690 6      2395.781          40.125    21426439.180    87737693.391 6      1866.843          40.000
G03  21388842.380   112399146.054 7      5443.403          47.437    21388842.060   112399146.054 6      5443.403          39.875    21388848.460    87583770.783 6      4241.613          39.875    21388848.860    87583788.793 8      4241.613          49.687
R02  21267823.320   113489210.089 8      5906.157          48.625    21267823.260   113489210.096 7      5906.157          46.187    21267833.280    88269439.413 8      4593.677          49.062    21267833.600    88269441.416 8      4593.677          49.062
R01  20825023.360   111321687.228 7      2510.872          43.125    20825021.440   111321687.216 7      2510.872          42.312    20825035.840    86583576.145 7      1952.901          44.875    20825034.480    86583573.137 7      1952.901          46.062
G21  21265353.520   111750173.381 7      1469.066          47.500    21265351.540   111750173.388 6      1469.066          39.000    21265353.900    87078061.453 6      1144.727          39.187
G16  25059570.500   131688852.207 6     -1012.905          41.437    25059568.820   131688852.214 3     -1012.905          19.875    25059586.240   102614705.133 3      -789.277          19.500
G14  23339349.380   122649106.934 7      5273.104          44.500    23339348.340   122649106.950 5      5273.104          32.312    23339352.340    95570742.852 5      4108.912          32.187    23339352.780    95570753.861 7      4108.912          45.187
G08  20806514.400   109338966.010 7      1855.238          47.937    20806513.520   109338966.015 8      1855.238          48.750    20806518.980    85199211.529 8      1445.640          49.187    20806519.740    85199206.533 8      1445.640          51.000
R14  21525425.240   114742594.893 7      -726.935          47.812    21525424.840   114742594.894 7      -726.935          46.937    21525435.720    89244273.262 8      -565.394          48.187    21525436.240    89244274.268 8      -565.394          48.500
R24  21209134.460   113414765.859 7      1734.533          45.500    21209134.260   113414765.871 7      1734.533          45.687    21209141.640    88211517.154 7      1349.081          47.562    21209142.460    88211518.163 7      1349.081          47.062
R15  21107207.840   112790517.736 7      2444.366          47.312    21107207.860   112790517.740 7      2444.366          45.875    21107216.040    87725991.218 8      1901.174          48.437    21107215.680    87725991.219 8      1901.174          48.312
R17  21213273.760   113516507.087 7      3634.075          45.000    21213274.200   113516507.099 7      3634.075          44.250    21213283.020    88290661.292 8      2826.503          48.687    21213283.060    88290659.289 8      2826.503          48.750
G10  25230678.480   132588108.648 6      -712.684          41.125    25230677.960   132588108.650 5      -712.684          34.187    25230687.780   103315446.247 5      -555.338          34.250    25230687.280   103315449.247 6      -555.338          38.750
G32  24835706.460   130512526.553 7      2514.017          44.312    24835706.100   130512526.561 7      2514.017          42.500    24835716.020   101698116.185 7      1958.974          42.375    24835716.480   101698120.194 7      1958.974          46.875
G27  22962392.100   120668157.884 7       324.728          44.687    22962391.200   120668157.889 7       324.728          43.250    22962400.000    94027156.850 7       253.035          42.875    22962400.560    94027162.849 7       253.035          46.875
R16  23880888.960   127567416.467 7      5485.972          42.375    23880887.500   127567416.471 6      5485.972          41.937    23880897.580    99219143.508 7      4266.867          42.937    23880897.600    99219143.508 7      4266.867          43.062
R18  23904902.900   127605990.449 7      4540.860          42.937    23904902.860   127605990.453 7      4540.860          43.625    23904913.560    99249151.631 7      3531.780          42.875    23904913.500    99249151.636 7      3531.780          43.062
> 2024 05 03 15 00 34.0000000  0 17
G02  21425984.100   112594298.940 8      2395.572          48.500    21425982.620   112594298.943 6      2395.572          40.125    21425983.320    87735826.576 6      1866.680          40.125
G03  21387806.780   112393702.865 7      5442.839          46.625    21387806.340   112393702.862 6      5442.839          40.062    21387812.520    87579529.339 6      4241.173          40.125    21387813.180    87579547.342 8      4241.173          49.812
R02  21266716.500   113483304.155 7      5905.556          47.875    21266716.140   113483304.161 7      5905.556          46.937    21266726.380    88264845.913 8      4593.210          48.500    21266726.760    88264847.914 8      4593.210          49.125
R01  20824554.320   111319176.762 7      2509.860          43.125    20824551.920   111319176.756 7      2509.860          42.062    20824566.280    86581623.565 7      1952.113          44.687    20824564.580    86581620.555 7      1952.113          45.875
G21  21265073.840   111748704.265 7      1468.866          47.000    21265072.040   111748704.270 6      1468.866          39.062    21265074.340    87076916.687 6      1144.571          39.000
G16  25059763.180   131689865.094 6     -1013.001          41.625    25059761.600   131689865.101 3     -1013.001          19.875    25059779.080   102615494.373 3      -789.351          21.000
G14  23338346.020   122643833.879 7      5272.696          44.750    23338344.880   122643833.892 5      5272.696          32.312    23338348.760    95566633.978 5      4108.594          31.875    23338348.980    95566644.981 7      4108.594          44.937
G08  20806161.620   109337110.875 8      1854.828          48.875    20806160.500   109337110.882 8      1854.828          49.250    20806165.940    85197765.969 8      1445.321          49.375    20806167.080    85197760.971 8      1445.321          50.812
R14  21525561.720   114743322.003 7      -727.378          47.750    21525561.400   114743321.998 7      -727.378          46.937    21525572.200    89244838.775 8      -565.738          48.625    21525572.620    89244839.784 8      -565.738          48.312
R24  21208810.000   113413031.307 7      1734.528          45.625    21208809.720   113413031.316 7      1734.528          45.375    21208817.420    88210168.054 7      1349.077          47.875    21208818.500    88210169.058 7      1349.077          46.750
R15  21106750.360   112788073.703 7      2443.449          46.937    21106750.280   112788073.704 7      2443.449          46.187    21106758.800    87724090.301 8      1900.460          48.250    21106758.480    87724090.302 8      1900.460          48.250
R17  21212594.940   113512872.963 7      3633.935          45.312    21212595.300   113512872.970 7      3633.935          44.625    21212603.920    88287834.749 8      2826.394          49.000    21212603.820    88287832.743 8      2826.394          49.125
G10  25230814.100   132588821.249 7      -712.829          42.000    25230813.560   132588821.249 5      -712.829          34.437    25230823.400   103316001.514 5      -555.451          34.250    25230823.200   103316004.522 6      -555.451          38.750
G32  24835228.120   130510012.704 7      2513.624          44.250    24835227.720   130510012.712 7      2513.624          42.687    24835237.620   101696157.344 7      1958.668          42.500    24835238.380   101696161.349 7      1958.668          46.625
G27  22962330.440   120667833.383 7       324.195          45.500    22962329.380   120667833.387 7       324.195          43.062    22962338.240    94026903.986 7       252.620          42.812    22962338.320    94026909.989 7       252.620          46.812
R16  23879862.280   127561930.765 7      5485.164          42.062    23879860.860   127561930.761 6      5485.164          41.937    23879870.720    99214876.846 7      4266.239          42.937    23879870.800    99214876.845 7      4266.239          43.187
R18  23904052.480   127601449.616 7      4540.632          42.375    23904052.300   127601449.620 7      4540.632          43.500    23904062.780    99245619.875 7      3531.603          43.125    23904062.920    99245619.877 7      3531.603          43.250
> 2024 05 03 15 00 35.0000000  0 17
G02  21425528.380   112591903.516 8      2395.496          48.500    21425526.740   112591903.519 6      2395.496          40.437    21425527.480    87733960.009 6      1866.620          40.125
G03  21386771.320   112388260.364 7      5442.473          47.750    21386770.740   112388260.363 6      5442.473          39.875    21386776.840    87575288.431 6      4240.888          39.812    21386777.280    87575306.436 8      4240.888          49.937
R02  21265610.140   113477398.934 8      5905.164          48.250    21265609.380   113477398.934 7      5905.164          47.062    21265619.780    88260252.965 8      4592.905          49.000    21265620.160    88260254.968 8      4592.905          49.437
R01  20824084.520   111316667.417 7      2509.022          42.687    20824082.640   111316667.413 7      2509.022          42.062    20824096.940    86579671.849 7      1951.461          44.875    20824095.320    86579668.838 7      1951.461          46.000
G21  21264794.300   111747235.425 7      1468.907          47.750    21264792.580   111747235.429 6      1468.907          39.125    21264794.840    87075772.138 6      1144.603          38.875
G16  25059956.000   131690878.244 6     -1012.980          41.437    25059954.400   131690878.248 3     -1012.980          19.875    25059971.800   102616283.818 3      -789.335          21.000
G14  23337342.580   122638561.434 7      5272.363          45.375    23337341.640   122638561.444 5      5272.363          32.312    23337345.220    95562525.577 5      4108.335          31.875    23337345.500    95562536.578 7      4108.335          44.562
G08  20805808.740   109335256.349 8      1854.511          48.812    20805807.660   109335256.351 8      1854.511          48.937    20805812.980    85196320.880 8      1445.073          49.375    20805814.020    85196315.882 8      1445.073          50.750
R14  21525698.260   114744049.742 7      -727.726          47.437    21525697.720   114744049.735 7      -727.726          46.812    21525708.820    89245404.786 8      -566.009          48.000    21525709.300    89245405.791 8      -566.009          48.375
R24  21208485.560   113411297.065 7      1734.327          46.187    21208485.460   113411297.077 7      1734.327          45.125    21208492.920    88208819.197 7      1348.921          47.750    21208494.040    88208820.201 7      1348.921          47.250
R15  21106292.960   112785630.712 7      2442.717          47.437    21106293.320   112785630.713 7      2442.717          45.812    21106301.500    87722190.195 8      1899.891          48.187    21106301.340    87722190.195 8      1899.891          48.500
R17  21211915.700   113509238.999 7      3634.140          45.812    21211915.900   113509239.014 7      3634.140          44.375    21211924.780    88285008.337 8      2826.553          48.812    21211924.800    88285006.333 8      2826.553          49.125
G10  25230950.040   132589534.131 6      -712.802          41.062    25230949.140   132589534.136 5      -712.802          34.437    25230959.040   103316557.013 5      -555.430          34.375    25230958.500   103316560.021 6      -555.430          38.875
G32  24834750.000   130507499.620 7      2513.001          44.312    24834749.420   130507499.623 7      2513.001          43.000    24834759.440   101694199.095 7      1958.183          42.750    24834760.360   101694203.100 7      1958.183          47.250
G27  22962268.660   120667509.365 7       324.050          44.250    22962267.740   120667509.370 7       324.050          43.437    22962276.440    94026651.498 7       252.507          43.000    22962277.000    94026657.493 7       252.507          47.062
R16  23878835.220   127556445.800 7      5484.794          42.500    23878834.300   127556445.801 6      5484.794          41.750    23878843.460    99210610.766 7      4265.951          42.937    23878843.900    99210610.765 7      4265.951          42.875
R18  23903201.380   127596908.920 7      4540.860          43.500    23903201.740   127596908.926 7      4540.860          43.875    23903212.340    99242088.222 7      3531.780          43.187    23903212.200    99242088.225 7      3531.780          43.187
> 2024 05 03 15 00 36.0000000  0 17
G02  21425072.380   112589508.114 7      2395.337          47.937    21425070.820   112589508.121 6      2395.337          40.625    21425071.760    87732093.466 6      1866.496          40.312
G03  21385735.500   112382818.183 7      5441.972          47.500    21385735.100   112382818.183 6      5441.972          39.562    21385741.280    87571047.775 6      4240.497          39.687    21385741.740    87571065.780 8      4240.497          49.500
R02  21264503.380   113471493.992 7      5904.714          47.625    21264502.740   113471493.998 7      5904.714          46.437    21264513.160    88255660.245 8      4592.555          49.062    21264513.600    88255662.248 8      4592.555          49.062
R01  20823614.880   111314158.841 7      2508.067          43.312    20823612.860   111314158.847 7      2508.067          42.250    20823627.800    86577720.739 7      1950.718          45.125    20823626.140    86577717.731 7      1950.718          46.187
G21  21264514.700   111745766.595 7      1468.790          47.250    21264512.980   111745766.602 6      1468.790          39.250    21264515.180    87074627.594 6      1144.511          39.187
G16  25060148.560   131691891.215 7     -1012.890          42.000    25060147.260   131691891.225 3     -1012.890          21.437    25060164.580   102617073.126 3      -789.265          21.000
G14  23336339.240   122633289.309 7      5271.922          44.562    23336338.660   122633289.317 5      5271.922          32.000    23336342.140    95558417.430 5      4107.991          31.875    23336342.300    95558428.424 7      4107.991          44.625
G08  20805455.840   109333402.089 8      1854.082          48.437    20805454.780   109333402.088 8      1854.082          49.125    20805460.160    85194876.001 8      1444.739          49.187    20805461.340    85194871.004 8      1444.739          50.812
R14  21525835.120   114744777.727 8      -728.183          48.187    21525834.460   114744777.722 7      -728.183          46.437    21525845.300    89245970.990 8      -566.365          48.437    21525845.900    89245971.997 8      -566.365          48.687
R24  21208161.380   113409562.794 7      1734.187          46.750    21208161.000   113409562.798 7      1734.187          45.687    21208168.760    88207470.313 7      1348.812          47.250    21208169.700    88207471.313 7      1348.812          47.437
R15  21105836.180   112783188.452 7      2441.814          47.125    21105836.140   112783188.448 7      2441.814          46.000    21105844.560    87720290.656 8      1899.189          48.562    21105844.440    87720290.658 8      1899.189          48.500
R17  21211236.720   113505605.000 7      3633.990          45.937    21211236.840   113505605.010 7      3633.990          44.312    21211245.840    88282181.896 8      2826.437          48.437    21211245.820    88282179.890 8      2826.437          48.812
G10  25231086.100   132590247.061 6      -712.866          40.250    25231084.840   132590247.061 5      -712.866          34.062    25231094.660   103317112.541 5      -555.480          34.375    25231093.980   103317115.547 6      -555.480          38.875
G32  24834271.800   130504986.917 7      2512.445          44.687    24834271.320   130504986.920 7      2512.445          42.562    24834281.260   101692241.144 7      1957.749          42.500    24834282.060   101692245.151 7      1957.749          47.187
G27  22962206.880   120667185.518 7       323.717          44.562    22962206.000   120667185.520 7       323.717          42.750    22962214.840    94026399.140 7       252.247          42.500    22962215.320    94026405.139 7       252.247          46.625
R16  23877808.580   127550961.342 7      5484.175          42.500    23877807.800   127550961.346 6      5484.175          41.750    23877817.040    99206345.077 7      4265.469          42.500    23877817.120    99206345.079 7      4265.469          43.000
R18  23902351.060   127592368.119 7      4540.758          43.437    23902351.120   127592368.120 7      4540.758          43.875    23902361.600    99238556.490 7      3531.701          42.687    23902361.500    99238556.497 7      3531.701          43.000
> 2024 05 03 15 00 37.0000000  0 17
G02  21424616.460   112587112.900 7      2395.056          47.750    21424615.060   112587112.905 6      2395.056          40.187    21424616.000    87730227.066 6      1866.277          40.312
G03  21384699.900   112377376.502 7      5441.429          46.875    21384699.620   112377376.502 6      5441.429          39.687    21384705.720    87566807.508 6      4240.075          39.437    21384706.160    87566825.513 8      4240.075          49.937
R02  21263396.520   113465589.531 8      5904.172          48.062    21263396.280   113465589.531 7      5904.172          46.375    21263406.820    88251067.892 8      4592.134          48.812    21263407.000    88251069.894 8      4592.134          49.375
R01  20823146.000   111311651.174 7      2507.058          43.312    20823143.560   111311651.183 7      2507.058          42.187    20823158.420    86575770.337 7      1949.934          45.000    20823157.040    86575767.322 7      1949.934          46.062
G21  21264235.280   111744297.889 7      1468.592          46.812    21264233.460   111744297.896 6      1468.592          38.812    21264235.660    87073483.147 6      1144.358          39.062
G16  25060341.080   131692904.230 6     -1013.063          41.500    25060340.020   131692904.241 3     -1013.063          21.437    25060357.380   102617862.464 3      -789.400          21.000
G14  23335335.900   122628017.649 7      5271.452          44.812    23335335.640   122628017.652 5      5271.452          32.000    23335338.780    95554309.643 5      4107.625          32.187    23335339.240    95554320.627 7      4107.625          44.437
G08  20805103.020   109331548.249 7      1853.539          47.687    20805102.060   109331548.254 8      1853.539          48.812    20805107.500    85193431.451 8      1444.316          48.937    20805108.300    85193426.455 8      1444.316          51.250
R14  21525971.800   114745506.121 8      -728.642          48.062    21525971.180   114745506.119 7      -728.642          47.000    21525982.100    89246537.511 8      -566.722          48.437    21525982.540    89246538.518 8      -566.722          48.500
R24  21207836.880   113407828.570 7      1734.209          45.750    21207836.600   113407828.577 7      1734.209          45.125    21207844.680    88206121.472 8      1348.829          48.000    21207845.200    88206122.473 7      1348.829          47.250
R15  21105379.360   112780747.043 7      2440.969          46.437    21105379.480   112780747.039 7      2440.969          46.500    21105387.620    87718391.780 8      1898.531          48.312    21105387.600    87718391.787 8      1898.531          48.437
R17  21210557.400   113501971.063 7      3633.845          45.812    21210558.060   113501971.073 7      3633.845          44.562    21210566.920    88279355.498 8      2826.324          48.750    21210566.580    88279353.492 8      2826.324          48.937
G10  25231221.620   132590960.127 6      -713.302          41.125    25231220.520   132590960.132 5      -713.302          34.062    25231230.180   103317668.175 5      -555.820          34.375    25231229.680   103317671.168 6      -555.820          38.875
G32  24833793.720   130502474.729 7      2511.852          45.312    24833793.220   130502474.734 7      2511.852          42.687    24833803.280   101690283.597 7      1957.287          42.437    24833804.100   101690287.604 7      1957.287          46.812
G27  22962145.760   120666861.953 7       323.356          44.187    22962144.500   120666861.957 7       323.356          42.937    22962153.380    94026147.007 7       251.966          42.937    22962153.900    94026153.004 7       251.966          47.125
R16  23876781.980   127545477.533 7      5483.343          42.750    23876780.920   127545477.537 6      5483.343          41.625    23876790.580    99202079.896 7      4264.823          42.875    23876790.440    99202079.897 7      4264.823          43.250
R18  23901500.320   127587827.339 7      4540.716          43.875    23901500.520   127587827.343 7      4540.716          43.812    23901511.000    99235024.774 7      3531.668          43.062    23901510.680    99235024.777 7      3531.668          43.500
> 2024 05 03 15 00 38.0000000  0 17
G02  21424160.900   112584717.836 8      2395.003          48.250    21424159.280   112584717.841 6      2395.003          40.562    21424160.200    87728360.780 6      1866.236          40.187
G03  21383664.520   112371935.296 7      5440.916          47.500    21383664.180   112371935.299 6      5440.916          39.500    21383670.300    87562567.616 6      4239.675          39.125    21383670.880    87562585.621 8      4239.675          49.937
R02  21262290.240   113459685.563 7      5903.745          47.937    21262289.980   113459685.569 7      5903.745          46.812    21262300.320    88246475.921 8      4591.801          49.187    21262300.580    88246477.927 8      4591.801          49.812
R01  20822676.960   111309144.437 7      2506.142          43.062    20822675.020   111309144.449 7      2506.142          42.187    20822689.660    86573820.655 7      1949.221          44.875    20822687.920    86573817.643 7      1949.221          45.437
G21  21263955.880   111742829.332 7      1468.439          47.312    21263954.120   111742829.340 6      1468.439          39.000    21263956.280    87072338.820 6      1144.238          39.125
G16  25060533.920   131693917.254 6     -1012.982          41.875    25060532.840   131693917.262 3     -1012.982          21.437    25060550.160   102618651.809 3      -789.337          21.000
G14  23334333.040   122622746.442 7      5270.985          44.562    23334332.500   122622746.446 5      5270.985          32.000    23334335.840    95550202.212 5      4107.261          32.187    23334336.420    95550213.197 7      4107.261          44.750
G08  20804750.200   109329694.819 7      1853.261          47.750    20804749.300   109329694.821 8      1853.261          49.687    20804754.720    85191987.220 8      1444.100          49.687    20804755.460    85191982.220 8      1444.100          51.187
R14  21526108.360   114746234.929 7      -729.063          47.812    21526107.820   114746234.924 7      -729.063          46.937    21526118.840    89247104.353 8      -567.049          48.500    21526119.100    89247105.360 8      -567.049          48.562
R24  21207512.700   113406094.507 7      1734.000          45.312    21207511.880   113406094.519 7      1734.000          44.687    21207520.680    88204772.763 7      1348.666          47.562    21207520.980    88204773.762 7      1348.666          47.437
R15  21104922.580   112778306.494 7      2440.027          47.500    21104922.600   112778306.500 7      2440.027          46.125    21104931.040    87716493.581 8      1897.799          48.562    21104931.020    87716493.584 8      1897.799          48.812
R17  21209878.020   113498337.215 7      3633.761          45.437    21209878.840   113498337.232 7      3633.761          44.625    21209887.760    88276529.177 8      2826.259          48.875    21209887.600    88276527.174 8      2826.259          48.937
G10  25231357.280   132591673.330 6      -713.327          41.500    25231356.120   132591673.335 5      -713.327          34.125    25231365.960   103318223.915 5      -555.839          34.125    25231365.200   103318226.921 6      -555.839          39.000
G32  24833315.820   130499963.103 7      2511.338          44.437    24833315.260   130499963.114 7      2511.338          42.625    24833325.340   101688326.492 7      1956.887          42.875    24833326.040   101688330.495 7      1956.887          46.875
G27  22962083.900   120666538.726 7       323.112          44.187    22962082.920   120666538.733 7       323.112          42.937    22962091.760    94025895.136 7       251.776          42.812    22962092.340    94025901.139 7       251.776          46.875
R16  23875755.180   127539994.312 7      5482.889          42.750    23875754.560   127539994.305 7      5482.889          42.062    23875763.920    99197815.160 7      4264.469          42.812    23875763.860    99197815.161 7      4264.469          43.187
R18  23900649.700   127583286.616 7      4540.589          43.250    23900649.800   127583286.617 7      4540.589          43.312    23900660.240    99231493.101 7      3531.569          42.875    23900660.140    99231493.106 7      3531.569          43.875
> 2024 05 03 15 00 39.0000000  0 17
G02  21423705.120   112582322.875 7      2394.858          47.250    21423703.600   112582322.882 6      2394.858          40.187    21423704.460    87726494.578 6      1866.123          39.875
G03  21382629.180   112366494.537 7      5440.640          47.187    21382628.760   112366494.537 6      5440.640          40.062    21382634.940    87558328.064 6      4239.460          40.062    21382635.440    87558346.071 8      4239.460          49.750
R02  21261184.100   113453782.051 7      5903.275          47.812    21261183.620   113453782.058 7      5903.275          47.062    21261194.140    88241884.312 8      4591.436          48.937    21261194.320    88241886.313 8      4591.436          49.125
R01  20822207.940   111306638.499 7      2505.427          42.000    20822206.180   111306638.516 7      2505.427          42.312    20822220.520    86571871.588 7      1948.665          44.687    20822218.980    86571868.579 7      1948.665          45.437
G21  21263676.360   111741360.794 7      1468.560          46.687    21263674.640   111741360.799 6      1468.560          39.375    21263676.760    87071194.500 6      1144.332          39.375
G16  25060727.320   131694930.267 6     -1013.075          41.875    25060725.620   131694930.275 3     -1013.075          21.437    25060742.960   102619441.147 3      -789.409          21.000
G14  23333330.020   122617475.631 7      5270.569          43.562    23333329.540   122617475.641 5      5270.569          32.000    23333332.920    95546095.089 5      4106.937          31.875    23333333.580    95546106.069 7      4106.937          45.000
G08  20804397.560   109327841.723 7      1852.938          47.625    20804396.640   109327841.727 8      1852.938          48.812    20804402.140    85190543.249 8      1443.848          49.562    20804402.880    85190538.253 8      1443.848          51.375
R14  21526245.260   114746964.107 8      -729.358          48.375    21526244.600   114746964.108 7      -729.358          46.625    21526255.480    89247671.488 8      -567.278          48.187    21526256.020    89247672.495 7      -567.278          47.937
R24  21207188.320   113404360.431 7      1734.045          45.437    21207187.460   113404360.438 7      1734.045          45.312    21207196.320    88203424.031 7      1348.702          47.875    21207197.020    88203425.025 7      1348.702          47.687
R15  21104466.080   112775866.757 7      2439.314          47.687    21104466.140   112775866.763 7      2439.314          46.375    21104474.420    87714596.008 8      1897.244          48.562    21104474.160    87714596.011 8      1897.244          48.437
R17  21209199.340   113494703.411 7      3633.796          45.375    21209199.700   113494703.418 7      3633.796          44.875    21209208.760    88273702.882 8      2826.286          49.125    21209208.520    88273700.878 8      2826.286          49.437
G10  25231492.680   132592386.575 6      -713.386          41.312    25231491.920   132592386.583 5      -713.386          34.062    25231501.720   103318779.693 5      -555.885          34.125    25231501.000   103318782.705 6      -555.885          39.000
G32  24832838.120   130497451.919 7      2510.914          44.250    24832837.300   130497451.921 7      2510.914          42.625    24832847.480   101686369.721 7      1956.556          42.500    24832848.260   101686373.722 7      1956.556          46.750
G27  22962022.500   120666215.712 7       322.933          43.625    22962021.400   120666215.717 7       322.933          43.250    22962030.260    94025643.430 7       251.636          43.187    22962030.620    94025649.423 7       251.636          46.937
R16  23874728.660   127534511.604 7      5482.426          42.562    23874728.060   127534511.605 7      5482.426          42.062    23874737.320    99193550.836 7      4264.109          43.062    23874737.560    99193550.841 7      4264.109          43.437
R18  23899798.920   127578745.874 7      4540.702          43.312    23899799.420   127578745.880 7      4540.702          44.187    23899809.600    99227961.414 7      3531.657          43.125    23899809.500    99227961.420 7      3531.657          43.375
> 2024 05 03 15 00 40.0000000  0 17
G02  21423249.360   112579928.134 7      2394.578          47.625    21423247.820   112579928.139 6      2394.578          40.250    21423248.600    87724628.547 6      1865.905          40.250
G03  21381594.040   112361054.304 7      5439.965          47.687    21381593.520   112361054.301 6      5439.965          39.625    21381599.660    87554088.923 6      4238.934          39.562    21381599.880    87554106.928 8      4238.934          49.500
R02  21260077.780   113447879.039 7      5902.675          47.625    21260077.180   113447879.037 7      5902.675          46.000    21260087.880    88237293.080 8      4590.970          49.187    21260088.040    88237295.081 8      4590.970          49.375
R01  20821739.460   111304133.510 7      2504.331          42.000    20821738.060   111304133.522 7      2504.331          42.562    20821751.980    86569923.261 7      1947.813          44.625    20821750.600    86569920.248 7      1947.813          45.187
G21  21263396.860   111739892.469 7      1468.151          46.437    21263395.240   111739892.476 6      1468.151          39.125    21263397.340    87070050.353 6      1144.014          39.375
G16  25060920.120   131695943.270 6     -1013.083          41.437    25060918.360   131695943.275 3     -1013.083          21.437    25060935.700   102620230.475 3      -789.415          21.000
G14  23332326.900   122612205.324 7      5270.060          43.750    23332326.460   122612205.334 5      5270.060          32.000    23332330.200    95541988.358 5      4106.541          31.875    23332330.980    95541999.337 7      4106.541          45.750
G08  20804044.980   109325989.078 7      1852.351          47.562    20804044.140   109325989.083 8      1852.351          48.562    20804049.560    85189099.628 8      1443.390          49.312    20804050.500    85189094.632 8      1443.390          51.250
R14  21526382.240   114747693.726 7      -729.910          47.312    21526381.500   114747693.726 7      -729.910          46.437    21526392.440    89248238.960 8      -567.708          48.312    21526393.000    89248239.967 8      -567.708          48.500
R24  21206864.280   113402626.497 7      1733.793          45.312    21206863.340   113402626.514 7      1733.793          44.875    21206872.300    88202075.417 8      1348.506          48.062    21206872.620    88202076.411 7      1348.506          47.500
R15  21104009.760   112773427.979 7      2438.293          47.500    21104009.860   112773427.983 7      2438.293          46.000    21104018.200    87712699.177 8      1896.450          48.375    21104017.880    87712699.181 8      1896.450          49.062
R17  21208520.620   113491069.747 7      3633.507          44.750    21208520.660   113491069.765 7      3633.507          45.375    21208529.880    88270876.703 8      2826.061          48.562    21208529.700    88270874.701 8      2826.061          49.437
G10  25231628.660   132593100.001 6      -713.658          40.812    25231627.860   132593100.012 5      -713.658          34.062    25231637.440   103319335.611 5      -556.097          34.375    25231637.540   103319338.609 6      -556.097          39.000
G32  24832360.500   130494941.276 7      2510.260          44.187    24832359.600   130494941.278 7      2510.260          42.625    24832369.620   101684413.380 7      1956.046          42.625    24832370.500   101684417.385 7      1956.046          47.125
G27  22961960.940   120665893.024 7       322.470          42.812    22961959.940   120665893.026 7       322.470          42.875    22961968.840    94025391.979 7       251.275          42.562    22961969.400    94025397.976 7       251.275          46.750
R16  23873702.600   127529029.568 7      5481.654          42.187    23873701.660   127529029.575 6      5481.654          41.375    23873711.720    99189287.039 7      4263.509          42.500    23873711.380    99189287.039 7      4263.509          43.625
R18  23898948.380   127574205.228 7      4540.615          42.687    23898948.640   127574205.229 7      4540.615          43.937    23898958.980    99224429.795 7      3531.589          42.937    23898958.820    99224429.802 7      3531.589          43.312
> 2024 05 03 15 00 41.0000000  0 17
G02  21422793.540   112577533.548 8      2394.525          48.375    21422792.200   112577533.553 6      2394.525          40.000    21422793.040    87722762.636 6      1865.864          40.062
G03  21380558.740   112355614.517 7      5439.534          47.500    21380558.240   112355614.514 6      5439.534          39.750    21380564.380    87549850.134 6      4238.598          39.250    21380565.160    87549868.137 8      4238.598          49.625
R02  21258971.700   113441976.507 7      5902.178          47.937    21258970.860   113441976.510 7      5902.178          46.437    21258981.780    88232702.232 8      4590.583          48.312    21258982.060    88232704.233 8      4590.583          49.437
R01  20821271.540   111301629.451 7      2503.443          42.562    20821269.860   111301629.471 7      2503.443          42.562    20821283.260    86567975.662 7      1947.122          44.062    20821282.020    86567972.650 7      1947.122          45.625
G21  21263117.540   111738424.270 8      1468.120          48.062    21263115.840   111738424.280 6      1468.120          39.187    21263118.020    87068906.301 6      1143.989          39.250
G16  25061112.900   131696956.278 6     -1012.977          41.375    25061111.200   131696956.283 3     -1012.977          21.437    25061128.540   102621019.809 3      -789.333          21.000
G14  23331324.180   122606935.496 7      5269.575          43.437    23331323.540   122606935.506 5      5269.575          32.000    23331327.640    95537882.001 5      4106.162          31.875    23331328.340    95537892.981 7      4106.162          45.625
G08  20803692.560   109324136.862 8      1851.978          48.187    20803691.620   109324136.864 8      1851.978          49.000    20803697.160    85187656.342 8      1443.100          49.375    20803698.100    85187651.347 8      1443.100          51.000
R14  21526519.060   114748423.701 7      -730.192          47.875    21526518.280   114748423.696 7      -730.192          46.687    21526529.340    89248806.708 8      -567.927          48.062    21526529.800    89248807.713 7      -567.927          47.937
R24  21206540.120   113400892.666 7      1733.778          44.312    21206538.780   113400892.678 7      1733.778          45.125    21206548.620    88200726.880 7      1348.494          47.875    21206548.420    88200727.875 7      1348.494          47.687
R15  21103553.300   112770990.091 8      2437.363          48.312    21103553.680   112770990.092 7      2437.363          46.750    21103561.860    87710803.041 8      1895.727          48.187    21103561.500    87710803.044 8      1895.727          48.687
R17  21207841.340   113487436.123 7      3633.550          44.625    21207841.700   113487436.138 7      3633.550          45.125    21207850.800    88268050.553 8      2826.095          48.125    21207850.880    88268048.553 8      2826.095          49.312
G10  25231764.720   132593813.620 6      -713.898          41.437    25231763.740   132593813.627 5      -713.898          34.187    25231773.260   103319891.673 5      -556.284          34.375    25231773.280   103319894.689 6      -556.284          38.750
G32  24831882.580   130492431.229 7      2509.730          44.437    24831881.920   130492431.231 7      2509.730          42.812    24831892.000   101682457.498 7      1955.634          42.312    24831892.640   101682461.502 7      1955.634          47.250
G27  22961899.480   120665570.675 7       322.145          43.562    22961898.620   120665570.677 7       322.145          42.500    22961907.500    94025140.790 7       251.022          42.312    22961908.100    94025146.783 7       251.022          46.500
R16  23872676.120   127523548.166 7      5481.111          42.187    23872675.560   127523548.167 6      5481.111          41.375    23872685.280    99185023.732 7      4263.087          43.062    23872685.440    99185023.733 7      4263.087          43.375
R18  23898098.240   127569664.579 7      4540.588          44.000    23898097.940   127569664.578 7      4540.588          43.562    23898108.340    99220898.185 7      3531.569          43.187    23898108.260    99220898.186 7      3531.569          43.812
> 2024 05 03 15 00 42.0000000  0 17
G02  21422338.140   112575138.992 7      2394.630          47.750    21422336.620   112575138.996 6      2394.630          40.187    21422337.380    87720896.752 6      1865.946          40.187
G03  21379523.740   112350175.127 7      5439.209          47.937    21379523.300   112350175.129 6      5439.209          39.625    21379529.440    87545611.652 6      4238.345          39.812    21379530.280    87545629.658 8      4238.345          49.687
R02  21257865.760   113436074.364 7      5901.909          47.812    21257865.060   113436074.365 7      5901.909          46.375    21257875.780    88228111.684 8      4590.374          49.125    21257876.140    88228113.688 8      4590.374          49.187
R01  20820802.840   111299126.194 7      2502.780          43.125    20820801.500   111299126.219 7      2502.780          42.250    20820814.920    86566028.689 7      1946.606          43.625    20820813.940    86566025.677 7      1946.606          45.250
G21  21262838.240   111736956.071 8      1468.091          48.687    21262836.500   111736956.076 6      1468.091          38.625    21262838.520    87067762.250 6      1143.967          38.875
G16  25061305.800   131697969.218 7     -1012.782          42.062    25061303.980   131697969.222 3     -1012.782          21.437    25061321.320   102621809.088 3      -789.181          21.000
G14  23330321.220   122601665.951 7      5269.421          43.687    23330320.640   122601665.961 5      5269.421          32.000    23330325.140    95533775.862 5      4106.042          31.812    23330325.920    95533786.851 7      4106.042          45.687
G08  20803340.300   109322284.927 8      1851.728          48.625    20803339.280   109322284.929 8      1851.728          48.250    20803344.820    85186213.274 8      1442.905          49.437    20803345.740    85186208.279 8      1442.905          50.937
R14  21526655.940   114749153.980 7      -730.418          47.875    21526655.440   114749153.972 7      -730.418          46.750    21526666.320    89249374.693 8      -568.103          48.000    21526666.740    89249375.698 8      -568.103          48.000
R24  21206215.760   113399158.759 7      1733.987          45.375    21206214.620   113399158.763 7      1733.987          44.812    21206224.540    88199378.275 7      1348.656          47.437    21206224.280    88199379.269 7      1348.656          47.750
R15  21103097.240   112768552.922 7      2436.822          47.312    21103097.380   112768552.915 7      2436.822          46.312    21103106.020    87708907.457 8      1895.306          48.437    21103105.340    87708907.460 8      1895.306          48.500
R17  21207162.600   113483802.403 7      3633.814          45.875    21207162.540   113483802.412 7      3633.814          44.875    21207171.800    88265224.320 7      2826.300          47.750    21207171.500    88265222.318 8      2826.300          48.250
G10  25231900.520   132594527.190 6      -713.609          41.937    25231899.460   132594527.190 5      -713.609          34.187    25231909.000   103320447.700 5      -556.059          34.250    25231908.620   103320450.698 6      -556.059          38.750
G32  24831405.360   130489921.566 7      2509.483          44.687    24831404.380   130489921.566 7      2509.483          42.687    24831414.480   101680501.916 7      1955.442          42.500    24831415.560   101680505.921 7      1955.442          47.125
G27  22961838.500   120665248.523 7       321.920          42.562    22961837.160   120665248.530 7       321.920          43.000    22961846.180    94024889.758 7       250.847          42.375    22961846.460    94024895.755 7       250.847          46.562
R16  23871650.500   127518067.269 7      5480.698          42.500    23871649.740   127518067.264 6      5480.698          41.750    23871659.100    99180760.799 7      4262.765          42.812    23871659.020    99180760.800 7      4262.765          43.187
R18  23897247.680   127565123.811 7      4540.866          43.937    23897247.400   127565123.798 7      4540.866          44.312    23897257.540    99217366.468 7      3531.785          42.937    23897257.440    99217366.469 7      3531.785          43.312
> 2024 05 03 15 00 43.0000000  0 17
G02  21421882.460   112572744.677 7      2394.274          47.625    21421880.940   112572744.684 6      2394.274          40.125    21421881.800    87719031.050 6      1865.668          39.812
G03  21378488.820   112344736.307 8      5438.629          48.062    21378488.280   112344736.310 6      5438.629          39.875    21378494.480    87541373.615 6      4237.893          39.437    21378495.100    87541391.618 8      4237.893          49.375
R02  21256759.860   113430172.763 7      5901.321          47.625    21256758.920   113430172.758 7      5901.321          46.625    21256769.860    88223521.559 8      4589.916          49.312    21256770.080    88223523.560 8      4589.916          49.500
R01  20820334.860   111296623.875 7      2501.843          43.125    20820333.820   111296623.890 7      2501.843          42.437    20820346.500    86564082.428 7      1945.878          44.500    20820345.960    86564079.416 7      1945.878          45.375
G21  21262558.820   111735488.016 7      1467.907          47.437    21262557.160   111735488.021 6      1467.907          38.687    21262559.120    87066618.311 6      1143.824          38.687
G16  25061498.520   131698982.273 7     -1013.145          42.312    25061496.800   131698982.280 3     -1013.145          21.437    25061514.160   102622598.460 3      -789.464          22.625
G14  23329318.820   122596396.976 7      5268.723          43.812    23329317.940   122596396.987 5      5268.723          32.125    23329322.620    95529670.163 5      4105.499          31.812    23329323.260    95529681.160 7      4105.499          46.437
G08  20802987.900   109320433.431 8      1851.233          48.375    20802986.900   109320433.436 8      1851.233          49.437    20802992.360    85184770.552 8      1442.519          49.062    20802993.320    85184765.556 8      1442.519          50.500
R14  21526793.220   114749884.808 8      -730.993          48.000    21526792.420   114749884.806 7      -730.993          46.625    21526803.620    89249943.113 8      -568.550          48.250    21526804.020    89249944.119 8      -568.550          48.125
R24  21205891.220   113397424.976 7      1733.746          45.062    21205890.340   113397424.978 7      1733.746          44.875    21205900.440    88198029.776 8      1348.469          48.000    21205900.440    88198030.770 8      1348.469          48.437
R15  21102641.200   112766116.752 7      2435.815          47.375    21102641.420   112766116.750 7      2435.815          46.187    21102649.940    87707012.662 8      1894.523          48.250    21102649.700    87707012.665 8      1894.523          48.437
R17  21206483.580   113480168.875 7      3633.499          45.062    21206483.120   113480168.871 7      3633.499          44.375    21206492.820    88262398.234 8      2826.055          48.375    21206492.460    88262396.226 8      2826.055          48.687
G10  25232036.300   132595240.916 6      -713.796          40.937    25232035.360   132595240.918 5      -713.796          34.125    25232044.780   103321003.850 5      -556.204          34.375    25232044.380   103321006.844 6      -556.204          38.750
G32  24830927.460   130487412.437 7      2508.767          44.437    24830926.720   130487412.444 7      2508.767          42.750    24830937.020   101678546.758 7      1954.884          42.750    24830937.980   101678550.765 7      1954.884          46.687
G27  22961777.220   120664926.673 7       321.545          43.812    22961775.900   120664926.678 7       321.545          43.375    22961784.880    94024638.962 7       250.554          42.750    22961785.800    94024644.953 7       250.554          46.625
R16  23870624.140   127512587.047 7      5479.972          42.812    23870623.600   127512587.048 6      5479.972          41.750    23870633.360    99176498.415 7      4262.201          42.937    23870633.360    99176498.416 7      4262.201          43.375
R18  23896396.900   127560583.199 7      4540.617          44.812    23896397.020   127560583.192 7      4540.617          44.437    23896407.140    99213834.890 7      3531.591          43.000    23896407.300    99213834.891 7      3531.591          43.062
> 2024 05 03 15 00 44.0000000  0 17
G02  21421426.840   112570350.435 7      2394.229          47.437    21421425.300   112570350.437 6      2394.229          40.187    21421426.140    87717165.407 6      1865.633          39.812
G03  21377453.820   112339297.821 7      5438.381          47.187    21377453.340   112339297.824 6      5438.381          39.375    21377459.540    87537135.838 6      4237.700          39.062    21377460.260    87537153.845 8      4237.700          49.625
R02  21255653.680   113424271.516 7      5901.200          47.437    21255653.080   113424271.517 7      5901.200          46.875    21255663.940    88218931.707 8      4589.822          49.250    21255664.080    88218933.710 8      4589.822          49.812
R01  20819867.180   111294122.457 7      2500.884          43.250    20819865.880   111294122.479 7      2500.884          42.437    20819878.340    86562136.889 7      1945.132          43.937    20819877.600    86562133.877 7      1945.132          44.937
G21  21262279.260   111734020.006 7      1468.116          47.375    21262277.780   111734020.011 6      1468.116          39.062    21262279.840    87065474.406 6      1143.986          39.125
G16  25061691.260   131699995.155 6     -1012.720          41.875    25061689.520   131699995.162 3     -1012.720          22.812    25061706.820   102623387.696 3      -789.132          22.625
G14  23328316.400   122591128.315 7      5268.523          45.125    23328315.400   122591128.327 5      5268.523          32.125    23328320.120    95525564.711 5      4105.342          31.812    23328320.840    95525575.718 7      4105.342          46.375
G08  20802635.720   109318582.269 8      1851.113          48.000    20802634.620   109318582.273 8      1851.113          48.750    20802640.140    85183328.086 8      1442.426          49.625    20802641.000    85183323.088 8      1442.426          50.750
R14  21526930.480   114750615.892 7      -731.182          47.812    21526929.740   114750615.877 7      -731.182          47.000    21526940.800    89250511.717 8      -568.697          48.187    21526941.380    89250512.722 8      -568.697          48.687
R24  21205567.040   113395691.291 7      1733.798          46.125    21205566.020   113395691.300 7      1733.798          45.562    21205576.740    88196681.360 7      1348.510          47.687    21205576.340    88196682.356 8      1348.510          48.625
R15  21102185.720   112763681.322 7      2435.104          47.375    21102185.580   112763681.328 7      2435.104          46.625    21102194.160    87705118.443 8      1893.970          48.125    21102193.880    87705118.450 8      1893.970          48.750
R17  21205804.540   113476535.297 7      3633.660          44.937    21205804.320   113476535.306 7      3633.660          44.687    21205813.760    88259572.130 8      2826.180          48.562    21205813.620    88259570.120 8      2826.180          49.187
G10  25232172.280   132595954.747 6      -713.746          41.625    25232171.420   132595954.744 5      -713.746          34.125    25232180.640   103321560.080 5      -556.166          34.375    25232179.820   103321563.084 6      -556.166          38.625
G32  24830450.040   130484903.838 7      2508.315          43.750    24830449.460   130484903.842 7      2508.315          42.937    24830459.660   101676592.008 7      1954.531          42.750    24830460.680   101676596.011 7      1954.531          47.187
G27  22961715.940   120664605.059 7       321.529          42.687    22961714.700   120664605.062 7       321.529          43.250    22961723.780    94024388.346 7       250.542          43.187    22961724.460    94024394.343 7       250.542          46.312
R16  23869598.760   127507107.370 7      5479.564          42.812    23869597.860   127507107.368 6      5479.564          41.937    23869607.400    99172236.438 7      4261.883          43.312    23869607.700    99172236.439 7      4261.883          43.187
R18  23895546.080   127556042.449 7      4540.871          45.437    23895545.900   127556042.445 7      4540.871          44.375    23895556.740    99210303.204 7      3531.788          43.187    23895556.400    99210303.207 7      3531.788          43.062
> 2024 05 03 15 00 45.0000000  0 17
G02  21420971.180   112567956.307 7      2393.901          47.812    21420969.800   112567956.312 6      2393.901          40.062    21420970.500    87715299.852 6      1865.378          40.062
G03  21376419.080   112333859.850 7      5437.696          47.687    21376418.540   112333859.850 6      5437.696          39.937    21376424.680    87532898.460 6      4237.165          39.625    21376425.480    87532916.465 8      4237.165          49.500
R02  21254547.900   113418370.758 7      5900.545          47.500    21254546.780   113418370.756 7      5900.545          46.437    21254558.380    88214342.232 8      4589.313          49.625    21254558.320    88214344.234 8      4589.313          49.312
R01  20819399.520   111291621.870 7      2499.984          42.687    20819398.500   111291621.895 7      2499.984          42.312    20819410.520    86560191.984 7      1944.432          44.437    20819409.880    86560188.974 7      1944.432          44.625
G21  21262000.180   111732552.091 7      1467.789          47.187    21261998.480   111732552.101 6      1467.789          38.937    21262000.480    87064330.580 6      1143.732          39.000
G16  25061883.700   131701008.115 6     -1013.101          41.625    25061882.280   131701008.123 3     -1013.101          22.812    25061899.720   102624176.993 3      -789.429          22.625
G14  23327313.880   122585860.113 7      5267.774          44.687    23327313.040   122585860.120 5      5267.774          32.125    23327317.700    95521459.622 5      4104.759          32.250    23327318.200    95521470.638 7      4104.759          46.562
G08  20802283.520   109316731.485 8      1850.521          48.500    20802282.480   109316731.484 8      1850.521          48.375    20802287.960    85181885.910 8      1441.964          49.125    20802288.860    85181880.913 8      1441.964          50.875
R14  21527067.760   114751347.392 7      -731.825          47.875    21527066.800   114751347.384 7      -731.825          46.750    21527078.000    89251080.657 8      -569.197          48.062    21527078.600    89251081.662 8      -569.197          48.437
R24  21205242.680   113393957.666 7      1733.489          45.312    21205241.840   113393957.676 7      1733.489          45.125    21205252.680    88195332.981 8      1348.269          48.437    21205252.360    88195333.973 8      1348.269          48.687
R15  21101730.200   112761246.795 7      2433.972          46.937    21101730.380   112761246.791 7      2433.972          45.875    21101738.580    87703224.912 8      1893.089          48.500    21101738.480    87703224.919 8      1893.089          48.750
R17  21205125.640   113472901.782 7      3633.306          45.187    21205125.460   113472901.786 7      3633.306          44.937    21205134.660    88256746.053 8      2825.905          48.750    21205134.460    88256744.045 8      2825.905          49.187
G10  25232308.220   132596668.628 6      -713.977          40.875    25232306.980   132596668.630 5      -713.977          34.062    25232316.480   103322116.355 5      -556.346          34.125    25232316.560   103322119.352 6      -556.346          38.625
G32  24829972.680   130482395.646 7      2507.853          45.125    24829972.200   130482395.648 7      2507.853          42.687    24829982.380   101674637.567 7      1954.171          42.312    24829983.500   101674641.574 7      1954.171          46.937
G27  22961654.440   120664283.701 7       321.130          44.062    22961653.540   120664283.706 7       321.130          43.312    22961662.420    94024137.930 7       250.231          43.125    22961663.160    94024143.923 7       250.231          46.750
R16  23868573.280   127501628.281 6      5478.681          41.250    23868572.100   127501628.276 6      5478.681          41.875    23868581.720    99167974.918 7      4261.197          42.875    23868581.860    99167974.923 7      4261.197          43.625
R18  23894695.620   127551501.774 7      4540.594          44.937    23894695.320   127551501.772 7      4540.594          44.187    23894705.940    99206771.563 7      3531.573          43.750    23894705.860    99206771.566 7      3531.573          43.500
> 2024 05 03 15 00 46.0000000  0 17
G02  21420515.600   112565562.317 7      2393.864          47.812    21420514.140   112565562.325 6      2393.864          40.125    21420514.880    87713434.410 6      1865.348          40.000
G03  21375384.440   112328422.326 7      5437.395          47.562    21375383.900   112328422.325 6      5437.395          39.812    21375389.980    87528661.430 6      4236.931          39.500    21375390.680    87528679.435 8      4236.931          49.937
R02  21253442.080   113412470.443 7      5900.204          47.187    21253441.180   113412470.436 7      5900.204          45.875    21253452.520    88209753.107 8      4589.047          49.000    21253452.660    88209755.106 8      4589.047          49.875
R01  20818932.000   111289122.173 7      2499.298          42.750    20818930.780   111289122.193 7      2499.298          42.937    20818942.880    86558247.769 7      1943.898          44.125    20818941.780    86558244.759 7      1943.898          44.437
G21  21261720.740   111731084.278 7      1467.795          47.312    21261719.140   111731084.285 6      1467.795          38.875    21261721.160    87063186.825 6      1143.736          39.062
G16  25062076.940   131702020.997 6     -1012.696          41.812    25062075.020   131702021.005 3     -1012.696          22.812    25062092.380   102624966.227 3      -789.113          22.625
G14  23326311.380   122580592.308 7      5267.653          44.375    23326310.700   122580592.312 5      5267.653          32.062    23326315.080    95517354.839 5      4104.665          32.250    23326315.820    95517365.850 7      4104.665          46.312
G08  20801931.440   109314881.060 8      1850.330          48.312    20801930.280   109314881.060 8      1850.330          48.750    20801935.780    85180444.019 8      1441.815          49.250    20801936.780    85180439.026 8      1441.815          50.812
R14  21527204.660   114752079.244 7      -731.957          47.875    21527204.260   114752079.241 7      -731.957          46.500    21527215.280    89251649.871 7      -569.300          47.937    21527215.800    89251650.878 8      -569.300          48.375
R24  21204918.440   113392224.069 7      1733.609          45.937    21204917.900   113392224.081 7      1733.609          45.062    21204928.740    88193984.625 8      1348.362          48.375    21204928.240    88193985.620 8      1348.362          48.812
R15  21101274.560   112758813.075 7      2433.318          47.562    21101274.800   112758813.074 7      2433.318          46.250    21101283.140    87701332.019 8      1892.581          48.812    21101283.060    87701332.026 8      1892.581          48.750
R17  21204446.940   113469268.249 7      3633.516          45.000    21204446.220   113469268.256 7      3633.516          44.687    21204455.800    88253919.980 8      2826.068          48.375    21204455.680    88253917.976 8      2826.068          49.750
G10  25232444.120   132597382.645 6      -714.095          40.812    25232443.000   132597382.647 5      -714.095          33.750    25232452.360   103322672.726 5      -556.437          34.125    25232452.180   103322675.726 6      -556.437          38.625
G32  24829495.880   130479887.961 7      2507.557          44.625    24829494.960   130479887.958 7      2507.557          42.937    24829505.180   101672683.533 7      1953.941          42.312    24829506.460   101672687.538 7      1953.941          47.125
G27  22961593.520   120663962.615 7       321.011          44.312    22961592.600   120663962.623 7       321.011          42.937    22961601.320    94023887.728 7       250.139          42.812    22961602.300    94023893.723 7       250.139          46.562
R16  23867547.480   127496149.763 6      5478.107          41.812    23867546.340   127496149.761 6      5478.107          41.875    23867556.160    99163713.855 7      4260.750          42.937    23867556.320    99163713.860 7      4260.750          43.187
R18  23893845.020   127546961.104 7      4540.668          44.687    23893844.900   127546961.105 7      4540.668          43.812    23893855.180    99203239.933 7      3531.630          43.187    23893855.240    99203239.936 7      3531.630          43.312
> 2024 05 03 15 00 47.0000000  0 17
G02  21420060.140   112563168.675 7      2393.427          47.687    21420058.720   112563168.680 6      2393.427          40.000    21420059.420    87711569.234 6      1865.008          40.187
G03  21374349.680   112322985.466 7      5436.378          47.625    21374349.280   112322985.466 6      5436.378          39.750    21374355.520    87524424.922 6      4236.139          39.750    21374356.020    87524442.925 8      4236.139          50.187
R02  21252336.680   113406570.811 7      5899.226          47.562    21252335.620   113406570.807 7      5899.226          46.625    21252346.820    88205164.514 8      4588.287          49.312    21252347.260    88205166.514 8      4588.287          49.687
R01  20818464.880   111286623.577 7      2498.033          42.750    20818463.900   111286623.592 7      2498.033          42.937    20818475.420    86556304.417 7      1942.915          44.187    20818474.380    86556301.403 7      1942.915          44.125
G21  21261441.600   111729616.778 7      1467.340          47.500    21261439.980   111729616.785 6      1467.340          38.812    21261442.060    87062043.323 6      1143.382          38.812
G16  25062269.200   131703034.113 6     -1013.299          41.875    25062267.860   131703034.120 3     -1013.299          22.812    25062285.000   102625755.645 3      -789.584          22.625
G14  23325308.900   122575325.157 7      5266.908          44.562    23325308.360   122575325.159 5      5266.908          32.062    23325312.540    95513250.564 5      4104.084          32.250    23325312.800    95513261.591 7      4104.084          45.687
G08  20801579.340   109313031.256 7      1849.415          47.875    20801578.280   109313031.261 8      1849.415          49.062    20801583.820    85179002.620 8      1441.103          49.375    20801584.900    85178997.622 8      1441.103          51.125
R14  21527342.280   114752811.692 7      -732.790          47.625    21527341.620   114752811.690 7      -732.790          46.812    21527352.840    89252219.545 8      -569.948          48.187    21527353.260    89252220.550 8      -569.948          48.500
R24  21204594.440   113390490.754 7      1733.148          45.875    21204593.800   113390490.758 7      1733.148          45.125    21204604.920    88192636.488 8      1348.004          48.562    21204604.100    88192637.484 8      1348.004          49.312
R15  21100819.260   112756380.413 7      2432.162          47.187    21100819.400   112756380.409 7      2432.162          46.625    21100828.080    87699439.948 8      1891.681          49.000    21100827.740    87699439.957 8      1891.681          48.437
R17  21203767.700   113465634.989 7      3633.211          45.312    21203767.080   113465635.004 7      3633.211          44.812    21203776.920    88251094.117 8      2825.831          48.625    21203776.840    88251092.116 8      2825.831          49.625
G10  25232579.920   132598096.960 6      -714.491          41.500    25232578.660   132598096.959 5      -714.491          33.750    25232588.240   103323229.330 5      -556.746          33.937    25232588.340   103323232.332 6      -556.746          38.500
G32  24829018.760   130477381.013 7      2506.654          44.312    24829017.960   130477381.012 7      2506.654          42.750    24829028.100   101670730.066 7      1953.237          42.312    24829029.360   101670734.069 7      1953.237          47.000
G27  22961532.560   120663642.029 7       320.245          43.062    22961531.620   120663642.029 7       320.245          43.250    22961540.260    94023637.910 7       249.541          43.000    22961540.920    94023643.903 7       249.541          46.500
R16  23866521.980   127490672.031 6      5477.410          41.812    23866521.220   127490672.029 6      5477.410          41.937    23866530.780    99159453.400 7      4260.208          43.000    23866531.240    99159453.401 7      4260.208          43.437
R18  23892994.360   127542420.629 7      4540.399          44.625    23892994.120   127542420.630 7      4540.399          44.187    23893004.700    99199708.456 7      3531.422          43.500    23893004.600    99199708.457 7      3531.422          43.437
> 2024 05 03 15 00 48.0000000  0 17
G02  21419604.740   112560775.046 8      2393.690          48.062    21419603.100   112560775.053 6      2393.690          40.000    21419603.840    87709704.071 6      1865.213          40.187
G03  21373315.140   112317548.922 7      5436.382          46.875    21373314.600   112317548.924 6      5436.382          39.812    21373320.840    87520188.660 6      4236.142          39.625    21373321.640    87520206.661 8      4236.142          50.000
R02  21251230.840   113400671.481 7      5899.092          47.750    21251229.960   113400671.479 7      5899.092          46.562    21251241.340    88200576.156 8      4588.182          49.187    21251241.480    88200578.158 8      4588.182          49.875
R01  20817997.660   111284125.725 7      2497.370          43.750    20817996.820   111284125.745 7      2497.370          42.750    20818007.600    86554361.644 7      1942.399          43.875    20818006.680    86554358.626 7      1942.399          44.312
G21  21261162.280   111728149.254 7      1467.544          46.562    21261160.620   111728149.264 6      1467.544          39.062    21261162.820    87060899.796 6      1143.540          39.000
G16  25062461.860   131704047.063 6     -1013.029          41.250    25062460.720   131704047.070 3     -1013.029          22.812    25062477.640   102626544.930 3      -789.374          22.625
G14  23324306.520   122570058.339 7      5266.663          44.875    23324306.000   122570058.347 5      5266.663          31.687    23324309.980    95509146.552 5      4103.894          31.812    23324310.160    95509157.576 7      4103.894          45.187
G08  20801227.480   109311181.670 8      1849.457          48.187    20801226.360   109311181.675 8      1849.457          49.062    20801231.760    85177561.384 8      1441.135          49.125    20801232.760    85177556.388 8      1441.135          50.562
R14  21527479.340   114753544.386 7      -732.807          47.625    21527479.160   114753544.387 7      -732.807          46.875    21527490.340    89252789.410 8      -569.961          48.437    21527490.580    89252790.418 8      -569.961          48.812
R24  21204270.540   113388757.344 7      1733.517          46.250    21204269.760   113388757.345 7      1733.517          45.375    21204280.740    88191288.277 8      1348.291          48.375    21204279.680    88191289.272 8      1348.291          49.500
R15  21100364.220   112753948.497 7      2431.663          47.687    21100364.060   112753948.493 7      2431.663          46.062    21100373.000    87697548.456 8      1891.293          48.625    21100372.540    87697548.458 8      1891.293          48.500
R17  21203088.240   113462001.697 7      3633.492          45.375    21203088.380   113462001.701 7      3633.492          45.000    21203098.020    88248268.215 8      2826.049          48.500    21203098.080    88248266.213 8      2826.049          49.312
G10  25232715.680   132598811.250 6      -714.249          41.500    25232714.660   132598811.250 5      -714.249          33.875    25232724.060   103323785.919 5      -556.558          33.937    25232724.240   103323788.924 6      -556.558          38.500
G32  24828541.580   130474874.416 7      2506.507          45.000    24828540.900   130474874.423 7      2506.507          43.000    24828551.120   101668776.886 7      1953.123          43.125    24828552.200   101668780.889 7      1953.123          47.187
G27  22961471.960   120663321.562 7       320.287          43.437    22961470.580   120663321.564 7       320.287          43.625    22961479.120    94023388.191 7       249.574          43.187    22961479.760    94023394.180 7       249.574          46.562
R16  23865496.880   127485194.784 7      5477.089          42.625    23865495.620   127485194.772 7      5477.089          42.187    23865505.560    99155193.314 7      4259.958          43.250    23865505.340    99155193.312 7      4259.958          43.187
R18  23892143.520   127537880.050 7      4540.825          44.625    23892143.320   127537880.045 7      4540.825          44.250    23892153.960    99196176.891 7      3531.753          43.312    23892153.960    99196176.896 7      3531.753          43.937
> 2024 05 03 15 00 49.0000000  0 17
G02  21419149.280   112558381.572 7      2393.386          47.875    21419147.660   112558381.576 6      2393.386          40.062    21419148.400    87707839.024 6      1864.976          40.000
G03  21372280.580   112312112.869 8      5435.861          48.000    21372280.020   112312112.871 6      5435.861          40.062    21372286.520    87515952.780 6      4235.736          39.750    21372287.340    87515970.779 8      4235.736          49.937
R02  21250125.500   113394772.681 7      5898.684          47.500    21250124.500   113394772.676 7      5898.684          46.562    21250135.820    88195988.209 8      4587.866          49.187    21250136.140    88195990.209 8      4587.866          49.875
R01  20817530.160   111281628.773 7      2496.519          42.375    20817530.200   111281628.793 7      2496.519          42.750    20817540.460    86552419.573 7      1941.737          43.437    20817539.740    86552416.557 7      1941.737          43.937
G21  21260882.800   111726681.854 7      1467.286          47.250    21260881.380   111726681.858 6      1467.286          38.812    21260883.580    87059756.365 6      1143.340          38.875
G16  25062654.880   131705060.047 6     -1012.918          41.500    25062653.520   131705060.057 3     -1012.918          22.812    25062670.380   102627334.246 3      -789.287          22.625
G14  23323304.780   122564791.942 7      5265.957          42.937    23323303.700   122564791.950 5      5265.957          31.687    23323307.640    95505042.862 5      4103.343          31.812    23323307.180    95505053.867 7      4103.343          44.625
G08  20800875.460   109309332.529 8      1848.971          48.500    20800874.480   109309332.528 8      1848.971          49.125    20800879.920    85176120.488 8      1440.756          49.062    20800880.680    85176115.492 8      1440.756          50.750
R14  21527617.160   114754277.437 8      -733.158          48.000    21527616.600   114754277.435 7      -733.158          46.437    21527627.740    89253359.550 8      -570.234          48.375    21527628.520    89253360.557 8      -570.234          48.437
R24  21203946.440   113387024.051 7      1733.260          46.000    21203945.900   113387024.058 7      1733.260          46.062    21203956.900    88189940.163 8      1348.091          48.750    21203955.780    88189941.161 8      1348.091          49.687
R15  21099909.540   112751517.438 7      2430.662          47.125    21099909.060   112751517.429 7      2430.662          46.250    21099918.000    87695657.624 8      1890.515          49.000    21099917.700    87695657.631 8      1890.515          49.000
R17  21202409.200   113458368.450 7      3633.033          45.812    21202409.000   113458368.468 7      3633.033          44.625    21202419.120    88245442.367 8      2825.693          48.750    21202418.840    88245440.357 8      2825.693          49.312
G10  25232851.680   132599525.693 6      -714.498          41.250    25232850.780   132599525.696 5      -714.498          33.875    25232860.080   103324342.629 5      -556.752          34.062    25232860.460   103324345.646 6      -556.752          38.500
G32  24828064.680   130472368.405 7      2505.774          44.812    24828063.900   130472368.405 7      2505.774          43.312    24828074.240   101666824.148 7      1952.551          42.937    24828075.320   101666828.149 7      1952.551          47.312
G27  22961410.960   120663001.420 7       320.078          43.687    22961409.560   120663001.424 7       320.078          43.125    22961418.220    94023138.725 7       249.412          43.062    22961418.720    94023144.718 7       249.412          46.312
R16  23864471.520   127479718.091 7      5476.387          42.500    23864470.440   127479718.084 7      5476.387          42.187    23864480.280    99150933.663 7      4259.412          43.500    23864480.380    99150933.664 7      4259.412          43.562
R18  23891293.000   127533339.462 7      4540.508          44.812    23891293.040   127533339.466 7      4540.508          44.187    23891303.440    99192645.329 7      3531.506          43.312    23891303.460    99192645.334 7      3531.506          43.125
> 2024 05 03 15 00 50.0000000  0 17
G02  21418693.840   112555988.200 8      2393.166          48.062    21418692.380   112555988.199 6      2393.166          40.000    21418693.040    87705974.057 6      1864.805          40.000
G03  21371246.260   112306677.275 7      5435.233          47.437    21371245.780   112306677.275 6      5435.233          39.812    21371252.100    87511717.253 6      4235.246          39.687    21371252.780    87511735.260 8      4235.246          50.062
R02  21249020.360   113388874.364 7      5897.947          47.187    21249019.120   113388874.365 7      5897.947          46.375    21249030.540    88191400.642 8      4587.292          49.375    21249031.000    88191402.642 8      4587.292          49.750
R01  20817063.440   111279132.679 7      2495.613          43.625    20817062.940   111279132.701 7      2495.613          43.000    20817073.440    86550478.170 7      1941.032          44.125    20817072.680    86550475.150 7      1941.032          43.812
G21  21260603.700   111725214.519 7      1467.101          46.937    21260602.200   111725214.524 6      1467.101          39.500    21260604.260    87058612.987 6      1143.195          39.375
G16  25062847.840   131706073.005 6     -1013.045          41.312    25062846.280   131706073.015 3     -1013.045          22.812    25062863.400   102628123.544 3      -789.385          22.625
G14  23322302.420   122559525.913 7      5265.627          43.125    23322301.540   122559525.921 5      5265.627          31.687    23322305.380    95500939.467 5      4103.086          31.875    23322304.880    95500950.460 7      4103.086          44.312
G08  20800523.620   109307483.731 8      1848.530          48.312    20800522.680   109307483.733 8      1848.530          49.062    20800528.160    85174679.868 8      1440.413          48.937    20800529.040    85174674.875 8      1440.413          50.625
R14  21527754.620   114755010.861 7      -733.763          47.625    21527754.320   114755010.859 7      -733.763          46.500    21527765.460    89253929.989 8      -570.704          48.125    21527765.900    89253930.994 8      -570.704          48.250
R24  21203622.220   113385290.793 7      1733.180          46.250    21203621.880   113385290.802 7      1733.180          44.875    21203632.800    88188592.073 8      1348.029          48.937    21203631.880    88188593.076 8      1348.029          49.125
R15  21099454.400   112749087.229 7      2429.641          46.937    21099454.020   112749087.230 7      2429.641          45.375    21099463.220    87693767.470 8      1889.721          48.812    21099463.040    87693767.474 8      1889.721          48.500
R17  21201730.340   113454735.214 7      3633.118          45.125    21201730.320   113454735.229 7      3633.118          44.875    21201740.100    88242616.517 8      2825.759          49.125    21201739.640    88242614.505 8      2825.759          48.875
G10  25232987.580   132600240.194 6      -714.625          41.312    25232986.800   132600240.196 5      -714.625          33.750    25232996.140   103324899.385 5      -556.850          34.062    25232995.620   103324902.389 6      -556.850          38.687
G32  24827587.840   130469862.830 7      2505.276          44.187    24827587.160   130469862.833 7      2505.276          43.437    24827597.380   101664871.757 7      1952.163          43.000    24827598.220   101664875.754 7      1952.163          46.875
G27  22961350.100   120662681.532 7       319.723          44.375    22961348.800   120662681.537 7       319.723          43.062    22961357.280    94022889.459 7       249.135          42.875    22961357.880    94022895.454 7       249.135          46.437
R16  23863446.480   127474241.974 7      5475.632          42.500    23863445.800   127474241.981 7      5475.632          42.000    23863455.440    99146674.472 7      4258.825          43.062    23863455.420    99146674.473 7      4258.825          43.312
R18  23890442.580   127528798.843 7      4540.473          44.437    23890442.400   127528798.847 7      4540.473          44.000    23890452.920    99189113.736 7      3531.479          43.875    23890452.940    99189113.739 7      3531.479          43.437
> 2024 05 03 15 00 51.0000000  0 17
G02  21418238.260   112553595.007 8      2393.108          48.187    21418236.820   112553595.012 6      2393.108          40.062    21418237.780    87704109.231 6      1864.759          39.312
G03  21370211.960   112301242.152 7      5434.994          47.000    21370211.600   112301242.155 6      5434.994          39.937    21370217.840    87507482.098 6      4235.061          39.687    21370218.620    87507500.100 8      4235.061          50.000
R02  21247914.940   113382976.517 7      5897.640          47.875    21247914.000   113382976.513 7      5897.640          46.500    21247925.380    88186813.432 8      4587.053          49.437    21247925.420    88186815.433 8      4587.053          49.250
R01  20816596.480   111276637.501 7      2494.810          43.625    20816596.080   111276637.537 7      2494.810          42.937    20816606.320    86548537.490 7      1940.408          43.625    20816605.960    86548534.472 7      1940.408          43.687
G21  21260324.720   111723747.310 7      1467.210          46.562    21260322.920   111723747.315 6      1467.210          38.937    21260325.020    87057469.710 6      1143.281          38.875
G16  25063040.660   131707086.000 7     -1012.993          42.125    25063039.040   131707086.005 3     -1012.993          22.812    25063056.180   102628912.866 4      -789.345          24.000
G14  23321300.540   122554260.368 7      5265.375          42.500    23321299.520   122554260.378 5      5265.375          31.875    23321303.300    95496836.449 5      4102.890          31.875    23321302.900    95496847.425 7      4102.890          44.125
G08  20800171.920   109305635.367 8      1848.130          48.812    20800170.880   109305635.372 8      1848.130          48.437    20800176.320    85173239.589 8      1440.101          48.500    20800177.280    85173234.593 8      1440.101          50.562
R14  21527892.540   114755744.722 7      -734.031          47.875    21527891.980   114755744.718 7      -734.031          46.812    21527903.060    89254500.760 7      -570.913          47.875    21527903.680    89254501.764 8      -570.913          48.125
R24  21203298.120   113383557.610 7      1733.298          45.937    21203298.000   113383557.622 7      1733.298          44.437    21203308.900    88187244.046 8      1348.121          48.312    21203307.960    88187245.045 8      1348.121          49.125
R15  21098999.680   112746657.923 7      2428.947          47.062    21098999.440   112746657.924 7      2428.947          45.562    21099008.620    87691878.007 8      1889.181          48.812    21099008.320    87691878.016 8      1889.181          48.687
R17  21201051.400   113451102.088 7      3633.114          44.875    21201051.420   113451102.097 7      3633.114          44.187    21201061.060    88239790.752 8      2825.755          48.625    21201060.920    88239788.746 8      2825.755          49.062
G10  25233123.280   132600954.840 6      -714.525          41.250    25233122.620   132600954.842 5      -714.525          33.750    25233132.140   103325456.252 5      -556.773          33.812    25233131.960   103325459.264 6      -556.773          38.687
G32  24827111.200   130467357.815 7      2504.827          45.500    24827110.480   130467357.815 7      2504.827          42.937    24827120.700   101662919.797 7      1951.814          43.000    24827121.800   101662923.806 7      1951.814          47.187
G27  22961289.120   120662361.974 7       319.441          44.750    22961287.880   120662361.981 7       319.441          42.625    22961296.400    94022640.448 7       248.915          42.750    22961296.840    94022646.445 7       248.915          46.500
R16  23862421.260   127468766.509 7      5475.218          43.062    23862420.620   127468766.510 7      5475.218          42.375    23862429.940    99142415.773 7      4258.503          43.375    23862430.320    99142415.778 7      4258.503          42.875
R18  23889592.120   127524258.285 7      4540.654          44.437    23889591.680   127524258.289 7      4540.654          44.062    23889602.500    99185582.199 7      3531.619          43.562    23889602.240    99185582.202 7      3531.619          43.687
> 2024 05 03 15 00 52.0000000  0 17
G02  21417782.840   112551201.780 7      2392.922          47.500    21417781.500   112551201.782 6      2392.922          40.250    21417782.240    87702244.381 6      1864.615          39.875
G03  21369177.700   112295807.408 7      5434.268          46.625    21369177.280   112295807.407 6      5434.268          39.687    21369183.640    87503247.237 6      4234.495          39.937    21369184.480    87503265.240 8      4234.495          49.750
R02  21246809.740   113377078.971 7      5897.046          47.750    21246808.800   113377078.967 7      5897.046          45.875    21246820.120    88182226.460 8      4586.591          49.062    21246820.260    88182228.462 8      4586.591          49.125
R01  20816129.560   111274143.078 7      2493.741          43.062    20816129.820   111274143.111 7      2493.741          42.937    20816139.720    86546597.378 7      1939.576          43.687    20816139.000    86546594.364 7      1939.576          43.187
G21  21260045.460   111722280.041 7      1467.034          46.000    21260043.600   111722280.046 6      1467.034          38.812    21260045.820    87056326.383 6      1143.143          39.000
G16  25063233.380   131708098.848 6     -1013.036          41.687    25063231.920   131708098.855 4     -1013.036          24.125    25063249.000   102629702.073 4      -789.379          24.000
G14  23320298.840   122548995.111 7      5264.771          43.437    23320297.460   122548995.124 5      5264.771          31.875    23320301.240    95492733.655 5      4102.419          31.875    23320301.640    95492744.630 7      4102.419          44.312
G08  20799820.260   109303787.208 8      1847.685          48.250    20799819.240   109303787.210 8      1847.685          48.937    20799824.700    85171799.460 8      1439.755          48.875    20799825.320    85171794.465 8      1439.755          50.562
R14  21528030.440   114756478.919 7      -734.628          47.312    21528029.560   114756478.917 7      -734.628          46.812    21528040.980    89255071.793 7      -571.377          47.687    21528041.560    89255072.794 8      -571.377          48.000
R24  21202973.940   113381824.354 7      1732.950          46.437    21202974.000   113381824.361 7      1732.950          45.500    21202984.640    88185895.952 8      1347.850          48.312    21202983.780    88185896.955 8      1347.850          48.625
R15  21098545.340   112744229.322 7      2428.090          46.937    21098544.900   112744229.310 7      2428.090          45.750    21098554.020    87689989.087 8      1888.514          48.125    21098554.000    87689989.092 8      1888.514          48.187
R17  21200372.480   113447468.806 7      3633.062          42.687    21200372.180   113447468.821 7      3633.062          44.500    21200382.400    88236964.868 8      2825.715          48.625    21200381.780    88236962.871 8      2825.715          48.562
G10  25233259.200   132601669.435 6      -714.877          40.937    25233258.640   132601669.437 5      -714.877          33.625    25233268.140   103326013.080 5      -557.047          33.812    25233267.600   103326016.073 6      -557.047          38.687
G32  24826634.580   130464853.105 7      2504.293          45.312    24826633.840   130464853.110 7      2504.293          42.937    24826644.200   101660968.081 7      1951.397          42.750    24826644.940   101660972.082 7      1951.397          46.562
G27  22961228.040   120662042.531 7       319.029          43.812    22961227.100   120662042.533 7       319.029          42.750    22961235.680    94022391.521 7       248.594          42.937    22961236.280    94022397.518 7       248.594          46.000
R16  23861396.460   127463291.496 7      5474.493          42.437    23861395.320   127463291.494 7      5474.493          42.375    23861405.300    99138157.429 7      4257.939          43.187    23861405.160    99138157.430 7      4257.939          43.000
R18  23888741.620   127519717.626 7      4540.519          43.875    23888741.180   127519717.629 7      4540.519          44.250    23888751.820    99182050.569 7      3531.515          43.625    23888751.620    99182050.574 7      3531.515          43.500
> 2024 05 03 15 00 53.0000000  0 17
G02  21417327.340   112548808.784 8      2392.868          48.062    21417326.040   112548808.788 6      2392.868          40.500    21417326.720    87700379.712 6      1864.572          40.375
G03  21368143.400   112290373.123 7      5433.964          46.437    21368143.040   112290373.131 6      5433.964          39.687    21368149.600    87499012.735 6      4234.257          39.500    21368150.480    87499030.740 8      4234.257          50.375
R02  21245704.280   113371181.887 7      5896.830          47.937    21245703.760   113371181.880 7      5896.830          46.687    21245714.880    88177639.850 8      4586.423          49.500    21245715.100    88177641.851 8      4586.423          49.437
R01  20815662.840   111271649.630 7      2492.898          43.000    20815663.400   111271649.658 7      2492.898          43.125    20815672.800    86544658.034 7      1938.920          43.562    20815672.500    86544655.020 7      1938.920          43.687
G21  21259766.160   111720812.977 7      1466.983          46.125    21259764.520   111720812.985 6      1466.983          39.187    21259766.600    87055183.216 6      1143.104          39.125
G16  25063426.260   131709111.701 6     -1012.804          41.687    25063424.560   131709111.708 4     -1012.804          24.125    25063441.760   102630491.285 4      -789.198          24.000
G14  23319296.540   122543730.357 7      5264.540          43.250    23319295.520   122543730.367 5      5264.540          31.875    23319299.440    95488631.247 5      4102.239          31.562    23319300.320    95488642.224 7      4102.239          45.062
G08  20799468.640   109301939.511 8      1847.464          48.250    20799467.600   109301939.513 8      1847.464          49.687    20799473.080    85170359.697 8      1439.582          49.375    20799473.720    85170354.703 8      1439.582          50.812
R14  21528168.260   114757213.506 7      -734.775          47.687    21528167.720   114757213.501 7      -734.775          47.062    21528178.860    89255643.134 8      -571.492          48.375    21528179.460    89255644.135 8      -571.492          48.250
R24  21202650.500   113380091.270 7      1732.895          46.500    21202650.180   113380091.277 7      1732.895          45.562    21202660.440    88184547.998 8      1347.807          48.875    21202659.460    88184549.001 8      1347.807          50.000
R15  21098091.060   112741801.617 7      2427.281          46.875    21098090.400   112741801.602 7      2427.281          45.687    21098099.920    87688100.870 8      1887.885          48.625    21098099.680    87688100.875 8      1887.885          48.812
R17  21199693.540   113443835.699 7      3632.918          45.562    21199693.600   113443835.716 7      3632.918          44.500    21199703.460    88234139.126 8      2825.603          49.125    21199702.900    88234137.124 8      2825.603          49.500
G10  25233395.500   132602384.207 6      -714.890          41.437    25233394.720   132602384.209 5      -714.890          33.625    25233404.180   103326570.045 5      -557.057          33.750    25233403.000   103326573.059 6      -557.057          38.687
G32  24826158.160   130462349.013 7      2503.844          45.062    24826157.320   130462349.017 7      2503.844          43.562    24826167.780   101659016.844 7      1951.047          43.375    24826168.140   101659020.847 7      1951.047          47.000
G27  22961167.360   120661723.390 7       319.102          44.125    22961166.340   120661723.395 7       319.102          43.062    22961174.800    94022142.838 7       248.651          42.812    22961175.560    94022148.835 7       248.651          46.062
R16  23860371.500   127457817.142 7      5474.044          42.812    23860370.380   127457817.149 7      5474.044          42.250    23860380.440    99133899.609 7      4257.590          43.062    23860380.440    99133899.605 7      4257.590          43.312
R18  23887890.960   127515177.031 7      4540.620          44.562    23887890.620   127515177.029 7      4540.620          44.250    23887901.020    99178518.997 7      3531.593          43.562    23887901.180    99178519.004 7      3531.593          43.562
> 2024 05 03 15 00 54.0000000  0 17
G02  21416871.920   112546415.992 7      2392.986          47.687    21416870.600   112546416.000 6      2392.986          40.000    21416871.460    87698515.200 6      1864.664          39.875
G03  21367109.440   112284939.393 7      5433.801          46.750    21367109.140   112284939.392 6      5433.801          39.875    21367115.640    87494778.662 6      4234.131          39.687    21367116.280    87494796.661 8      4234.131          50.375
R02  21244599.660   113365285.369 7      5896.548          47.937    21244598.980   113365285.364 7      5896.548          46.187    21244610.160    88173053.677 8      4586.204          49.625    21244610.200    88173055.676 8      4586.204          49.562
R01  20815196.640   111269157.147 7      2492.286          43.187    20815197.280   111269157.175 7      2492.286          43.125    20815206.400    86542719.434 7      1938.445          43.812    20815206.240    86542716.418 7      1938.445          43.250
G21  21259487.200   111719346.082 7      1467.036          46.625    21259485.380   111719346.089 6      1467.036          39.000    21259487.480    87054040.181 6      1143.145          39.125
G16  25063618.900   131710124.659 7     -1012.654          42.125    25063617.280   131710124.666 4     -1012.654          24.125    25063634.460   102631280.580 4      -789.081          24.000
G14  23318294.880   122538466.128 7      5264.215          43.125    23318293.860   122538466.138 5      5264.215          31.625    23318297.980    95484529.253 5      4101.985          31.562    23318299.180    95484540.243 7      4101.985          46.437
G08  20799116.960   109300092.282 7      1847.208          47.937    20799116.100   109300092.284 8      1847.208          49.250    20799121.560    85168920.295 8      1439.383          49.187    20799122.500    85168915.302 8      1439.383          50.375
R14  21528305.820   114757948.542 7      -734.874          47.437    21528305.300   114757948.535 7      -734.874          46.562    21528316.600    89256214.815 8      -571.569          48.437    21528317.140    89256215.819 8      -571.569          48.500
R24  21202326.240   113378358.269 7      1733.184          46.312    21202326.380   113378358.278 7      1733.184          45.125    21202336.420    88183200.104 8      1348.032          49.125    21202335.500    88183201.106 8      1348.032          49.375
R15  21097636.740   112739374.812 7      2426.666          45.750    21097636.040   112739374.802 7      2426.666          45.125    21097645.820    87686213.357 8      1887.407          48.625    21097645.280    87686213.364 8      1887.407          48.687
R17  21199014.780   113440202.725 7      3633.116          45.125    21199014.660   113440202.737 7      3633.116          44.500    21199024.480    88231313.473 8      2825.757          48.937    21199023.880    88231311.470 8      2825.757          49.062
G10  25233531.600   132603099.173 6      -714.749          40.750    25233530.800   132603099.175 5      -714.749          33.812    25233539.920   103327127.163 5      -556.947          33.750    25233539.080   103327130.154 6      -556.947          38.375
G32  24825681.820   130459845.501 7      2503.439          45.250    24825680.960   130459845.505 7      2503.439          43.062    24825691.300   101657066.055 7      1950.732          42.937    24825691.960   101657070.058 7      1950.732          47.187
G27  22961106.620   120661404.656 7       318.828          43.687    22961105.780   120661404.653 7       318.828          42.937    22961114.140    94021894.461 7       248.438          43.062    22961114.860    94021900.458 7       248.438          46.250
R16  23859346.320   127452343.464 7      5473.644          42.812    23859346.200   127452343.471 6      5473.644          41.937    23859355.720    99129642.297 7      4257.278          43.250    23859356.280    99129642.300 7      4257.278          43.437
R18  23887040.620   127510636.491 7      4540.867          44.375    23887040.020   127510636.490 7      4540.867          44.562    23887050.400    99174987.471 7      3531.785          43.937    23887050.600    99174987.470 7      3531.785          43.812
