     3.05           OBSERVATION DATA    MIXED               RINEX VERSION / TYPE
TPS2RIN 1.0.29.3920 TPS-USER            20240511 180811 UTC PGM / RUN BY / DATE
Win64 build Feb 23, 2024 (c) Topcon Positioning Systems     COMMENT
SRC: 20240503_FA02.tps                                      COMMENT
OPT: -S -v 3.05                                             COMMENT
Observer            Agency                                  OBSERVER / AGENCY
O0M3X53SBGM         TPS HIPER_SR        4.8 HSR Jul,08,2022 REC # / TYPE / VERS
FW: 4.8 HSR Jul,08,2022 p3                                  COMMENT
SN: HiPer SR 1212-12575                                     COMMENT
000                 TPSHIPER_SR     NONE                    ANT # / TYPE
        1.8000        0.0000        0.0000                  ANTENNA: DELTA H/E/N
DELTA H stands for **SLANT** height here!                   COMMENT
FA02                                                        MARKER NAME
  5391005.1666 -1598444.8526  3005028.2186                  APPROX POSITION XYZ
  2024     5     3    15    15    0.0000000     GPS         TIME OF FIRST OBS
  2024     5     3    15    20    5.0000000     GPS         TIME OF LAST OBS
     1.000                                                  INTERVAL
   306 EPOCHS                                               COMMENT
G   16 C1C L1C D1C S1C C1W L1W D1W S1W C2W L2W D2W S2W C2X  SYS / # / OBS TYPES
       L2X D2X S2X                                          SYS / # / OBS TYPES
R   16 C1C L1C D1C S1C C1P L1P D1P S1P C2P L2P D2P S2P C2C  SYS / # / OBS TYPES
       L2C D2C S2C                                          SYS / # / OBS TYPES
    18                                                      # OF SATELLITES
   G02   306   306   306   306   306   306   306   306   306PRN / # OF OBS
         306   306   306     0     0     0     0            PRN / # OF OBS
   G03   306   306   306   306   306   306   306   306   306PRN / # OF OBS
         306   306   306   306   306   306   306            PRN / # OF OBS
   G04    16    16    16    16    16    16    16    16    16PRN / # OF OBS
          16    16    16    16    16    16    16            PRN / # OF OBS
   G08   306   306   306   306   306   306   306   306   306PRN / # OF OBS
         306   306   306   306   306   306   306            PRN / # OF OBS
   G14   306   306   306   306   306   306   306   306   306PRN / # OF OBS
         306   306   306   306   306   306   306            PRN / # OF OBS
   G21   306   306   306   306   306   306   306   306   306PRN / # OF OBS
         306   306   306     0     0     0     0            PRN / # OF OBS
   G22   306   306   306   306   306   306   306   306   306PRN / # OF OBS
         306   306   306     0     0     0     0            PRN / # OF OBS
   G27   306   306   306   306   306   306   306   306   306PRN / # OF OBS
         306   306   306   306   306   306   306            PRN / # OF OBS
   G32   306   306   306   306   306   306   306   306   306PRN / # OF OBS
         306   306   306   306   306   306   306            PRN / # OF OBS
   R01   306   306   306   306   306   306   306   306   306PRN / # OF OBS
         306   306   306   306   306   306   306            PRN / # OF OBS
   R02   306   306   306   306   306   306   306   306   306PRN / # OF OBS
         306   306   306   306   306   306   306            PRN / # OF OBS
   R03   306   306   306   306   306   306   306   306   306PRN / # OF OBS
         306   306   306   306   306   306   306            PRN / # OF OBS
   R14   306   306   306   306   306   306   306   306   306PRN / # OF OBS
         306   306   306   306   306   306   306            PRN / # OF OBS
   R15   306   306   306   306   306   306   306   306   306PRN / # OF OBS
         306   306   306   306   306   306   306            PRN / # OF OBS
   R16   306   306   306   306   306   306   306   306   306PRN / # OF OBS
         306   306   306   306   306   306   306            PRN / # OF OBS
   R17   306   306   306   306   306   306   306   306   306PRN / # OF OBS
         306   306   306   306   306   306   306            PRN / # OF OBS
   R18   306   306   306   306   306   306   306   306   306PRN / # OF OBS
         306   306   306   306   306   306   306            PRN / # OF OBS
   R24   306   306   306   306   306   306   306   306   306PRN / # OF OBS
         306   306   306   306   306   306   306            PRN / # OF OBS
G L1C                                                       SYS / PHASE SHIFT
G L1W -0.25000                                              SYS / PHASE SHIFT
G L2W  0.00000                                              SYS / PHASE SHIFT
G L2X  0.25000                                              SYS / PHASE SHIFT
R L1C                                                       SYS / PHASE SHIFT
R L1P -0.25000                                              SYS / PHASE SHIFT
R L2P -0.25000                                              SYS / PHASE SHIFT
R L2C                                                       SYS / PHASE SHIFT
  9 R01  1 R02 -4 R03  5 R14 -7 R15  0 R16 -1 R17  4 R18 -3 GLONASS SLOT / FRQ #
    R24  2                                                  GLONASS SLOT / FRQ #
                                                            GLONASS COD/PHS/BIS
    18    18  1929     7GPS                                 LEAP SECONDS
                                                            END OF HEADER
> 2024 05 03 15 15  0.0000000  0 17
G22  25260333.860   132743953.149 7      5515.954          44.312    25260333.720   132743953.151 3      5515.954          19.562    25260337.140   103436844.534 3      4298.146          19.625
G02  21634086.920   113687889.368 7      2348.660          47.562    21634084.960   113687889.373 6      2348.660          39.687    21634085.900    88587969.424 6      1830.124          39.625
G03  21119243.180   110982405.865 7      5072.565          47.250    21119242.360   110982405.867 6      5072.565          40.937    21119248.840    86479819.864 6      3952.648          40.750    21119249.260    86479837.863 8      3952.648          51.187
R02  20937862.280   111728450.572 8      5504.689          49.312    20937861.660   111728450.570 8      5504.689          48.000    20937871.200    86899950.381 8      4281.425          49.562    20937871.720    86899945.385 8      4281.425          49.750
G21  21623182.220   113630575.442 7      1455.150          46.687    21623180.760   113630575.444 6      1455.150          39.250    21623183.140    88543319.629 6      1133.883          39.875
G08  21122176.060   110997784.337 7      1572.811          47.937    21122174.640   110997784.337 8      1572.811          48.375    21122180.720    86491825.464 8      1225.567          48.937    21122181.840    86491801.464 8      1225.567          50.375
G14  23095683.860   121368642.298 7      4927.076          45.312    23095683.140   121368642.306 5      4927.076          35.250    23095686.980    94572978.530 5      3839.280          35.062    23095686.940    94572989.541 7      3839.280          47.437
R01  21074157.880   112653453.977 6      1800.338          40.687    21074154.500   112653453.984 6      1800.338          39.875    21074168.100    87619395.328 7      1400.263          43.375    21074167.180    87619390.321 7      1400.263          43.812
R14  22261171.260   118664495.352 7      -937.238          47.375    22261170.460   118664495.347 7      -937.238          46.125    22261183.600    92294681.712 8      -728.963          50.125    22261184.160    92294682.717 8      -728.963          50.875
R24  21526864.460   115113807.968 7      1727.815          45.687    21526863.940   115113807.985 7      1727.815          44.875    21526873.620    89533004.078 7      1343.856          47.312    21526873.620    89533006.081 7      1343.856          47.250
R15  21363509.120   114160107.999 7      1783.486          45.937    21363507.960   114160107.995 7      1783.486          45.062    21363518.040    88791228.657 8      1387.156          48.625    21363517.620    88791230.661 8      1387.156          49.000
G27  23522281.760   123610417.252 7       147.257          42.437    23522280.220   123610417.262 6       147.257          41.750    23522291.180    96319837.912 6       114.746          41.375    23522291.340    96319841.917 7       114.746          46.437
R16  23628175.760   126217479.668 6      4991.479          40.062    23628174.560   126217479.669 6      4991.479          39.625    23628184.960    98169183.941 7      3882.262          46.875    23628185.520    98169184.941 7      3882.262          47.500
R18  23761031.140   126838005.336 7      4606.823          44.625    23761031.180   126838005.339 7      4606.823          44.937    23761040.560    98651818.295 5      3583.084          35.125    23761040.420    98651819.299 5      3583.084          35.125
R03  23839692.360   127615733.038 6      6994.295          40.375    23839693.240   127615733.059 6      6994.295          39.875    23839717.180    99256792.865 7      5440.007          46.937    23839717.500    99256793.867 7      5440.007          47.250
G32  25051321.580   131645581.154 7      2127.000          44.125    25051320.200   131645581.159 6      2127.000          40.687    25051330.280   102581008.258 6      1657.402          40.812    25051331.180   102581013.252 7      1657.402          44.312
R17  21221405.560   113560031.129 7      3656.177          46.750    21221406.060   113560031.138 7      3656.177          46.437    21221415.180    88324506.996 8      2843.693          49.875    21221414.600    88324509.993 8      2843.693          50.062
> 2024 05 03 15 15  1.0000000  0 17
G22  25259284.260   132738437.346 7      5515.518          43.812    25259284.120   132738437.350 3      5515.518          19.562    25259287.600   103432546.499 3      4297.806          19.625
G02  21633640.100   113685540.874 7      2348.414          47.125    21633638.020   113685540.882 6      2348.414          40.375    21633639.020    88586139.771 6      1829.933          39.937
G03  21118277.860   110977333.465 7      5072.141          47.187    21118277.220   110977333.465 6      5072.141          40.812    21118283.680    86475867.347 6      3952.318          40.437    21118284.220    86475885.347 8      3952.318          51.625
R02  20936830.680   111722946.191 8      5504.058          49.687    20936830.380   111722946.187 8      5504.058          48.750    20936839.720    86895669.194 8      4280.934          49.625    20936840.080    86895664.196 8      4280.934          49.875
G21  21622905.380   113629120.299 7      1455.093          47.812    21622903.900   113629120.298 6      1455.093          39.312    21622906.140    88542185.748 6      1133.838          39.187
G08  21121876.760   110996211.702 8      1572.372          48.250    21121875.220   110996211.702 8      1572.372          48.812    21121881.380    86490600.030 8      1225.225          48.687    21121882.500    86490576.030 8      1225.225          50.375
G14  23094746.480   121363715.542 7      4926.426          46.125    23094745.520   121363715.547 5      4926.426          35.250    23094749.340    94569139.501 5      3838.774          34.937    23094749.100    94569150.494 7      3838.774          46.875
R01  21073821.080   112651653.911 6      1799.590          40.687    21073818.100   112651653.918 6      1799.590          40.312    21073831.200    87617995.273 7      1399.681          43.750    21073830.480    87617990.262 7      1399.681          44.125
R14  22261346.840   118665432.705 7      -937.468          46.750    22261346.420   118665432.703 7      -937.468          46.125    22261359.280    92295410.756 8      -729.142          50.187    22261359.820    92295411.761 8      -729.142          50.562
R24  21526540.940   115112080.103 7      1727.731          45.812    21526540.900   115112080.115 7      1727.731          45.125    21526550.600    89531660.177 7      1343.790          46.937    21526550.680    89531662.182 7      1343.790          47.875
R15  21363175.200   114158324.888 7      1782.637          45.875    21363174.420   114158324.881 7      1782.637          45.250    21363184.120    88789841.790 8      1386.495          48.812    21363184.000    88789843.794 8      1386.495          48.875
G27  23522253.460   123610270.061 6       147.000          41.687    23522252.240   123610270.071 6       147.000          41.562    23522263.120    96319723.212 6       114.545          41.250    23522263.120    96319727.208 7       114.545          46.125
R16  23627241.360   126212488.493 6      4990.584          40.062    23627239.940   126212488.499 6      4990.584          40.562    23627250.700    98165301.930 7      3881.565          47.312    23627251.100    98165302.932 7      3881.565          47.125
R18  23760168.240   126833398.514 7      4606.736          45.625    23760168.100   126833398.515 7      4606.736          44.875    23760177.540    98648235.213 5      3583.017          35.125    23760177.360    98648236.217 5      3583.017          35.125
R03  23838385.180   127608738.519 6      6994.500          39.000    23838386.480   127608738.545 6      6994.500          39.875    23838410.620    99251352.687 7      5440.167          47.187    23838410.980    99251353.689 8      5440.167          48.062
G32  25050916.920   131643454.357 7      2126.372          43.375    25050915.500   131643454.359 6      2126.372          40.937    25050925.660   102579351.016 6      1656.914          41.000    25050926.340   102579356.012 7      1656.914          44.250
R17  21220723.100   113556375.056 7      3655.941          46.687    21220722.640   113556375.071 7      3655.941          46.250    21220732.060    88321663.384 8      2843.510          49.750    21220731.380    88321666.381 8      2843.510          50.312
> 2024 05 03 15 15  2.0000000  0 17
G22  25258234.600   132732921.729 7      5515.641          44.250    25258234.540   132732921.734 3      5515.641          19.562    25258237.940   103428248.613 3      4297.902          19.625
G02  21633193.120   113683192.483 7      2348.456          47.687    21633191.180   113683192.490 6      2348.456          40.250    21633192.160    88584309.463 6      1829.966          39.937
G03  21117312.700   110972261.739 7      5071.474          47.750    21117312.200   110972261.738 6      5071.474          41.000    21117318.360    86471915.355 6      3951.798          40.625    21117319.380    86471933.352 8      3951.798          51.687
R02  20935799.140   111717442.558 8      5503.262          49.500    20935798.860   111717442.545 8      5503.262          48.062    20935808.460    86891388.591 8      4280.315          49.625    20935808.720    86891383.592 8      4280.315          50.375
G21  21622628.380   113627665.227 7      1455.196          47.687    21622626.920   113627665.232 6      1455.196          39.812    21622629.360    88541051.923 6      1133.919          39.625
G08  21121577.600   110994639.535 8      1572.007          48.875    21121576.060   110994639.529 8      1572.007          49.312    21121582.220    86489374.958 8      1224.940          48.875    21121583.400    86489350.957 8      1224.940          50.250
G14  23093809.000   121358789.262 7      4926.235          44.062    23093808.080   121358789.269 5      4926.235          34.875    23093812.060    94565300.845 5      3838.624          34.625    23093811.820    94565311.824 7      3838.624          47.312
R01  21073484.460   112649854.771 6      1798.730          40.937    21073482.260   112649854.782 6      1798.730          40.312    21073494.540    87616595.950 7      1399.012          43.187    21073494.000    87616590.944 7      1399.012          43.812
R14  22261522.780   118666370.455 7      -937.958          47.062    22261522.240   118666370.455 7      -937.958          45.812    22261535.280    92296140.107 8      -729.523          50.062    22261536.020    92296141.111 8      -729.523          50.125
R24  21526218.420   115110352.307 7      1727.929          46.187    21526217.860   115110352.317 7      1727.929          45.750    21526227.380    89530316.331 7      1343.945          46.750    21526227.180    89530318.334 7      1343.945          47.000
R15  21362842.140   114156542.639 7      1781.910          46.562    21362841.180   114156542.630 7      1781.910          45.250    21362850.700    88788455.593 8      1385.930          48.625    21362850.740    88788457.595 8      1385.930          49.000
G27  23522225.740   123610123.243 7       146.652          42.937    23522224.320   123610123.251 7       146.652          42.000    23522235.280    96319608.798 6       114.275          41.875    23522235.440    96319612.797 7       114.275          45.875
R16  23626307.140   126207497.934 6      4990.403          40.437    23626305.840   126207497.935 6      4990.403          40.562    23626316.320    98161420.389 7      3881.425          46.750    23626316.820    98161421.391 7      3881.425          47.437
R18  23759305.060   126828791.687 7      4607.045          45.187    23759304.840   126828791.682 7      4607.045          45.250    23759313.600    98644652.130 5      3583.257          35.125    23759314.220    98644653.131 5      3583.257          35.125
R03  23837079.460   127601744.109 6      6994.340          39.000    23837079.580   127601744.148 6      6994.340          39.875    23837103.920    99245912.608 7      5440.043          47.125    23837104.040    99245913.611 7      5440.043          47.312
G32  25050511.820   131641328.067 7      2126.150          44.562    25050510.900   131641328.070 6      2126.150          41.062    25050521.060   102577694.164 6      1656.740          41.062    25050521.340   102577699.162 7      1656.740          44.250
R17  21220039.220   113552718.971 7      3656.252          47.187    21220039.720   113552718.986 7      3656.252          46.625    21220048.920    88318819.768 8      2843.751          50.250    21220048.260    88318822.768 8      2843.751          49.687
> 2024 05 03 15 15  3.0000000  0 17
G22  25257185.120   132727406.374 7      5515.027          44.875    25257185.100   132727406.379 3      5515.027          19.562    25257188.500   103423950.933 3      4297.424          19.625
G02  21632746.220   113680844.155 7      2348.063          47.125    21632744.360   113680844.162 6      2348.063          40.062    21632745.400    88582479.482 6      1829.659          40.250
G03  21116347.760   110967190.382 7      5071.002          47.562    21116347.180   110967190.385 6      5071.002          41.000    21116353.420    86467963.655 6      3951.430          41.062    21116354.060    86467981.654 8      3951.430          51.375
R02  20934768.180   111711939.359 8      5502.897          49.250    20934767.380   111711939.352 8      5502.897          48.250    20934777.100    86887108.331 8      4280.031          49.687    20934777.540    86887103.335 8      4280.031          50.375
G21  21622351.520   113626210.155 7      1454.886          47.250    21622349.940   113626210.162 6      1454.886          39.062    21622352.520    88539918.103 6      1133.677          39.562
G08  21121278.460   110993067.649 8      1571.535          48.250    21121277.060   110993067.656 8      1571.535          48.562    21121283.080    86488150.120 8      1224.573          48.687    21121284.240    86488126.120 8      1224.573          50.687
G14  23092871.580   121353863.457 7      4925.325          44.187    23092870.880   121353863.467 5      4925.325          34.875    23092874.700    94561462.558 5      3837.915          34.625    23092875.020    94561473.536 7      3837.915          47.937
R01  21073148.140   112648056.418 6      1797.712          40.937    21073146.360   112648056.438 6      1797.712          41.000    21073158.060    87615197.233 7      1398.221          43.687    21073157.360    87615192.232 7      1398.221          44.000
R14  22261698.680   118667308.266 7      -937.995          47.500    22261698.180   118667308.266 7      -937.995          46.312    22261711.200    92296869.505 8      -729.551          50.000    22261711.920    92296870.508 8      -729.551          50.187
R24  21525895.020   115108624.514 7      1727.611          46.312    21525894.480   115108624.524 7      1727.611          45.500    21525904.120    89528972.494 7      1343.697          47.000    21525904.620    89528974.502 7      1343.697          47.125
R15  21362508.660   114154761.075 7      1781.041          46.625    21362507.900   114154761.071 7      1781.041          45.562    21362517.480    88787069.936 8      1385.254          49.187    21362517.080    88787071.938 8      1385.254          48.875
G27  23522198.060   123609976.536 7       146.578          42.625    23522196.500   123609976.543 6       146.578          41.687    23522207.300    96319494.474 6       114.217          41.125    23522207.920    96319498.473 7       114.217          45.937
R16  23625372.700   126202508.051 6      4989.316          40.437    23625371.780   126202508.045 6      4989.316          40.687    23625382.420    98157539.362 7      3880.579          47.125    23625382.700    98157540.362 7      3880.579          47.250
R18  23758442.220   126824184.830 7      4606.684          45.312    23758441.920   126824184.825 7      4606.684          44.750    23758451.760    98641069.029 5      3582.976          35.125    23758451.280    98641070.035 5      3582.976          35.125
R03  23835772.300   127594749.464 6      6994.684          39.000    23835773.620   127594749.500 6      6994.684          38.687    23835797.340    99240472.334 7      5440.310          47.437    23835797.760    99240473.336 7      5440.310          46.875
G32  25050107.440   131639202.256 7      2125.387          44.937    25050106.340   131639202.258 6      2125.387          41.562    25050116.460   102576037.686 6      1656.146          41.625    25050117.460   102576042.682 7      1656.146          43.812
R17  21219355.960   113549062.888 7      3655.825          46.562    21219356.760   113549062.905 7      3655.825          47.187    21219365.740    88315976.153 8      2843.419          49.875    21219365.020    88315979.152 8      2843.419          50.687
> 2024 05 03 15 15  4.0000000  0 17
G22  25256135.780   132721891.556 7      5514.844          45.000    25256135.740   132721891.564 3      5514.844          19.562    25256139.040   103419653.668 3      4297.281          19.625
G02  21632299.540   113678496.134 7      2348.090          47.125    21632297.540   113678496.139 6      2348.090          39.937    21632298.600    88580650.402 6      1829.681          39.750
G03  21115382.940   110962119.691 7      5070.410          47.937    21115382.360   110962119.693 6      5070.410          40.812    21115388.500    86464012.471 6      3950.969          40.562    21115389.100    86464030.470 8      3950.969          51.687
R02  20933737.040   111706436.911 8      5502.005          49.562    20933736.100   111706436.912 7      5502.005          47.937    20933745.900    86882828.659 8      4279.337          49.937    20933745.960    86882823.666 8      4279.337          50.250
G21  21622074.840   113624755.385 7      1454.773          47.750    21622073.100   113624755.392 6      1454.773          39.437    21622075.740    88538784.516 6      1133.590          39.687
G08  21120979.320   110991496.327 8      1571.017          48.312    21120977.900   110991496.329 8      1571.017          48.625    21120984.080    86486925.712 8      1224.169          48.625    21120985.220    86486901.714 8      1224.169          50.562
G14  23091934.440   121348938.411 7      4924.967          44.000    23091933.720   121348938.419 5      4924.967          34.750    23091937.420    94557624.858 5      3837.637          34.875    23091938.120    94557635.836 8      3837.637          48.562
R01  21072811.860   112646259.130 6      1796.781          41.062    21072810.060   112646259.155 6      1796.781          41.000    21072822.040    87613799.348 7      1397.496          43.500    21072821.060    87613794.343 7      1397.496          43.562
R14  22261874.580   118668246.432 7      -938.213          46.750    22261874.060   118668246.427 7      -938.213          45.750    22261887.200    92297599.169 8      -729.721          50.250    22261887.600    92297600.171 8      -729.721          50.125
R24  21525572.180   115106897.005 7      1727.471          46.437    21525572.120   115106897.017 7      1727.471          45.562    21525580.860    89527628.878 7      1343.589          47.187    21525581.620    89527630.881 7      1343.589          47.437
R15  21362175.220   114152980.534 7      1780.346          47.000    21362174.340   114152980.519 7      1780.346          46.000    21362184.060    88785685.058 8      1384.713          48.750    21362184.160    88785687.060 8      1384.713          48.937
G27  23522170.060   123609830.215 7       146.080          43.000    23522168.600   123609830.225 6       146.080          41.937    23522179.420    96319380.454 6       113.828          41.375    23522180.220    96319384.454 7       113.828          45.812
R16  23624438.880   126197519.112 6      4988.837          41.562    23624438.280   126197519.107 6      4988.837          40.687    23624448.480    98153659.066 7      3880.207          46.750    23624448.440    98153660.065 7      3880.207          47.437
R18  23757579.340   126819578.171 7      4607.070          45.250    23757578.760   126819578.161 7      4607.070          44.562    23757588.560    98637486.062 5      3583.276          35.562    23757588.340    98637487.073 5      3583.276          35.562
R03  23834465.580   127587754.872 6      6994.648          39.687    23834466.700   127587754.895 6      6994.648          38.687    23834490.600    99235032.090 7      5440.282          47.562    23834490.780    99235033.089 7      5440.282          47.625
G32  25049702.760   131637077.130 7      2124.777          44.375    25049701.960   131637077.132 6      2124.777          41.312    25049712.020   102574381.752 6      1655.671          41.375    25049712.720   102574386.746 7      1655.671          44.000
R17  21218672.720   113545407.112 7      3655.941          46.125    21218673.500   113545407.130 7      3655.941          46.500    21218682.620    88313132.768 8      2843.509          50.062    21218682.260    88313135.765 8      2843.509          50.125
> 2024 05 03 15 15  5.0000000  0 17
G22  25255086.400   132716376.927 7      5514.627          44.625    25255086.300   132716376.932 3      5514.627          19.562    25255089.580   103415356.550 3      4297.112          19.625
G02  21631852.540   113676148.239 7      2348.012          47.375    21631850.760   113676148.244 6      2348.012          40.125    21631851.800    88578820.012 6      1829.620          39.812
G03  21114418.080   110957049.583 7      5069.964          47.750    21114417.600   110957049.585 6      5069.964          41.125    21114423.700    86460061.737 6      3950.621          41.125    21114424.440    86460079.742 8      3950.621          51.625
R02  20932705.760   111700935.231 8      5501.553          49.000    20932705.340   111700935.231 8      5501.553          48.750    20932715.000    86878549.577 8      4278.985          49.937    20932715.140    86878544.583 8      4278.985          50.000
G21  21621798.040   113623300.720 8      1454.757          48.437    21621796.320   113623300.720 6      1454.757          39.250    21621798.940    88537651.009 6      1133.577          39.250
G08  21120680.520   110989925.508 8      1570.791          48.000    21120678.980   110989925.510 8      1570.791          48.250    21120685.080    86485701.695 8      1223.993          48.375    21120686.240    86485677.697 8      1223.993          50.250
G14  23090997.080   121344013.792 7      4924.486          44.562    23090996.480   121344013.799 5      4924.486          34.750    23091000.320    94553787.492 5      3837.262          34.875    23091001.360    94553798.485 8      3837.262          49.000
R01  21072475.800   112644462.846 6      1796.003          41.062    21072474.060   112644462.866 6      1796.003          41.187    21072485.980    87612402.233 7      1396.891          43.500    21072485.300    87612397.223 7      1396.891          43.750
R14  22262050.600   118669184.890 7      -938.454          47.062    22262050.060   118669184.888 7      -938.454          46.250    22262063.300    92298329.069 8      -729.909          49.875    22262063.820    92298330.071 8      -729.909          50.250
R24  21525249.440   115105169.685 7      1727.546          46.250    21525249.180   115105169.697 7      1727.546          46.187    21525258.040    89526285.401 7      1343.647          46.937    21525258.160    89526287.408 7      1343.647          47.562
R15  21361842.260   114151200.735 7      1779.529          46.812    21361841.560   114151200.726 7      1779.529          45.500    21361851.160    88784300.768 8      1384.078          48.187    21361850.740    88784302.770 8      1384.078          48.875
G27  23522142.180   123609684.335 7       145.892          42.812    23522140.960   123609684.347 6       145.892          41.375    23522151.720    96319266.773 6       113.682          40.937    23522152.300    96319270.768 7       113.682          45.812
R16  23623505.240   126192530.818 6      4988.121          41.562    23623504.660   126192530.819 6      4988.121          41.250    23623514.840    98149779.284 7      3879.650          46.875    23623514.740    98149780.286 7      3879.650          47.187
R18  23756716.240   126814971.423 7      4606.876          44.375    23756715.960   126814971.424 7      4606.876          44.187    23756725.800    98633903.046 5      3583.126          35.562    23756725.440    98633904.050 5      3583.126          35.562
R03  23833158.940   127580760.347 6      6994.612          39.687    23833160.180   127580760.376 6      6994.612          38.687    23833183.980    99229591.914 7      5440.254          47.375    23833184.400    99229592.916 7      5440.254          47.437
G32  25049298.540   131634952.645 7      2124.415          44.062    25049297.420   131634952.647 6      2124.415          41.312    25049307.620   102572726.307 6      1655.388          41.375    25049308.500   102572731.301 7      1655.388          44.000
R17  21217989.460   113541751.351 7      3655.970          47.312    21217990.060   113541751.368 7      3655.970          46.687    21217999.320    88310289.399 8      2843.532          49.687    21217999.140    88310292.400 8      2843.532          50.750
> 2024 05 03 15 15  6.0000000  0 17
G22  25254037.040   132710862.498 7      5514.337          45.562    25254036.940   132710862.503 3      5514.337          19.562    25254040.200   103411059.592 3      4296.886          19.625
G02  21631405.660   113673800.381 7      2347.736          47.750    21631403.980   113673800.389 6      2347.736          40.125    21631404.880    88576990.113 6      1829.405          39.750
G03  21113453.460   110951979.945 7      5069.252          47.937    21113452.640   110951979.945 6      5069.252          41.000    21113458.920    86456111.372 6      3950.066          40.625    21113459.680    86456129.375 8      3950.066          52.062
R02  20931674.780   111695434.060 8      5500.778          49.437    20931674.400   111695434.058 7      5500.778          47.812    20931684.220    86874270.895 8      4278.383          49.875    20931684.480    86874265.897 8      4278.383          50.687
G21  21621521.220   113621846.013 8      1454.614          48.125    21621519.420   113621846.013 6      1454.614          39.312    21621522.100    88536517.471 6      1133.465          39.562
G08  21120381.520   110988355.009 7      1570.151          47.687    21120380.160   110988355.014 8      1570.151          48.562    21120386.260    86484477.929 8      1223.494          48.437    21120387.420    86484453.932 8      1223.494          50.625
G14  23090059.920   121339089.629 7      4923.900          45.000    23090059.420   121339089.634 5      4923.900          35.250    23090063.400    94549950.482 5      3836.805          34.875    23090064.380    94549961.481 8      3836.805          48.812
R01  21072140.400   112642667.329 6      1795.022          41.562    21072138.180   112642667.349 6      1795.022          41.187    21072149.760    87611005.718 7      1396.128          43.312    21072149.460    87611000.710 7      1396.128          44.062
R14  22262226.340   118670123.573 7      -938.921          47.312    22262226.280   118670123.571 7      -938.921          46.562    22262239.520    92299059.137 8      -730.272          49.687    22262239.680    92299060.139 8      -730.272          50.312
R24  21524926.000   115103442.363 7      1727.249          46.562    21524926.400   115103442.380 7      1727.249          46.062    21524935.180    89524941.936 7      1343.416          47.125    21524935.140    89524943.941 7      1343.416          47.750
R15  21361509.120   114149421.682 7      1778.562          46.562    21361508.540   114149421.686 7      1778.562          45.875    21361518.120    88782917.069 8      1383.326          48.375    21361517.840    88782919.068 8      1383.326          48.562
G27  23522114.340   123609538.618 7       145.399          42.625    23522113.180   123609538.628 6       145.399          41.500    23522124.060    96319153.217 6       113.298          41.062    23522124.200    96319157.210 7       113.298          46.062
R16  23622571.560   126187543.144 6      4987.349          41.875    23622570.960   126187543.159 6      4987.349          41.250    23622581.000    98145899.990 7      3879.049          47.062    23622581.200    98145900.992 7      3879.049          47.812
R18  23755853.040   126810364.569 7      4606.904          44.562    23755852.620   126810364.565 7      4606.904          44.562    23755862.700    98630319.933 5      3583.147          35.562    23755862.620    98630320.939 5      3583.147          35.562
R03  23831852.020   127573765.673 6      6994.534          39.687    23831853.220   127573765.696 6      6994.534          38.687    23831877.260    99224151.618 7      5440.193          47.125    23831877.520    99224152.618 7      5440.193          47.937
G32  25048894.460   131632828.584 7      2123.656          43.937    25048893.280   131632828.586 6      2123.656          41.125    25048903.520   102571071.196 6      1654.797          41.250    25048903.900   102571076.196 7      1654.797          43.687
R17  21217306.380   113538095.543 7      3655.773          47.000    21217306.760   113538095.563 7      3655.773          47.750    21217316.180    88307445.998 8      2843.379          50.125    21217315.700    88307448.995 8      2843.379          50.375
> 2024 05 03 15 15  7.0000000  0 17
G22  25252987.520   132705348.318 7      5513.932          45.062    25252987.620   132705348.321 3      5513.932          22.750    25252990.900   103406762.827 3      4296.571          19.625
G02  21630959.100   113671452.584 7      2347.682          47.375    21630957.080   113671452.586 6      2347.682          39.812    21630958.160    88575161.524 6      1829.362          39.812
G03  21112488.640   110946910.841 7      5068.937          47.687    21112488.040   110946910.846 6      5068.937          40.687    21112494.360    86452161.427 6      3949.821          40.562    21112495.020    86452179.428 8      3949.821          50.625
R02  20930643.980   111689933.431 8      5500.580          48.875    20930643.540   111689933.426 8      5500.580          48.125    20930653.400    86869992.632 8      4278.229          49.750    20930653.760    86869987.634 8      4278.229          49.375
G21  21621244.320   113620391.314 7      1454.702          47.750    21621242.560   113620391.314 6      1454.702          39.187    21621245.220    88535383.942 6      1133.534          39.375
G08  21120082.820   110986784.849 7      1570.027          47.500    21120081.380   110986784.854 8      1570.027          49.000    21120087.420    86483254.428 8      1223.398          48.687    21120088.460    86483230.428 8      1223.398          50.000
G14  23089123.240   121334165.952 7      4923.311          44.312    23089122.400   121334165.957 5      4923.311          34.812    23089126.380    94546113.853 5      3836.346          34.750    23089127.100    94546124.862 8      3836.346          48.187
R01  21071804.180   112640872.620 6      1794.284          41.562    21071802.900   112640872.648 6      1794.284          41.187    21071814.260    87609609.845 7      1395.554          43.562    21071813.820    87609604.829 7      1395.554          44.000
R14  22262402.620   118671062.560 7      -939.142          47.125    22262402.400   118671062.558 7      -939.142          45.750    22262415.580    92299789.447 8      -730.444          50.062    22262416.220    92299790.450 8      -730.444          49.750
R24  21524602.500   115101715.008 7      1727.424          46.000    21524603.120   115101715.023 7      1727.424          45.687    21524611.760    89523598.436 7      1343.552          46.750    21524612.300    89523600.441 7      1343.552          47.500
R15  21361176.500   114147643.468 7      1777.708          46.562    21361175.840   114147643.459 7      1777.708          46.250    21361185.440    88781534.007 8      1382.662          48.562    21361185.020    88781536.007 8      1382.662          48.375
G27  23522086.700   123609393.109 6       145.499          41.500    23522085.580   123609393.113 6       145.499          41.125    23522096.360    96319039.819 6       113.376          40.750    23522096.460    96319043.811 7       113.376          45.750
R16  23621637.580   126182556.128 7      4986.571          42.187    23621637.180   126182556.134 6      4986.571          41.562    23621647.460    98142021.197 7      3878.444          46.687    23621647.800    98142022.197 7      3878.444          47.000
R18  23754990.240   126805757.750 7      4606.689          45.312    23754989.720   126805757.743 7      4606.689          44.750    23754999.720    98626736.854 5      3582.980          35.562    23754999.780    98626737.859 5      3582.980          35.562
R03  23830545.080   127566770.947 6      6994.926          39.687    23830546.640   127566770.976 6      6994.926          38.750    23830570.740    99218711.286 7      5440.498          46.937    23830570.820    99218712.290 7      5440.498          46.687
G32  25048490.340   131630704.911 7      2123.605          44.125    25048489.320   131630704.913 6      2123.605          41.312    25048499.340   102569416.384 6      1654.757          41.187    25048499.560   102569421.380 7      1654.757          43.875
R17  21216623.160   113534439.730 8      3655.663          48.000    21216624.080   113534439.745 7      3655.663          46.875    21216632.980    88304602.584 8      2843.293          49.875    21216632.500    88304605.583 8      2843.293          50.000
> 2024 05 03 15 15  8.0000000  0 17
G22  25251938.220   132699834.176 7      5513.679          44.750    25251938.280   132699834.180 3      5513.679          22.750    25251941.640   103402466.094 3      4296.373          22.937
G02  21630512.180   113669104.679 7      2347.651          47.187    21630510.320   113669104.686 6      2347.651          40.625    21630511.440    88573331.462 6      1829.338          39.687
G03  21111524.080   110941842.136 7      5068.483          47.000    21111523.640   110941842.138 6      5068.483          40.937    21111529.640    86448211.790 6      3949.467          40.437    21111530.500    86448229.787 8      3949.467          50.875
R02  20929613.320   111684433.258 8      5500.001          49.625    20929612.820   111684433.254 8      5500.001          48.625    20929622.520    86865714.722 8      4277.779          48.875    20929622.740    86865709.726 8      4277.779          49.250
G21  21620967.440   113618936.484 7      1454.602          47.500    21620965.740   113618936.489 6      1454.602          38.812    21620968.220    88534250.314 6      1133.456          39.125
G08  21119784.000   110985214.926 7      1569.740          47.750    21119782.860   110985214.925 8      1569.740          48.187    21119788.820    86482031.101 8      1223.174          48.125    21119789.780    86482007.101 8      1223.174          50.000
G14  23088186.400   121329242.557 7      4922.948          44.375    23088185.580   121329242.562 5      4922.948          34.812    23088189.320    94542277.439 5      3836.063          34.875    23088190.240    94542288.448 8      3836.063          48.062
R01  21071468.460   112639078.582 6      1793.565          41.625    21071468.280   112639078.618 6      1793.565          41.187    21071478.700    87608214.484 7      1394.995          43.750    21071478.040    87608209.477 7      1394.995          43.375
R14  22262579.000   118672001.648 7      -939.098          46.500    22262578.460   118672001.635 7      -939.098          45.437    22262591.980    92300519.830 8      -730.409          48.875    22262592.480    92300520.833 8      -730.409          49.437
R24  21524279.340   115099987.528 7      1727.296          46.937    21524280.460   115099987.543 7      1727.296          45.625    21524288.640    89522254.840 7      1343.452          46.375    21524289.220    89522256.843 7      1343.452          46.937
R15  21360844.060   114145865.850 7      1777.105          46.937    21360843.340   114145865.838 7      1777.105          46.125    21360852.780    88780151.411 8      1382.193          48.562    21360851.960    88780153.413 8      1382.193          48.187
G27  23522058.760   123609247.712 7       145.386          42.625    23522057.880   123609247.712 6       145.386          41.250    23522068.720    96318926.517 6       113.288          40.687    23522068.940    96318930.512 7       113.288          45.875
R16  23620704.120   126177569.541 7      4985.988          42.187    23620703.740   126177569.558 6      4985.988          41.562    23620713.860    98138142.755 7      3877.991          46.562    23620714.240    98138143.757 7      3877.991          46.812
R18  23754127.040   126801150.688 7      4606.961          44.437    23754126.620   126801150.675 7      4606.961          44.625    23754136.820    98623153.594 5      3583.192          35.562    23754137.300    98623154.601 5      3583.192          35.562
R03  23829238.340   127559776.058 6      6995.118          39.437    23829239.680   127559776.084 6      6995.118          38.750    23829263.940    99213270.817 7      5440.647          46.500    23829263.700    99213271.817 7      5440.647          46.937
G32  25048086.340   131628581.585 7      2122.969          43.937    25048085.360   131628581.590 6      2122.969          41.375    25048095.360   102567761.851 6      1654.261          41.625    25048095.840   102567766.853 7      1654.261          43.875
R17  21215940.080   113530783.714 7      3655.799          47.312    21215940.900   113530783.734 7      3655.799          47.187    21215949.660    88301759.022 8      2843.399          49.125    21215949.300    88301762.021 8      2843.399          49.750
> 2024 05 03 15 15  9.0000000  0 17
G22  25250888.780   132694320.327 7      5513.863          44.437    25250889.020   132694320.332 3      5513.863          22.750    25250892.340   103398169.593 3      4296.517          22.937
G02  21630065.520   113666756.894 7      2347.789          47.687    21630063.600   113666756.904 6      2347.789          39.625    21630064.700    88571502.464 6      1829.446          39.562
G03  21110559.700   110936773.814 7      5068.107          47.500    21110559.280   110936773.814 6      5068.107          40.562    21110565.260    86444262.447 6      3949.175          40.375    21110566.080    86444280.448 8      3949.175          51.312
R02  20928582.500   111678933.526 8      5499.381          49.375    20928582.140   111678933.524 8      5499.381          48.625    20928591.960    86861437.160 8      4277.297          49.562    20928592.080    86861432.164 8      4277.297          50.250
G21  21620690.660   113617481.722 7      1454.790          47.562    21620689.000   113617481.727 6      1454.790          39.812    21620691.500    88533116.733 6      1133.603          39.875
G08  21119485.340   110983645.325 7      1569.370          47.812    21119484.020   110983645.328 8      1569.370          48.312    21119490.180    86480808.038 8      1222.885          48.250    21119491.040    86480784.038 8      1222.885          50.500
G14  23087249.780   121324319.692 7      4922.726          45.187    23087249.000   121324319.702 5      4922.726          35.000    23087252.680    94538441.449 5      3835.890          34.875    23087253.040    94538452.452 7      3835.890          47.375
R01  21071133.080   112637285.425 6      1792.711          41.937    21071133.760   112637285.464 7      1792.711          42.000    21071143.060    87606819.815 7      1394.331          43.750    21071142.080    87606814.803 7      1394.331          43.687
R14  22262754.940   118672940.797 7      -939.161          46.687    22262754.700   118672940.795 7      -939.161          45.000    22262768.080    92301250.269 8      -730.459          49.937    22262768.340    92301251.274 8      -730.459          49.812
R24  21523956.500   115098260.136 7      1727.264          47.250    21523957.500   115098260.153 7      1727.264          45.937    21523965.360    89520911.311 7      1343.427          46.687    21523966.040    89520913.316 7      1343.427          47.187
R15  21360511.460   114144089.023 7      1776.546          46.250    21360510.840   114144089.011 7      1776.546          46.062    21360520.040    88778769.430 8      1381.758          48.500    21360519.760    88778771.430 8      1381.758          48.687
G27  23522031.220   123609102.455 7       145.073          42.750    23522030.220   123609102.463 6       145.073          41.750    23522040.960    96318813.325 6       113.044          41.187    23522041.240    96318817.320 7       113.044          45.875
R16  23619771.120   126172583.705 7      4985.710          42.312    23619770.620   126172583.714 6      4985.710          41.875    23619780.440    98134264.870 7      3877.774          47.500    23619780.740    98134265.870 7      3877.774          47.437
R18  23753263.660   126796543.610 7      4607.346          43.812    23753263.800   126796543.602 7      4607.346          44.062    23753273.640    98619570.319 5      3583.491          35.500    23753274.080    98619571.320 5      3583.491          35.625
R03  23827931.660   127552780.899 6      6995.095          39.437    23827932.480   127552780.920 6      6995.095          38.750    23827957.160    99207830.148 7      5440.629          46.937    23827957.120    99207831.148 7      5440.629          46.437
G32  25047682.460   131626458.782 7      2122.427          44.562    25047681.400   131626458.784 6      2122.427          41.437    25047691.400   102566107.722 6      1653.839          41.687    25047692.280   102566112.722 7      1653.839          44.250
R17  21215256.760   113527127.821 7      3655.980          47.750    21215257.800   113527127.844 7      3655.980          47.500    21215266.380    88298915.549 8      2843.540          49.687    21215265.940    88298918.544 8      2843.540          50.250
> 2024 05 03 15 15 10.0000000  0 17
G22  25249839.480   132688806.760 7      5513.298          44.000    25249839.980   132688806.764 3      5513.298          22.750    25249843.220   103393873.309 3      4296.076          22.937
G02  21629618.820   113664409.215 7      2347.666          46.687    21629616.880   113664409.220 6      2347.666          39.437    21629617.980    88569673.302 6      1829.350          39.437
G03  21109595.140   110931705.963 7      5067.616          46.750    21109594.920   110931705.965 6      5067.616          40.812    21109600.800    86440313.476 6      3948.792          40.375    21109601.680    86440331.479 8      3948.792          51.437
R02  20927552.080   111673434.359 8      5498.852          48.875    20927551.600   111673434.362 8      5498.852          48.187    20927561.460    86857160.039 8      4276.885          49.937    20927561.780    86857155.043 8      4276.885          50.062
G21  21620413.940   113616027.047 7      1454.712          47.312    21620412.240   113616027.049 6      1454.712          39.187    21620414.680    88531983.216 6      1133.542          39.625
G08  21119186.760   110982076.132 7      1569.003          47.562    21119185.380   110982076.132 7      1569.003          47.750    21119191.460    86479585.288 8      1222.600          48.375    21119192.420    86479561.288 8      1222.600          50.125
G14  23086313.080   121319397.295 7      4922.188          44.687    23086312.300   121319397.305 5      4922.188          34.937    23086315.840    94534605.819 5      3835.471          34.937    23086316.260    94534616.814 7      3835.471          47.687
R01  21070797.780   112635493.156 6      1791.948          41.937    21070798.180   112635493.184 7      1791.948          42.812    21070807.680    87605425.818 7      1393.737          43.250    21070807.120    87605420.808 7      1393.737          43.812
R14  22262931.160   118673880.063 7      -939.335          46.687    22262931.000   118673880.067 7      -939.335          45.250    22262944.100    92301980.797 8      -730.594          50.062    22262944.720    92301981.800 8      -730.594          50.375
R24  21523633.560   115096532.888 7      1727.312          45.562    21523634.540   115096532.900 7      1727.312          46.125    21523642.140    89519567.884 7      1343.465          46.875    21523642.900    89519569.893 7      1343.465          46.937
R15  21360178.980   114142312.933 7      1775.669          45.937    21360178.140   114142312.918 7      1775.669          45.687    21360187.740    88777388.025 8      1381.076          48.437    21360187.760    88777390.029 8      1381.076          48.250
G27  23522003.860   123608957.466 7       144.865          42.562    23522002.740   123608957.476 6       144.865          41.250    23522013.480    96318700.343 6       112.882          40.750    23522013.940    96318704.338 7       112.882          45.875
R16  23618837.780   126167598.539 7      4984.887          42.312    23618837.200   126167598.548 7      4984.887          42.125    23618847.400    98130387.515 7      3877.135          47.250    23618847.540    98130388.517 7      3877.135          47.750
R18  23752400.820   126791936.465 7      4607.185          44.000    23752400.380   126791936.458 7      4607.185          43.750    23752410.920    98615986.980 5      3583.366          35.500    23752410.840    98615987.981 5      3583.366          35.625
R03  23826625.660   127545785.563 6      6995.493          39.437    23826626.340   127545785.584 6      6995.493          38.750    23826650.400    99202389.334 7      5440.939          47.250    23826650.320    99202390.335 7      5440.939          47.500
G32  25047278.640   131624336.499 7      2122.145          44.875    25047277.660   131624336.501 6      2122.145          41.437    25047287.580   102564453.995 6      1653.620          41.375    25047288.640   102564458.993 7      1653.620          44.312
R17  21214573.760   113523471.966 7      3655.871          46.875    21214574.600   113523471.980 7      3655.871          46.500    21214583.380    88296072.096 8      2843.455          49.937    21214582.720    88296075.097 8      2843.455          50.687
> 2024 05 03 15 15 11.0000000  0 17
G22  25248790.740   132683293.347 7      5513.094          44.375    25248790.820   132683293.355 3      5513.094          22.750    25248794.060   103389577.147 3      4295.917          22.937
G02  21629172.120   113662061.615 7      2347.413          47.250    21629170.300   113662061.622 6      2347.413          40.000    21629171.320    88567844.140 6      1829.153          40.125
G03  21108631.040   110926638.669 7      5066.935          47.437    21108630.660   110926638.671 6      5066.935          41.062    21108636.440    86436364.939 6      3948.261          41.187    21108637.240    86436382.943 8      3948.261          51.687
R02  20926521.800   111667935.907 8      5498.178          49.187    20926521.240   111667935.908 8      5498.178          48.500    20926531.020    86852883.465 8      4276.361          50.125    20926530.920    86852878.469 8      4276.361          49.562
G21  21620137.100   113614572.429 8      1454.521          48.125    21620135.320   113614572.434 6      1454.521          39.437    21620137.840    88530849.750 6      1133.393          39.812
G08  21118888.160   110980507.375 8      1568.579          48.187    21118886.800   110980507.380 8      1568.579          48.812    21118892.860    86478362.882 8      1222.270          48.625    21118894.020    86478338.886 8      1222.270          50.375
G14  23085376.320   121314475.353 7      4921.530          45.625    23085375.600   121314475.360 5      4921.530          34.875    23085379.360    94530770.535 5      3834.959          34.937    23085379.780    94530781.526 8      3834.959          48.312
R01  21070462.860   112633701.785 7      1790.948          42.375    21070462.900   112633701.818 7      1790.948          42.812    21070472.580    87604032.531 7      1392.960          43.500    21070471.580    87604027.528 7      1392.960          43.937
R14  22263107.280   118674819.578 7      -939.754          47.062    22263107.340   118674819.584 7      -939.754          45.500    22263120.640    92302711.516 8      -730.920          49.875    22263120.700    92302712.519 8      -730.920          50.312
R24  21523310.600   115094805.780 7      1727.183          47.125    21523311.600   115094805.789 7      1727.183          45.500    21523319.420    89518224.579 7      1343.365          46.875    21523319.720    89518226.589 7      1343.365          47.312
R15  21359846.880   114140537.583 7      1774.681          46.312    21359845.920   114140537.571 7      1774.681          46.062    21359855.600    88776007.197 8      1380.307          48.937    21359855.400    88776009.199 8      1380.307          48.687
G27  23521976.280   123608812.816 7       144.675          42.125    23521975.160   123608812.818 6       144.675          41.187    23521985.840    96318587.614 6       112.734          40.875    23521986.420    96318591.611 7       112.734          45.812
R16  23617904.700   126162614.003 7      4984.012          42.937    23617903.860   126162614.012 7      4984.012          42.125    23617914.220    98126510.650 7      3876.454          47.125    23617914.740    98126511.656 8      3876.454          48.062
R18  23751537.600   126787329.208 7      4606.994          44.062    23751537.480   126787329.203 7      4606.994          44.000    23751547.200    98612403.568 5      3583.218          35.500    23751547.640    98612404.572 5      3583.218          35.625
R03  23825319.080   127538790.292 6      6995.264          40.000    23825318.880   127538790.320 6      6995.264          39.000    23825343.460    99196948.582 7      5440.761          47.062    23825343.900    99196949.583 7      5440.761          47.687
G32  25046874.940   131622214.802 7      2121.543          44.625    25046873.760   131622214.804 6      2121.543          41.375    25046883.780   102562800.727 6      1653.151          41.437    25046885.240   102562805.717 7      1653.151          43.812
R17  21213890.200   113519816.067 8      3655.795          48.250    21213891.140   113519816.085 7      3655.795          46.937    21213900.140    88293228.627 8      2843.396          49.750    21213899.440    88293231.626 8      2843.396          50.750
> 2024 05 03 15 15 12.0000000  0 17
G22  25247741.520   132677780.284 7      5512.838          44.062    25247741.500   132677780.292 3      5512.838          22.750    25247744.960   103385281.258 3      4295.718          22.937
G02  21628725.300   113659714.088 7      2347.490          47.125    21628723.460   113659714.095 6      2347.490          40.187    21628724.500    88566014.487 6      1829.213          40.062
G03  21107666.860   110921571.874 7      5066.547          47.375    21107666.460   110921571.874 6      5066.547          41.312    21107672.420    86432416.788 6      3947.958          41.000    21107672.940    86432434.791 8      3947.958          51.375
R02  20925491.740   111662437.938 8      5497.648          49.875    20925490.780   111662437.939 8      5497.648          48.375    20925500.600    86848607.273 8      4275.948          50.000    20925500.660    86848602.279 8      4275.948          49.687
G21  21619860.140   113613117.801 8      1454.677          48.437    21619858.620   113613117.804 6      1454.677          39.687    21619861.020    88529716.273 6      1133.515          39.687
G08  21118589.880   110978938.908 8      1568.306          48.000    21118588.380   110978938.913 8      1568.306          48.687    21118594.400    86477140.697 8      1222.057          48.812    21118595.560    86477116.698 8      1222.057          50.562
G14  23084439.440   121309553.952 7      4921.123          45.187    23084439.000   121309553.957 5      4921.123          34.875    23084442.920    94526935.675 5      3834.642          34.937    23084443.740    94526946.670 8      3834.642          48.375
R01  21070127.580   112631911.136 7      1790.360          43.000    21070128.240   112631911.166 7      1790.360          42.687    21070137.280    87602639.806 7      1392.502          43.687    21070136.880    87602634.801 7      1392.502          44.062
R14  22263283.940   118675759.327 7      -939.882          47.000    22263283.660   118675759.333 7      -939.882          45.750    22263296.800    92303442.418 8      -731.019          50.312    22263297.340    92303443.418 8      -731.019          50.062
R24  21522987.400   115093078.623 7      1727.141          47.437    21522988.520   115093078.646 7      1727.141          45.937    21522996.440    89516881.244 7      1343.332          46.812    21522997.120    89516883.251 7      1343.332          47.000
R15  21359514.320   114138763.051 7      1774.021          46.500    21359513.720   114138763.036 7      1774.021          46.312    21359523.460    88774626.997 8      1379.794          48.937    21359523.180    88774629.001 8      1379.794          49.000
G27  23521948.780   123608668.279 7       144.492          42.312    23521947.860   123608668.286 6       144.492          41.687    23521958.380    96318474.980 6       112.591          41.500    23521958.820    96318478.972 7       112.591          45.937
R16  23616971.780   126157630.189 7      4983.471          42.187    23616971.360   126157630.182 7      4983.471          42.187    23616981.220    98122634.337 7      3876.033          47.437    23616981.820    98122635.339 7      3876.033          47.625
R18  23750674.780   126782722.009 7      4607.213          44.187    23750674.800   126782722.005 7      4607.213          44.500    23750685.300    98608820.194 6      3583.388          36.812    23750685.120    98608821.197 5      3583.388          35.625
R03  23824012.460   127531794.908 6      6995.400          40.000    23824012.420   127531794.915 6      6995.400          39.000    23824036.640    99191507.717 7      5440.866          47.125    23824037.040    99191508.716 7      5440.866          47.000
G32  25046471.060   131620093.452 7      2121.250          45.125    25046470.040   131620093.451 6      2121.250          41.187    25046480.100   102561147.725 6      1652.922          41.500    25046480.840   102561152.721 7      1652.922          43.937
R17  21213207.160   113516160.190 8      3656.019          48.062    21213208.260   113516160.210 7      3656.019          46.812    21213216.960    88290385.165 8      2843.570          49.875    21213216.680    88290388.165 8      2843.570          50.125
> 2024 05 03 15 15 13.0000000  0 17
G22  25246692.400   132672267.471 7      5512.390          45.062    25246692.620   132672267.478 3      5512.390          22.750    25246696.220   103380985.559 3      4295.368          22.937
G02  21628278.620   113657366.729 7      2346.981          46.750    21628276.840   113657366.739 6      2346.981          40.312    21628277.840    88564185.407 6      1828.816          39.812
G03  21106702.860   110916505.642 7      5065.734          47.187    21106702.320   110916505.644 6      5065.734          40.875    21106708.300    86428469.080 6      3947.325          40.562    21106708.900    86428487.081 8      3947.325          51.437
R02  20924461.300   111656940.631 8      5496.781          49.562    20924460.480   111656940.631 8      5496.781          48.625    20924470.460    86844331.594 8      4275.274          49.812    20924470.520    86844326.596 8      4275.274          49.812
G21  21619583.540   113611663.318 8      1454.206          48.312    21619581.960   113611663.320 6      1454.206          39.250    21619584.320    88528582.907 6      1133.147          39.687
G08  21118291.500   110977370.923 8      1567.482          48.062    21118289.940   110977370.928 8      1567.482          48.562    21118295.980    86475918.889 8      1221.415          48.312    21118297.180    86475894.894 8      1221.415          50.437
G14  23083503.480   121304633.058 7      4920.401          43.187    23083502.560   121304633.068 5      4920.401          34.687    23083506.400    94523101.216 5      3834.078          34.625    23083507.520    94523112.227 8      3834.078          48.687
R01  21069792.800   112630121.494 7      1788.998          43.250    21069793.860   112630121.514 7      1788.998          43.000    21069802.880    87601247.856 7      1391.443          43.437    21069802.140    87601242.853 7      1391.443          44.250
R14  22263460.280   118676699.390 7      -940.470          46.437    22263459.900   118676699.391 7      -940.470          45.312    22263473.180    92304173.559 8      -731.476          49.437    22263473.480    92304174.560 8      -731.476          50.000
R24  21522664.440   115091351.622 7      1726.649          47.187    21522666.060   115091351.639 7      1726.649          46.000    21522673.100    89515538.014 7      1342.949          46.812    21522674.120    89515540.023 7      1342.949          46.875
R15  21359182.820   114136989.321 7      1772.986          46.062    21359181.740   114136989.319 7      1772.986          45.750    21359191.700    88773247.437 8      1378.989          48.875    21359191.180    88773249.437 8      1378.989          48.375
G27  23521921.260   123608524.094 7       143.848          42.125    23521920.320   123608524.101 6       143.848          41.437    23521931.000    96318362.624 6       112.089          41.062    23521931.180    96318366.614 7       112.089          45.875
R16  23616039.340   126152647.117 7      4982.364          42.187    23616038.680   126152647.110 7      4982.364          42.187    23616048.400    98118758.613 7      3875.172          47.250    23616048.840    98118759.615 7      3875.172          47.812
R18  23749811.320   126778114.800 7      4606.935          44.500    23749811.600   126778114.804 7      4606.935          44.375    23749821.960    98605236.819 6      3583.172          36.812    23749821.540    98605237.819 6      3583.172          37.062
R03  23822705.300   127524799.460 6      6995.349          40.000    23822705.800   127524799.475 6      6995.349          39.000    23822730.000    99186066.829 7      5440.827          47.312    23822730.220    99186067.831 7      5440.827          47.625
G32  25046067.460   131617972.743 7      2120.118          45.062    25046066.560   131617972.745 6      2120.118          41.187    25046076.600   102559495.231 6      1652.040          41.250    25046077.520   102559500.229 7      1652.040          44.062
R17  21212524.160   113512504.420 8      3655.527          48.937    21212525.060   113512504.435 7      3655.527          47.312    21212533.700    88287541.787 8      2843.188          49.750    21212533.220    88287544.786 8      2843.188          49.750
> 2024 05 03 15 15 14.0000000  0 17
G22  25245643.300   132666754.912 7      5512.363          44.750    25245643.640   132666754.920 3      5512.363          22.750    25245647.360   103376690.059 3      4295.348          22.937
G02  21627832.120   113655019.442 7      2347.136          46.500    21627830.060   113655019.449 6      2347.136          39.687    21627831.220    88562357.064 6      1828.937          39.750
G03  21105738.640   110911439.958 7      5065.342          47.687    21105738.340   110911439.963 6      5065.342          41.062    21105744.240    86424521.796 6      3947.019          40.625    21105744.980    86424539.799 8      3947.019          51.750
R02  20923431.300   111651443.905 8      5496.314          49.312    20923430.360   111651443.900 8      5496.314          48.125    20923440.500    86840056.365 8      4274.911          50.062    20923440.580    86840051.367 8      4274.911          49.875
G21  21619306.720   113610208.861 7      1454.394          47.812    21619305.140   113610208.863 6      1454.394          39.312    21619307.620    88527449.562 6      1133.294          39.625
G08  21117993.280   110975803.307 7      1567.353          47.625    21117991.660   110975803.312 8      1567.353          48.562    21117997.700    86474697.370 8      1221.314          48.750    21117998.680    86474673.370 8      1221.314          50.437
G14  23082567.040   121299712.676 7      4920.084          43.062    23082566.280   121299712.691 5      4920.084          34.625    23082570.020    94519267.158 5      3833.832          34.625    23082570.960    94519278.166 8      3833.832          48.562
R01  21069458.300   112628332.681 7      1788.287          43.250    21069459.100   112628332.703 7      1788.287          43.000    21069468.480    87599856.559 7      1390.890          43.375    21069467.480    87599851.552 7      1390.890          44.312
R14  22263636.840   118677639.688 7      -940.464          46.812    22263636.420   118677639.689 7      -940.464          45.625    22263649.740    92304904.892 8      -731.472          49.562    22263649.920    92304905.892 8      -731.472          50.000
R24  21522341.440   115089624.620 7      1726.891          46.625    21522343.200   115089624.632 7      1726.891          46.250    21522350.120    89514194.784 7      1343.137          46.625    21522351.020    89514196.790 7      1343.137          46.750
R15  21358851.060   114135216.434 7      1772.345          46.750    21358849.620   114135216.430 7      1772.345          45.250    21358859.760    88771868.520 8      1378.491          48.125    21358859.420    88771870.521 8      1378.491          49.000
G27  23521894.000   123608380.193 7       143.571          42.125    23521892.940   123608380.200 6       143.571          41.187    23521903.520    96318250.482 6       111.873          41.375    23521903.760    96318254.475 7       111.873          45.562
R16  23615106.580   126147664.649 7      4982.043          42.437    23615105.660   126147664.644 7      4982.043          42.187    23615115.740    98114883.362 7      3874.922          47.062    23615116.100    98114884.362 7      3874.922          47.562
R18  23748948.280   126773507.578 7      4607.173          44.250    23748948.380   126773507.579 7      4607.173          44.562    23748958.540    98601653.426 6      3583.357          36.812    23748958.200    98601654.430 6      3583.357          37.062
R03  23821398.380   127517804.011 6      6995.428          40.187    23821398.640   127517804.029 6      6995.428          39.000    23821423.220    99180625.932 7      5440.889          47.687    23821423.340    99180626.933 7      5440.889          47.437
G32  25045664.080   131615852.491 7      2119.901          44.000    25045663.060   131615852.488 6      2119.901          41.375    25045672.980   102557843.084 6      1651.871          41.562    25045674.040   102557848.080 7      1651.871          44.000
R17  21211841.060   113508848.664 8      3655.712          48.812    21211841.800   113508848.679 7      3655.712          47.000    21211850.520    88284698.421 8      2843.332          49.312    21211849.980    88284701.420 8      2843.332          50.250
> 2024 05 03 15 15 15.0000000  0 17
G22  25244594.240   132661242.538 7      5512.523          45.187    25244594.780   132661242.545 4      5512.523          24.062    25244598.400   103372394.705 3      4295.472          22.937
G02  21627385.560   113652672.230 7      2347.417          46.875    21627383.480   113652672.235 6      2347.417          39.250    21627384.580    88560528.476 6      1829.156          39.562
G03  21104774.860   110906374.777 8      5065.198          48.062    21104774.400   110906374.776 6      5065.198          41.000    21104780.420    86420574.902 6      3946.907          40.437    21104781.100    86420592.901 8      3946.907          51.437
R02  20922401.360   111645947.793 8      5496.125          49.250    20922400.460   111645947.794 8      5496.125          48.062    20922410.380    86835781.618 8      4274.764          49.750    20922410.300    86835776.624 8      4274.764          49.875
G21  21619029.940   113608754.477 8      1454.594          48.125    21619028.340   113608754.482 6      1454.594          39.437    21619031.000    88526316.280 6      1133.450          39.812
G08  21117695.160   110974236.147 8      1567.270          48.250    21117693.400   110974236.150 8      1567.270          48.437    21117699.420    86473476.205 8      1221.250          48.375    21117700.360    86473452.201 8      1221.250          50.250
G14  23081631.160   121294792.717 7      4919.945          43.375    23081630.100   121294792.733 5      4919.945          34.625    23081633.880    94515433.420 5      3833.723          34.687    23081634.420    94515444.432 8      3833.723          48.000
R01  21069123.760   112626544.779 7      1787.754          43.875    21069124.720   112626544.807 7      1787.754          43.375    21069134.060    87598465.973 7      1390.475          43.187    21069133.220    87598460.968 7      1390.475          44.125
R14  22263813.480   118678580.183 7      -940.354          47.000    22263812.980   118678580.176 7      -940.354          46.000    22263826.220    92305636.367 8      -731.386          49.812    22263826.340    92305637.368 8      -731.386          49.937
R24  21522018.820   115087897.774 7      1727.098          46.812    21522020.080   115087897.783 7      1727.098          46.000    21522027.200    89512851.675 7      1343.299          46.500    21522027.760    89512853.687 7      1343.299          46.750
R15  21358519.400   114133444.280 7      1771.985          46.500    21358518.400   114133444.268 7      1771.985          45.187    21358528.180    88770490.169 8      1378.211          48.750    21358527.660    88770492.171 8      1378.211          48.687
G27  23521866.760   123608236.580 7       143.764          42.625    23521865.540   123608236.590 6       143.764          41.125    23521876.180    96318138.569 6       112.024          40.812    23521876.860    96318142.561 7       112.024          45.687
R16  23614173.900   126142682.779 7      4981.823          42.062    23614173.000   126142682.769 6      4981.823          41.937    23614183.320    98111008.570 7      3874.751          47.437    23614183.400    98111009.572 7      3874.751          47.812
R18  23748085.180   126768900.235 7      4607.620          44.750    23748085.300   126768900.228 7      4607.620          45.312    23748094.820    98598069.927 6      3583.705          36.812    23748095.520    98598070.929 6      3583.705          37.062
R03  23820091.500   127510808.459 6      6995.966          40.187    23820092.000   127510808.485 6      6995.966          39.062    23820116.260    99175184.959 7      5441.307          47.125    23820116.720    99175185.962 7      5441.307          47.500
G32  25045260.920   131613732.836 7      2119.664          45.312    25045259.780   131613732.833 6      2119.664          41.750    25045269.720   102556191.405 6      1651.686          41.687    25045270.880   102556196.397 7      1651.686          44.000
R17  21211158.060   113505192.936 7      3655.930          47.812    21211158.640   113505192.954 7      3655.930          46.687    21211167.460    88281855.083 8      2843.501          50.062    21211166.840    88281858.082 8      2843.501          50.250
> 2024 05 03 15 15 16.0000000  0 17
G22  25243545.700   132655730.591 7      5511.750          44.062    25243545.920   132655730.596 4      5511.750          24.062    25243549.540   103368099.681 4      4294.870          24.562
G02  21626938.820   113650325.216 7      2346.908          46.875    21626936.780   113650325.223 6      2346.908          39.750    21626937.980    88558699.150 6      1828.759          39.687
G03  21103811.100   110901310.168 7      5064.342          47.562    21103810.700   110901310.170 6      5064.342          40.812    21103816.520    86416628.459 6      3946.241          40.562    21103817.420    86416646.460 8      3946.241          51.062
R02  20921371.380   111640452.308 8      5495.117          48.937    20921370.520   111640452.314 8      5495.117          48.625    20921380.540    86831507.364 8      4273.980          49.750    20921380.540    86831502.368 8      4273.980          50.062
G21  21618753.220   113607300.220 8      1454.175          48.125    21618751.660   113607300.224 6      1454.175          39.437    21618754.200    88525183.091 6      1133.123          39.812
G08  21117396.900   110972669.395 8      1566.512          48.062    21117395.260   110972669.398 8      1566.512          48.625    21117401.380    86472255.359 8      1220.659          48.375    21117402.260    86472231.355 8      1220.659          50.062
G14  23080694.880   121289873.408 7      4918.984          43.687    23080693.860   121289873.420 5      4918.984          34.812    23080697.780    94511600.194 5      3832.974          34.625    23080698.100    94511611.203 7      3832.974          47.500
R01  21068789.100   112624757.781 7      1786.494          42.187    21068790.640   112624757.811 7      1786.494          43.312    21068799.800    87597076.091 7      1389.495          43.750    21068799.040    87597071.084 7      1389.495          44.437
R14  22263990.400   118679520.963 7      -940.877          46.562    22263989.480   118679520.964 7      -940.877          45.500    22264002.740    92306368.073 8      -731.793          49.750    22264002.800    92306369.075 8      -731.793          50.062
R24  21521695.980   115086171.058 8      1726.582          48.187    21521697.100   115086171.076 7      1726.582          46.437    21521704.260    89511508.683 7      1342.897          46.750    21521704.940    89511510.686 7      1342.897          46.562
R15  21358187.720   114131673.080 7      1770.705          46.500    21358187.080   114131673.062 7      1770.705          45.562    21358196.900    88769112.563 8      1377.215          48.937    21358196.320    88769114.560 8      1377.215          49.000
G27  23521839.440   123608093.218 7       143.240          42.187    23521838.280   123608093.220 6       143.240          41.437    23521848.820    96318026.845 6       111.615          41.125    23521849.660    96318030.836 7       111.615          45.750
R16  23613241.600   126137701.721 7      4980.700          42.062    23613240.540   126137701.717 6      4980.700          41.937    23613250.800    98107134.416 7      3873.878          47.000    23613251.120    98107135.418 7      3873.878          47.562
R18  23747222.420   126764293.002 7      4607.233          45.375    23747222.320   126764293.003 7      4607.233          44.875    23747231.820    98594486.532 6      3583.403          37.187    23747232.080    98594487.544 6      3583.403          37.437
R03  23818784.620   127503812.882 6      6995.496          40.187    23818784.960   127503812.908 6      6995.496          39.062    23818809.520    99169743.969 7      5440.941          47.375    23818809.540    99169744.966 7      5440.941          47.687
G32  25044857.820   131611613.666 7      2118.901          44.937    25044856.460   131611613.669 6      2118.901          41.312    25044866.180   102554540.108 6      1651.092          41.375    25044867.520   102554545.108 7      1651.092          44.250
R17  21210474.680   113501537.354 7      3655.504          47.875    21210475.540   113501537.369 7      3655.504          47.000    21210484.200    88279011.848 8      2843.170          49.875    21210483.580    88279014.847 8      2843.170          50.312
> 2024 05 03 15 15 17.0000000  0 17
G22  25242496.900   132650218.790 7      5511.640          44.812    25242496.880   132650218.797 4      5511.640          24.062    25242500.560   103363804.773 4      4294.785          24.562
G02  21626492.320   113647978.209 7      2346.933          47.437    21626490.140   113647978.217 6      2346.933          39.812    21626491.360    88556870.807 6      1828.779          40.125
G03  21102847.300   110896245.990 7      5064.007          47.312    21102846.940   110896245.992 6      5064.007          41.062    21102852.940    86412682.349 6      3945.980          40.875    21102853.640    86412700.348 8      3945.980          51.125
R02  20920341.400   111634957.362 8      5494.655          49.062    20920340.640   111634957.363 8      5494.655          48.312    20920350.760    86827233.519 8      4273.621          49.562    20920350.900    86827228.523 8      4273.621          49.875
G21  21618476.480   113605845.923 7      1454.278          47.750    21618474.880   113605845.928 6      1454.278          39.562    21618477.400    88524049.872 6      1133.204          39.500
G08  21117098.700   110971102.932 7      1566.272          47.937    21117097.120   110971102.935 8      1566.272          48.437    21117103.220    86471034.734 8      1220.472          48.437    21117104.140    86471010.735 8      1220.472          50.187
G14  23079758.640   121284954.482 7      4918.736          44.625    23079757.940   121284954.489 5      4918.736          34.687    23079761.580    94507767.263 5      3832.781          34.625    23079761.800    94507778.262 7      3832.781          47.250
R01  21068455.000   112622971.557 7      1785.841          44.187    21068456.380   112622971.585 7      1785.841          43.500    21068465.500    87595686.809 7      1388.987          43.125    21068464.720    87595681.797 7      1388.987          44.000
R14  22264166.360   118680461.890 7      -940.980          46.875    22264165.820   118680461.896 7      -940.980          45.375    22264179.080    92307099.897 8      -731.873          49.812    22264179.240    92307100.899 8      -731.873          50.062
R24  21521373.460   115084444.329 7      1726.786          46.750    21521374.220   115084444.355 7      1726.786          46.125    21521381.020    89510165.671 7      1343.056          46.812    21521381.800    89510167.677 7      1343.056          46.250
R15  21357856.440   114129902.529 7      1770.202          46.437    21357855.600   114129902.506 7      1770.202          45.562    21357865.620    88767735.459 8      1376.824          48.687    21357864.960    88767737.461 8      1376.824          48.625
G27  23521812.300   123607949.994 6       143.245          41.750    23521811.140   123607949.997 6       143.245          41.312    23521821.560    96317915.236 6       111.620          41.312    23521822.440    96317919.229 7       111.620          45.375
R16  23612309.220   126132721.229 7      4980.196          42.000    23612308.120   126132721.225 6      4980.196          41.750    23612318.120    98103260.702 7      3873.486          47.250    23612318.620    98103261.700 7      3873.486          47.750
R18  23746359.240   126759685.649 7      4607.379          45.687    23746358.980   126759685.653 7      4607.379          44.812    23746369.000    98590903.043 6      3583.517          37.187    23746368.780    98590904.049 6      3583.517          37.437
R03  23817478.060   127496817.083 6      6996.025          39.875    23817478.600   127496817.101 6      6996.025          39.062    23817502.660    99164302.788 7      5441.353          47.250    23817502.660    99164303.792 7      5441.353          47.125
G32  25044454.860   131609494.936 7      2118.549          44.750    25044453.300   131609494.941 6      2118.549          40.562    25044463.180   102552889.156 6      1650.817          40.937    25044464.280   102552894.149 7      1650.817          43.812
R17  21209791.940   113497881.656 7      3655.753          47.625    21209792.020   113497881.668 7      3655.753          46.562    21209801.360    88276168.530 8      2843.363          49.562    21209800.760    88276171.527 8      2843.363          50.187
> 2024 05 03 15 15 18.0000000  0 17
G22  25241447.800   132644707.188 7      5511.450          44.187    25241448.140   132644707.195 4      5511.450          24.062    25241451.800   103359510.020 4      4294.636          24.562
G02  21626045.600   113645631.247 8      2346.769          48.062    21626043.640   113645631.255 6      2346.769          39.437    21626044.660    88555041.563 6      1828.651          39.375
G03  21101883.860   110891182.301 7      5063.260          47.500    21101883.280   110891182.303 6      5063.260          40.625    21101889.260    86408736.621 6      3945.397          40.687    21101889.900    86408754.620 8      3945.397          51.562
R02  20919311.700   111629462.976 8      5493.917          49.125    20919311.060   111629462.969 8      5493.917          48.187    20919320.880    86822960.106 8      4273.047          49.437    20919321.220    86822955.108 8      4273.047          49.750
G21  21618199.880   113604391.628 7      1454.128          47.875    21618198.220   113604391.633 6      1454.128          39.125    21618200.680    88522916.652 6      1133.087          39.687
G08  21116800.520   110969536.798 7      1565.734          47.562    21116799.080   110969536.800 8      1565.734          48.500    21116805.280    86469814.368 8      1220.053          48.500    21116805.940    86469790.370 8      1220.053          50.500
G14  23078822.640   121280036.021 7      4918.142          44.500    23078821.920   121280036.026 5      4918.142          34.687    23078825.700    94503934.698 5      3832.318          34.687    23078825.540    94503945.689 7      3832.318          46.937
R01  21068121.100   112621186.157 7      1784.698          44.312    21068122.680   112621186.180 7      1784.698          43.812    21068131.720    87594298.162 7      1388.098          43.625    21068130.800    87594293.155 7      1388.098          43.812
R14  22264342.920   118681403.052 7      -941.412          46.500    22264342.540   118681403.050 7      -941.412          45.875    22264355.780    92307831.888 8      -732.209          49.562    22264356.060    92307832.891 8      -732.209          49.812
R24  21521050.320   115082717.630 7      1726.454          46.812    21521051.440   115082717.647 7      1726.454          46.312    21521058.360    89508822.675 7      1342.798          46.562    21521059.340    89508824.680 7      1342.798          46.187
R15  21357525.280   114128132.744 7      1769.352          45.562    21357524.140   114128132.730 7      1769.352          45.687    21357534.200    88766358.962 8      1376.163          48.312    21357533.700    88766360.964 8      1376.163          48.250
G27  23521785.100   123607807.005 7       142.488          42.687    23521783.920   123607807.020 6       142.488          41.187    23521794.340    96317803.816 6       111.030          40.750    23521794.900    96317807.811 7       111.030          45.687
R16  23611377.220   126127741.376 7      4979.504          42.000    23611375.920   126127741.377 7      4979.504          42.062    23611385.880    98099387.487 7      3872.948          47.375    23611386.060    98099388.487 7      3872.948          47.500
R18  23745495.980   126755078.224 7      4607.408          45.437    23745496.420   126755078.230 7      4607.408          44.625    23745506.360    98587319.492 6      3583.540          37.187    23745505.840    98587320.496 6      3583.540          37.437
R03  23816170.460   127489821.177 6      6995.955          39.875    23816171.800   127489821.192 6      6995.955          39.062    23816195.740    99158861.540 7      5441.299          47.187    23816195.860    99158862.542 7      5441.299          46.875
G32  25044051.540   131607376.655 7      2117.778          44.750    25044050.280   131607376.660 6      2117.778          41.250    25044060.060   102551238.547 6      1650.217          41.375    25044060.960   102551243.547 7      1650.217          43.937
R17  21209109.000   113494225.982 7      3655.587          47.750    21209109.080   113494225.995 7      3655.587          46.437    21209118.240    88273325.222 8      2843.234          49.125    21209117.620    88273328.221 8      2843.234          49.687
> 2024 05 03 15 15 19.0000000  0 17
G22  25240398.780   132639195.911 7      5511.370          44.687    25240399.420   132639195.919 4      5511.370          24.062    25240403.080   103355215.517 4      4294.574          24.562
G02  21625598.940   113643284.451 8      2346.937          48.500    21625597.080   113643284.450 6      2346.937          40.312    21625598.120    88553212.565 6      1828.782          40.000
G03  21100920.440   110886119.211 8      5062.964          48.812    21100919.920   110886119.213 6      5062.964          41.375    21100925.840    86404791.356 6      3945.167          41.375    21100926.460    86404809.359 8      3945.167          51.187
R02  20918282.400   111623969.279 8      5493.589          49.625    20918281.440   111623969.272 8      5493.589          48.312    20918291.380    86818687.237 8      4272.791          49.687    20918291.520    86818682.239 8      4272.791          50.375
G21  21617923.020   113602937.471 8      1454.312          48.750    21617921.520   113602937.476 6      1454.312          39.562    21617923.880    88521783.542 6      1133.230          39.625
G08  21116502.620   110967971.173 7      1565.602          47.937    21116501.220   110967971.175 8      1565.602          48.375    21116507.400    86468594.398 8      1219.949          48.375    21116508.260    86468570.399 8      1219.949          49.875
G14  23077886.560   121275118.088 7      4917.914          44.750    23077886.020   121275118.095 5      4917.914          34.562    23077889.840    94500102.542 5      3832.141          34.687    23077889.440    94500113.531 7      3832.141          46.937
R01  21067787.620   112619401.714 7      1784.201          44.562    21067789.140   112619401.731 7      1784.201          43.812    21067797.600    87592910.260 7      1387.712          43.375    21067796.700    87592905.253 7      1387.712          44.312
R14  22264519.220   118682344.459 7      -941.332          46.500    22264518.940   118682344.459 7      -941.332          45.375    22264532.260    92308564.083 8      -732.147          49.812    22264532.380    92308565.088 8      -732.147          50.125
R24  21520727.220   115080991.078 7      1726.619          46.937    21520728.320   115080991.100 7      1726.619          46.125    21520735.280    89507479.805 7      1342.926          46.812    21520736.120    89507481.808 7      1342.926          46.437
R15  21357194.300   114126363.796 7      1768.797          46.500    21357193.280   114126363.779 7      1768.797          45.812    21357203.140    88764983.107 8      1375.731          48.625    21357202.560    88764985.111 8      1375.731          48.500
G27  23521757.960   123607664.391 7       142.527          42.312    23521756.780   123607664.396 6       142.527          41.687    23521767.220    96317692.674 6       111.060          41.437    23521767.560    96317696.667 7       111.060          45.687
R16  23610444.980   126122762.286 7      4978.916          42.437    23610443.800   126122762.292 7      4978.916          42.062    23610453.920    98095514.870 7      3872.490          47.375    23610454.060    98095515.872 7      3872.490          47.750
R18  23744633.060   126750470.826 7      4607.675          45.062    23744633.200   126750470.824 7      4607.675          44.750    23744642.920    98583735.952 6      3583.747          37.187    23744642.600    98583736.966 6      3583.747          37.437
R03  23814863.460   127482825.322 6      6996.045          39.875    23814864.980   127482825.345 6      6996.045          38.812    23814888.840    99153420.330 7      5441.368          47.187    23814889.160    99153421.330 7      5441.368          47.437
G32  25043648.460   131605258.988 7      2117.569          43.812    25043647.380   131605258.988 6      2117.569          41.750    25043657.200   102549588.419 6      1650.054          41.812    25043658.160   102549593.411 7      1650.054          44.562
R17  21208425.760   113490570.389 8      3655.824          48.187    21208425.760   113490570.399 7      3655.824          47.062    21208435.020    88270481.985 8      2843.418          49.937    21208434.380    88270484.986 8      2843.418          50.312
> 2024 05 03 15 15 20.0000000  0 17
G22  25239350.260   132633684.730 7      5510.784          44.375    25239350.700   132633684.732 4      5510.784          24.062    25239354.320   103350921.090 4      4294.117          24.562
G02  21625152.380   113640937.618 8      2346.715          48.000    21625150.460   113640937.622 6      2346.715          39.937    21625151.560    88551383.977 6      1828.609          39.437
G03  21099956.840   110881056.494 7      5062.377          47.375    21099956.460   110881056.499 6      5062.377          41.312    21099962.480    86400846.388 6      3944.709          40.687    21099963.160    86400864.391 8      3944.709          51.437
R02  20917252.980   111618476.059 8      5492.981          49.000    20917252.200   111618476.050 8      5492.981          48.062    20917262.060    86814414.737 8      4272.318          49.812    20917262.300    86814409.738 8      4272.318          50.062
G21  21617646.240   113601483.261 8      1454.165          48.500    21617644.780   113601483.265 6      1454.165          39.437    21617647.100    88520650.393 6      1133.116          39.312
G08  21116204.620   110966405.877 8      1565.075          48.125    21116203.260   110966405.876 8      1565.075          48.875    21116209.400    86467374.685 8      1219.539          48.937    21116210.260    86467350.687 8      1219.539          49.812
G14  23076950.780   121270200.486 7      4917.243          44.375    23076950.320   121270200.496 5      4917.243          34.437    23076953.900    94496270.647 5      3831.618          34.562    23076953.980    94496281.621 7      3831.618          47.375
R01  21067453.400   112617618.083 7      1783.167          44.562    21067455.380   112617618.106 7      1783.167          43.812    21067464.220    87591522.998 7      1386.907          43.812    21067463.040    87591517.995 7      1386.907          44.750
R14  22264696.100   118683285.929 7      -941.711          46.937    22264695.580   118683285.922 7      -941.711          45.750    22264709.000    92309296.317 8      -732.442          49.875    22264709.220    92309297.320 8      -732.442          49.625
R24  21520404.600   115079264.547 7      1726.530          47.562    21520405.520   115079264.564 7      1726.530          46.625    21520412.580    89506136.941 7      1342.857          46.437    21520413.340    89506138.944 7      1342.857          46.687
R15  21356863.240   114124595.458 7      1767.756          46.500    21356862.240   114124595.445 7      1767.756          45.562    21356872.340    88763607.739 8      1374.921          49.062    21356871.880    88763609.741 8      1374.921          48.562
G27  23521730.740   123607521.961 7       142.307          42.750    23521729.680   123607521.958 6       142.307          41.250    23521739.960    96317581.677 6       110.889          40.812    23521740.660    96317585.672 7       110.889          45.500
R16  23609512.960   126117783.704 6      4978.117          41.937    23609511.700   126117783.729 7      4978.117          42.062    23609521.940    98091642.656 7      3871.869          47.062    23609522.340    98091643.658 8      3871.869          48.062
R18  23743769.700   126745863.165 7      4607.549          45.312    23743769.420   126745863.169 7      4607.549          45.375    23743780.000    98580152.231 6      3583.649          36.812    23743779.380    98580153.232 6      3583.649          37.187
R03  23813556.540   127475829.301 6      6996.036          39.875    23813557.640   127475829.322 6      6996.036          38.812    23813581.800    99147978.989 7      5441.361          47.000    23813582.020    99147979.990 7      5441.361          47.312
G32  25043245.620   131603141.774 7      2117.127          44.250    25043244.500   131603141.774 6      2117.127          41.625    25043254.180   102547938.640 6      1649.709          41.687    25043254.560   102547943.636 7      1649.709          44.125
R17  21207742.580   113486914.667 7      3655.725          47.750    21207742.660   113486914.682 7      3655.725          47.437    21207751.840    88267638.654 8      2843.342          49.625    21207751.580    88267641.653 8      2843.342          50.750
> 2024 05 03 15 15 21.0000000  0 17
G22  25238301.740   132628173.919 7      5510.834          43.750    25238301.980   132628173.921 4      5510.834          24.062    25238305.720   103346626.951 4      4294.157          24.562
G02  21624705.820   113638590.979 7      2346.749          47.312    21624703.900   113638590.984 6      2346.749          39.625    21624704.960    88549555.388 6      1828.636          39.562
G03  21098993.640   110875994.405 7      5061.873          46.750    21098993.180   110875994.407 6      5061.873          40.750    21098999.320    86396901.905 6      3944.317          40.562    21098999.780    86396919.904 8      3944.317          51.625
R02  20916223.360   111612983.403 8      5492.468          48.875    20916222.820   111612983.401 8      5492.468          48.375    20916232.580    86810142.676 8      4271.919          49.750    20916232.760    86810137.680 8      4271.919          50.500
G21  21617369.400   113600029.198 7      1454.135          47.750    21617368.120   113600029.200 6      1454.135          39.562    21617370.400    88519517.357 6      1133.092          40.000
G08  21115906.980   110964840.974 7      1564.812          47.562    21115905.560   110964840.977 8      1564.812          48.687    21115911.600    86466155.278 8      1219.334          48.687    21115912.560    86466131.283 8      1219.334          50.250
G14  23076015.160   121265283.533 7      4916.797          43.750    23076014.480   121265283.546 5      4916.797          34.437    23076018.300    94492439.259 5      3831.270          34.562    23076018.880    94492450.232 8      3831.270          48.187
R01  21067119.800   112615835.321 7      1782.432          44.562    21067121.980   112615835.341 7      1782.432          43.687    21067130.500    87590136.403 7      1386.336          44.062    21067129.460    87590131.394 7      1386.336          44.250
R14  22264872.880   118684227.736 7      -942.014          46.375    22264872.360   118684227.731 7      -942.014          45.625    22264885.740    92310028.823 8      -732.677          49.875    22264885.980    92310029.826 8      -732.677          50.000
R24  21520082.080   115077538.096 7      1726.599          47.750    21520082.660   115077538.110 7      1726.599          46.000    21520089.660    89504794.140 7      1342.910          46.562    21520090.600    89504796.145 7      1342.910          46.500
R15  21356532.320   114122828.062 7      1767.107          46.437    21356531.760   114122828.052 7      1767.107          45.375    21356541.540    88762233.094 8      1374.416          48.812    21356541.140    88762235.098 8      1374.416          48.875
G27  23521704.060   123607379.773 7       142.121          42.187    23521702.720   123607379.781 6       142.121          40.812    23521712.900    96317470.880 6       110.743          40.437    23521713.300    96317474.870 7       110.743          45.375
R16  23608580.940   126112806.035 6      4977.359          41.937    23608579.860   126112806.042 7      4977.359          42.062    23608590.140    98087771.126 7      3871.279          47.375    23608590.420    98087772.126 7      3871.279          47.500
R18  23742906.480   126741255.674 7      4607.591          45.687    23742906.580   126741255.677 7      4607.591          45.062    23742916.900    98576568.628 6      3583.682          36.812    23742916.260    98576569.630 6      3583.682          37.187
R03  23812249.780   127468833.280 6      6996.089          39.875    23812250.940   127468833.303 6      6996.089          38.812    23812274.920    99142537.646 7      5441.403          47.312    23812275.140    99142538.645 7      5441.403          47.125
G32  25042842.660   131601025.088 7      2116.636          44.687    25042841.620   131601025.090 6      2116.636          41.000    25042851.460   102546289.278 6      1649.327          41.187    25042852.280   102546294.276 7      1649.327          44.000
R17  21207059.600   113483259.133 8      3655.664          48.187    21207059.620   113483259.145 7      3655.664          46.875    21207068.580    88264795.456 8      2843.294          49.687    21207068.080    88264798.453 8      2843.294          50.250
> 2024 05 03 15 15 22.0000000  0 17
G22  25237253.080   132622663.239 7      5510.491          43.875    25237253.340   132622663.241 4      5510.491          24.750    25237257.160   103342332.919 4      4293.889          24.562
G02  21624258.920   113636244.332 7      2346.585          47.250    21624257.300   113636244.337 6      2346.585          40.250    21624258.280    88547725.407 6      1828.507          39.937
G03  21098030.500   110870932.687 7      5061.409          47.687    21098029.980   110870932.691 6      5061.409          41.125    21098035.960    86392957.709 6      3943.955          40.562    21098036.620    86392975.710 8      3943.955          51.250
R02  20915193.980   111607491.293 8      5491.805          49.687    20915193.780   111607491.291 8      5491.805          48.250    20915203.420    86805871.038 8      4271.404          49.375    20915203.340    86805866.042 8      4271.404          49.750
G21  21617092.660   113598575.079 8      1454.069          48.125    21617091.460   113598575.084 6      1454.069          39.625    21617093.780    88518384.274 6      1133.041          39.812
G08  21115609.260   110963276.408 8      1564.441          48.062    21115607.860   110963276.411 8      1564.441          48.625    21115613.840    86464936.134 8      1219.045          48.437    21115614.920    86464912.136 8      1219.045          50.375
G14  23075079.800   121260366.927 7      4916.247          45.125    23075078.920   121260366.935 5      4916.247          34.625    23075082.600    94488608.134 5      3830.842          34.687    23075083.880    94488619.108 8      3830.842          48.750
R01  21066786.460   112614053.380 7      1781.529          44.500    21066788.520   112614053.392 7      1781.529          44.000    21066797.480    87588750.445 7      1385.633          43.687    21066796.560    87588745.437 7      1385.633          44.125
R14  22265049.600   118685169.606 7      -942.010          46.562    22265049.180   118685169.601 7      -942.010          45.625    22265062.340    92310761.368 8      -732.674          49.750    22265062.900    92310762.371 8      -732.674          49.750
R24  21519758.780   115075811.653 7      1726.401          47.687    21519759.980   115075811.668 7      1726.401          46.687    21519766.960    89503451.353 7      1342.756          46.937    21519767.560    89503453.354 7      1342.756          46.562
R15  21356201.880   114121061.294 7      1766.256          46.500    21356201.200   114121061.287 7      1766.256          45.312    21356210.940    88760858.939 8      1373.755          48.500    21356210.380    88760860.941 8      1373.755          48.625
G27  23521677.100   123607237.808 7       141.869          42.312    23521675.720   123607237.811 6       141.869          41.562    23521685.880    96317360.245 6       110.548          41.500    23521686.260    96317364.238 7       110.548          45.187
R16  23607649.000   126107828.842 6      4976.791          41.937    23607648.100   126107828.843 6      4976.791          41.687    23607658.460    98083899.971 7      3870.837          47.000    23607658.600    98083900.971 7      3870.837          47.687
R18  23742043.260   126736647.984 7      4607.608          44.750    23742043.520   126736647.985 7      4607.608          45.687    23742053.340    98572984.870 6      3583.695          36.812    23742052.940    98572985.873 6      3583.695          37.187
R03  23810943.280   127461837.064 6      6996.257          39.875    23810943.700   127461837.108 6      6996.257          38.812    23810968.120    99137096.167 7      5441.534          47.250    23810968.360    99137097.168 7      5441.534          47.187
G32  25042440.120   131598908.877 7      2115.974          44.812    25042438.980   131598908.877 6      2115.974          40.812    25042448.820   102544640.283 6      1648.811          41.000    25042449.640   102544645.273 7      1648.811          44.125
R17  21206376.220   113479603.489 7      3655.527          47.312    21206376.320   113479603.495 7      3655.527          46.937    21206385.520    88261952.173 8      2843.187          49.687    21206384.920    88261955.172 8      2843.187          50.062
> 2024 05 03 15 15 23.0000000  0 17
G22  25236204.680   132617152.864 7      5510.357          44.937    25236204.840   132617152.866 4      5510.357          24.750    25236208.520   103338039.123 4      4293.785          24.562
G02  21623812.480   113633897.801 7      2346.554          47.687    21623810.740   113633897.811 6      2346.554          39.812    21623811.980    88545897.310 6      1828.484          39.625
G03  21097067.200   110865871.557 7      5060.854          47.375    21097066.880   110865871.559 6      5060.854          40.937    21097072.740    86389013.969 6      3943.522          40.625    21097073.500    86389031.973 8      3943.522          51.562
R02  20914164.980   111601999.789 8      5491.200          48.812    20914164.580   111601999.790 8      5491.200          48.250    20914174.060    86801599.874 8      4270.933          49.312    20914174.420    86801594.878 8      4270.933          49.437
G21  21616816.160   113597121.019 8      1454.081          48.687    21616814.660   113597121.026 6      1454.081          39.500    21616817.040    88517251.242 6      1133.050          39.562
G08  21115311.560   110961712.208 8      1564.021          48.125    21115310.200   110961712.210 8      1564.021          48.375    21115316.220    86463717.274 8      1218.718          48.812    21115317.260    86463693.281 8      1218.718          50.375
G14  23074144.420   121255450.879 7      4915.829          44.562    23074143.460   121255450.883 5      4915.829          34.625    23074147.100    94484777.440 5      3830.516          34.250    23074148.600    94484788.433 8      3830.516          49.250
R01  21066453.160   112612272.256 7      1780.706          45.000    21066455.600   112612272.274 7      1780.706          43.625    21066464.220    87587365.134 7      1384.993          43.687    21066463.100    87587360.125 7      1384.993          44.437
R14  22265226.560   118686111.820 7      -942.280          46.937    22265225.860   118686111.813 7      -942.280          45.500    22265239.140    92311494.185 8      -732.884          49.062    22265239.800    92311495.190 8      -732.884          49.812
R24  21519435.800   115074085.221 7      1726.491          47.500    21519436.780   115074085.241 7      1726.491          46.625    21519444.000    89502108.573 7      1342.826          47.125    21519444.800    89502110.576 7      1342.826          47.000
R15  21355871.380   114119295.395 7      1765.644          46.687    21355870.660   114119295.383 7      1765.644          45.687    21355880.540    88759485.455 8      1373.278          48.875    21355879.780    88759487.455 8      1373.278          48.812
G27  23521649.800   123607096.041 7       141.694          42.562    23521648.780   123607096.043 6       141.694          40.812    23521658.860    96317249.769 6       110.411          40.562    23521659.020    96317253.761 7       110.411          45.125
R16  23606717.100   126102852.378 6      4976.084          41.937    23606716.320   126102852.379 7      4976.084          42.437    23606726.800    98080029.390 7      3870.288          47.937    23606727.040    98080030.390 7      3870.288          47.687
R18  23741180.240   126732040.369 7      4607.665          45.312    23741180.380   126732040.365 7      4607.665          45.687    23741190.340    98569401.159 6      3583.740          36.812    23741189.780    98569402.171 6      3583.740          37.187
R03  23809636.020   127454840.856 6      6996.163          39.437    23809637.360   127454840.905 6      6996.163          38.562    23809661.100    99131654.684 7      5441.460          47.437    23809660.960    99131655.687 7      5441.460          46.937
G32  25042037.540   131596793.092 7      2115.521          45.187    25042036.420   131596793.100 6      2115.521          40.937    25042046.140   102542991.621 6      1648.458          41.312    25042046.700   102542996.623 7      1648.458          44.187
R17  21205692.840   113475947.909 7      3655.635          47.875    21205693.180   113475947.918 7      3655.635          46.750    21205702.320    88259108.946 8      2843.272          49.500    21205702.280    88259111.948 8      2843.272          50.250
> 2024 05 03 15 15 24.0000000  0 17
G22  25235156.120   132611642.578 7      5510.084          45.250    25235156.300   132611642.586 4      5510.084          24.750    25235159.900   103333745.396 4      4293.572          24.937
G02  21623366.080   113631551.210 7      2346.529          47.687    21623364.280   113631551.217 6      2346.529          40.375    21623365.420    88544069.377 6      1828.464          40.000
G03  21096104.280   110860810.745 8      5060.575          48.062    21096103.760   110860810.749 6      5060.575          40.875    21096109.720    86385070.486 6      3943.305          40.562    21096110.600    86385088.489 8      3943.305          51.375
R02  20913135.960   111596508.792 8      5490.769          49.000    20913135.640   111596508.790 8      5490.769          48.750    20913145.140    86797329.100 8      4270.598          48.812    20913145.300    86797324.102 8      4270.598          50.000
G21  21616539.320   113595666.877 8      1454.105          48.125    21616538.000   113595666.884 6      1454.105          39.562    21616540.340    88516118.144 6      1133.069          40.000
G08  21115013.920   110960148.262 7      1563.838          47.500    21115012.600   110960148.264 8      1563.838          48.625    21115018.620    86462498.615 8      1218.575          48.625    21115019.480    86462474.620 8      1218.575          50.187
G14  23073208.880   121250535.106 7      4915.549          45.312    23073208.100   121250535.113 5      4915.549          34.625    23073211.720    94480946.974 5      3830.298          34.250    23073213.420    94480957.983 8      3830.298          49.687
R01  21066120.280   112610491.905 7      1779.940          44.375    21066122.720   112610491.920 7      1779.940          44.062    21066131.180    87585980.415 7      1384.398          43.750    21066130.300    87585975.412 7      1384.398          44.812
R14  22265403.360   118687054.067 7      -942.335          46.687    22265402.640   118687054.062 7      -942.335          45.875    22265415.880    92312227.033 8      -732.927          49.937    22265416.500    92312228.038 8      -732.927          49.562
R24  21519112.940   115072358.797 7      1726.430          47.687    21519114.220   115072358.806 7      1726.430          45.875    21519121.080    89500765.788 7      1342.779          46.687    21519122.040    89500767.789 7      1342.779          46.562
R15  21355541.040   114117530.096 7      1764.970          46.750    21355540.500   114117530.084 7      1764.970          45.562    21355550.240    88758112.444 8      1372.755          48.937    21355549.740    88758114.443 8      1372.755          49.250
G27  23521622.760   123606954.431 7       141.551          42.250    23521621.720   123606954.438 6       141.551          41.437    23521631.800    96317139.419 6       110.300          41.562    23521632.000    96317143.412 7       110.300          45.187
R16  23605785.340   126097876.352 7      4975.687          42.625    23605784.700   126097876.361 7      4975.687          42.437    23605795.360    98076159.156 7      3869.978          46.812    23605795.360    98076160.160 7      3869.978          47.750
R18  23740317.440   126727432.472 7      4607.875          45.562    23740317.140   126727432.473 7      4607.875          45.437    23740326.780    98565817.251 6      3583.903          36.812    23740326.460    98565818.261 6      3583.903          37.000
R03  23808329.300   127447844.382 6      6996.387          39.437    23808330.720   127447844.429 6      6996.387          38.562    23808354.120    99126212.987 7      5441.635          46.937    23808354.000    99126213.990 7      5441.635          47.125
G32  25041634.680   131594677.730 7      2115.128          44.937    25041633.840   131594677.732 6      2115.128          41.437    25041643.580   102541343.287 6      1648.152          41.562    25041644.500   102541348.285 7      1648.152          44.187
R17  21205009.880   113472292.165 7      3655.758          47.562    21205010.000   113472292.178 7      3655.758          46.500    21205019.240    88256265.595 8      2843.367          50.125    21205018.820    88256268.598 8      2843.367          50.437
> 2024 05 03 15 15 25.0000000  0 17
G22  25234107.660   132606132.723 7      5509.836          44.687    25234107.680   132606132.731 4      5509.836          24.750    25234111.420   103329452.004 4      4293.379          24.937
G02  21622919.580   113629204.923 7      2346.192          47.875    21622917.800   113629204.933 6      2346.192          40.125    21622918.940    88542241.034 6      1828.202          39.937
G03  21095141.540   110855750.639 7      5059.946          47.250    21095140.800   110855750.642 6      5059.946          40.875    21095146.900    86381127.551 6      3942.815          40.812    21095147.600    86381145.550 8      3942.815          51.250
R02  20912107.240   111591018.576 8      5489.914          49.000    20912106.820   111591018.574 7      5489.914          47.937    20912116.120    86793058.937 8      4269.933          49.562    20912116.340    86793053.941 8      4269.933          49.687
G21  21616262.540   113594212.993 8      1453.881          48.187    21616261.320   113594212.997 6      1453.881          39.625    21616263.460    88514985.245 6      1132.894          39.750
G08  21114716.500   110958584.936 7      1563.060          47.812    21114715.080   110958584.944 8      1563.060          48.500    21114721.140    86461280.437 8      1217.969          48.312    21114721.940    86461256.442 8      1217.969          50.000
G14  23072273.440   121245620.060 7      4914.813          43.937    23072272.720   121245620.073 5      4914.813          34.250    23072276.400    94477117.072 5      3829.725          34.500    23072278.080    94477128.090 8      3829.725          48.562
R01  21065787.600   112608712.650 7      1778.707          44.125    21065789.760   112608712.662 7      1778.707          43.687    21065798.360    87584596.548 7      1383.439          44.000    21065797.320    87584591.542 7      1383.439          44.062
R14  22265580.020   118687996.702 7      -942.623          46.812    22265579.600   118687996.697 7      -942.623          45.062    22265592.800    92312960.179 8      -733.151          49.312    22265593.300    92312961.182 8      -733.151          49.750
R24  21518790.340   115070632.656 7      1726.147          47.187    21518791.500   115070632.668 7      1726.147          46.500    21518798.580    89499423.236 7      1342.559          47.000    21518799.080    89499425.237 7      1342.559          46.750
R15  21355210.980   114115765.797 7      1763.939          47.312    21355210.360   114115765.783 7      1763.939          45.375    21355220.240    88756740.205 8      1371.953          49.062    21355219.580    88756742.205 8      1371.953          49.062
G27  23521596.180   123606813.280 7       141.061          43.062    23521594.880   123606813.285 6       141.061          41.000    23521604.920    96317029.424 6       109.918          41.000    23521605.160    96317033.416 7       109.918          45.000
R16  23604854.400   126092901.248 7      4974.645          42.500    23604853.200   126092901.257 6      4974.645          41.750    23604864.140    98072289.632 7      3869.168          47.187    23604864.120    98072290.634 7      3869.168          47.687
R18  23739454.180   126722824.734 7      4607.815          45.500    23739454.100   126722824.730 7      4607.815          46.312    23739463.480    98562233.453 6      3583.856          36.812    23739463.120    98562234.457 6      3583.856          37.000
R03  23807021.560   127440847.973 6      6996.445          39.437    23807023.100   127440848.015 6      6996.445          38.562    23807047.120    99120771.339 7      5441.679          47.000    23807047.260    99120772.339 7      5441.679          47.312
G32  25041232.400   131592563.099 7      2114.360          45.437    25041231.360   131592563.101 6      2114.360          41.187    25041241.180   102539695.522 6      1647.553          41.000    25041242.300   102539700.520 7      1647.553          44.000
R17  21204326.560   113468636.695 7      3655.481          47.187    21204326.680   113468636.710 7      3655.481          46.750    21204336.040    88253422.451 8      2843.152          49.500    21204335.580    88253425.450 8      2843.152          49.625
> 2024 05 03 15 15 26.0000000  0 17
G22  25233059.240   132600623.331 7      5509.295          45.500    25233059.300   132600623.338 4      5509.295          24.750    25233062.880   103325158.973 4      4292.957          24.937
G02  21622472.980   113626858.876 7      2345.906          47.937    21622471.420   113626858.886 6      2345.906          39.875    21622472.340    88540412.282 6      1827.978          39.812
G03  21094178.540   110850691.217 8      5059.133          48.187    21094178.040   110850691.222 6      5059.133          40.687    21094184.140    86377185.146 6      3942.181          40.812    21094184.780    86377203.149 8      3942.181          51.562
R02  20911078.580   111585529.020 8      5489.180          49.125    20911078.220   111585529.018 7      5489.180          47.687    20911087.340    86788789.286 8      4269.362          49.125    20911087.860    86788784.292 8      4269.362          49.750
G21  21615985.980   113592759.308 7      1453.577          47.875    21615984.680   113592759.310 6      1453.577          39.500    21615986.820    88513852.502 6      1132.658          39.625
G08  21114418.980   110957022.083 7      1562.650          47.812    21114417.700   110957022.086 7      1562.650          47.812    21114423.660    86460062.628 7      1217.649          47.875    21114424.540    86460038.632 8      1217.649          50.250
G14  23071338.320   121240705.677 7      4914.166          43.500    23071337.560   121240705.695 5      4914.166          34.250    23071341.220    94473287.685 5      3829.221          34.500    23071342.640    94473298.717 8      3829.221          48.312
R01  21065454.900   112606934.341 7      1777.746          43.375    21065457.300   112606934.353 7      1777.746          43.687    21065465.700    87583213.422 7      1382.691          43.875    21065464.580    87583208.419 7      1382.691          44.187
R14  22265756.720   118688939.735 7      -943.143          46.812    22265756.260   118688939.725 7      -943.143          45.500    22265769.620    92313693.633 8      -733.556          49.187    22265770.280    92313694.635 8      -733.556          49.187
R24  21518467.540   115068906.738 7      1725.778          46.875    21518468.620   115068906.752 7      1725.778          46.250    21518475.980    89498080.859 7      1342.272          47.000    21518476.360    89498082.858 7      1342.272          46.937
R15  21354881.040   114114002.447 7      1762.964          47.062    21354880.160   114114002.440 7      1762.964          46.062    21354889.960    88755368.712 8      1371.194          49.125    21354889.320    88755370.712 8      1371.194          49.062
G27  23521569.420   123606672.472 6       140.561          41.437    23521568.140   123606672.479 6       140.561          40.812    23521578.120    96316919.695 6       109.528          40.437    23521578.740    96316923.695 7       109.528          45.062
R16  23603923.220   126087926.979 7      4973.914          42.500    23603922.620   126087926.980 6      4973.914          41.750    23603932.820    98068420.744 7      3868.600          47.125    23603932.760    98068421.744 7      3868.600          47.562
R18  23738590.960   126718217.178 7      4607.552          44.687    23738590.880   126718217.171 7      4607.552          45.750    23738600.480    98558649.801 6      3583.651          36.812    23738600.000    98558650.821 6      3583.651          37.000
R03  23805714.840   127433851.610 6      6996.244          39.437    23805716.300   127433851.659 6      6996.244          38.562    23805740.200    99115329.738 7      5441.523          47.000    23805739.960    99115330.737 7      5441.523          47.187
G32  25040830.120   131590449.061 7      2113.764          44.562    25040829.080   131590449.061 6      2113.764          40.812    25040838.880   102538048.216 6      1647.089          40.812    25040839.860   102538053.218 7      1647.089          44.250
R17  21203643.340   113464981.436 7      3655.137          47.312    21203643.780   113464981.454 7      3655.137          45.937    21203653.020    88250579.474 8      2842.884          49.625    21203652.620    88250582.471 8      2842.884          50.000
> 2024 05 03 15 15 27.0000000  0 17
G22  25232010.860   132595114.230 7      5508.727          44.375    25232011.040   132595114.233 4      5508.727          24.750    25232014.460   103320866.166 4      4292.514          24.937
G02  21622026.520   113624512.978 7      2345.570          47.312    21622025.000   113624512.985 6      2345.570          39.562    21622026.040    88538584.103 6      1827.717          39.937
G03  21093215.880   110845632.371 7      5058.316          47.437    21093215.380   110845632.376 6      5058.316          40.875    21093221.560    86373243.190 6      3941.545          40.375    21093222.140    86373261.193 8      3941.545          51.187
R02  20910049.900   111580040.186 8      5488.235          49.375    20910049.200   111580040.187 8      5488.235          48.500    20910058.700    86784520.198 8      4268.627          49.062    20910059.040    86784515.202 8      4268.627          49.437
G21  21615709.460   113591305.736 7      1453.318          47.312    21615708.120   113591305.744 6      1453.318          39.625    21615710.440    88512719.846 6      1132.456          39.812
G08  21114121.760   110955459.743 7      1561.918          47.937    21114120.460   110955459.740 8      1561.918          48.062    21114126.440    86458845.215 8      1217.079          48.312    21114127.320    86458821.220 8      1217.079          50.187
G14  23070403.060   121235791.841 7      4913.333          45.125    23070402.560   121235791.854 5      4913.333          34.562    23070406.180    94469458.717 5      3828.571          34.500    23070406.860    94469469.747 7      3828.571          47.437
R01  21065122.580   112605157.026 7      1776.651          44.187    21065124.740   112605157.033 7      1776.651          43.500    21065133.180    87581831.058 7      1381.840          44.125    21065131.760    87581826.053 7      1381.840          44.375
R14  22265933.220   118689882.999 7      -943.558          47.062    22265933.180   118689882.994 7      -943.558          45.562    22265946.580    92314427.270 8      -733.878          49.000    22265946.840    92314428.273 8      -733.878          48.875
R24  21518144.260   115067180.961 7      1725.458          47.375    21518145.880   115067180.973 7      1725.458          46.375    21518153.460    89496738.588 7      1342.023          47.250    21518154.160    89496740.583 7      1342.023          47.125
R15  21354550.760   114112239.909 7      1761.912          46.687    21354550.760   114112239.910 7      1761.912          45.562    21354560.360    88753997.853 8      1370.376          48.875    21354559.920    88753999.851 8      1370.376          49.062
G27  23521542.820   123606532.020 7       140.094          42.500    23521541.440   123606532.028 6       140.094          41.125    23521551.440    96316810.244 6       109.164          40.625    23521552.040    96316814.236 7       109.164          45.000
R16  23602992.180   126082953.424 7      4972.953          42.437    23602991.180   126082953.433 7      4972.953          42.125    23603001.740    98064552.428 7      3867.852          46.937    23603002.020    98064553.434 7      3867.852          47.437
R18  23737727.100   126713609.622 7      4607.316          45.875    23737727.660   126713609.621 7      4607.316          46.250    23737737.660    98555066.150 6      3583.468          36.562    23737736.920    98555067.162 6      3583.468          37.000
R03  23804408.380   127426855.251 6      6996.084          39.562    23804409.780   127426855.296 6      6996.084          38.187    23804432.980    99109888.128 7      5441.399          47.062    23804432.980    99109889.131 7      5441.399          47.125
G32  25040427.760   131588335.649 7      2112.882          43.500    25040426.920   131588335.651 6      2112.882          40.937    25040436.820   102536401.409 6      1646.402          41.000    25040437.700   102536406.412 7      1646.402          44.062
R17  21202960.740   113461326.233 8      3655.027          48.125    21202960.980   113461326.251 7      3655.027          46.750    21202969.980    88247736.539 8      2842.799          49.687    21202969.280    88247739.538 8      2842.799          49.687
> 2024 05 03 15 15 28.0000000  0 17
G22  25230962.460   132589605.321 7      5509.022          44.750    25230962.600   132589605.321 4      5509.022          24.937    25230966.220   103316573.509 4      4292.745          24.937
G02  21621580.120   113622167.127 7      2346.095          47.750    21621578.560   113622167.132 6      2346.095          39.875    21621579.640    88536756.169 6      1828.126          39.687
G03  21092253.180   110840574.016 7      5058.494          47.687    21092252.760   110840574.018 6      5058.494          40.625    21092258.780    86369301.616 6      3941.683          40.187    21092259.700    86369319.619 8      3941.683          51.375
R02  20909021.180   111574551.913 8      5488.427          49.625    20909020.860   111574551.911 8      5488.427          48.000    20909030.100    86780251.545 8      4268.776          48.625    20909030.340    86780246.547 8      4268.776          48.625
G21  21615432.880   113589852.172 7      1453.891          46.937    21615431.460   113589852.177 6      1453.891          39.062    21615433.760    88511587.199 6      1132.902          39.250
G08  21113824.700   110953897.728 7      1562.199          47.562    21113823.140   110953897.733 7      1562.199          47.500    21113829.220    86457628.063 7      1217.298          47.375    21113830.120    86457604.068 8      1217.298          50.562
G14  23069468.200   121230878.438 7      4913.446          45.187    23069467.620   121230878.445 5      4913.446          34.125    23069471.060    94465630.088 5      3828.659          34.250    23069471.320    94465641.111 7      3828.659          46.000
R01  21064789.920   112603380.532 7      1776.376          45.125    21064792.300   112603380.533 7      1776.376          43.062    21064800.920    87580449.347 7      1381.626          43.375    21064800.100    87580444.339 7      1381.626          44.125
R14  22266110.800   118690826.471 7      -943.173          46.875    22266110.100   118690826.472 7      -943.173          45.312    22266123.520    92315161.072 8      -733.579          49.187    22266124.240    92315162.072 8      -733.579          49.000
R24  21517821.780   115065455.178 7      1726.128          47.500    21517823.500   115065455.188 7      1726.128          46.562    21517830.680    89495396.309 7      1342.544          46.500    21517831.520    89495398.308 7      1342.544          46.875
R15  21354221.620   114110478.153 7      1761.634          46.500    21354220.960   114110478.155 7      1761.634          45.062    21354230.560    88752627.595 8      1370.160          48.875    21354230.400    88752629.599 8      1370.160          48.875
G27  23521515.860   123606391.800 7       140.481          42.250    23521514.640   123606391.802 6       140.481          40.750    23521524.780    96316700.971 6       109.466          40.812    23521525.140    96316704.968 7       109.466          44.687
R16  23602061.100   126077980.501 7      4972.935          43.062    23602060.440   126077980.502 7      4972.935          42.312    23602070.860    98060684.597 7      3867.838          46.375    23602071.040    98060685.599 7      3867.838          47.500
R18  23736864.820   126709002.000 7      4607.942          45.937    23736864.760   126709002.000 7      4607.942          46.312    23736873.780    98551482.450 6      3583.955          36.562    23736873.520    98551483.464 6      3583.955          36.437
R03  23803101.980   127419858.856 6      6996.926          39.562    23803102.620   127419858.879 6      6996.926          38.187    23803126.180    99104446.480 7      5442.054          47.250    23803126.200    99104447.482 7      5442.054          47.062
G32  25040025.820   131586222.691 7      2113.018          43.062    25040024.880   131586222.693 6      2113.018          41.125    25040034.680   102534754.947 6      1646.508          41.250    25040035.920   102534759.945 7      1646.508          44.000
R17  21202277.140   113457671.023 7      3655.564          47.250    21202277.620   113457671.037 7      3655.564          46.312    21202286.760    88244893.599 8      2843.217          49.500    21202286.400    88244896.602 8      2843.217          49.687
> 2024 05 03 15 15 29.0000000  0 17
G22  25229913.960   132584096.523 7      5508.557          45.125    25229914.260   132584096.525 4      5508.557          24.937    25229917.960   103312280.939 4      4292.382          24.937
G02  21621133.880   113619821.222 7      2345.779          47.687    21621132.280   113619821.229 6      2345.779          40.312    21621133.260    88534928.891 6      1827.880          39.562
G03  21091290.760   110835516.039 7      5057.539          47.312    21091290.200   110835516.044 6      5057.539          40.812    21091296.320    86365360.340 6      3940.939          40.687    21091297.100    86365378.343 8      3940.939          51.375
R02  20907993.000   111569064.080 8      5487.450          49.437    20907992.520   111569064.081 8      5487.450          48.500    20908001.680    86775983.235 8      4268.017          49.187    20908002.140    86775978.239 8      4268.017          48.750
G21  21615156.220   113588398.538 7      1453.441          47.562    21615154.840   113588398.542 6      1453.441          39.625    21615157.200    88510454.497 6      1132.551          39.562
G08  21113527.320   110952335.976 8      1561.441          48.125    21113526.000   110952335.984 8      1561.441          48.562    21113532.020    86456411.114 8      1216.707          48.312    21113533.180    86456387.118 8      1216.707          50.125
G14  23068533.400   121225965.379 7      4912.715          46.250    23068532.780   121225965.387 5      4912.715          34.125    23068536.180    94461801.726 5      3828.090          34.250    23068535.360    94461812.729 7      3828.090          45.250
R01  21064457.880   112601604.775 7      1775.148          44.187    21064459.820   112601604.774 7      1775.148          43.312    21064468.840    87579068.200 7      1380.671          44.187    21064468.020    87579063.189 7      1380.671          44.687
R14  22266287.560   118691770.021 7      -943.804          46.625    22266287.460   118691770.013 7      -943.804          45.875    22266300.640    92315894.921 8      -734.070          49.437    22266300.900    92315895.921 8      -734.070          49.625
R24  21517499.140   115063729.337 7      1725.676          46.937    21517500.700   115063729.349 7      1725.676          46.500    21517508.020    89494053.984 7      1342.192          46.875    21517508.760    89494055.985 7      1342.192          47.312
R15  21353892.200   114108717.018 7      1760.628          46.500    21353891.240   114108717.019 7      1760.628          45.875    21353901.080    88751257.821 8      1369.377          48.937    21353900.900    88751259.823 8      1369.377          49.000
G27  23521489.360   123606251.690 7       139.825          42.375    23521487.880   123606251.695 6       139.825          40.437    23521498.160    96316591.789 6       108.954          40.187    23521498.320    96316595.783 7       108.954          44.937
R16  23601130.240   126073008.110 7      4971.925          43.062    23601129.920   126073008.117 7      4971.925          42.500    23601139.920    98056817.182 7      3867.053          47.187    23601140.040    98056818.182 7      3867.053          47.625
R18  23736001.380   126704394.174 7      4607.733          46.125    23736001.600   126704394.172 7      4607.733          46.562    23736010.960    98547898.592 6      3583.792          36.562    23736010.880    98547899.593 6      3583.792          36.437
R03  23801795.060   127412862.257 6      6996.611          39.562    23801794.780   127412862.266 6      6996.611          38.187    23801819.160    99099004.675 7      5441.808          47.375    23801819.300    99099005.674 7      5441.808          47.562
G32  25039623.980   131584110.114 7      2112.078          44.750    25039622.980   131584110.122 6      2112.078          41.000    25039632.620   102533108.791 6      1645.775          41.437    25039633.960   102533113.791 7      1645.775          44.000
R17  21201594.300   113454015.678 7      3655.266          46.562    21201594.760   113454015.701 7      3655.266          47.062    21201603.740    88242050.560 8      2842.985          50.062    21201603.200    88242053.563 8      2842.985          50.625
> 2024 05 03 15 15 30.0000000  0 17
G22  25228865.960   132578588.168 7      5508.385          44.937    25228866.020   132578588.171 4      5508.385          24.937    25228869.660   103307988.713 4      4292.248          24.937
G02  21620687.540   113617475.597 7      2345.612          47.437    21620685.940   113617475.602 6      2345.612          40.187    21620686.880    88533101.203 6      1827.749          40.062
G03  21090328.440   110830458.706 7      5057.146          47.812    21090327.900   110830458.710 6      5057.146          41.375    21090333.960    86361419.565 6      3940.633          41.125    21090334.540    86361437.566 8      3940.633          51.250
R02  20906964.720   111563576.941 8      5486.938          49.375    20906964.320   111563576.942 8      5486.938          48.250    20906973.200    86771715.464 8      4267.618          49.000    20906973.860    86771710.466 8      4267.618          49.062
G21  21614879.600   113586945.079 8      1453.492          48.062    21614878.180   113586945.084 6      1453.492          39.750    21614880.580    88509321.930 6      1132.591          39.812
G08  21113230.220   110950774.732 8      1561.155          48.062    21113228.840   110950774.734 8      1561.155          48.312    21113234.900    86455194.555 8      1216.484          48.312    21113236.220    86455170.560 8      1216.484          50.437
G14  23067598.560   121221053.003 7      4912.249          46.375    23067597.780   121221053.008 5      4912.249          34.625    23067601.400    94457973.905 5      3827.727          34.500    23067600.260    94457984.877 7      3827.727          45.000
R01  21064125.780   112599829.967 7      1774.502          43.062    21064127.560   112599829.966 7      1774.502          43.562    21064136.820    87577687.796 7      1380.168          43.625    21064135.580    87577682.791 7      1380.168          44.250
R14  22266465.020   118692713.949 7      -943.845          46.687    22266464.580   118692713.942 7      -943.845          46.000    22266477.920    92316629.070 8      -734.102          49.375    22266478.200    92316630.073 8      -734.102          49.250
R24  21517176.200   115062003.691 7      1725.672          47.750    21517178.200   115062003.711 7      1725.672          46.687    21517185.520    89492711.823 7      1342.189          47.312    21517186.020    89492713.820 7      1342.189          46.937
R15  21353562.820   114106956.863 7      1759.863          47.000    21353561.620   114106956.864 7      1759.863          45.875    21353571.540    88749888.809 8      1368.782          48.687    21353571.160    88749890.813 8      1368.782          49.125
G27  23521462.880   123606111.896 7       139.794          42.000    23521461.420   123606111.901 6       139.794          41.000    23521471.540    96316482.854 6       108.930          40.750    23521471.620    96316486.850 7       108.930          44.937
R16  23600199.660   126068036.582 7      4971.266          43.187    23600199.260   126068036.594 7      4971.266          42.500    23600209.200    98052950.446 7      3866.540          47.375    23600209.300    98052951.448 7      3866.540          47.812
R18  23735138.120   126699786.495 7      4607.802          45.687    23735138.220   126699786.488 7      4607.802          46.250    23735146.820    98544314.829 6      3583.846          36.562    23735147.660    98544315.845 6      3583.846          36.437
R03  23800488.060   127405865.722 6      6996.757          39.312    23800487.640   127405865.726 6      6996.757          38.187    23800512.080    99093562.934 7      5441.922          46.750    23800512.480    99093563.939 7      5441.922          46.812
G32  25039222.020   131581998.136 7      2111.780          45.625    25039221.000   131581998.139 6      2111.780          41.187    25039230.720   102531463.092 6      1645.543          41.500    25039231.900   102531468.086 7      1645.543          44.062
R17  21200911.540   113450360.537 7      3655.236          47.187    21200911.540   113450360.552 7      3655.236          46.562    21200920.880    88239207.668 8      2842.961          50.062    21200920.180    88239210.665 8      2842.961          49.875
> 2024 05 03 15 15 31.0000000  0 17
G22  25227817.620   132573079.945 7      5508.101          44.625    25227817.820   132573079.950 4      5508.101          24.937    25227821.400   103303696.589 4      4292.027          25.437
G02  21620241.300   113615129.926 7      2345.430          47.625    21620239.340   113615129.933 6      2345.430          40.125    21620240.520    88531273.925 6      1827.607          40.250
G03  21089366.120   110825401.777 7      5056.545          46.875    21089365.600   110825401.779 6      5056.545          41.312    21089371.720    86357479.103 6      3940.165          40.937    21089372.420    86357497.106 8      3940.165          51.437
R02  20905936.360   111558090.298 8      5486.199          49.437    20905936.100   111558090.297 8      5486.199          48.125    20905945.040    86767448.079 8      4267.043          49.000    20905945.500    86767443.083 8      4267.043          49.375
G21  21614603.040   113585491.544 7      1453.382          47.500    21614601.620   113585491.546 6      1453.382          39.875    21614603.920    88508189.299 6      1132.505          40.000
G08  21112933.220   110949213.747 8      1560.623          48.375    21112931.820   110949213.754 8      1560.623          48.125    21112937.940    86453978.206 8      1216.070          48.375    21112939.000    86453954.212 8      1216.070          50.375
G14  23066663.700   121216140.982 7      4911.742          44.937    23066663.040   121216140.990 5      4911.742          34.437    23066666.680    94454146.358 5      3827.331          34.500    23066666.140    94454157.316 7      3827.331          45.500
R01  21063794.160   112598055.913 7      1773.499          44.187    21063795.720   112598055.912 7      1773.499          43.312    21063805.040    87576307.981 7      1379.388          43.937    21063803.780    87576302.971 7      1379.388          44.125
R14  22266642.180   118693658.010 7      -944.281          46.375    22266641.740   118693658.008 7      -944.281          45.500    22266654.860    92317363.334 8      -734.441          49.187    22266655.160    92317364.337 8      -734.441          49.500
R24  21516853.900   115060278.024 7      1725.442          47.187    21516855.420   115060278.036 7      1725.442          45.562    21516862.960    89491369.631 7      1342.011          47.250    21516863.220    89491371.630 7      1342.011          47.500
R15  21353233.280   114105197.355 7      1758.985          47.375    21353232.240   114105197.353 7      1758.985          45.500    21353242.180    88748520.296 8      1368.099          49.000    21353242.020    88748522.302 8      1368.099          49.312
G27  23521435.960   123605972.246 6       139.444          41.625    23521434.880   123605972.253 6       139.444          41.250    23521445.000    96316374.029 6       108.657          40.750    23521445.260    96316378.026 7       108.657          45.187
R16  23599269.300   126063065.588 7      4970.624          43.125    23599268.660   126063065.592 7      4970.624          42.312    23599278.700    98049084.111 7      3866.041          47.000    23599278.920    98049085.109 7      3866.041          47.937
R18  23734275.000   126695178.664 7      4607.775          46.562    23734275.160   126695178.657 7      4607.775          46.125    23734284.260    98540730.965 6      3583.825          36.562    23734284.380    98540731.979 6      3583.825          36.437
R03  23799180.600   127398869.013 6      6996.625          39.312    23799180.360   127398869.014 6      6996.625          38.187    23799205.180    99088121.053 7      5441.819          47.250    23799205.300    99088122.055 7      5441.819          47.312
G32  25038819.960   131579886.529 7      2111.188          45.500    25038819.280   131579886.531 6      2111.188          41.687    25038829.000   102529817.686 6      1645.082          41.875    25038829.800   102529822.684 7      1645.082          44.187
R17  21200228.100   113446705.278 7      3655.067          47.062    21200228.380   113446705.295 7      3655.067          46.625    21200237.680    88236364.691 8      2842.830          49.812    21200236.900    88236367.688 8      2842.830          50.312
> 2024 05 03 15 15 32.0000000  0 17
G22  25226769.620   132567572.017 7      5507.733          45.250    25226769.560   132567572.021 4      5507.733          24.937    25226773.220   103299404.696 4      4291.740          25.437
G02  21619794.740   113612784.409 7      2345.445          47.375    21619793.100   113612784.414 6      2345.445          40.625    21619794.100    88529445.337 6      1827.619          40.125
G03  21088403.940   110820345.455 7      5056.069          47.500    21088403.460   110820345.458 6      5056.069          40.312    21088409.440    86353539.112 6      3939.794          40.062    21088410.180    86353557.115 8      3939.794          51.375
R02  20904908.160   111552604.400 8      5485.642          49.250    20904908.000   111552604.398 7      5485.642          47.875    20904916.780    86763181.271 8      4266.611          49.250    20904917.540    86763176.273 8      4266.611          49.000
G21  21614326.420   113584038.148 7      1453.369          47.625    21614325.120   113584038.153 6      1453.369          40.125    21614327.280    88507056.787 6      1132.495          39.812
G08  21112636.160   110947653.267 8      1560.314          48.500    21112634.940   110947653.272 8      1560.314          48.812    21112640.940    86452762.245 8      1215.829          48.812    21112642.120    86452738.252 8      1215.829          50.250
G14  23065729.340   121211229.521 7      4911.133          45.000    23065728.560   121211229.529 5      4911.133          34.437    23065732.060    94450319.248 5      3826.857          34.312    23065732.240    94450330.208 7      3826.857          47.250
R01  21063462.420   112596282.856 7      1772.657          43.750    21063463.780   112596282.852 7      1772.657          43.125    21063473.380    87574928.932 7      1378.733          43.625    21063471.940    87574923.927 7      1378.733          44.312
R14  22266819.200   118694602.349 7      -944.497          46.500    22266818.900   118694602.355 7      -944.497          45.687    22266831.880    92318097.811 8      -734.609          49.250    22266832.140    92318098.814 8      -734.609          49.812
R24  21516531.620   115058552.562 7      1725.447          47.125    21516532.640   115058552.569 7      1725.447          46.250    21516540.120    89490027.599 7      1342.014          47.250    21516540.540    89490029.600 7      1342.014          47.187
R15  21352903.960   114103438.664 7      1758.177          46.750    21352903.200   114103438.652 7      1758.177          45.812    21352913.300    88747152.418 8      1367.471          48.750    21352912.900    88747154.424 8      1367.471          49.062
G27  23521409.540   123605833.016 7       139.195          42.000    23521408.360   123605833.021 6       139.195          41.000    23521418.520    96316265.527 6       108.463          40.875    23521418.920    96316269.523 7       108.463          45.312
R16  23598339.060   126058095.326 7      4969.755          43.125    23598338.160   126058095.346 7      4969.755          42.500    23598348.380    98045218.366 7      3865.365          47.312    23598348.560    98045219.368 7      3865.365          47.625
R18  23733411.960   126690570.863 7      4607.799          46.562    23733412.160   126690570.858 7      4607.799          46.562    23733421.520    98537147.121 5      3583.844          35.812    23733421.500    98537148.125 5      3583.844          35.687
R03  23797873.980   127391872.277 6      6996.820          39.312    23797873.220   127391872.300 6      6996.820          37.937    23797897.940    99082679.171 7      5441.971          47.125    23797898.200    99082680.174 7      5441.971          47.375
G32  25038418.240   131577775.579 7      2110.712          45.562    25038417.440   131577775.581 6      2110.712          40.937    25038427.300   102528172.790 6      1644.711          41.437    25038427.780   102528177.792 7      1644.711          44.000
R17  21199545.180   113443050.099 7      3655.185          46.500    21199545.440   113443050.114 7      3655.185          46.937    21199554.580    88233521.774 8      2842.922          49.812    21199554.100    88233524.777 8      2842.922          50.312
> 2024 05 03 15 15 33.0000000  0 17
G22  25225721.360   132562064.364 7      5507.510          45.312    25225721.580   132562064.366 4      5507.510          24.937    25225725.100   103295113.015 4      4291.566          25.437
G02  21619348.600   113610439.005 7      2345.397          47.687    21619346.800   113610439.007 6      2345.397          40.250    21619347.800    88527618.468 6      1827.582          40.250
G03  21087441.780   110815289.670 8      5055.485          48.000    21087441.420   110815289.670 6      5055.485          40.812    21087447.520    86349599.541 6      3939.339          40.500    21087448.140    86349617.540 8      3939.339          51.250
R02  20903880.720   111547119.051 8      5485.156          49.312    20903880.200   111547119.047 7      5485.156          47.937    20903888.860    86758914.889 8      4266.233          48.687    20903889.560    86758909.891 8      4266.233          49.062
G21  21614049.820   113582584.826 7      1453.278          47.875    21614048.600   113582584.834 6      1453.278          39.562    21614050.680    88505924.330 6      1132.424          39.875
G08  21112339.340   110946093.181 8      1559.952          48.500    21112338.080   110946093.180 8      1559.952          48.750    21112344.160    86451546.587 8      1215.547          48.812    21112345.260    86451522.590 8      1215.547          50.250
G14  23064795.060   121206318.559 7      4910.717          44.750    23064793.880   121206318.567 5      4910.717          34.625    23064797.540    94446492.524 5      3826.532          34.312    23064798.580    94446503.500 8      3826.532          48.437
R01  21063130.640   112594510.665 7      1771.727          43.562    21063131.940   112594510.664 7      1771.727          43.125    21063142.000    87573550.563 7      1378.010          44.062    21063140.680    87573545.560 7      1378.010          44.375
R14  22266996.500   118695546.882 7      -944.612          46.500    22266996.020   118695546.885 7      -944.612          45.375    22267009.320    92318832.432 8      -734.698          49.687    22267009.480    92318833.434 8      -734.698          49.562
R24  21516208.980   115056827.184 7      1725.351          47.312    21516209.880   115056827.196 7      1725.351          46.125    21516217.640    89488685.642 7      1341.940          47.000    21516218.060    89488687.641 7      1341.940          47.750
R15  21352574.960   114101680.767 7      1757.553          47.187    21352574.200   114101680.757 7      1757.553          45.812    21352584.200    88745785.158 8      1366.985          48.625    21352583.800    88745787.168 8      1366.985          49.000
G27  23521383.180   123605694.029 7       138.804          42.625    23521381.840   123605694.034 6       138.804          40.500    23521391.900    96316157.218 6       108.159          40.562    23521392.440    96316161.215 7       108.159          45.125
R16  23597408.600   126053125.732 7      4969.286          43.187    23597408.020   126053125.749 7      4969.286          42.500    23597418.060    98041353.124 7      3865.000          47.312    23597417.940    98041354.124 7      3865.000          47.625
R18  23732548.820   126685963.061 7      4607.829          45.750    23732548.780   126685963.065 7      4607.829          46.687    23732557.240    98533563.276 5      3583.867          35.812    23732558.000    98533564.279 5      3583.867          35.687
R03  23796566.500   127384875.467 6      6996.878          39.312    23796566.380   127384875.495 6      6996.878          37.937    23796590.860    99077237.213 7      5442.016          46.562    23796590.960    99077238.217 7      5442.016          47.000
G32  25038016.720   131575665.128 7      2110.192          46.000    25038015.940   131575665.127 6      2110.192          41.187    25038025.680   102526528.284 6      1644.306          41.187    25038026.880   102526533.282 7      1644.306          44.375
R17  21198861.920   113439394.988 8      3655.141          48.000    21198862.260   113439395.008 7      3655.141          46.750    21198871.380    88230678.909 8      2842.888          49.687    21198871.180    88230681.910 8      2842.888          50.000
> 2024 05 03 15 15 34.0000000  0 17
G22  25224673.360   132556556.803 7      5507.397          44.812    25224673.640   132556556.810 4      5507.397          24.937    25224677.220   103290821.411 4      4291.478          25.437
G02  21618902.320   113608093.575 8      2345.334          48.250    21618900.560   113608093.582 6      2345.334          40.187    21618901.440    88525791.026 6      1827.533          40.125
G03  21086480.060   110810234.250 7      5055.034          47.375    21086479.340   110810234.252 6      5055.034          40.812    21086485.480    86345660.254 6      3938.987          40.375    21086485.740    86345678.257 8      3938.987          51.375
R02  20902852.460   111541634.204 8      5484.475          49.687    20902852.540   111541634.202 8      5484.475          48.187    20902860.900    86754648.905 8      4265.702          48.562    20902861.580    86754643.905 8      4265.702          49.250
G21  21613773.200   113581131.452 8      1453.215          48.312    21613771.900   113581131.456 6      1453.215          39.687    21613774.160    88504791.824 6      1132.375          40.062
G08  21112042.420   110944533.402 7      1559.477          47.687    21112041.160   110944533.404 8      1559.477          48.687    21112047.200    86450331.173 8      1215.177          48.562    21112048.120    86450307.178 8      1215.177          50.187
G14  23063860.480   121201407.962 7      4910.207          45.437    23063859.440   121201407.970 5      4910.207          34.625    23063863.020    94442666.087 5      3826.135          34.437    23063864.760    94442677.068 8      3826.135          49.250
R01  21062799.160   112592739.262 7      1770.787          43.750    21062800.380   112592739.261 7      1770.787          43.000    21062810.520    87572172.808 7      1377.279          43.937    21062809.380    87572167.803 7      1377.279          44.625
R14  22267173.900   118696491.498 7      -944.754          46.687    22267172.960   118696491.501 7      -944.754          45.437    22267186.420    92319567.116 8      -734.809          49.000    22267186.860    92319568.119 8      -734.809          49.500
R24  21515886.060   115055101.778 7      1725.273          47.750    21515887.420   115055101.796 7      1725.273          46.000    21515895.040    89487343.660 7      1341.879          47.000    21515895.180    89487345.663 7      1341.879          47.500
R15  21352246.340   114099923.551 7      1756.644          47.250    21352245.380   114099923.544 7      1756.644          45.750    21352255.500    88744418.437 8      1366.279          48.687    21352254.820    88744420.443 8      1366.279          49.187
G27  23521357.040   123605555.185 7       138.707          42.812    23521355.460   123605555.190 6       138.707          40.937    23521365.600    96316049.018 6       108.083          40.625    23521365.980    96316053.017 7       108.083          45.000
R16  23596478.660   126048156.695 7      4968.582          42.687    23596477.700   126048156.713 7      4968.582          42.812    23596487.880    98037488.316 7      3864.453          47.625    23596487.980    98037489.316 7      3864.453          47.312
R18  23731685.780   126681355.046 7      4607.891          46.500    23731685.600   126681355.047 7      4607.891          47.250    23731694.760    98529979.276 5      3583.916          35.812    23731694.160    98529980.272 5      3583.916          35.687
R03  23795259.540   127377878.479 6      6996.874          39.312    23795260.040   127377878.518 6      6996.874          37.937    23795283.620    99071795.127 7      5442.013          47.000    23795283.660    99071796.130 7      5442.013          47.187
G32  25037615.340   131573555.107 7      2109.744          45.312    25037614.360   131573555.107 6      2109.744          41.187    25037624.160   102524884.107 6      1643.957          41.687    25037624.720   102524889.109 7      1643.957          44.062
R17  21198178.840   113435739.750 7      3655.157          47.875    21198179.160   113435739.770 7      3655.157          47.437    21198188.500    88227835.951 8      2842.900          49.812    21198187.920    88227838.950 8      2842.900          50.125
> 2024 05 03 15 15 35.0000000  0 17
G22  25223625.500   132551049.594 7      5507.116          44.750    25223625.540   132551049.601 4      5507.116          25.250    25223629.180   103286530.079 4      4291.259          25.437
G02  21618455.800   113605748.274 8      2345.289          48.312    21618454.280   113605748.281 6      2345.289          39.937    21618455.300    88523962.601 6      1827.498          39.437
G03  21085518.040   110805179.384 7      5054.631          47.312    21085517.420   110805179.389 6      5054.631          40.687    21085523.680    86341721.400 6      3938.673          40.250    21085524.140    86341739.403 8      3938.673          51.125
R02  20901824.740   111536149.912 8      5483.956          49.500    20901824.620   111536149.912 8      5483.956          48.187    20901833.080    86750383.346 8      4265.299          49.000    20901833.600    86750378.346 8      4265.299          48.687
G21  21613496.580   113579678.145 8      1453.247          48.500    21613495.320   113579678.147 6      1453.247          39.500    21613497.680    88503659.378 6      1132.400          39.875
G08  21111745.900   110942973.991 7      1559.127          47.812    21111744.540   110942973.999 8      1559.127          48.500    21111750.520    86449116.048 8      1214.904          48.812    21111751.360    86449092.053 8      1214.904          49.937
G14  23062925.960   121196497.894 7      4909.893          45.687    23062925.100   121196497.899 5      4909.893          34.375    23062928.840    94438840.057 5      3825.891          34.312    23062930.480    94438851.065 8      3825.891          49.375
R01  21062467.520   112590968.715 7      1770.007          43.875    21062468.800   112590968.711 7      1770.007          43.062    21062478.900    87570795.715 7      1376.672          43.875    21062477.980    87570790.706 7      1376.672          43.937
R14  22267350.880   118697436.430 7      -945.054          47.062    22267350.460   118697436.428 7      -945.054          45.625    22267363.740    92320302.047 8      -735.042          49.062    22267363.780    92320303.050 8      -735.042          49.812
R24  21515563.580   115053376.440 7      1725.303          46.812    21515564.480   115053376.454 7      1725.303          46.437    21515572.440    89486001.726 7      1341.903          46.875    21515572.580    89486003.729 7      1341.903          47.250
R15  21351917.780   114098167.182 7      1756.022          46.875    21351916.700   114098167.170 7      1756.022          45.625    21351926.940    88743052.366 8      1365.795          48.812    21351926.300    88743054.367 8      1365.795          49.062
G27  23521330.320   123605416.607 7       138.326          42.062    23521328.940   123605416.612 6       138.326          40.750    23521339.240    96315941.027 6       107.786          40.562    23521339.160    96315945.028 7       107.786          44.875
R16  23595548.620   126043188.410 7      4968.028          43.750    23595547.920   126043188.422 7      4968.028          43.312    23595557.840    98033624.081 7      3864.022          47.312    23595558.040    98033625.081 8      3864.022          48.000
R18  23730822.340   126676747.053 7      4608.051          45.187    23730822.480   126676747.061 7      4608.051          46.750    23730830.740    98526395.285 5      3584.039          35.812    23730830.860    98526396.283 5      3584.039          35.687
R03  23793951.600   127370881.431 6      6996.990          39.312    23793952.340   127370881.464 6      6996.990          37.937    23793976.680    99066352.982 7      5442.103          47.187    23793976.680    99066353.985 7      5442.103          47.062
G32  25037213.780   131571445.576 7      2109.288          45.375    25037212.920   131571445.578 6      2109.288          41.375    25037222.460   102523240.320 6      1643.601          41.562    25037223.100   102523245.314 7      1643.601          43.875
R17  21197495.580   113432084.622 7      3655.064          47.437    21197496.100   113432084.637 7      3655.064          46.562    21197505.300    88224993.067 8      2842.828          49.812    21197504.900    88224996.069 8      2842.828          50.250
> 2024 05 03 15 15 36.0000000  0 17
G22  25222577.760   132545542.748 7      5506.580          45.562    25222577.600   132545542.758 4      5506.580          25.250    25222581.380   103282239.028 4      4290.842          25.437
G02  21618009.620   113603403.198 7      2344.912          47.625    21618007.940   113603403.203 6      2344.912          40.375    21618009.040    88522135.569 6      1827.204          39.750
G03  21084556.200   110800125.177 7      5053.785          47.250    21084555.640   110800125.182 6      5053.785          40.750    21084561.760    86337783.065 6      3938.015          40.437    21084562.360    86337801.060 8      3938.015          51.437
R02  20900796.960   111530666.385 8      5483.063          49.875    20900797.140   111530666.388 8      5483.063          48.312    20900805.400    86746118.388 8      4264.604          49.187    20900806.100    86746113.387 8      4264.604          49.000
G21  21613220.140   113578225.039 7      1452.888          47.500    21613218.780   113578225.043 6      1452.888          39.625    21613221.080    88502527.087 6      1132.120          39.437
G08  21111449.160   110941415.111 8      1558.560          48.500    21111447.860   110941415.116 8      1558.560          48.437    21111453.880    86447901.334 8      1214.462          48.937    21111454.580    86447877.339 8      1214.462          50.187
G14  23061991.420   121191588.453 7      4909.087          43.500    23061990.820   121191588.463 5      4909.087          34.312    23061994.620    94435014.523 5      3825.263          34.312    23061996.020    94435025.547 8      3825.263          48.875
R01  21062136.800   112589199.170 7      1768.979          43.312    21062137.040   112589199.152 7      1768.979          43.062    21062148.220    87569419.394 7      1375.872          43.562    21062147.000    87569414.387 7      1375.872          44.187
R14  22267528.380   118698381.718 7      -945.621          47.125    22267527.780   118698381.721 7      -945.621          45.250    22267540.880    92321037.260 8      -735.483          49.312    22267541.340    92321038.263 8      -735.483          49.250
R24  21515240.680   115051651.321 7      1724.930          46.250    21515242.040   115051651.335 7      1724.930          46.437    21515249.880    89484659.969 7      1341.613          47.125    21515250.220    89484661.968 7      1341.613          47.187
R15  21351589.200   114096411.711 7      1754.891          47.312    21351588.540   114096411.712 7      1754.891          46.312    21351598.220    88741687.003 8      1364.915          49.750    21351597.760    88741689.007 8      1364.915          49.437
G27  23521304.040   123605278.384 7       137.960          42.687    23521302.660   123605278.392 6       137.960          40.937    23521313.020    96315833.315 6       107.502          40.625    23521313.320    96315837.314 7       107.502          45.187
R16  23594618.400   126038220.907 7      4967.029          43.687    23594617.800   126038220.910 7      4967.029          43.375    23594627.820    98029760.464 7      3863.245          47.000    23594628.080    98029761.466 8      3863.245          48.125
R18  23729959.020   126672139.187 7      4607.616          47.250    23729959.140   126672139.188 7      4607.616          46.937    23729968.000    98522811.382 5      3583.701          35.812    23729967.480    98522812.389 5      3583.701          35.687
R03  23792644.440   127363884.443 6      6996.851          39.312    23792645.840   127363884.466 6      6996.851          37.937    23792669.440    99060910.885 7      5441.995          46.812    23792669.520    99060911.888 7      5441.995          47.250
G32  25036812.540   131569336.691 7      2108.543          44.375    25036811.580   131569336.695 6      2108.543          40.937    25036821.260   102521597.037 6      1643.020          40.875    25036822.320   102521602.033 7      1643.020          43.875
R17  21196812.740   113428429.660 8      3654.714          48.062    21196813.300   113428429.675 7      3654.714          46.875    21196822.140    88222150.319 8      2842.555          49.875    21196822.040    88222153.322 8      2842.555          50.062
> 2024 05 03 15 15 37.0000000  0 17
G22  25221529.880   132540036.135 7      5506.412          44.000    25221529.680   132540036.148 4      5506.412          25.250    25221533.620   103277948.159 4      4290.711          25.437
G02  21617563.380   113601058.207 7      2344.702          47.125    21617561.720   113601058.215 6      2344.702          39.875    21617562.780    88520308.290 6      1827.040          39.875
G03  21083594.420   110795071.446 7      5053.311          47.937    21083593.840   110795071.446 6      5053.311          40.812    21083600.100    86333845.091 6      3937.645          40.500    21083600.700    86333863.090 8      3937.645          51.375
R02  20899769.880   111525183.419 8      5482.463          49.562    20899769.720   111525183.425 7      5482.463          47.750    20899777.980    86741853.862 8      4264.138          48.812    20899779.060    86741848.862 8      4264.138          48.625
G21  21612943.540   113576771.953 8      1452.876          48.125    21612942.420   113576771.953 6      1452.876          39.437    21612944.520    88501394.810 6      1132.111          39.625
G08  21111152.640   110939856.607 7      1558.107          47.750    21111151.280   110939856.609 8      1558.107          48.875    21111157.220    86446686.914 8      1214.109          48.437    21111158.280    86446662.918 8      1214.109          50.187
G14  23061057.400   121186679.501 7      4908.533          44.125    23061056.520   121186679.516 5      4908.533          34.312    23061060.480    94431189.370 5      3824.831          34.250    23061061.060    94431200.396 7      3824.831          47.625
R01  21061806.340   112587430.461 7      1768.069          43.437    21061805.760   112587430.441 7      1768.069          42.250    21061817.100    87568043.732 7      1375.165          44.000    21061816.280    87568038.725 7      1375.165          44.312
R14  22267706.260   118699327.178 7      -945.784          47.062    22267705.020   118699327.179 7      -945.784          45.562    22267718.300    92321772.604 8      -735.610          49.000    22267719.100    92321773.607 8      -735.610          49.375
R24  21514918.000   115049926.244 7      1724.804          47.875    21514919.360   115049926.264 7      1724.804          45.687    21514927.240    89483318.245 7      1341.514          47.250    21514927.420    89483320.248 7      1341.514          47.187
R15  21351260.620   114094656.998 7      1754.141          46.625    21351260.160   114094656.997 7      1754.141          46.125    21351269.880    88740322.225 8      1364.332          49.062    21351269.740    88740324.229 8      1364.332          49.187
G27  23521277.900   123605140.413 7       137.623          42.187    23521276.420   123605140.418 6       137.623          40.250    23521286.780    96315725.797 6       107.238          40.125    23521287.140    96315729.790 7       107.238          45.125
R16  23593688.840   126033254.045 7      4966.275          43.687    23593688.300   126033254.054 7      4966.275          43.062    23593697.940    98025897.351 7      3862.658          46.812    23593698.280    98025898.351 7      3862.658          47.500
R18  23729095.700   126667531.255 7      4607.782          47.125    23729096.080   126667531.250 7      4607.782          47.250    23729104.440    98519227.422 5      3583.830          35.812    23729103.920    98519228.432 5      3583.830          35.687
R03  23791337.220   127356887.395 6      6996.677          38.875    23791338.280   127356887.415 6      6996.677          37.937    23791362.420    99055468.742 7      5441.860          46.562    23791362.420    99055469.743 7      5441.860          47.312
G32  25036411.340   131567228.313 7      2107.850          45.312    25036410.440   131567228.315 6      2107.850          40.812    25036420.060   102519954.145 6      1642.480          41.062    25036421.260   102519959.143 7      1642.480          44.000
R17  21196130.220   113424774.690 7      3654.759          47.937    21196130.200   113424774.711 7      3654.759          47.125    21196139.280    88219307.569 8      2842.590          49.750    21196138.780    88219310.572 8      2842.590          50.062
> 2024 05 03 15 15 38.0000000  0 17
G22  25220481.840   132534529.862 7      5506.170          45.125    25220481.960   132534529.872 4      5506.170          25.250    25220485.720   103273657.556 4      4290.522          25.437
G02  21617117.280   113598713.363 7      2344.806          47.750    21617115.580   113598713.368 6      2344.806          39.625    21617116.480    88518481.585 6      1827.121          39.750
G03  21082632.800   110790018.325 7      5052.872          47.687    21082632.280   110790018.333 6      5052.872          40.500    21082638.540    86329907.600 6      3937.303          40.187    21082638.960    86329925.601 8      3937.303          51.312
R02  20898742.400   111519701.136 8      5481.983          49.625    20898742.280   111519701.144 8      5481.983          48.250    20898750.520    86737589.868 8      4263.765          48.187    20898751.260    86737584.868 8      4263.765          48.312
G21  21612666.900   113575319.004 8      1452.890          48.812    21612665.860   113575319.006 6      1452.890          39.437    21612668.060    88500262.646 6      1132.122          39.812
G08  21110856.140   110938298.568 8      1557.840          48.000    21110854.800   110938298.573 8      1557.840          48.187    21110860.820    86445472.855 8      1213.901          48.000    21110861.380    86445448.857 8      1213.901          50.125
G14  23060123.320   121181771.117 7      4908.116          44.500    23060122.380   121181771.129 5      4908.116          34.437    23060126.460    94427364.655 5      3824.506          34.250    23060126.240    94427375.660 7      3824.506          46.062
R01  21061475.300   112585662.710 7      1767.214          42.500    21061474.700   112585662.684 7      1767.214          42.750    21061486.460    87566668.812 7      1374.500          43.375    21061485.420    87566663.803 7      1374.500          44.250
R14  22267883.640   118700272.927 7      -945.869          47.375    22267882.440   118700272.922 7      -945.869          45.937    22267895.940    92322508.168 8      -735.676          48.312    22267896.340    92322509.172 8      -735.676          49.000
R24  21514595.520   115048201.328 7      1724.898          46.187    21514596.640   115048201.348 7      1724.898          45.687    21514604.740    89481976.639 7      1341.587          47.312    21514604.880    89481978.644 7      1341.587          46.687
R15  21350932.540   114092903.157 7      1753.410          46.812    21350931.940   114092903.166 7      1753.410          45.312    21350941.680    88738958.132 8      1363.763          48.875    21350941.580    88738960.132 8      1363.763          48.625
G27  23521251.680   123605002.792 7       137.376          42.062    23521250.200   123605002.797 6       137.376          40.687    23521260.660    96315618.551 6       107.046          40.562    23521260.900    96315622.546 7       107.046          45.187
R16  23592759.320   126028287.888 7      4965.813          42.250    23592758.660   126028287.891 7      4965.813          43.312    23592768.220    98022034.776 7      3862.299          46.875    23592768.100    98022035.778 7      3862.299          46.875
R18  23728232.400   126662923.354 7      4607.936          46.187    23728233.020   126662923.353 7      4607.936          47.000    23728240.360    98515643.497 5      3583.950          34.500    23728241.120    98515644.511 5      3583.950          35.687
R03  23790030.180   127349890.300 6      6997.131          38.875    23790031.460   127349890.326 6      6997.131          37.937    23790055.180    99050026.570 7      5442.213          46.437    23790055.100    99050027.571 7      5442.213          46.750
G32  25036010.400   131565120.494 7      2107.525          45.125    25036009.440   131565120.499 6      2107.525          40.875    25036019.020   102518311.691 6      1642.227          41.187    25036019.660   102518316.691 7      1642.227          44.000
R17  21195447.320   113421119.817 7      3654.845          47.000    21195447.000   113421119.837 7      3654.845          47.000    21195456.260    88216464.890 8      2842.658          49.062    21195455.860    88216467.891 8      2842.658          49.062
> 2024 05 03 15 15 39.0000000  0 17
G22  25219434.020   132529023.906 7      5505.774          45.812    25219434.140   132529023.911 4      5505.774          25.250    25219437.940   103269367.199 4      4290.213          25.312
G02  21616671.020   113596368.663 8      2344.765          48.125    21616669.340   113596368.671 6      2344.765          40.312    21616670.400    88516654.225 6      1827.090          39.937
G03  21081671.480   110784965.777 7      5052.238          47.500    21081670.720   110784965.782 6      5052.238          41.312    21081677.000    86325970.550 6      3936.809          40.687    21081677.480    86325988.551 8      3936.809          51.750
R02  20897714.920   111514219.469 8      5481.364          49.562    20897715.080   111514219.478 8      5481.364          48.125    20897723.180    86733326.352 8      4263.283          48.250    20897724.020    86733321.352 8      4263.283          48.687
G21  21612390.500   113573866.139 8      1452.937          48.875    21612389.400   113573866.141 6      1452.937          39.812    21612391.480    88499130.538 6      1132.158          39.812
G08  21110559.820   110936740.949 8      1557.525          48.250    21110558.440   110936740.954 8      1557.525          48.500    21110564.480    86444259.124 8      1213.656          48.437    21110565.440    86444235.126 8      1213.656          50.437
G14  23059189.680   121176863.287 7      4907.555          45.625    23059188.580   121176863.294 5      4907.555          34.437    23059192.560    94423540.368 5      3824.069          34.312    23059192.140    94423551.360 7      3824.069          46.437
R01  21061144.820   112583895.779 7      1766.669          42.500    21061143.580   112583895.764 7      1766.669          42.750    21061156.000    87565294.539 7      1374.076          43.437    21061154.920    87565289.533 7      1374.076          44.437
R14  22268061.200   118701218.904 7      -946.083          47.562    22268059.900   118701218.900 7      -946.083          46.312    22268073.160    92323243.911 8      -735.842          48.937    22268073.900    92323244.918 8      -735.842          49.062
R24  21514272.780   115046476.503 7      1724.902          46.500    21514274.000   115046476.520 7      1724.902          46.375    21514282.040    89480635.108 7      1341.591          47.250    21514282.720    89480637.109 7      1341.591          47.250
R15  21350604.380   114091150.189 7      1752.554          47.187    21350603.860   114091150.196 7      1752.554          45.875    21350613.840    88737594.703 8      1363.098          49.312    21350613.360    88737596.709 8      1363.098          49.187
G27  23521225.440   123604865.415 7       137.230          42.312    23521224.100   123604865.422 6       137.230          41.000    23521234.520    96315511.494 6       106.933          40.687    23521234.960    96315515.491 7       106.933          45.250
R16  23591829.540   126023322.481 7      4965.111          43.562    23591828.960   126023322.488 7      4965.111          43.312    23591838.780    98018172.795 7      3861.753          46.562    23591838.920    98018173.795 7      3861.753          47.312
R18  23727369.400   126658315.467 7      4607.934          45.437    23727369.620   126658315.468 7      4607.934          46.687    23727377.560    98512059.579 5      3583.949          34.500    23727378.100    98512060.583 5      3583.949          33.875
R03  23788723.240   127342893.222 6      6997.168          38.875    23788724.520   127342893.250 6      6997.168          37.937    23788748.140    99044584.400 7      5442.242          46.562    23788748.240    99044585.404 7      5442.242          46.937
G32  25035609.240   131563013.199 7      2107.234          45.375    25035608.420   131563013.204 6      2107.234          41.062    25035618.100   102516669.641 6      1642.001          41.250    25035619.000   102516674.639 7      1642.001          44.125
R17  21194764.320   113417465.055 7      3654.771          47.187    21194764.200   113417465.076 7      3654.771          46.812    21194773.140    88213622.293 8      2842.599          49.625    21194772.860    88213625.294 8      2842.599          50.062
> 2024 05 03 15 15 40.0000000  0 17
G22  25218386.280   132523518.192 7      5505.492          45.000    25218386.440   132523518.197 4      5505.492          25.250    25218390.160   103265077.035 4      4289.993          25.312
G02  21616224.880   113594024.103 7      2344.428          47.500    21616223.260   113594024.110 6      2344.428          40.312    21616224.340    88514827.357 6      1826.827          39.875
G03  21080709.980   110779913.741 7      5051.700          47.875    21080709.380   110779913.740 6      5051.700          41.125    21080715.560    86322033.898 6      3936.390          40.937    21080716.420    86322051.899 8      3936.390          51.562
R02  20896687.960   111508738.434 8      5480.661          49.875    20896687.940   111508738.435 8      5480.661          48.687    20896696.060    86729063.321 8      4262.736          48.937    20896696.760    86729058.321 8      4262.736          48.625
G21  21612114.260   113572413.374 8      1452.681          49.187    21612113.020   113572413.379 6      1452.681          39.750    21612114.900    88497998.515 6      1131.959          40.062
G08  21110263.520   110935183.769 8      1556.883          48.625    21110262.160   110935183.771 8      1556.883          48.937    21110268.200    86443045.733 8      1213.156          48.875    21110269.080    86443021.737 8      1213.156          50.500
G14  23058255.960   121171955.953 7      4906.974          46.687    23058254.820   121171955.963 5      4906.974          34.437    23058258.680    94419716.467 5      3823.616          34.312    23058258.460    94419727.446 7      3823.616          46.312
R01  21060814.600   112582129.821 7      1765.462          43.625    21060812.940   112582129.808 7      1765.462          42.437    21060825.840    87563921.018 7      1373.137          43.812    21060824.420    87563916.012 7      1373.137          44.000
R14  22268238.760   118702165.103 7      -946.451          47.687    22268237.420   118702165.101 7      -946.451          46.500    22268250.760    92323979.833 8      -736.128          49.000    22268251.440    92323980.840 8      -736.128          49.250
R24  21513950.480   115044751.819 7      1724.485          47.562    21513951.340   115044751.837 7      1724.485          47.187    21513959.580    89479293.686 7      1341.266          47.062    21513959.780    89479295.691 7      1341.266          47.375
R15  21350276.580   114089398.002 8      1751.711          48.625    21350276.000   114089398.005 7      1751.711          47.125    21350285.860    88736231.888 8      1362.442          49.375    21350285.460    88736233.894 8      1362.442          49.625
G27  23521199.180   123604728.327 6       136.913          41.812    23521197.900   123604728.337 6       136.913          40.812    23521208.380    96315404.666 6       106.686          40.375    23521209.280    96315408.665 7       106.686          45.250
R16  23590899.980   126018357.815 7      4964.131          44.687    23590899.700   126018357.821 7      4964.131          43.687    23590909.260    98014311.388 7      3860.991          46.562    23590909.280    98014312.386 7      3860.991          47.562
R18  23726505.980   126653707.562 8      4607.821          48.875    23726506.200   126653707.565 7      4607.821          47.500    23726514.440    98508475.638 5      3583.861          34.500    23726515.360    98508476.654 5      3583.861          33.875
R03  23787416.000   127335896.074 6      6997.109          38.875    23787416.960   127335896.100 6      6997.109          37.937    23787441.020    99039142.184 7      5442.196          46.937    23787441.260    99039143.188 7      5442.196          47.312
G32  25035208.480   131560906.502 7      2106.396          44.937    25035207.520   131560906.505 6      2106.396          41.375    25035217.080   102515028.059 6      1641.347          41.500    25035218.260   102515033.055 7      1641.347          44.125
R17  21194081.520   113413810.372 8      3654.544          49.187    21194081.020   113413810.392 8      3654.544          48.375    21194090.100    88210779.768 8      2842.423          49.812    21194090.040    88210782.769 8      2842.423          50.062
> 2024 05 03 15 15 41.0000000  0 17
G22  25217338.680   132518012.870 7      5505.172          45.375    25217338.780   132518012.878 4      5505.172          25.250    25217342.500   103260787.171 4      4289.744          25.312
G02  21615778.900   113591679.742 7      2344.296          47.375    21615777.160   113591679.750 6      2344.296          40.187    21615778.120    88513001.143 6      1826.724          40.250
G03  21079748.800   110774862.372 7      5051.085          47.625    21079748.060   110774862.374 6      5051.085          40.750    21079754.400    86318097.771 6      3935.911          40.437    21079755.120    86318115.772 8      3935.911          51.375
R02  20895660.920   111503258.139 8      5479.985          49.625    20895661.020   111503258.145 8      5479.985          48.937    20895669.100    86724800.873 8      4262.210          48.875    20895669.600    86724795.879 8      4262.210          48.875
G21  21611837.700   113570960.788 8      1452.494          48.875    21611836.680   113570960.792 6      1452.494          40.125    21611838.540    88496866.627 6      1131.814          39.562
G08  21109967.220   110933627.094 8      1556.490          48.687    21109965.920   110933627.096 8      1556.490          49.187    21109971.920    86441832.739 8      1212.849          48.562    21109972.800    86441808.746 8      1212.849          50.500
G14  23057322.180   121167049.235 7      4906.432          47.062    23057321.180   121167049.242 5      4906.432          34.437    23057324.880    94415893.050 5      3823.194          34.250    23057324.900    94415904.023 7      3823.194          47.250
R01  21060484.900   112580364.833 7      1764.572          43.812    21060482.200   112580364.818 7      1764.572          43.375    21060495.460    87562548.253 7      1372.445          43.812    21060494.420    87562543.244 7      1372.445          44.187
R14  22268416.120   118703111.718 7      -946.832          47.500    22268415.100   118703111.713 7      -946.832          46.625    22268428.420    92324716.075 8      -736.425          48.625    22268428.580    92324717.077 8      -736.425          49.062
R24  21513627.800   115043027.294 8      1724.463          48.062    21513628.800   115043027.314 7      1724.463          47.312    21513636.920    89477952.388 7      1341.249          47.500    21513637.220    89477954.393 7      1341.249          47.250
R15  21349949.060   114087646.736 8      1750.908          48.000    21349948.360   114087646.729 7      1750.908          47.562    21349958.060    88734869.782 8      1361.817          49.062    21349957.880    88734871.788 8      1361.817          49.187
G27  23521173.060   123604591.651 6       136.566          41.500    23521171.940   123604591.656 6       136.566          41.000    23521182.500    96315298.157 6       106.415          40.500    23521183.220    96315302.156 7       106.415          45.250
R16  23589970.840   126013393.917 7      4963.503          45.125    23589970.180   126013393.937 7      4963.503          44.437    23589979.960    98010450.587 7      3860.502          46.812    23589980.040    98010451.587 7      3860.502          47.312
R18  23725642.800   126649099.768 8      4607.774          48.687    23725643.020   126649099.769 7      4607.774          47.625    23725650.680    98504891.800 5      3583.824          34.500    23725651.780    98504892.802 5      3583.824          33.875
R03  23786108.880   127328899.033 6      6997.049          39.625    23786110.000   127328899.062 6      6997.049          37.937    23786133.860    99033700.048 7      5442.149          47.250    23786134.200    99033701.051 7      5442.149          46.812
G32  25034808.040   131558800.408 7      2105.806          45.062    25034806.640   131558800.415 6      2105.806          41.125    25034816.400   102513386.952 6      1640.888          41.437    25034817.320   102513391.952 7      1640.888          44.125
R17  21193398.060   113410155.833 8      3654.532          49.250    21193398.360   113410155.850 8      3654.532          48.125    21193407.220    88207937.344 8      2842.414          49.875    21193407.000    88207940.345 8      2842.414          50.000
> 2024 05 03 15 15 42.0000000  0 17
G22  25216291.320   132512507.745 7      5505.226          44.437    25216291.400   132512507.755 4      5505.226          25.250    25216294.960   103256497.465 4      4289.787          25.312
G02  21615332.840   113589335.421 7      2344.434          47.000    21615331.080   113589335.429 6      2344.434          40.187    21615331.900    88511174.602 6      1826.832          40.250
G03  21078787.560   110769811.445 7      5050.843          47.062    21078787.000   110769811.444 6      5050.843          40.437    21078793.260    86314161.987 6      3935.722          40.187    21078793.840    86314179.984 8      3935.722          51.437
R02  20894633.980   111497778.377 8      5479.540          49.875    20894634.040   111497778.380 8      5479.540          49.125    20894642.240    86720538.838 8      4261.864          49.062    20894642.740    86720533.842 8      4261.864          48.812
G21  21611561.200   113569508.175 8      1452.730          48.687    21611560.300   113569508.180 6      1452.730          39.437    21611562.260    88495734.721 6      1131.997          39.687
G08  21109670.980   110932070.723 8      1556.330          48.500    21109669.740   110932070.723 8      1556.330          49.062    21109675.820    86440619.978 8      1212.725          48.625    21109676.800    86440595.985 8      1212.725          50.375
G14  23056388.520   121162142.957 7      4906.232          46.500    23056387.600   121162142.962 5      4906.232          34.437    23056391.480    94412069.977 5      3823.038          34.250    23056391.920    94412080.948 7      3823.038          47.812
R01  21060154.700   112578600.630 7      1763.936          43.812    21060152.500   112578600.610 7      1763.936          43.375    21060165.540    87561176.090 7      1371.950          43.875    21060164.840    87561171.081 7      1371.950          44.125
R14  22268593.980   118704058.503 7      -946.744          47.125    22268592.600   118704058.501 7      -946.744          46.125    22268605.880    92325452.451 8      -736.357          48.812    22268606.580    92325453.455 8      -736.357          48.937
R24  21513305.400   115041302.773 7      1724.713          45.375    21513306.340   115041302.780 7      1724.713          46.750    21513314.500    89476611.084 7      1341.444          47.125    21513314.500    89476613.087 7      1341.444          47.625
R15  21349621.380   114085896.181 7      1750.380          46.937    21349620.660   114085896.174 7      1750.380          45.875    21349630.480    88733508.239 8      1361.407          49.000    21349630.180    88733510.243 8      1361.407          49.437
G27  23521147.200   123604455.120 7       136.516          42.250    23521145.920   123604455.125 6       136.516          40.750    23521156.640    96315191.761 6       106.376          40.375    23521157.300    96315195.758 7       106.376          45.187
R16  23589041.960   126008430.645 7      4963.198          43.562    23589041.020   126008430.662 7      4963.198          43.875    23589050.840    98006590.262 7      3860.265          46.625    23589051.220    98006591.264 7      3860.265          47.375
R18  23724779.660   126644491.873 7      4608.141          46.687    23724779.760   126644491.879 7      4608.141          47.187    23724787.040    98501307.876 5      3584.110          34.500    23724787.960    98501308.892 5      3584.110          33.875
R03  23784801.720   127321901.832 6      6997.310          39.625    23784803.080   127321901.852 6      6997.310          38.250    23784826.620    99028257.782 7      5442.352          46.937    23784827.000    99028258.784 7      5442.352          47.250
G32  25034407.020   131556694.746 7      2105.467          44.937    25034406.020   131556694.751 6      2105.467          41.250    25034415.680   102511746.175 6      1640.624          41.312    25034416.520   102511751.175 7      1640.624          43.750
R17  21192715.020   113406501.229 7      3654.761          47.937    21192715.260   113406501.252 7      3654.761          47.562    21192724.200    88205094.877 8      2842.592          49.625    21192723.920    88205097.878 8      2842.592          50.062
> 2024 05 03 15 15 43.0000000  0 17
G22  25215243.540   132507002.696 7      5504.936          45.312    25215243.740   132507002.706 4      5504.936          25.250    25215247.320   103252207.815 4      4289.561          25.312
G02  21614886.740   113586991.037 7      2344.336          47.750    21614884.800   113586991.047 6      2344.336          40.062    21614885.860    88509347.897 6      1826.755          40.312
G03  21077826.460   110764760.877 7      5050.354          47.312    21077825.840   110764760.877 6      5050.354          40.687    21077832.120    86310226.480 6      3935.341          40.312    21077832.680    86310244.481 8      3935.341          51.562
R02  20893607.240   111492299.071 8      5478.993          49.250    20893606.980   111492299.075 7      5478.993          47.750    20893615.440    86716277.162 8      4261.439          49.000    20893616.060    86716272.162 8      4261.439          48.500
G21  21611285.040   113568055.489 8      1452.698          48.000    21611283.820   113568055.493 6      1452.698          39.562    21611285.720    88494602.754 6      1131.972          39.937
G08  21109374.820   110930514.657 7      1555.811          47.750    21109373.600   110930514.662 8      1555.811          48.375    21109379.680    86439407.462 8      1212.320          48.250    21109380.560    86439383.468 8      1212.320          50.437
G14  23055454.700   121157237.006 7      4905.536          44.375    23055454.100   121157237.011 5      4905.536          34.375    23055457.840    94408247.160 5      3822.496          34.187    23055458.860    94408258.149 8      3822.496          48.375
R01  21059825.040   112576837.211 7      1763.042          42.687    21059822.260   112576837.191 7      1763.042          42.062    21059835.540    87559804.544 7      1371.255          44.125    21059834.720    87559799.534 7      1371.255          44.000
R14  22268770.920   118705005.358 7      -946.933          47.125    22268770.580   118705005.361 7      -946.933          46.125    22268783.560    92326188.883 8      -736.504          48.812    22268783.800    92326189.887 8      -736.504          48.687
R24  21512983.160   115039578.245 7      1724.583          47.000    21512983.640   115039578.262 7      1724.583          46.562    21512991.920    89475269.791 7      1341.342          47.312    21512992.320    89475271.796 7      1341.342          47.625
R15  21349293.940   114084146.248 7      1749.415          47.437    21349293.200   114084146.242 7      1749.415          45.875    21349302.920    88732147.174 8      1360.656          49.125    21349302.580    88732149.176 8      1360.656          49.375
G27  23521121.340   123604318.739 6       136.409          41.875    23521119.960   123604318.741 6       136.409          40.937    23521130.600    96315085.478 6       106.293          40.500    23521131.080    96315089.474 7       106.293          45.312
R16  23588112.740   126003467.907 7      4962.311          43.562    23588112.100   126003467.918 7      4962.311          43.375    23588121.740    98002730.350 7      3859.575          46.750    23588121.940    98002731.350 7      3859.575          47.187
R18  23723916.580   126639883.751 7      4608.060          47.187    23723916.320   126639883.750 7      4608.060          46.250    23723923.880    98497723.775 5      3584.047          34.500    23723924.880    98497724.789 5      3584.047          33.875
R03  23783494.720   127314904.395 6      6997.522          39.625    23783495.640   127314904.429 6      6997.522          38.250    23783519.420    99022815.350 7      5442.517          47.187    23783519.520    99022816.354 7      5442.517          46.625
G32  25034006.400   131554589.485 7      2105.090          44.437    25034005.360   131554589.489 6      2105.090          40.687    25034015.000   102510105.714 6      1640.330          40.875    25034015.980   102510110.716 7      1640.330          43.937
R17  21192032.280   113402846.487 7      3654.693          46.625    21192032.280   113402846.504 7      3654.693          46.687    21192041.060    88202252.297 8      2842.539          49.500    21192040.940    88202255.296 8      2842.539          49.562
> 2024 05 03 15 15 44.0000000  0 17
G22  25214196.000   132501498.009 7      5504.677          45.500    25214196.300   132501498.017 4      5504.677          25.250    25214199.980   103247918.445 4      4289.359          25.312
G02  21614440.460   113584646.813 7      2344.216          47.187    21614438.780   113584646.820 6      2344.216          39.625    21614439.660    88507520.455 6      1826.662          39.687
G03  21076865.400   110759710.909 7      5049.704          46.687    21076864.800   110759710.911 6      5049.704          40.875    21076871.160    86306291.442 6      3934.835          40.562    21076871.920    86306309.443 8      3934.835          51.875
R02  20892580.540   111486820.377 8      5478.333          49.687    20892580.480   111486820.380 8      5478.333          48.125    20892588.740    86712015.955 8      4260.926          48.500    20892589.360    86712010.957 8      4260.926          49.312
G21  21611008.380   113566602.918 8      1452.550          48.562    21611007.480   113566602.920 6      1452.550          39.500    21611009.300    88493470.881 6      1131.857          39.500
G08  21109078.640   110928958.983 7      1555.438          47.437    21109077.620   110928958.990 7      1555.438          47.937    21109083.680    86438195.248 8      1212.030          48.125    21109084.640    86438171.250 8      1212.030          50.437
G14  23054521.280   121152331.612 7      4905.158          44.187    23054520.560   121152331.627 5      4905.158          34.312    23054524.340    94404424.783 5      3822.201          34.437    23054525.720    94404435.778 8      3822.201          49.812
R01  21059495.240   112575074.698 6      1761.992          41.687    21059492.480   112575074.681 7      1761.992          42.062    21059505.860    87558433.694 7      1370.438          43.937    21059504.860    87558428.685 7      1370.438          44.375
R14  22268948.740   118705952.516 7      -947.368          47.687    22268948.240   118705952.527 7      -947.368          45.875    22268961.300    92326925.553 8      -736.842          48.750    22268961.600    92326926.560 8      -736.842          48.937
R24  21512660.400   115037853.858 7      1724.410          45.750    21512661.280   115037853.870 7      1724.410          46.000    21512669.720    89473928.597 7      1341.208          47.125    21512669.940    89473930.602 7      1341.208          47.375
R15  21348966.220   114082397.187 7      1748.639          46.875    21348965.620   114082397.177 7      1748.639          46.312    21348975.800    88730786.787 8      1360.053          49.375    21348975.240    88730788.789 8      1360.053          48.875
G27  23521095.400   123604182.659 6       135.968          41.625    23521094.040   123604182.656 6       135.968          40.312    23521104.660    96314979.430 6       105.949          40.187    23521105.180    96314983.428 7       105.949          45.187
R16  23587183.780   125998505.884 7      4961.691          44.437    23587183.320   125998505.885 7      4961.691          43.375    23587192.800    97998870.995 7      3859.093          47.000    23587193.260    97998871.993 7      3859.093          47.125
R18  23723053.560   126635275.659 7      4608.189          44.562    23723053.360   126635275.665 7      4608.189          46.687    23723060.300    98494139.691 5      3584.147          34.500    23723061.240    98494140.702 5      3584.147          33.875
R03  23782187.160   127307906.966 6      6997.468          39.375    23782188.560   127307907.005 6      6997.468          38.250    23782212.500    99017372.916 7      5442.475          47.062    23782212.320    99017373.919 7      5442.475          46.937
G32  25033605.960   131552484.777 7      2104.466          45.062    25033604.940   131552484.777 6      2104.466          40.875    25033614.660   102508465.678 6      1639.844          41.187    25033615.520   102508470.676 7      1639.844          43.875
R17  21191349.140   113399191.859 7      3654.627          46.750    21191349.040   113399191.882 7      3654.627          46.562    21191358.240    88199409.813 8      2842.488          49.500    21191358.060    88199412.810 8      2842.488          50.062
> 2024 05 03 15 15 45.0000000  0 17
G22  25213148.740   132495993.507 7      5504.500          44.000    25213148.840   132495993.514 4      5504.500          25.250    25213152.500   103243629.220 4      4289.221          25.312
G02  21613994.400   113582302.633 7      2344.289          47.687    21613992.500   113582302.641 6      2344.289          40.250    21613993.600    88505693.914 6      1826.719          40.312
G03  21075904.580   110754661.427 7      5049.257          47.187    21075903.960   110754661.429 6      5049.257          40.812    21075910.320    86302356.785 6      3934.486          40.437    21075911.000    86302374.784 8      3934.486          51.687
R02  20891553.560   111481342.272 8      5477.910          49.500    20891553.820   111481342.272 7      5477.910          47.875    20891562.260    86707755.211 8      4260.596          49.000    20891562.920    86707750.213 8      4260.596          49.000
G21  21610731.820   113565150.358 8      1452.651          48.500    21610731.060   113565150.360 6      1452.651          39.750    21610732.940    88492339.014 6      1131.936          39.500
G08  21108782.880   110927403.694 7      1555.228          47.187    21108781.720   110927403.697 8      1555.228          48.375    21108787.640    86436983.329 8      1211.866          48.625    21108788.660    86436959.331 8      1211.866          50.562
G14  23053587.780   121147426.662 7      4904.823          43.437    23053587.160   121147426.680 5      4904.823          34.312    23053590.880    94400602.748 5      3821.940          34.437    23053592.600    94400613.755 8      3821.940          49.437
R01  21059165.300   112573313.009 6      1761.400          41.687    21059162.400   112573313.002 6      1761.400          41.500    21059176.460    87557063.499 7      1369.977          43.875    21059175.620    87557058.490 7      1369.977          44.562
R14  22269126.180   118706899.797 7      -947.330          47.312    22269125.920   118706899.798 7      -947.330          46.437    22269139.100    92327662.311 8      -736.813          48.687    22269139.140    92327663.311 8      -736.813          48.687
R24  21512337.800   115036129.504 7      1724.576          46.375    21512338.840   115036129.516 7      1724.576          46.125    21512347.040    89472587.426 7      1341.337          47.250    21512347.380    89472589.429 7      1341.337          47.562
R15  21348639.320   114080648.876 7      1747.966          47.000    21348638.680   114080648.869 7      1747.966          45.375    21348648.560    88729426.992 8      1359.529          49.500    21348648.220    88729428.994 8      1359.529          49.375
G27  23521069.380   123604046.819 6       135.780          41.812    23521068.220   123604046.822 6       135.780          40.375    23521078.980    96314873.572 6       105.802          40.125    23521079.280    96314877.571 7       105.802          44.812
R16  23586254.820   125993544.481 7      4961.114          44.125    23586254.300   125993544.488 7      4961.114          43.375    23586264.020    97995012.123 7      3858.644          47.062    23586264.020    97995013.122 7      3858.644          46.812
R18  23722190.020   126630667.518 7      4608.214          46.812    23722190.020   126630667.514 7      4608.214          46.625    23722196.960    98490555.563 5      3584.166          34.500    23722197.600    98490556.577 5      3584.166          33.875
R03  23780879.900   127300909.511 6      6997.458          39.375    23780881.900   127300909.531 6      6997.458          38.250    23780905.140    99011930.442 7      5442.467          47.000    23780905.420    99011931.445 7      5442.467          46.937
G32  25033205.420   131550380.548 7      2104.088          44.687    25033204.460   131550380.555 6      2104.088          40.437    25033214.060   102506826.025 6      1639.549          40.812    25033214.800   102506831.027 7      1639.549          43.687
R17  21190665.840   113395537.226 7      3654.772          46.937    21190666.260   113395537.252 7      3654.772          46.625    21190675.200    88196567.325 8      2842.600          49.500    21190675.160    88196570.322 8      2842.600          49.687
> 2024 05 03 15 15 46.0000000  0 17
G22  25212101.380   132490489.249 7      5504.156          45.312    25212101.440   132490489.254 4      5504.156          25.250    25212105.120   103239340.183 4      4288.952          25.625
G02  21613548.360   113579958.530 7      2344.059          47.750    21613546.480   113579958.535 6      2344.059          39.812    21613547.600    88503867.455 6      1826.540          39.812
G03  21074943.680   110749612.402 7      5048.735          46.625    21074943.060   110749612.402 6      5048.735          40.812    21074949.520    86298422.482 6      3934.079          40.375    21074950.320    86298440.479 8      3934.079          51.625
R02  20890527.380   111475864.706 8      5477.271          49.625    20890527.220   111475864.712 8      5477.271          48.062    20890535.820    86703494.888 8      4260.100          49.062    20890536.260    86703489.892 8      4260.100          49.562
G21  21610455.540   113563697.824 8      1452.499          48.562    21610454.700   113563697.826 6      1452.499          39.562    21610456.360    88491207.169 6      1131.817          39.562
G08  21108486.880   110925848.745 7      1554.769          47.687    21108485.740   110925848.750 8      1554.769          48.125    21108491.820    86435771.678 8      1211.508          48.375    21108492.860    86435747.682 8      1211.508          50.187
G14  23052654.540   121142522.208 7      4904.218          44.250    23052653.920   121142522.229 5      4904.218          34.375    23052657.620    94396781.096 5      3821.469          34.250    23052659.280    94396792.113 8      3821.469          49.375
R01  21058835.680   112571552.161 6      1760.517          40.687    21058832.840   112571552.151 6      1760.517          41.500    21058846.900    87555693.947 7      1369.291          44.062    21058846.240    87555688.938 7      1369.291          44.125
R14  22269304.200   118707847.251 7      -947.550          47.812    22269303.520   118707847.252 7      -947.550          46.250    22269316.760    92328399.205 8      -736.983          48.812    22269317.240    92328400.208 8      -736.983          48.500
R24  21512015.520   115034405.168 7      1724.280          46.375    21512016.400   115034405.172 7      1724.280          45.875    21512024.580    89471246.269 7      1341.107          47.312    21512024.820    89471248.277 7      1341.107          47.750
R15  21348312.340   114078901.319 7      1747.171          46.437    21348311.540   114078901.318 7      1747.171          45.687    21348321.420    88728067.781 8      1358.911          49.250    21348321.380    88728069.785 8      1358.911          49.312
G27  23521043.540   123603911.145 7       135.639          42.125    23521042.300   123603911.144 6       135.639          40.187    23521052.980    96314767.844 6       105.693          39.812    23521053.460    96314771.844 7       105.693          45.250
R16  23585326.360   125988583.754 7      4960.461          43.687    23585325.880   125988583.745 7      4960.461          43.250    23585335.600    97991153.767 7      3858.137          47.062    23585335.420    97991154.771 7      3858.137          47.250
R18  23721326.760   126626059.306 7      4608.222          47.500    23721326.680   126626059.304 7      4608.222          46.250    23721333.980    98486971.393 5      3584.173          32.250    23721334.100    98486972.393 5      3584.173          33.875
R03  23779572.600   127293911.854 6      6997.803          39.375    23779573.940   127293911.859 6      6997.803          37.812    23779597.900    99006487.816 7      5442.736          46.750    23779598.380    99006488.820 7      5442.736          46.625
G32  25032804.980   131548276.789 7      2103.435          45.062    25032803.960   131548276.794 6      2103.435          40.687    25032813.900   102505186.728 6      1639.041          41.125    25032814.500   102505191.728 7      1639.041          43.937
R17  21189983.060   113391882.617 7      3654.607          47.562    21189983.580   113391882.640 7      3654.607          46.500    21189992.320    88193724.846 8      2842.472          49.312    21189991.900    88193727.849 8      2842.472          50.625
> 2024 05 03 15 15 47.0000000  0 17
G22  25211053.800   132484985.285 7      5503.854          45.062    25211053.980   132484985.295 4      5503.854          25.250    25211057.900   103235051.378 4      4288.717          25.625
G02  21613102.260   113577614.569 8      2343.866          48.062    21613100.500   113577614.574 6      2343.866          39.937    21613101.520    88502040.750 6      1826.389          40.000
G03  21073983.160   110744563.945 7      5048.197          47.312    21073982.380   110744563.947 6      5048.197          40.750    21073988.900    86294488.623 6      3933.660          40.250    21073989.700    86294506.620 8      3933.660          51.500
R02  20889501.060   111470387.799 8      5476.642          49.312    20889500.860   111470387.808 7      5476.642          47.875    20889509.400    86699235.076 8      4259.610          49.000    20889510.000    86699230.078 8      4259.610          48.937
G21  21610179.300   113562245.385 8      1452.423          48.625    21610178.280   113562245.387 6      1452.423          39.125    21610180.000    88490075.398 6      1131.758          39.312
G08  21108191.200   110924294.245 8      1554.322          48.062    21108189.960   110924294.250 8      1554.322          48.250    21108196.040    86434560.377 8      1211.160          48.375    21108197.040    86434536.380 8      1211.160          50.562
G14  23051721.460   121137618.285 7      4903.668          46.062    23051720.780   121137618.298 5      4903.668          34.125    23051724.460    94392959.853 5      3821.040          34.250    23051725.940    94392970.877 8      3821.040          48.625
R01  21058506.240   112569792.267 6      1759.421          40.687    21058503.660   112569792.247 6      1759.421          41.312    21058517.820    87554325.130 7      1368.438          43.875    21058517.020    87554320.125 7      1368.438          44.562
R14  22269482.080   118708794.967 7      -947.858          47.312    22269481.240   118708794.965 7      -947.858          46.437    22269494.520    92329136.303 8      -737.223          48.750    22269494.820    92329137.305 8      -737.223          48.937
R24  21511693.160   115032680.936 7      1724.236          46.375    21511694.060   115032680.940 7      1724.236          45.812    21511702.220    89469905.200 7      1341.073          47.125    21511702.420    89469907.204 7      1341.073          47.500
R15  21347985.480   114077154.574 7      1746.402          46.187    21347984.700   114077154.565 7      1746.402          45.437    21347994.600    88726709.189 8      1358.312          48.812    21347994.240    88726711.193 8      1358.312          48.875
G27  23521017.740   123603775.841 7       135.069          42.000    23521016.500   123603775.846 6       135.069          40.375    23521027.420    96314662.408 6       105.248          40.187    23521027.780    96314666.407 7       105.248          44.937
R16  23584397.700   125983623.743 7      4959.730          43.875    23584397.340   125983623.755 7      4959.730          43.500    23584407.000    97987295.991 7      3857.568          46.812    23584407.140    97987296.993 7      3857.568          47.562
R18  23720463.480   126621451.091 7      4608.246          46.187    23720463.380   126621451.092 7      4608.246          46.250    23720469.640    98483387.222 5      3584.192          32.250    23720470.740    98483388.215 5      3584.192          33.875
R03  23778265.660   127286914.195 6      6997.781          39.375    23778266.740   127286914.200 6      6997.781          37.812    23778290.740    99001045.201 7      5442.718          46.500    23778290.800    99001046.204 7      5442.718          47.312
G32  25032404.480   131546173.598 7      2102.884          44.812    25032403.720   131546173.603 6      2102.884          40.750    25032413.600   102503547.880 6      1638.611          40.875    25032414.400   102503552.880 7      1638.611          43.812
R17  21189300.380   113388228.068 7      3654.538          47.125    21189300.500   113388228.082 7      3654.538          46.625    21189309.320    88190882.414 8      2842.418          49.625    21189309.320    88190885.417 8      2842.418          49.625
> 2024 05 03 15 15 48.0000000  0 17
G22  25210006.420   132479481.728 7      5503.504          44.937    25210006.600   132479481.736 4      5503.504          25.250    25210010.480   103230762.887 4      4288.444          25.625
G02  21612656.380   113575270.844 7      2343.639          47.375    21612654.460   113575270.849 6      2343.639          40.062    21612655.500    88500214.946 6      1826.212          39.937
G03  21073022.560   110739516.173 7      5047.539          46.687    21073021.860   110739516.173 6      5047.539          40.312    21073028.400    86290555.297 6      3933.148          40.375    21073029.000    86290573.298 8      3933.148          51.062
R02  20888474.860   111464911.620 8      5475.937          48.937    20888474.680   111464911.626 8      5475.937          48.187    20888483.180    86694975.828 8      4259.062          48.625    20888483.780    86694970.832 8      4259.062          48.500
G21  21609902.700   113560793.169 8      1452.099          48.375    21609901.900   113560793.176 6      1452.099          39.187    21609903.700    88488943.802 6      1131.506          39.500
G08  21107895.540   110922740.284 7      1553.724          47.500    21107894.340   110922740.289 8      1553.724          48.000    21107900.360    86433349.496 8      1210.694          48.062    21107901.500    86433325.503 8      1210.694          50.375
G14  23050788.220   121132715.014 7      4903.033          45.500    23050787.660   121132715.021 5      4903.033          34.125    23050791.380    94389139.116 5      3820.545          33.937    23050792.380    94389150.152 7      3820.545          47.625
R01  21058177.340   112568033.360 6      1758.241          40.750    21058174.520   112568033.337 6      1758.241          41.312    21058188.620    87552957.093 7      1367.521          43.937    21058188.000    87552952.090 7      1367.521          43.875
R14  22269660.120   118709743.109 7      -948.247          47.125    22269659.360   118709743.112 7      -948.247          46.125    22269672.440    92329873.736 8      -737.526          48.687    22269672.700    92329874.738 8      -737.526          48.375
R24  21511370.460   115030956.951 7      1723.838          45.500    21511372.020   115030956.957 7      1723.838          45.937    21511379.460    89468564.323 7      1340.763          46.437    21511380.200    89468566.328 7      1340.763          46.687
R15  21347658.960   114075408.815 7      1745.332          47.000    21347658.220   114075408.798 7      1745.332          45.812    21347667.720    88725351.370 8      1357.480          48.875    21347667.440    88725353.376 8      1357.480          48.687
G27  23520992.320   123603640.871 7       134.905          42.125    23520990.800   123603640.875 6       134.905          40.437    23521001.780    96314557.226 6       105.121          40.250    23521002.220    96314561.227 7       105.121          45.125
R16  23583469.500   125978664.605 7      4958.817          44.562    23583468.900   125978664.612 7      4958.817          42.937    23583478.720    97983438.884 7      3856.858          46.937    23583478.960    97983439.886 7      3856.858          46.750
R18  23719600.460   126616842.993 7      4608.142          46.250    23719600.180   126616842.991 7      4608.142          46.562    23719606.480    98479803.137 5      3584.110          32.250    23719607.920    98479804.137 5      3584.110          33.875
R03  23776958.700   127279916.609 6      6997.820          38.750    23776959.460   127279916.605 6      6997.820          37.812    23776983.600    98995602.637 7      5442.749          46.375    23776983.680    98995603.639 7      5442.749          46.625
G32  25032004.520   131544071.040 7      2102.242          44.687    25032003.700   131544071.045 6      2102.242          40.437    25032013.480   102501909.523 6      1638.110          40.875    25032014.440   102501914.523 7      1638.110          43.437
R17  21188617.460   113384573.694 7      3654.381          47.375    21188617.640   113384573.720 7      3654.381          46.562    21188626.300    88188040.132 8      2842.296          48.750    21188626.360    88188043.135 8      2842.296          49.375
> 2024 05 03 15 15 49.0000000  0 17
G22  25208959.160   132473978.385 7      5503.180          44.250    25208959.440   132473978.397 4      5503.180          25.250    25208962.940   103226474.561 4      4288.192          25.625
G02  21612210.300   113572927.177 7      2343.537          47.000    21612208.460   113572927.185 6      2343.537          39.937    21612209.300    88498388.323 6      1826.133          39.625
G03  21072062.020   110734468.853 7      5047.084          47.250    21072061.320   110734468.856 6      5047.084          40.875    21072067.740    86286622.322 6      3932.793          40.500    21072068.640    86286640.323 8      3932.793          51.687
R02  20887448.700   111459436.034 8      5475.194          49.375    20887448.800   111459436.037 7      5475.194          47.687    20887457.240    86690717.039 8      4258.484          49.000    20887457.460    86690712.040 8      4258.484          49.375
G21  21609626.480   113559340.945 7      1452.101          47.437    21609625.640   113559340.953 6      1452.101          39.437    21609627.420    88487812.203 6      1131.508          39.562
G08  21107600.120   110921186.680 7      1553.367          47.687    21107598.640   110921186.685 8      1553.367          48.500    21107604.680    86432138.894 8      1210.416          48.312    21107605.740    86432114.900 8      1210.416          50.687
G14  23049855.120   121127812.173 7      4902.515          44.187    23049854.680   121127812.181 5      4902.515          34.437    23049858.440    94385318.723 5      3820.142          33.937    23049858.840    94385329.761 7      3820.142          46.937
R01  21057848.500   112566275.236 6      1757.613          40.750    21057845.580   112566275.229 6      1757.613          40.625    21057859.600    87551589.672 7      1367.032          43.625    21057858.700    87551584.666 7      1367.032          44.375
R14  22269838.120   118710691.413 7      -948.399          47.000    22269837.220   118710691.414 7      -948.399          46.375    22269850.140    92330611.292 8      -737.643          49.062    22269850.940    92330612.296 8      -737.643          49.062
R24  21511048.020   115029233.021 7      1723.746          47.375    21511049.360   115029233.031 7      1723.746          45.312    21511057.580    89467223.487 7      1340.692          46.750    21511057.960    89467225.492 7      1340.692          47.562
R15  21347332.120   114073663.732 7      1744.675          47.500    21347331.500   114073663.723 7      1744.675          45.625    21347341.180    88723994.083 8      1356.969          49.000    21347341.140    88723996.087 8      1356.969          49.125
G27  23520966.800   123603506.168 7       134.482          42.125    23520965.240   123603506.173 6       134.482          40.625    23520976.200    96314452.255 6       104.791          40.312    23520977.100    96314456.258 7       104.791          45.375
R16  23582541.260   125973706.084 7      4958.029          44.000    23582540.600   125973706.099 7      4958.029          43.937    23582550.600    97979582.264 7      3856.245          46.937    23582550.540    97979583.264 7      3856.245          47.062
R18  23718736.780   126612234.786 7      4608.258          46.125    23718736.900   126612234.784 7      4608.258          45.750    23718744.720    98476218.957 5      3584.200          32.250    23718744.900    98476219.959 5      3584.200          31.812
R03  23775651.520   127272918.947 6      6997.371          38.750    23775651.960   127272918.967 6      6997.371          37.812    23775676.340    98990160.037 7      5442.400          47.000    23775676.140    98990161.040 7      5442.400          46.500
G32  25031604.380   131541968.999 7      2101.618          44.062    25031603.680   131541968.999 6      2101.618          40.812    25031613.580   102500271.569 6      1637.625          41.187    25031614.180   102500276.563 7      1637.625          43.625
R17  21187934.500   113380919.308 7      3654.352          47.625    21187934.940   113380919.331 7      3654.352          46.875    21187943.420    88185197.831 8      2842.274          49.375    21187943.380    88185200.830 8      2842.274          49.625
> 2024 05 03 15 15 50.0000000  0 17
G22  25207912.180   132468475.338 7      5503.030          44.500    25207912.320   132468475.350 4      5503.030          25.250    25207915.820   103222186.476 4      4288.075          25.625
G02  21611764.240   113570583.644 7      2343.619          47.250    21611762.480   113570583.649 6      2343.619          39.500    21611763.520    88496561.781 6      1826.197          40.062
G03  21071101.860   110729422.146 7      5046.542          47.125    21071100.940   110729422.148 6      5046.542          40.875    21071107.460    86282689.829 6      3932.371          40.562    21071108.380    86282707.826 8      3932.371          51.750
R02  20886422.740   111453961.104 8      5474.760          49.125    20886422.640   111453961.107 8      5474.760          48.375    20886431.320    86686458.766 8      4258.147          48.937    20886431.640    86686453.768 8      4258.147          49.562
G21  21609350.320   113557888.829 7      1452.250          47.750    21609349.460   113557888.837 6      1452.250          39.375    21609351.100    88486680.680 6      1131.623          39.812
G08  21107304.520   110919633.525 8      1553.103          48.000    21107303.000   110919633.528 8      1553.103          48.312    21107309.140    86430928.643 8      1210.210          48.375    21107310.260    86430904.644 8      1210.210          50.500
G14  23048922.460   121122909.887 7      4902.083          45.437    23048921.720   121122909.895 5      4902.083          34.437    23048925.600    94381498.762 5      3819.805          34.437    23048925.120    94381509.794 7      3819.805          45.875
R01  21057519.680   112564518.068 6      1756.884          41.250    21057517.140   112564518.061 6      1756.884          40.625    21057531.140    87550222.986 7      1366.465          43.750    21057529.820    87550217.983 7      1366.465          44.437
R14  22270015.480   118711640.032 7      -948.647          47.687    22270014.980   118711640.035 7      -948.647          46.687    22270028.440    92331349.098 8      -737.837          48.562    22270028.400    92331350.100 8      -737.837          48.687
R24  21510726.100   115027509.220 7      1723.873          46.750    21510727.020   115027509.229 7      1723.873          45.937    21510735.020    89465882.750 7      1340.790          47.250    21510735.400    89465884.751 7      1340.790          47.062
R15  21347005.860   114071919.501 7      1743.940          46.812    21347005.360   114071919.495 7      1743.940          45.812    21347014.880    88722637.459 8      1356.398          49.375    21347014.540    88722639.468 8      1356.398          49.312
G27  23520941.440   123603371.768 7       134.351          42.062    23520939.660   123603371.776 6       134.351          40.125    23520950.620    96314347.519 6       104.689          39.875    23520951.340    96314351.526 7       104.689          45.500
R16  23581613.020   125968748.287 7      4957.479          44.000    23581612.680   125968748.296 7      4957.479          43.437    23581622.360    97975726.194 7      3855.817          46.062    23581622.520    97975727.196 7      3855.817          47.062
R18  23717873.820   126607626.640 7      4608.217          46.312    23717873.880   126607626.649 7      4608.217          46.562    23717881.820    98472634.842 5      3584.169          32.250    23717881.380    98472635.845 5      3584.169          31.812
R03  23774344.000   127265921.218 6      6997.877          38.750    23774345.220   127265921.230 6      6997.877          37.812    23774369.020    98984717.361 7      5442.793          46.937    23774369.160    98984718.364 7      5442.793          46.750
G32  25031204.720   131539867.482 7      2101.349          44.437    25031203.900   131539867.484 6      2101.349          40.437    25031213.740   102498634.023 6      1637.415          40.875    25031214.420   102498639.021 7      1637.415          43.625
R17  21187251.620   113377264.977 7      3654.534          47.062    21187251.840   113377264.995 7      3654.534          46.625    21187260.580    88182355.572 8      2842.416          49.187    21187260.240    88182358.573 8      2842.416          49.937
> 2024 05 03 15 15 51.0000000  0 17
G22  25206864.900   132462972.619 7      5502.492          44.875    25206865.060   132462972.632 4      5502.492          25.250    25206868.780   103217898.642 4      4287.656          25.625
G02  21611318.420   113568240.253 7      2343.284          47.062    21611316.660   113568240.258 6      2343.284          40.062    21611317.620    88494736.223 6      1825.935          40.250
G03  21070141.660   110724375.938 7      5045.951          47.500    21070140.640   110724375.943 6      5045.951          40.812    21070147.260    86278757.723 6      3931.910          40.437    21070147.900    86278775.722 8      3931.910          51.937
R02  20885396.780   111448486.780 8      5473.956          49.312    20885396.580   111448486.786 8      5473.956          48.187    20885405.280    86682200.962 8      4257.522          49.187    20885405.720    86682195.966 8      4257.522          49.562
G21  21609073.960   113556436.815 8      1451.904          48.437    21609073.140   113556436.820 6      1451.904          39.437    21609074.720    88485549.238 6      1131.354          39.687
G08  21107008.900   110918080.741 7      1552.584          47.750    21107007.620   110918080.746 8      1552.584          48.062    21107013.680    86429718.682 7      1209.806          47.875    21107014.580    86429694.684 8      1209.806          50.562
G14  23047989.580   121118008.148 7      4901.443          45.312    23047988.840   121118008.161 5      4901.443          34.500    23047992.760    94377679.227 5      3819.306          34.500    23047991.660    94377690.230 7      3819.306          45.250
R01  21057191.560   112562761.767 6      1755.796          41.250    21057188.980   112562761.768 6      1755.796          41.187    21057202.660    87548856.976 7      1365.619          43.687    21057201.400    87548851.964 7      1365.619          44.875
R14  22270193.580   118712588.840 7      -948.950          47.937    22270193.280   118712588.846 7      -948.950          46.312    22270206.440    92332087.045 8      -738.072          48.375    22270206.380    92332088.046 8      -738.072          48.875
R24  21510403.840   115025785.531 7      1723.566          46.625    21510404.800   115025785.538 7      1723.566          45.562    21510412.540    89464542.101 7      1340.551          47.312    21510413.380    89464544.105 7      1340.551          47.437
R15  21346679.480   114070176.056 7      1743.075          47.187    21346678.920   114070176.060 7      1743.075          45.625    21346688.680    88721281.457 8      1355.725          49.375    21346688.480    88721283.461 8      1355.725          49.062
G27  23520915.780   123603237.581 6       133.951          41.625    23520914.100   123603237.583 6       133.951          39.875    23520925.100    96314242.945 6       104.377          39.625    23520925.620    96314246.952 7       104.377          45.187
R16  23580685.000   125963791.214 7      4956.695          43.937    23580684.680   125963791.221 7      4956.695          43.437    23580694.260    97971870.690 7      3855.208          47.125    23580694.480    97971871.690 7      3855.208          47.562
R18  23717010.620   126603018.526 7      4608.062          46.062    23717010.560   126603018.527 7      4608.062          46.375    23717018.080    98469050.743 5      3584.048          32.250    23717017.980    98469051.757 5      3584.048          31.812
R03  23773036.880   127258923.449 6      6997.799          38.750    23773038.500   127258923.456 6      6997.799          37.500    23773061.840    98979274.656 7      5442.732          46.562    23773061.960    98979275.660 7      5442.732          47.312
G32  25030805.000   131537766.484 7      2100.671          44.750    25030803.900   131537766.487 6      2100.671          40.875    25030813.780   102496996.882 6      1636.887          40.937    25030814.360   102497001.884 7      1636.887          43.562
R17  21186568.880   113373610.770 7      3654.143          46.000    21186568.940   113373610.787 7      3654.143          46.500    21186577.580    88179513.409 8      2842.111          49.812    21186577.440    88179516.408 8      2842.111          50.250
> 2024 05 03 15 15 52.0000000  0 17
G22  25205817.820   132457470.174 7      5502.503          44.312    25205818.160   132457470.187 4      5502.503          25.250    25205821.580   103213611.022 4      4287.665          25.625
G02  21610872.340   113565896.978 7      2343.304          46.937    21610870.740   113565896.985 6      2343.304          40.125    21610871.760    88492909.600 6      1825.951          39.625
G03  21069181.320   110719330.310 7      5045.345          47.375    21069180.520   110719330.312 6      5045.345          40.812    21069187.080    86274826.061 6      3931.438          40.812    21069187.740    86274844.058 8      3931.438          51.687
R02  20884370.860   111443013.072 8      5473.401          49.375    20884370.700   111443013.075 8      5473.401          48.312    20884379.860    86677943.634 8      4257.090          49.187    20884380.180    86677938.636 8      4257.090          49.625
G21  21608797.840   113554984.865 8      1452.015          48.437    21608796.820   113554984.870 6      1452.015          39.500    21608798.360    88484417.844 6      1131.440          39.375
G08  21106713.480   110916528.380 8      1552.190          48.562    21106712.280   110916528.385 8      1552.190          48.687    21106718.260    86428509.046 8      1209.499          48.625    21106719.340    86428485.050 8      1209.499          50.750
G14  23047056.780   121113106.952 7      4901.001          44.875    23047056.160   121113106.965 5      4901.001          34.312    23047059.980    94373860.115 5      3818.962          34.500    23047058.680    94373871.106 7      3818.962          44.750
R01  21056863.580   112561006.331 6      1755.109          41.875    21056860.600   112561006.327 6      1755.109          41.187    21056874.340    87547491.629 7      1365.085          43.562    21056873.200    87547486.619 7      1365.085          44.687
R14  22270371.720   118713537.896 7      -949.201          47.687    22270371.240   118713537.894 7      -949.201          46.500    22270384.500    92332825.184 8      -738.268          48.687    22270384.700    92332826.188 8      -738.268          48.437
R24  21510081.780   115024061.901 7      1723.644          46.625    21510082.460   115024061.911 7      1723.644          45.750    21510090.280    89463201.500 7      1340.612          47.125    21510090.760    89463203.503 7      1340.612          47.687
R15  21346353.620   114068433.487 7      1742.164          47.187    21346352.620   114068433.489 7      1742.164          46.312    21346362.540    88719926.117 8      1355.016          49.312    21346362.320    88719928.123 8      1355.016          49.500
G27  23520890.520   123603103.677 6       133.673          41.437    23520888.680   123603103.682 6       133.673          41.062    23520899.640    96314138.599 6       104.161          40.437    23520900.160    96314142.602 7       104.161          45.375
R16  23579757.120   125958834.841 7      4956.022          43.625    23579756.900   125958834.850 7      4956.022          43.750    23579766.420    97968015.740 7      3854.683          46.875    23579766.600    97968016.737 7      3854.683          47.562
R18  23716147.700   126598410.407 7      4608.154          46.750    23716147.360   126598410.408 7      4608.154          46.625    23716154.740    98465466.638 5      3584.119          32.250    23716155.140    98465467.637 5      3584.119          31.812
R03  23771730.220   127251925.683 6      6997.626          38.562    23771731.040   127251925.704 6      6997.626          37.500    23771754.480    98973831.957 7      5442.598          46.937    23771754.840    98973832.959 7      5442.598          46.437
G32  25030405.320   131535665.991 7      2100.397          44.687    25030404.020   131535665.988 6      2100.397          40.500    25030414.040   102495360.133 6      1636.673          40.750    25030415.060   102495365.135 7      1636.673          43.875
R17  21185885.820   113369956.610 7      3654.258          46.687    21185886.040   113369956.631 7      3654.258          46.937    21185894.660    88176671.287 8      2842.201          49.375    21185894.540    88176674.286 8      2842.201          49.562
> 2024 05 03 15 15 53.0000000  0 17
G22  25204770.580   132451967.915 7      5502.305          44.375    25204771.200   132451967.928 4      5502.305          25.250    25204774.400   103209323.548 4      4287.510          25.625
G02  21610426.380   113563553.752 7      2343.377          47.312    21610424.800   113563553.762 6      2343.377          40.250    21610425.740    88491083.468 6      1826.008          40.187
G03  21068221.180   110714285.153 7      5045.052          47.187    21068220.460   110714285.155 6      5045.052          40.875    21068226.920    86270894.776 6      3931.209          40.562    21068227.600    86270912.773 8      3931.209          52.125
R02  20883345.620   111437539.977 8      5472.932          49.187    20883345.180   111437539.981 8      5472.932          48.062    20883354.200    86673686.789 8      4256.725          49.812    20883354.040    86673681.791 8      4256.725          49.625
G21  21608521.460   113553532.956 8      1452.025          48.437    21608520.580   113553532.959 6      1452.025          39.562    21608522.080    88483286.485 6      1131.448          39.875
G08  21106418.260   110914976.447 8      1551.896          48.312    21106416.960   110914976.447 8      1551.896          48.812    21106422.920    86427299.743 8      1209.270          48.687    21106424.080    86427275.744 8      1209.270          50.937
G14  23046124.280   121108206.148 7      4900.660          45.062    23046123.600   121108206.159 5      4900.660          34.312    23046127.460    94370041.307 5      3818.696          34.000    23046126.520    94370052.269 7      3818.696          44.812
R01  21056534.700   112559251.839 6      1754.074          41.875    21056532.520   112559251.838 6      1754.074          41.687    21056546.060    87546127.026 7      1364.280          43.500    21056544.880    87546122.017 7      1364.280          44.750
R14  22270549.640   118714487.078 7      -949.114          47.500    22270549.160   118714487.073 7      -949.114          46.750    22270562.560    92333563.419 8      -738.200          48.937    22270562.580    92333564.424 8      -738.200          48.625
R24  21509759.520   115022338.378 7      1723.606          46.062    21509760.360   115022338.385 7      1723.606          45.750    21509767.960    89461860.974 7      1340.582          46.937    21509768.220    89461862.979 7      1340.582          47.250
R15  21346027.700   114066691.592 7      1741.750          46.312    21346027.080   114066691.588 7      1741.750          45.812    21346036.600    88718571.301 8      1354.694          49.312    21346035.920    88718573.305 8      1354.694          49.625
G27  23520865.180   123602970.084 6       133.607          41.375    23520863.200   123602970.088 6       133.607          40.562    23520874.360    96314034.492 6       104.109          40.187    23520874.560    96314038.497 7       104.109          45.187
R16  23578828.500   125953879.010 7      4955.666          43.687    23578828.800   125953879.027 7      4955.666          43.375    23578838.680    97964161.210 7      3854.407          46.687    23578839.060    97964162.208 7      3854.407          47.562
R18  23715284.780   126593802.101 7      4608.575          46.312    23715284.140   126593802.099 7      4608.575          46.250    23715291.880    98461882.387 5      3584.447          32.250    23715292.760    98461883.397 5      3584.447          31.812
R03  23770423.160   127244927.791 6      6998.231          38.562    23770423.920   127244927.817 6      6998.231          37.500    23770447.240    98968389.167 7      5443.068          46.312    23770447.700    98968390.171 7      5443.068          46.500
G32  25030005.780   131533566.098 7      2099.710          45.000    25030004.620   131533566.097 6      2099.710          40.750    25030014.460   102493723.858 6      1636.138          40.937    25030015.300   102493728.858 7      1636.138          43.812
R17  21185203.040   113366302.408 7      3654.329          45.625    21185203.240   113366302.418 7      3654.329          46.562    21185211.940    88173829.125 8      2842.256          48.875    21185211.520    88173832.122 8      2842.256          49.625
> 2024 05 03 15 15 54.0000000  0 17
G22  25203723.900   132446465.927 7      5501.929          44.687    25203724.260   132446465.938 4      5501.929          25.250    25203727.320   103205036.278 4      4287.217          24.687
G02  21609980.740   113561210.626 7      2343.151          47.937    21609978.900   113561210.631 6      2343.151          40.062    21609979.840    88489258.647 6      1825.832          39.750
G03  21067261.360   110709240.513 7      5044.401          46.937    21067260.460   110709240.516 6      5044.401          40.625    21067267.040    86266963.888 6      3930.702          40.062    21067267.800    86266981.887 8      3930.702          51.562
R02  20882319.440   111432067.393 8      5472.359          49.250    20882319.800   111432067.404 8      5472.359          48.187    20882328.480    86669430.343 8      4256.279          49.062    20882328.660    86669425.344 8      4256.279          48.937
G21  21608245.120   113552081.079 8      1451.926          49.125    21608244.300   113552081.084 6      1451.926          39.875    21608245.760    88482155.148 6      1131.371          39.687
G08  21106122.880   110913424.851 8      1551.548          48.250    21106121.640   110913424.853 8      1551.548          48.125    21106127.540    86426090.707 8      1208.998          48.187    21106128.640    86426066.709 8      1208.998          50.250
G14  23045191.800   121103305.867 7      4900.037          44.375    23045191.220   121103305.875 5      4900.037          34.125    23045195.020    94366222.904 5      3818.211          34.000    23045194.840    94366233.860 7      3818.211          46.687
R01  21056207.260   112557498.109 6      1753.546          41.250    21056204.920   112557498.113 6      1753.546          41.687    21056218.160    87544763.012 7      1363.869          44.000    21056216.720    87544758.002 7      1363.869          44.375
R14  22270727.680   118715436.477 7      -949.423          47.937    22270727.260   118715436.475 7      -949.423          46.812    22270740.800    92334301.829 8      -738.440          48.375    22270740.580    92334302.833 8      -738.440          48.750
R24  21509436.940   115020614.858 7      1723.638          46.500    21509437.880   115020614.862 7      1723.638          45.312    21509445.600    89460520.456 7      1340.607          47.562    21509446.420    89460522.461 7      1340.607          47.562
R15  21345701.960   114064950.559 7      1740.723          46.187    21345701.020   114064950.555 7      1740.723          46.125    21345710.660    88717217.157 8      1353.896          49.625    21345710.120    88717219.161 8      1353.896          49.312
G27  23520839.620   123602836.695 6       133.326          41.562    23520837.780   123602836.705 6       133.326          39.937    23520849.020    96313930.546 6       103.891          39.875    23520849.320    96313934.553 7       103.891          45.250
R16  23577900.840   125948923.918 7      4954.771          42.687    23577901.460   125948923.933 7      4954.771          42.875    23577911.100    97960307.248 7      3853.711          46.500    23577910.960    97960308.246 7      3853.711          46.750
R18  23714421.120   126589193.830 7      4608.310          45.062    23714420.740   126589193.830 7      4608.310          45.875    23714428.540    98458298.193 5      3584.241          33.125    23714429.160    98458299.182 5      3584.241          31.812
R03  23769115.540   127237929.846 6      6998.222          38.562    23769116.420   127237929.888 6      6998.222          37.500    23769140.100    98962946.337 7      5443.062          46.375    23769140.300    98962947.339 7      5443.062          46.937
G32  25029606.000   131531466.630 7      2099.371          45.250    25029605.120   131531466.632 6      2099.371          40.375    25029614.940   102492087.911 6      1635.874          40.937    25029616.040   102492092.905 7      1635.874          43.625
R17  21184520.120   113362648.228 7      3654.241          46.375    21184520.360   113362648.245 7      3654.241          46.062    21184529.000    88170986.987 8      2842.187          49.375    21184529.000    88170989.990 8      2842.187          49.875
> 2024 05 03 15 15 55.0000000  0 17
G22  25202676.720   132440964.197 7      5501.475          44.750    25202677.160   132440964.204 4      5501.475          25.250    25202680.480   103200749.216 4      4286.864          24.687
G02  21609534.620   113558867.595 8      2342.817          48.187    21609533.080   113558867.597 6      2342.817          40.375    21609534.160    88487431.860 6      1825.572          39.687
G03  21066301.380   110704196.397 7      5043.723          46.812    21066300.620   110704196.394 6      5043.723          40.437    21066307.160    86263033.407 6      3930.174          39.812    21066307.820    86263051.404 8      3930.174          51.250
R02  20881294.120   111426595.414 8      5471.467          49.500    20881294.360   111426595.417 8      5471.467          48.500    20881303.060    86665174.359 8      4255.586          49.000    20881303.340    86665169.359 8      4255.586          49.375
G21  21607968.840   113550629.252 8      1451.660          48.687    21607968.000   113550629.260 6      1451.660          38.875    21607969.520    88481023.854 6      1131.164          40.125
G08  21105827.880   110911873.654 7      1550.864          47.937    21105826.540   110911873.653 8      1550.864          48.812    21105832.500    86424881.978 8      1208.465          48.625    21105833.260    86424857.982 8      1208.465          50.312
G14  23044259.380   121098406.077 7      4899.340          44.437    23044258.900   121098406.088 5      4899.340          34.125    23044262.460    94362404.890 5      3817.667          33.687    23044263.380    94362415.852 7      3817.667          47.687
R01  21055878.900   112555745.282 6      1752.261          41.250    21055876.940   112555745.289 6      1752.261          41.937    21055890.300    87543399.708 7      1362.870          44.375    21055888.720    87543394.701 7      1362.870          44.312
R14  22270906.100   118716386.146 7      -949.929          47.937    22270905.540   118716386.142 7      -949.929          46.625    22270918.920    92335040.446 8      -738.833          48.812    22270919.000    92335041.448 8      -738.833          48.625
R24  21509114.200   115018891.442 7      1723.185          47.750    21509115.120   115018891.451 7      1723.185          45.187    21509123.420    89459180.021 7      1340.255          47.187    21509123.920    89459182.022 7      1340.255          47.250
R15  21345376.100   114063210.320 7      1739.648          47.875    21345375.500   114063210.313 7      1739.648          45.625    21345385.080    88715863.635 8      1353.059          49.250    21345384.720    88715865.639 8      1353.059          49.187
G27  23520814.360   123602703.551 6       132.834          41.312    23520812.500   123602703.556 6       132.834          40.187    23520823.660    96313826.783 6       103.507          40.000    23520823.940    96313830.788 7       103.507          45.375
R16  23576973.360   125943969.535 7      4953.837          43.812    23576973.560   125943969.546 7      4953.837          43.250    23576983.540    97956453.837 7      3852.984          46.625    23576983.580    97956454.835 7      3852.984          47.062
R18  23713557.500   126584585.540 7      4608.153          45.875    23713557.240   126584585.538 7      4608.153          46.062    23713566.080    98454713.953 5      3584.119          33.125    23713565.980    98454714.956 5      3584.119          31.812
R03  23767808.480   127230931.844 6      6997.876          38.562    23767809.000   127230931.878 6      6997.876          37.500    23767832.820    98957503.455 7      5442.792          46.437    23767832.960    98957504.453 7      5442.792          46.437
G32  25029206.600   131529367.674 7      2098.555          46.000    25029205.820   131529367.676 6      2098.555          40.812    25029215.600   102490452.361 6      1635.238          40.750    25029216.520   102490457.359 7      1635.238          43.562
R17  21183837.380   113358994.101 7      3653.977          46.875    21183837.520   113358994.118 7      3653.977          46.625    21183845.960    88168144.886 8      2841.982          49.437    21183845.780    88168147.883 8      2841.982          49.937
> 2024 05 03 15 15 56.0000000  0 17
G22  25201630.020   132435462.869 7      5501.194          44.375    25201630.120   132435462.873 4      5501.194          24.375    25201633.700   103196462.466 4      4286.644          24.687
G02  21609088.840   113556524.793 8      2342.771          48.125    21609087.280   113556524.797 6      2342.771          40.125    21609088.160    88485606.466 6      1825.536          40.250
G03  21065341.660   110699152.931 7      5043.145          46.687    21065340.800   110699152.931 6      5043.145          40.812    21065347.420    86259103.440 6      3929.724          40.312    21065348.040    86259121.444 8      3929.724          52.125
R02  20880269.360   111421124.184 8      5470.898          50.187    20880268.860   111421124.188 8      5470.898          48.125    20880277.840    86660918.965 8      4255.143          49.250    20880278.060    86660913.966 8      4255.143          49.375
G21  21607692.760   113549177.625 8      1451.598          48.687    21607691.760   113549177.627 6      1451.598          39.187    21607693.360    88479892.716 6      1131.115          39.312
G08  21105532.600   110910322.979 8      1550.462          48.375    21105531.460   110910322.982 8      1550.462          48.437    21105537.400    86423673.660 8      1208.152          48.750    21105538.260    86423649.665 8      1208.152          50.375
G14  23043327.100   121093506.916 7      4898.882          43.187    23043326.620   121093506.931 5      4898.882          34.062    23043330.280    94358587.366 5      3817.311          33.687    23043331.720    94358598.352 8      3817.311          48.937
R01  21055551.380   112553993.429 7      1751.504          42.312    21055550.000   112553993.443 7      1751.504          42.062    21055562.780    87542037.157 7      1362.281          44.312    21055561.220    87542032.152 7      1362.281          44.625
R14  22271084.220   118717336.165 8      -950.126          48.000    22271083.500   118717336.157 7      -950.126          46.562    22271097.240    92335779.341 8      -738.987          49.062    22271097.260    92335780.345 8      -738.987          48.875
R24  21508792.200   115017168.258 7      1723.098          46.500    21508792.660   115017168.268 7      1723.098          45.062    21508801.240    89457839.772 7      1340.187          47.500    21508801.620    89457841.771 7      1340.187          47.187
R15  21345050.580   114061470.952 7      1738.998          47.125    21345050.100   114061470.954 7      1738.998          46.000    21345059.560    88714510.798 8      1352.554          48.875    21345059.180    88714512.804 8      1352.554          49.812
G27  23520789.140   123602570.796 6       132.556          41.812    23520787.440   123602570.803 6       132.556          40.500    23520798.560    96313723.334 6       103.290          40.187    23520798.740    96313727.336 7       103.290          45.312
R16  23576046.380   125939015.998 7      4953.101          44.375    23576046.420   125939016.009 7      4953.101          43.187    23576056.380    97952601.090 7      3852.412          46.375    23576056.360    97952602.090 7      3852.412          46.937
R18  23712694.380   126579977.362 7      4608.075          45.437    23712694.100   126579977.368 7      4608.075          45.687    23712702.160    98451129.817 5      3584.058          33.125    23712702.480    98451130.822 5      3584.058          33.625
R03  23766501.360   127223933.832 6      6998.163          39.125    23766501.660   127223933.868 6      6998.163          37.875    23766525.420    98952060.572 7      5443.015          46.375    23766525.380    98952061.575 7      5443.015          46.625
G32  25028807.120   131527269.351 7      2098.114          45.062    25028806.420   131527269.359 6      2098.114          40.750    25028816.360   102488817.306 6      1634.894          40.562    25028817.080   102488822.306 7      1634.894          43.437
R17  21183154.740   113355340.150 7      3653.956          47.437    21183154.640   113355340.165 7      3653.956          46.312    21183163.200    88165302.920 8      2841.966          49.500    21183162.880    88165305.919 8      2841.966          49.500
> 2024 05 03 15 15 57.0000000  0 17
G22  25200583.080   132429961.790 7      5500.733          43.812    25200583.280   132429961.797 4      5500.733          24.375    25200586.960   103192175.909 4      4286.285          24.687
G02  21608643.060   113554182.093 7      2342.456          47.625    21608641.400   113554182.095 6      2342.456          39.937    21608642.340    88483781.071 6      1825.290          39.812
G03  21064382.140   110694109.989 7      5042.467          46.437    21064381.260   110694109.994 6      5042.467          40.625    21064387.780    86255173.877 6      3929.195          40.250    21064388.480    86255191.878 8      3929.195          51.562
R02  20879244.040   111415653.644 8      5470.106          50.000    20879243.820   111415653.644 8      5470.106          48.437    20879252.560    86656664.095 8      4254.527          49.437    20879252.820    86656659.097 8      4254.527          49.062
G21  21607416.440   113547726.045 8      1451.466          48.312    21607415.520   113547726.052 6      1451.466          39.687    21607417.080    88478761.615 6      1131.013          39.500
G08  21105237.660   110908772.715 7      1549.920          47.750    21105236.380   110908772.723 8      1549.920          48.500    21105242.280    86422465.664 8      1207.730          48.562    21105243.440    86422441.664 8      1207.730          50.562
G14  23042395.000   121088608.245 7      4898.264          42.812    23042394.380   121088608.263 5      4898.264          34.062    23042397.960    94354770.230 5      3816.829          34.125    23042399.940    94354781.229 8      3816.829          49.000
R01  21055223.980   112552242.516 7      1750.386          42.625    21055222.340   112552242.525 7      1750.386          42.062    21055234.920    87540675.328 7      1361.412          44.000    21055234.000    87540670.322 7      1361.412          44.625
R14  22271262.700   118718286.409 7      -950.471          47.812    22271261.940   118718286.407 7      -950.471          46.812    22271275.460    92336518.407 8      -739.255          48.625    22271275.780    92336519.410 8      -739.255          49.437
R24  21508469.980   115015445.187 7      1722.900          45.500    21508470.140   115015445.188 7      1722.900          45.687    21508478.840    89456499.599 7      1340.034          47.875    21508479.360    89456501.598 7      1340.034          47.500
R15  21344725.260   114059732.357 7      1737.985          47.750    21344724.700   114059732.355 7      1737.985          45.437    21344734.180    88713158.550 8      1351.766          49.375    21344733.720    88713160.558 8      1351.766          48.937
G27  23520763.900   123602438.327 6       132.222          41.562    23520762.060   123602438.326 6       132.222          40.562    23520773.200    96313620.097 6       103.030          40.562    23520773.240    96313624.098 7       103.030          45.312
R16  23575119.140   125934063.115 7      4952.358          44.375    23575119.880   125934063.119 7      4952.358          43.187    23575129.040    97948748.840 7      3851.834          46.562    23575129.020    97948749.840 7      3851.834          46.937
R18  23711830.940   126575369.077 7      4608.134          46.375    23711831.020   126575369.081 7      4608.134          45.500    23711839.160    98447545.595 5      3584.104          33.125    23711838.800    98447546.599 5      3584.104          33.625
R03  23765194.200   127216935.830 6      6997.859          39.125    23765194.880   127216935.867 6      6997.859          37.875    23765218.120    98946617.684 7      5442.779          46.375    23765218.300    98946618.685 7      5442.779          46.500
G32  25028407.820   131525171.588 7      2097.517          45.125    25028407.100   131525171.593 6      2097.517          41.000    25028417.020   102487182.686 6      1634.429          41.125    25028417.540   102487187.682 7      1634.429          43.437
R17  21182471.620   113351686.218 7      3653.732          47.562    21182471.620   113351686.233 7      3653.732          46.500    21182480.320    88162460.973 8      2841.792          49.062    21182480.220    88162463.972 8      2841.792          49.687
> 2024 05 03 15 15 58.0000000  0 17
G22  25199535.960   132424460.795 7      5501.015          44.062    25199536.500   132424460.802 4      5501.015          24.375    25199540.300   103187889.418 4      4286.505          24.687
G02  21608197.380   113551839.316 7      2342.832          47.937    21608195.600   113551839.321 6      2342.832          39.750    21608196.460    88481956.086 6      1825.583          39.625
G03  21063422.340   110689067.417 7      5042.419          46.312    21063421.800   110689067.417 6      5042.419          40.062    21063428.300    86251244.602 6      3929.158          39.500    21063428.940    86251262.606 8      3929.158          51.437
R02  20878219.180   111410183.535 8      5469.946          49.312    20878218.820   111410183.538 8      5469.946          48.187    20878227.680    86652409.575 8      4254.402          48.062    20878227.880    86652404.576 8      4254.402          48.812
G21  21607140.460   113546274.376 8      1451.743          49.062    21607139.280   113546274.378 6      1451.743          39.812    21607140.880    88477630.442 6      1131.228          39.562
G08  21104942.660   110907222.690 8      1549.887          48.000    21104941.440   110907222.692 7      1549.887          47.625    21104947.340    86421257.850 7      1207.704          47.875    21104948.300    86421233.851 8      1207.704          50.125
G14  23041463.000   121083709.937 7      4898.175          44.125    23041462.060   121083709.953 5      4898.175          34.062    23041465.900    94350953.356 5      3816.759          34.125    23041467.800    94350964.372 8      3816.759          49.125
R01  21054896.360   112550492.276 7      1749.879          42.625    21054895.640   112550492.285 7      1749.879          42.062    21054907.820    87539314.034 7      1361.017          43.437    21054906.260    87539309.025 7      1361.017          44.062
R14  22271440.920   118719236.742 7      -950.259          47.375    22271440.140   118719236.740 7      -950.259          46.437    22271453.720    92337257.540 7      -739.090          47.812    22271453.920    92337258.543 8      -739.090          48.062
R24  21508147.880   115013721.998 7      1723.218          45.437    21508147.720   115013722.005 7      1723.218          45.187    21508156.640    89455159.341 7      1340.281          47.000    21508157.000    89455161.342 7      1340.281          47.562
R15  21344399.840   114057994.373 7      1737.740          46.875    21344399.700   114057994.374 7      1737.740          46.187    21344408.920    88711806.787 8      1351.575          48.875    21344408.540    88711808.791 8      1351.575          48.937
G27  23520738.820   123602305.931 6       132.388          41.750    23520737.020   123602305.936 6       132.388          40.625    23520748.060    96313516.925 6       103.159          40.312    23520748.200    96313520.930 7       103.159          44.875
R16  23574192.140   125929110.724 7      4952.258          44.375    23574192.540   125929110.722 7      4952.258          43.500    23574202.000    97944896.978 7      3851.756          45.875    23574201.980    97944897.976 7      3851.756          46.437
R18  23710967.700   126570760.638 7      4608.635          46.312    23710967.620   126570760.633 7      4608.635          45.125    23710975.680    98443961.247 5      3584.494          33.125    23710975.940    98443962.247 5      3584.494          33.625
R03  23763886.500   127209937.615 6      6998.322          39.125    23763886.860   127209937.632 6      6998.322          37.875    23763910.840    98941174.616 7      5443.140          45.750    23763910.940    98941175.616 7      5443.140          46.250
G32  25028009.140   131523074.172 7      2097.218          45.687    25028008.100   131523074.183 6      2097.218          40.750    25028017.880   102485548.338 6      1634.196          40.937    25028018.820   102485553.344 7      1634.196          43.625
R17  21181789.000   113348032.129 7      3654.231          47.500    21181788.400   113348032.151 7      3654.231          46.562    21181797.580    88159618.916 8      2842.180          48.687    21181797.340    88159621.919 8      2842.180          49.000
> 2024 05 03 15 15 59.0000000  0 17
G22  25198489.360   132418959.905 7      5500.613          43.875    25198489.920   132418959.915 4      5500.613          24.375    25198493.480   103183603.002 4      4286.192          24.687
G02  21607751.460   113549496.477 7      2342.618          47.937    21607749.820   113549496.482 6      2342.618          39.812    21607750.680    88480130.118 6      1825.416          39.625
G03  21062462.900   110684025.182 7      5041.866          46.687    21062462.300   110684025.184 6      5041.866          40.937    21062468.860    86247315.594 6      3928.726          40.500    21062469.460    86247333.593 8      3928.726          51.625
R02  20877194.040   111404713.826 8      5469.452          49.750    20877193.840   111404713.827 8      5469.452          48.187    20877202.480    86648155.359 8      4254.018          49.687    20877202.620    86648150.361 8      4254.018          49.437
G21  21606864.000   113544822.580 8      1451.660          49.125    21606863.040   113544822.588 6      1451.660          39.500    21606864.480    88476499.177 6      1131.163          39.812
G08  21104647.760   110905672.888 8      1549.545          48.375    21104646.580   110905672.890 8      1549.545          48.750    21104652.420    86420050.208 8      1207.438          48.625    21104653.380    86420026.211 8      1207.438          50.187
G14  23040530.900   121078811.937 7      4897.633          44.437    23040529.940   121078811.944 5      4897.633          34.062    23040533.720    94347136.727 5      3816.337          33.812    23040535.480    94347147.750 8      3816.337          48.687
R01  21054569.380   112548742.734 7      1749.047          43.062    21054568.460   112548742.754 7      1749.047          42.062    21054580.680    87537953.286 7      1360.370          43.937    21054579.260    87537948.278 7      1360.370          44.625
R14  22271619.120   118720187.078 7      -950.460          47.375    22271618.640   118720187.075 7      -950.460          46.750    22271632.000    92337996.676 8      -739.247          48.125    22271632.140    92337997.680 8      -739.247          48.750
R24  21507825.400   115011998.708 7      1723.154          45.937    21507825.540   115011998.709 7      1723.154          45.062    21507834.580    89453818.996 7      1340.231          47.375    21507834.860    89453820.997 7      1340.231          47.000
R15  21344074.480   114056257.009 7      1736.885          47.125    21344074.540   114056257.004 7      1736.885          46.375    21344083.840    88710455.494 8      1350.911          49.937    21344083.620    88710457.500 8      1350.911          49.375
G27  23520713.040   123602173.665 6       131.986          41.187    23520711.820   123602173.675 6       131.986          40.500    23520722.900    96313413.854 6       102.846          39.937    23520723.140    96313417.853 7       102.846          45.125
R16  23573265.380   125924158.806 7      4951.451          44.125    23573265.440   125924158.799 7      4951.451          43.562    23573274.840    97941045.484 7      3851.129          46.437    23573274.900    97941046.484 7      3851.129          46.812
R18  23710104.280   126566152.003 7      4608.485          46.000    23710104.340   126566151.999 7      4608.485          45.312    23710113.140    98440376.758 5      3584.377          35.187    23710112.380    98440377.757 5      3584.377          33.625
R03  23762578.340   127202939.112 6      6998.515          39.125    23762578.660   127202939.146 6      6998.515          37.875    23762603.440    98935731.364 7      5443.290          46.437    23762603.720    98935732.368 7      5443.290          46.562
G32  25027610.200   131520977.095 7      2096.781          44.437    25027609.040   131520977.100 6      2096.781          40.437    25027618.720   102483914.246 6      1633.855          40.500    25027619.820   102483919.246 7      1633.855          43.562
R17  21181105.860   113344377.900 7      3654.095          46.750    21181105.880   113344377.920 7      3654.095          47.062    21181114.780    88156776.738 8      2842.074          49.375    21181114.340    88156779.737 8      2842.074          49.937
> 2024 05 03 15 16  0.0000000  0 17
G22  25197442.940   132413459.428 7      5500.316          44.375    25197443.180   132413459.433 4      5500.316          24.375    25197446.900   103179316.914 4      4285.961          24.687
G02  21607305.800   113547153.853 8      2342.525          48.437    21607304.100   113547153.855 6      2342.525          39.687    21607304.920    88478305.215 6      1825.344          40.062
G03  21061503.600   110678983.598 7      5041.330          46.625    21061502.820   110678983.595 6      5041.330          40.812    21061509.300    86243387.087 6      3928.309          40.687    21061509.800    86243405.084 8      3928.309          51.812
R02  20876169.000   111399244.777 8      5468.732          49.500    20876168.820   111399244.775 7      5468.732          47.750    20876177.480    86643901.660 8      4253.458          49.312    20876177.840    86643896.660 8      4253.458          49.625
G21  21606587.960   113543370.955 8      1451.593          48.750    21606586.800   113543370.960 6      1451.593          39.125    21606588.240    88475368.036 6      1131.111          39.687
G08  21104353.160   110904123.548 8      1549.105          48.062    21104351.660   110904123.558 8      1549.105          48.312    21104357.660    86418842.933 8      1207.095          48.250    21104358.420    86418818.937 8      1207.095          50.562
G14  23039598.620   121073914.593 7      4897.113          43.187    23039598.140   121073914.601 5      4897.113          34.062    23039601.820    94343320.615 5      3815.932          33.812    23039603.140    94343331.650 7      3815.932          47.875
R01  21054242.520   112546994.170 7      1748.096          43.250    21054241.960   112546994.188 7      1748.096          42.500    21054253.760    87536593.290 7      1359.630          44.187    21054251.840    87536588.282 7      1359.630          44.312
R14  22271797.280   118721137.775 7      -950.798          47.375    22271796.880   118721137.781 7      -950.798          46.437    22271810.500    92338736.099 8      -739.510          48.750    22271810.600    92338737.102 8      -739.510          49.125
R24  21507503.040   115010275.578 7      1723.012          45.312    21507502.820   115010275.576 7      1723.012          45.062    21507512.280    89452478.779 7      1340.120          47.187    21507512.620    89452480.780 7      1340.120          47.500
R15  21343749.560   114054520.609 7      1736.041          47.000    21343749.400   114054520.610 7      1736.041          46.062    21343759.020    88709104.965 8      1350.254          49.437    21343758.540    88709106.967 8      1350.254          49.187
G27  23520687.780   123602041.666 6       131.871          41.312    23520686.680   123602041.673 6       131.871          40.625    23520697.780    96313310.988 6       102.757          40.125    23520698.180    96313314.989 7       102.757          45.437
R16  23572338.100   125919207.683 7      4950.822          44.437    23572338.460   125919207.684 7      4950.822          43.562    23572348.060    97937194.615 7      3850.639          45.875    23572348.120    97937195.617 7      3850.639          47.062
R18  23709240.920   126561543.508 7      4608.560          46.125    23709240.900   126561543.511 7      4608.560          45.562    23709249.880    98436792.379 5      3584.436          35.187    23709249.080    98436793.382 5      3584.436          35.687
R03  23761271.040   127195940.717 6      6998.234          39.125    23761271.580   127195940.748 6      6998.234          37.875    23761296.100    98930288.172 7      5443.071          46.062    23761296.280    98930289.176 7      5443.071          46.437
G32  25027211.320   131518880.615 7      2096.182          44.437    25027209.980   131518880.620 6      2096.182          41.000    25027219.900   102482280.622 6      1633.389          41.250    25027220.800   102482285.618 7      1633.389          43.750
R17  21180423.020   113340723.847 8      3653.986          48.000    21180422.780   113340723.870 7      3653.986          46.562    21180431.820    88153934.700 8      2841.989          49.250    21180431.820    88153937.699 8      2841.989          49.687
> 2024 05 03 15 16  1.0000000  0 17
G22  25196396.200   132407959.379 7      5499.948          44.312    25196396.520   132407959.384 4      5499.948          24.375    25196400.160   103175031.159 4      4285.673          24.687
G02  21606860.160   113544811.516 8      2342.183          48.562    21606858.240   113544811.518 6      2342.183          39.937    21606859.200    88476480.394 6      1825.078          39.562
G03  21060544.520   110673942.708 7      5040.543          47.250    21060543.560   110673942.705 6      5040.543          40.375    21060549.960    86239459.119 6      3927.696          40.125    21060550.720    86239477.120 8      3927.696          51.437
R02  20875144.200   111393776.517 8      5467.809          49.812    20875144.120   111393776.518 8      5467.809          48.125    20875153.080    86639648.569 8      4252.740          49.437    20875153.080    86639643.571 8      4252.740          49.750
G21  21606311.600   113541919.599 8      1451.225          48.500    21606310.520   113541919.601 6      1451.225          39.312    21606312.180    88474237.103 6      1130.825          39.687
G08  21104058.280   110902574.837 8      1548.304          48.500    21104057.000   110902574.844 8      1548.304          48.625    21104062.800    86417636.140 8      1206.471          48.750    21104063.740    86417612.143 8      1206.471          50.250
G14  23038667.000   121069017.912 7      4896.433          44.062    23038666.260   121069017.919 5      4896.433          33.875    23038670.080    94339505.021 5      3815.403          33.875    23038670.460    94339516.050 7      3815.403          46.312
R01  21053915.280   112545246.697 7      1746.867          43.625    21053915.420   112545246.712 7      1746.867          42.312    21053926.560    87535234.142 7      1358.674          44.000    21053925.120    87535229.139 7      1358.674          44.312
R14  22271975.560   118722088.860 7      -951.335          47.812    22271975.300   118722088.855 7      -951.335          47.062    22271988.900    92339475.813 8      -739.927          49.375    22271988.840    92339476.817 8      -739.927          48.937
R24  21507181.300   115008552.782 7      1722.624          45.375    21507180.580   115008552.770 7      1722.624          45.000    21507190.120    89451138.815 7      1339.819          47.562    21507190.400    89451140.818 7      1339.819          47.437
R15  21343424.700   114052785.166 7      1734.877          47.312    21343424.920   114052785.172 7      1734.877          46.187    21343434.200    88707755.176 8      1349.349          49.500    21343433.720    88707757.180 8      1349.349          49.375
G27  23520663.260   123601910.172 6       131.119          40.937    23520661.780   123601910.187 6       131.119          40.937    23520672.840    96313208.523 6       102.170          40.250    23520673.320    96313212.526 7       102.170          45.250
R16  23571411.640   125914257.431 7      4949.963          44.875    23571411.600   125914257.427 7      4949.963          44.187    23571421.220    97933344.415 7      3849.971          46.375    23571421.600    97933345.417 7      3849.971          46.312
R18  23708377.500   126556935.159 7      4608.401          45.500    23708377.460   126556935.163 7      4608.401          44.937    23708387.320    98433208.102 5      3584.312          35.187    23708386.100    98433209.107 5      3584.312          35.687
R03  23759964.760   127188942.397 6      6998.173          38.375    23759964.480   127188942.415 6      6998.173          37.500    23759988.680    98924845.036 7      5443.023          45.812    23759988.740    98924846.036 7      5443.023          46.437
G32  25026812.120   131516784.854 7      2095.344          44.437    25026811.060   131516784.856 6      2095.344          40.437    25026821.140   102480647.562 6      1632.735          40.937    25026822.060   102480652.558 7      1632.735          44.125
R17  21179740.480   113337070.025 7      3653.666          47.937    21179740.060   113337070.051 7      3653.666          46.562    21179748.840    88151092.836 8      2841.740          49.687    21179748.800    88151095.837 8      2841.740          49.375
> 2024 05 03 15 16  2.0000000  0 17
G22  25195349.700   132402459.519 7      5499.626          44.375    25195349.920   132402459.527 4      5499.626          24.375    25195353.460   103170745.554 4      4285.423          24.437
G02  21606414.400   113542469.191 7      2342.196          47.812    21606412.580   113542469.199 6      2342.196          40.125    21606413.440    88474655.081 6      1825.088          39.500
G03  21059585.200   110668902.267 7      5040.092          47.250    21059584.380   110668902.270 6      5040.092          41.000    21059590.920    86235531.509 6      3927.344          40.500    21059591.560    86235549.508 8      3927.344          51.750
R02  20874119.640   111388308.789 8      5467.372          50.125    20874119.260   111388308.792 8      5467.372          48.312    20874128.360    86635395.902 8      4252.400          48.812    20874128.220    86635390.901 8      4252.400          49.812
G21  21606035.540   113540468.200 8      1451.340          48.812    21606034.300   113540468.202 6      1451.340          39.750    21606035.980    88473106.145 6      1130.914          39.750
G08  21103763.660   110901026.412 8      1548.201          48.375    21103762.480   110901026.411 8      1548.201          49.000    21103768.260    86416429.569 8      1206.390          49.125    21103769.280    86416405.572 8      1206.390          50.375
G14  23037735.320   121064121.666 7      4895.896          43.250    23037734.660   121064121.679 5      4895.896          33.875    23037738.480    94335689.771 5      3814.984          33.875    23037737.860    94335700.788 7      3814.984          45.750
R01  21053588.380   112543499.967 7      1746.314          43.625    21053588.480   112543499.992 7      1746.314          42.312    21053599.920    87533875.582 7      1358.244          44.000    21053598.560    87533870.577 7      1358.244          44.500
R14  22272154.380   118723040.077 7      -951.372          47.812    22272153.820   118723040.081 7      -951.372          46.312    22272167.180    92340215.640 8      -739.956          48.562    22272167.660    92340216.643 8      -739.956          49.000
R24  21506858.980   115006829.992 7      1722.759          45.375    21506857.820   115006829.985 7      1722.759          45.000    21506868.040    89449798.869 7      1339.923          47.375    21506868.420    89449800.870 7      1339.923          47.375
R15  21343100.260   114051050.426 7      1734.229          47.625    21343100.260   114051050.424 7      1734.229          46.562    21343109.500    88706405.925 8      1348.845          49.250    21343109.480    88706407.931 8      1348.845          49.562
G27  23520638.160   123601778.851 6       131.134          40.812    23520636.760   123601778.856 6       131.134          40.562    23520647.880    96313106.179 6       102.182          40.187    23520648.040    96313110.182 7       102.182          45.375
R16  23570485.080   125909307.839 7      4949.184          44.562    23570485.660   125909307.835 7      4949.184          44.687    23570494.600    97929494.732 7      3849.365          46.500    23570495.020    97929495.734 7      3849.365          46.875
R18  23707514.320   126552326.682 7      4608.450          45.125    23707514.020   126552326.681 7      4608.450          44.750    23707522.780    98429623.739 5      3584.350          35.187    23707522.840    98429624.740 5      3584.350          35.687
R03  23758656.880   127181943.922 6      6998.476          38.375    23758657.460   127181943.958 6      6998.476          37.500    23758681.120    98919401.794 7      5443.259          46.437    23758681.520    98919402.798 7      5443.259          46.250
G32  25026413.340   131514689.506 7      2095.141          44.750    25026412.340   131514689.508 6      2095.141          40.625    25026422.500   102479014.823 6      1632.577          40.937    25026423.180   102479019.823 7      1632.577          43.937
R17  21179057.580   113333416.163 7      3653.797          47.750    21179057.120   113333416.186 7      3653.797          47.000    21179065.980    88148250.945 8      2841.842          49.437    21179066.060    88148253.942 8      2841.842          49.375
> 2024 05 03 15 16  3.0000000  0 17
G22  25194302.980   132396960.041 7      5499.301          44.375    25194303.360   132396960.048 4      5499.301          24.500    25194307.260   103166460.246 4      4285.169          24.437
G02  21605968.740   113540127.111 7      2341.975          47.125    21605966.920   113540127.116 6      2341.975          40.125    21605967.800    88472830.178 6      1824.916          39.937
G03  21058626.120   110663862.515 7      5039.394          47.062    21058625.340   110663862.517 6      5039.394          40.562    21058631.820    86231604.433 6      3926.800          40.500    21058632.560    86231622.434 8      3926.800          51.562
R02  20873095.200   111382841.895 8      5466.480          49.437    20873094.680   111382841.898 7      5466.480          47.812    20873103.940    86631143.875 8      4251.707          49.562    20873103.880    86631138.877 8      4251.707          49.562
G21  21605759.240   113539017.024 8      1451.014          49.125    21605758.180   113539017.032 6      1451.014          39.875    21605759.760    88471975.359 6      1130.660          39.750
G08  21103469.080   110899478.573 7      1547.556          47.062    21103467.920   110899478.575 8      1547.556          48.250    21103473.640    86415223.461 8      1205.888          48.312    21103474.580    86415199.461 8      1205.888          50.312
G14  23036803.600   121059226.033 7      4895.381          43.500    23036803.020   121059226.046 5      4895.381          33.812    23036806.780    94331874.994 5      3814.583          33.625    23036806.160    94331885.981 7      3814.583          46.062
R01  21053261.880   112541754.322 7      1745.179          43.000    21053262.320   112541754.342 7      1745.179          42.687    21053273.280    87532517.852 7      1357.361          44.000    21053272.020    87532512.847 7      1357.361          44.937
R14  22272332.780   118723991.684 8      -951.749          48.000    22272332.320   118723991.685 7      -951.749          46.687    22272346.000    92340955.766 8      -740.249          48.312    22272345.920    92340956.769 8      -740.249          49.187
R24  21506536.880   115005107.474 7      1722.263          45.125    21506535.700   115005107.470 7      1722.263          45.187    21506545.940    89448459.133 7      1339.538          47.437    21506546.180    89448461.134 7      1339.538          47.625
R15  21342775.840   114049316.610 7      1733.358          47.625    21342775.800   114049316.608 7      1733.358          46.437    21342785.200    88705057.399 8      1348.168          49.937    21342785.220    88705059.403 8      1348.168          49.312
G27  23520613.360   123601647.975 6       130.612          41.187    23520611.880   123601647.979 6       130.612          40.875    23520622.840    96313004.187 6       101.776          40.250    23520623.340    96313008.186 7       101.776          45.187
R16  23569558.760   125904359.038 7      4948.378          44.437    23569558.520   125904359.055 7      4948.378          43.875    23569568.320    97925645.681 7      3848.739          46.187    23569568.480    97925646.683 7      3848.739          46.625
R18  23706651.200   126547718.272 7      4608.332          44.375    23706650.960   126547718.276 7      4608.332          44.437    23706659.940    98426039.414 6      3584.258          36.750    23706659.500    98426040.415 5      3584.258          35.687
R03  23757349.580   127174945.596 6      6998.309          38.375    23757350.300   127174945.638 6      6998.309          37.500    23757373.820    98913958.665 7      5443.129          46.437    23757374.020    98913959.666 7      5443.129          46.375
G32  25026014.860   131512594.883 7      2094.235          44.375    25026013.740   131512594.885 6      2094.235          40.562    25026023.840   102477382.649 6      1631.871          40.312    25026024.820   102477387.647 7      1631.871          44.000
R17  21178374.840   113329762.464 7      3653.563          47.750    21178374.360   113329762.476 7      3653.563          46.312    21178383.360    88145409.173 8      2841.660          49.125    21178383.080    88145412.168 8      2841.660          49.187
> 2024 05 03 15 16  4.0000000  0 17
G22  25193256.600   132391460.630 7      5499.265          44.500    25193256.940   132391460.638 4      5499.265          24.500    25193260.840   103162174.987 4      4285.141          24.437
G02  21605522.780   113537784.910 7      2342.278          47.375    21605521.260   113537784.915 6      2342.278          40.000    21605522.100    88471004.046 6      1825.152          39.937
G03  21057667.000   110658823.046 7      5039.201          46.500    21057666.400   110658823.046 6      5039.201          40.312    21057672.940    86227677.574 6      3926.650          40.000    21057673.740    86227695.571 8      3926.650          52.062
R02  20872070.640   111377375.369 8      5466.287          49.687    20872070.360   111377375.370 7      5466.287          47.437    20872079.520    86626892.133 8      4251.556          49.062    20872079.480    86626887.137 8      4251.556          49.312
G21  21605483.220   113537565.673 8      1451.420          48.500    21605481.920   113537565.678 6      1451.420          40.125    21605483.580    88470844.434 6      1130.977          39.750
G08  21103174.540   110897930.873 7      1547.611          47.625    21103173.340   110897930.878 8      1547.611          48.437    21103179.100    86414017.459 8      1205.931          48.625    21103179.960    86413993.461 8      1205.931          50.625
G14  23035872.240   121054330.731 7      4895.057          44.500    23035871.420   121054330.736 5      4895.057          33.812    23035875.380    94328060.467 5      3814.330          33.625    23035874.860    94328071.445 7      3814.330          46.437
R01  21052935.140   112540009.286 7      1744.653          43.812    21052935.880   112540009.306 7      1744.653          42.875    21052947.220    87531160.602 7      1356.952          44.187    21052945.560    87531155.595 7      1356.952          44.812
R14  22272511.280   118724943.275 7      -951.729          47.875    22272510.980   118724943.267 7      -951.729          46.687    22272524.480    92341695.870 8      -740.233          48.875    22272524.440    92341696.874 8      -740.233          48.437
R24  21506214.860   115003384.713 7      1722.796          45.000    21506213.620   115003384.711 7      1722.796          45.000    21506223.600    89447119.201 7      1339.953          47.500    21506223.940    89447121.208 7      1339.953          47.750
R15  21342451.260   114047583.395 7      1732.823          47.625    21342451.500   114047583.388 7      1732.823          46.250    21342460.820    88703709.335 8      1347.751          49.625    21342460.660    88703711.337 8      1347.751          49.250
G27  23520588.720   123601517.079 6       130.876          41.625    23520587.100   123601517.082 6       130.876          40.562    23520597.740    96312902.178 6       101.981          40.000    23520598.320    96312906.185 7       101.981          45.500
R16  23568632.240   125899410.763 7      4947.903          44.562    23568632.480   125899410.775 7      4947.903          43.562    23568641.780    97921797.012 7      3848.369          46.437    23568642.080    97921798.016 7      3848.369          46.937
R18  23705787.980   126543109.617 7      4608.676          43.937    23705787.300   126543109.623 7      4608.676          44.500    23705796.640    98422454.904 6      3584.525          36.750    23705796.200    98422455.907 6      3584.525          37.187
R03  23756042.820   127167946.944 6      6998.726          38.375    23756042.900   127167946.970 6      6998.726          37.500    23756066.480    98908515.267 7      5443.453          46.187    23756066.400    98908516.266 7      5443.453          46.187
G32  25025616.380   131510500.486 7      2094.283          43.937    25025615.260   131510500.491 6      2094.283          40.750    25025625.240   102475750.652 6      1631.909          40.500    25025625.940   102475755.650 7      1631.909          43.687
R17  21177692.080   113326108.572 7      3653.912          47.250    21177691.500   113326108.585 7      3653.912          46.500    21177700.640    88142567.251 8      2841.931          49.375    21177700.040    88142570.250 8      2841.931          49.312
> 2024 05 03 15 16  5.0000000  0 17
G22  25192210.200   132385961.588 7      5499.124          44.125    25192210.300   132385961.595 4      5499.124          24.500    25192214.500   103157890.011 4      4285.032          24.437
G02  21605077.180   113535442.938 7      2342.061          47.375    21605075.600   113535442.943 6      2342.061          40.250    21605076.420    88469179.389 6      1824.983          39.562
G03  21056708.260   110653784.187 7      5038.649          46.812    21056707.540   110653784.184 6      5038.649          40.562    21056714.140    86223751.191 6      3926.220          40.250    21056714.580    86223769.190 8      3926.220          52.000
R02  20871046.500   111371909.532 8      5465.509          49.562    20871046.080   111371909.531 8      5465.509          48.062    20871055.360    86622640.929 8      4250.952          49.312    20871055.240    86622635.931 8      4250.952          49.562
G21  21605207.180   113536114.521 8      1451.176          48.812    21605205.600   113536114.526 6      1451.176          39.125    21605207.480    88469713.664 6      1130.786          39.875
G08  21102880.060   110896383.690 7      1546.948          47.687    21102878.980   110896383.695 8      1546.948          48.562    21102884.640    86412811.860 8      1205.414          48.312    21102885.720    86412787.861 8      1205.414          50.000
G14  23034940.700   121049436.010 7      4894.666          45.750    23034940.040   121049436.012 5      4894.666          33.812    23034943.940    94324246.394 5      3814.026          33.750    23034944.040    94324257.377 7      3814.026          47.250
R01  21052609.240   112538265.224 7      1743.657          43.625    21052609.480   112538265.244 7      1743.657          42.937    21052620.920    87529804.107 7      1356.178          44.437    21052619.180    87529799.098 7      1356.178          45.375
R14  22272690.000   118725895.148 7      -951.948          47.500    22272689.360   118725895.149 7      -951.948          46.937    22272702.820    92342436.211 8      -740.404          48.625    22272703.160    92342437.212 8      -740.404          49.187
R24  21505892.600   115001662.171 7      1722.610          45.125    21505891.540   115001662.162 7      1722.610          44.437    21505901.740    89445779.440 7      1339.808          47.375    21505901.940    89445781.441 7      1339.808          47.437
R15  21342127.180   114045851.062 7      1732.082          47.062    21342127.300   114045851.058 7      1732.082          45.937    21342136.540    88702361.963 8      1347.175          49.250    21342136.560    88702363.965 8      1347.175          49.250
G27  23520563.800   123601386.552 6       130.383          41.437    23520562.260   123601386.560 6       130.383          40.500    23520573.120    96312800.465 6       101.597          40.062    23520573.340    96312804.461 7       101.597          45.250
R16  23567706.280   125894463.254 7      4947.321          44.312    23567706.600   125894463.258 7      4947.321          43.812    23567715.480    97917948.948 7      3847.916          45.812    23567715.920    97917949.946 7      3847.916          46.625
R18  23704924.560   126538501.062 7      4608.770          43.875    23704923.940   126538501.063 7      4608.770          43.625    23704933.020    98418870.473 6      3584.599          36.750    23704933.160    98418871.476 6      3584.599          37.187
R03  23754734.600   127160948.284 6      6998.684          38.375    23754735.280   127160948.315 6      6998.684          37.500    23754758.920    98903071.879 7      5443.421          46.187    23754759.300    98903072.880 7      5443.421          46.875
G32  25025217.800   131508406.761 7      2093.496          44.062    25025216.880   131508406.769 6      2093.496          40.750    25025226.960   102474119.182 6      1631.296          40.625    25025227.460   102474124.182 7      1631.296          43.562
R17  21177009.720   113322454.865 7      3653.866          46.312    21177008.520   113322454.877 7      3653.866          46.875    21177017.520    88139725.475 8      2841.896          48.812    21177017.520    88139728.478 8      2841.896          49.250
> 2024 05 03 15 16  6.0000000  0 17
G22  25191163.740   132380462.829 7      5498.367          44.000    25191163.840   132380462.839 4      5498.367          24.500    25191168.160   103153605.262 4      4284.441          24.437
G02  21604631.440   113533101.103 7      2341.561          47.500    21604629.780   113533101.107 6      2341.561          40.250    21604630.840    88467354.158 6      1824.593          39.937
G03  21055749.420   110648746.001 7      5037.656          47.437    21055748.840   110648745.995 6      5037.656          40.750    21055755.500    86219825.335 6      3925.446          40.250    21055755.880    86219843.332 8      3925.446          51.437
R02  20870022.280   111366444.424 8      5464.645          49.625    20870021.960   111366444.422 8      5464.645          48.562    20870030.940    86618390.291 8      4250.280          49.500    20870030.980    86618385.295 8      4250.280          49.250
G21  21604931.060   113534663.477 7      1450.759          47.937    21604929.480   113534663.477 6      1450.759          39.437    21604931.420    88468582.976 6      1130.461          39.500
G08  21102585.960   110894837.010 8      1546.318          48.875    21102584.660   110894837.015 8      1546.318          48.625    21102590.300    86411606.653 8      1204.923          48.562    21102591.060    86411582.653 8      1204.923          50.500
G14  23034009.340   121044541.817 7      4893.724          44.937    23034008.700   121044541.819 5      4893.724          34.187    23034012.540    94320432.737 5      3813.292          34.000    23034013.160    94320443.728 7      3813.292          47.500
R01  21052282.940   112536522.134 7      1742.373          43.625    21052283.520   112536522.156 7      1742.373          42.937    21052294.660    87528448.370 7      1355.179          44.062    21052293.340    87528443.361 7      1355.179          44.687
R14  22272868.620   118726847.405 7      -952.536          47.750    22272867.860   118726847.403 7      -952.536          46.812    22272881.700    92343176.841 8      -740.862          48.562    22272882.100    92343177.842 8      -740.862          49.187
R24  21505570.420   114999939.816 7      1722.011          45.812    21505569.480   114999939.815 7      1722.011          44.625    21505579.660    89444439.837 7      1339.342          47.312    21505580.000    89444441.836 8      1339.342          48.000
R15  21341803.320   114044119.579 7      1730.895          47.000    21341803.140   114044119.575 7      1730.895          46.125    21341812.680    88701015.254 8      1346.251          49.750    21341812.400    88701017.254 8      1346.251          49.437
G27  23520539.060   123601256.466 6       129.750          41.562    23520537.360   123601256.469 6       129.750          41.312    23520548.380    96312699.085 6       101.104          41.125    23520548.580    96312703.088 7       101.104          45.312
R16  23566780.200   125889516.443 7      4946.202          44.500    23566780.100   125889516.444 7      4946.202          43.812    23566789.540    97914101.422 7      3847.046          46.125    23566789.660    97914102.421 7      3847.046          46.500
R18  23704061.280   126533892.535 7      4608.300          43.562    23704060.640   126533892.531 7      4608.300          43.750    23704070.360    98415286.060 6      3584.233          37.062    23704069.940    98415287.068 6      3584.233          37.187
R03  23753427.140   127153949.774 6      6998.273          38.375    23753428.140   127153949.794 6      6998.273          37.500    23753451.640    98897628.587 7      5443.101          46.562    23753451.740    98897629.590 7      5443.101          46.187
G32  25024819.560   131506313.626 7      2092.778          45.375    25024818.560   131506313.625 6      2092.778          40.500    25024828.400   102472488.163 6      1630.736          40.875    25024829.360   102472493.165 7      1630.736          44.000
R17  21176326.240   113318801.217 7      3653.425          45.625    21176326.000   113318801.232 7      3653.425          46.312    21176334.980    88136883.754 8      2841.553          49.125    21176334.660    88136886.758 8      2841.553          49.437
> 2024 05 03 15 16  7.0000000  0 17
G22  25190117.300   132374964.480 7      5498.367          44.000    25190117.700   132374964.490 4      5498.367          24.500    25190121.780   103149320.832 4      4284.441          24.437
G02  21604186.100   113530759.488 7      2341.577          47.687    21604184.200   113530759.495 6      2341.577          40.437    21604185.120    88465530.565 6      1824.605          40.125
G03  21054790.960   110643708.363 7      5037.467          46.937    21054790.260   110643708.368 6      5037.467          40.750    21054796.660    86215899.910 6      3925.299          40.625    21054797.280    86215917.911 8      3925.299          51.750
R02  20868998.200   111360979.939 8      5464.161          49.062    20868997.960   111360979.943 7      5464.161          47.875    20869006.840    86614140.145 8      4249.903          49.625    20869007.140    86614135.147 8      4249.903          49.500
G21  21604654.700   113533212.591 8      1450.851          48.562    21604653.520   113533212.598 6      1450.851          39.375    21604655.340    88467452.420 6      1130.533          39.250
G08  21102291.580   110893290.810 7      1546.018          47.812    21102290.340   110893290.813 7      1546.018          47.937    21102296.200    86410401.818 8      1204.689          48.187    21102296.780    86410377.818 8      1204.689          50.187
G14  23033078.120   121039648.251 7      4893.358          43.687    23033077.380   121039648.259 5      4893.358          34.187    23033081.280    94316619.575 5      3813.006          34.000    23033081.940    94316630.578 8      3813.006          48.000
R01  21051956.860   112534779.988 7      1741.727          43.437    21051957.800   112534780.013 7      1741.727          43.000    21051968.960    87527093.368 7      1354.677          44.312    21051967.480    87527088.358 7      1354.677          44.937
R14  22273047.180   118727799.961 8      -952.611          48.000    22273046.720   118727799.959 7      -952.611          46.562    22273060.400    92343917.701 8      -740.920          48.312    22273060.660    92343918.704 8      -740.920          48.875
R24  21505248.580   114998217.657 7      1722.173          44.000    21505247.380   114998217.653 7      1722.173          44.625    21505257.700    89443100.376 7      1339.468          47.562    21505257.840    89443102.379 7      1339.468          47.437
R15  21341479.500   114042388.977 7      1730.310          46.687    21341479.440   114042388.976 7      1730.310          46.437    21341488.720    88699669.226 8      1345.797          49.562    21341488.680    88699671.230 8      1345.797          49.437
G27  23520514.580   123601126.646 6       129.720          41.625    23520512.760   123601126.651 6       129.720          40.250    23520523.580    96312597.920 6       101.081          40.312    23520523.420    96312601.921 7       101.081          45.250
R16  23565854.220   125884570.456 7      4945.710          43.625    23565854.420   125884570.452 7      4945.710          43.687    23565863.780    97910254.539 7      3846.663          45.937    23565863.820    97910255.539 7      3846.663          46.312
R18  23703198.260   126529284.090 7      4608.565          43.562    23703197.100   126529284.086 7      4608.565          43.750    23703206.440    98411701.721 6      3584.440          37.062    23703207.100    98411702.726 6      3584.440          37.937
R03  23752119.140   127146951.181 6      6998.755          38.375    23752119.780   127146951.204 6      6998.755          37.187    23752144.220    98892185.249 7      5443.476          46.000    23752144.340    98892186.253 7      5443.476          46.250
G32  25024421.220   131504221.115 7      2092.197          45.750    25024420.520   131504221.120 6      2092.197          40.625    25024430.240   102470857.638 6      1630.283          40.812    25024431.100   102470862.640 7      1630.283          44.000
R17  21175643.740   113315147.729 7      3653.529          46.375    21175643.140   113315147.742 7      3653.529          46.437    21175652.120    88134042.153 8      2841.634          49.125    21175651.800    88134045.150 8      2841.634          49.125
> 2024 05 03 15 16  8.0000000  0 17
G22  25189071.240   132369466.460 7      5497.836          44.125    25189071.380   132369466.470 4      5497.836          24.500    25189075.500   103145036.654 4      4284.028          24.437
G02  21603740.520   113528418.020 7      2341.359          47.687    21603738.800   113528418.022 6      2341.359          40.062    21603739.560    88463705.989 6      1824.436          40.062
G03  21053832.540   110638671.349 7      5036.724          47.375    21053831.820   110638671.348 6      5036.724          40.812    21053838.040    86211974.963 6      3924.720          40.625    21053838.880    86211992.964 8      3924.720          51.375
R02  20867974.140   111355516.090 8      5463.477          49.000    20867973.800   111355516.088 8      5463.477          48.500    20867983.020    86609890.486 8      4249.371          48.812    20867983.560    86609885.488 8      4249.371          49.187
G21  21604378.660   113531761.810 7      1450.724          47.875    21604377.440   113531761.814 6      1450.724          39.062    21604379.200    88466321.939 6      1130.434          39.125
G08  21101997.260   110891745.039 8      1545.472          48.312    21101996.220   110891745.039 7      1545.472          47.937    21102001.960    86409197.319 7      1204.264          47.875    21102002.780    86409173.321 8      1204.264          49.500
G14  23032147.140   121034755.254 7      4892.728          43.500    23032146.440   121034755.269 5      4892.728          34.187    23032150.240    94312806.856 5      3812.516          34.250    23032150.580    94312817.857 7      3812.516          47.062
R01  21051631.660   112533038.787 7      1740.625          44.000    21051631.660   112533038.799 7      1740.625          42.812    21051643.080    87525739.095 7      1353.819          43.875    21051641.280    87525734.087 7      1353.819          44.562
R14  22273225.920   118728752.783 7      -953.066          47.500    22273225.600   118728752.786 7      -953.066          46.812    22273239.080    92344658.779 8      -741.273          48.250    22273239.380    92344659.784 8      -741.273          49.000
R24  21504925.880   114996495.653 7      1721.823          44.937    21504925.400   114996495.657 7      1721.823          44.437    21504935.440    89441761.041 7      1339.195          46.562    21504935.900    89441763.042 7      1339.195          46.875
R15  21341155.820   114040659.225 7      1729.337          47.062    21341155.440   114040659.224 7      1729.337          45.437    21341165.040    88698323.861 8      1345.040          48.750    21341164.760    88698325.867 8      1345.040          49.000
G27  23520490.020   123600997.144 6       129.221          41.687    23520488.180   123600997.148 6       129.221          40.625    23520499.020    96312497.001 6       100.692          40.375    23520499.200    96312501.002 7       100.692          45.000
R16  23564928.820   125879625.237 7      4944.879          43.687    23564928.420   125879625.230 7      4944.879          43.562    23564937.880    97906408.259 7      3846.017          45.562    23564937.860    97906409.261 7      3846.017          46.187
R18  23702334.800   126524675.669 7      4608.389          42.687    23702333.880   126524675.662 7      4608.389          42.562    23702343.400    98408117.408 6      3584.303          37.062    23702344.100    98408118.405 6      3584.303          37.937
R03  23750811.620   127139952.649 6      6998.394          38.375    23750813.600   127139952.688 6      6998.394          37.187    23750836.920    98886741.968 7      5443.195          45.375    23750836.940    98886742.971 7      5443.195          45.562
G32  25024023.500   131502129.146 7      2091.451          45.750    25024022.500   131502129.151 6      2091.451          40.625    25024032.260   102469227.532 6      1629.702          41.062    25024032.960   102469232.540 7      1629.702          43.562
R17  21174961.320   113311494.325 7      3653.250          46.250    21174960.460   113311494.337 7      3653.250          46.375    21174969.340    88131200.618 8      2841.416          48.750    21174969.240    88131203.613 8      2841.416          48.625
