     3.05           OBSERVATION DATA    MIXED               RINEX VERSION / TYPE
TPS2RIN 1.0.29.3920 TPS-USER            20240511 181632 UTC PGM / RUN BY / DATE
Win64 build Feb 23, 2024 (c) Topcon Positioning Systems     COMMENT
SRC: 20240503_FA05.tps                                      COMMENT
OPT: -S -v 3.05                                             COMMENT
Observer            Agency                                  OBSERVER / AGENCY
O0M3X53SBGM         TPS HIPER_SR        4.8 HSR Jul,08,2022 REC # / TYPE / VERS
FW: 4.8 HSR Jul,08,2022 p3                                  COMMENT
SN: HiPer SR 1212-12575                                     COMMENT
000                 TPSHIPER_SR     NONE                    ANT # / TYPE
        1.8000        0.0000        0.0000                  ANTENNA: DELTA H/E/N
DELTA H stands for **SLANT** height here!                   COMMENT
FA05                                                        MARKER NAME
  5390992.7181 -1598477.9724  3005045.7102                  APPROX POSITION XYZ
  2024     5     3    15    59   57.0000000     GPS         TIME OF FIRST OBS
  2024     5     3    16     4   59.0000000     GPS         TIME OF LAST OBS
     1.000                                                  INTERVAL
   303 EPOCHS                                               COMMENT
G   16 C1C L1C D1C S1C C1W L1W D1W S1W C2W L2W D2W S2W C2X  SYS / # / OBS TYPES
       L2X D2X S2X                                          SYS / # / OBS TYPES
R   16 C1C L1C D1C S1C C1P L1P D1P S1P C2P L2P D2P S2P C2C  SYS / # / OBS TYPES
       L2C D2C S2C                                          SYS / # / OBS TYPES
    19                                                      # OF SATELLITES
   G02   303   303   303   303   303   303   303   303   303PRN / # OF OBS
         303   303   303     0     0     0     0            PRN / # OF OBS
   G03   303   303   303   303   303   303   303   303   303PRN / # OF OBS
         303   303   303   303   303   303   303            PRN / # OF OBS
   G04   303   303   303   303   303   303   303   303   303PRN / # OF OBS
         303   303   303   303   303   303   303            PRN / # OF OBS
   G08   303   303   303   303   303   303   303   303   303PRN / # OF OBS
         303   303   303   303   303   303   303            PRN / # OF OBS
   G14   303   303   303   303   303   303   303   303   303PRN / # OF OBS
         303   303   303   303   303   303   303            PRN / # OF OBS
   G17   303   303   303   303   303   303   303   303   303PRN / # OF OBS
         303   303   303   303   303   303   303            PRN / # OF OBS
   G21   303   303   303   303   303   303   303   303   303PRN / # OF OBS
         303   303   303     0     0     0     0            PRN / # OF OBS
   G22   303   303   303   303   303   303   303   303   303PRN / # OF OBS
         303   303   303     0     0     0     0            PRN / # OF OBS
   G27   303   303   303   303   303   303   303   303   303PRN / # OF OBS
         303   303   303   303   303   303   303            PRN / # OF OBS
   G32   258   258   258   258   258   258   258   258   258PRN / # OF OBS
         258   258   258   258   258   258   258            PRN / # OF OBS
   R01   303   303   303   303   303   303   303   303   303PRN / # OF OBS
         303   303   303   303   303   303   303            PRN / # OF OBS
   R02   303   303   303   303   303   303   303   303   303PRN / # OF OBS
         303   303   303   303   303   303   303            PRN / # OF OBS
   R03   303   303   303   303   303   303   303   303   303PRN / # OF OBS
         303   303   303   303   303   303   303            PRN / # OF OBS
   R14   120   120   120   120   120   120   120   120   120PRN / # OF OBS
         120   120   120   120   120   120   120            PRN / # OF OBS
   R15   303   303   303   303   303   303   303   303   303PRN / # OF OBS
         303   303   303   303   303   303   303            PRN / # OF OBS
   R16   303   303   303   303   303   303   303   303   303PRN / # OF OBS
         303   303   303   303   303   303   303            PRN / # OF OBS
   R17   303   303   303   303   303   303   303   303   303PRN / # OF OBS
         303   303   303   303   303   303   303            PRN / # OF OBS
   R18   303   303   303   303   303   303   303   303   303PRN / # OF OBS
         303   303   303   303   303   303   303            PRN / # OF OBS
   R24   303   303   303   303   303   303   303   303   303PRN / # OF OBS
         303   303   303   303   303   303   303            PRN / # OF OBS
G L1C                                                       SYS / PHASE SHIFT
G L1W -0.25000                                              SYS / PHASE SHIFT
G L2W  0.00000                                              SYS / PHASE SHIFT
G L2X  0.00000  01 G03                                      SYS / PHASE SHIFT
G L2X  0.25000  06 G04 G08 G14 G17 G27 G32                  SYS / PHASE SHIFT
R L1C                                                       SYS / PHASE SHIFT
R L1P -0.25000                                              SYS / PHASE SHIFT
R L2P -0.25000                                              SYS / PHASE SHIFT
R L2C                                                       SYS / PHASE SHIFT
  9 R01  1 R02 -4 R03  5 R14 -7 R15  0 R16 -1 R17  4 R18 -3 GLONASS SLOT / FRQ #
    R24  2                                                  GLONASS SLOT / FRQ #
                                                            GLONASS COD/PHS/BIS
    18    18  1929     7GPS                                 LEAP SECONDS
                                                            END OF HEADER
> 2024 05 03 15 59 57.0000000  0 19
G03  20105200.080   105653535.721 8      3509.285          48.437    20105199.420   105653535.723 7      3509.285          42.937    20105204.260    82327433.395 7      2734.508          42.937    20105205.080    82327433.395 8      2734.508          52.812
G02  21681591.480   113937534.176 7      2157.130          46.500    21681589.960   113937534.181 6      2157.130          40.250    21681591.200    88782494.047 6      1680.881          39.937
R16  22809097.840   121842104.030 7      2951.488          46.250    22809098.860   121842104.055 7      2951.488          45.500    22809106.000    94766109.756 7      2295.602          44.750    22809106.180    94766119.753 7      2295.602          45.437
R03  21555279.000   115387152.151 7      6645.450          45.625    21555279.160   115387152.182 7      6645.450          43.875    21555293.760    89745586.418 8      5168.684          49.187    21555293.520    89745586.420 8      5168.684          49.625
R02  19842280.740   105882254.828 8      3438.351          51.125    19842280.620   105882254.829 8      3438.351          50.500    19842287.300    82352868.466 8      2674.273          50.312    19842287.700    82352862.467 8      2674.273          51.000
G21  22100961.240   116141312.042 7      1374.035          46.500    22100959.660   116141312.052 6      1374.035          37.687    22100962.280    90499736.623 6      1070.676          37.812
G08  21790546.160   114510071.281 7       497.451          46.687    21790545.120   114510071.281 7       497.451          46.812    21790552.260    89228665.867 7       387.624          47.250    21790553.400    89228641.870 8       387.624          48.937
G14  22148533.200   116391340.549 7      3375.058          45.500    22148532.040   116391340.562 6      3375.058          36.000    22148536.400    90694551.863 6      2629.915          36.125    22148536.960    90694560.864 8      2629.915          49.500
R01  21918789.120   117168488.413 7      -284.418          42.625    21918789.160   117168488.422 6      -284.418          41.937    21918799.780    91131094.539 6      -221.214          41.875    21918799.120    91131091.529 7      -221.214          42.312
R18  22596693.960   120622695.401 6      4766.758          40.562    22596694.980   120622695.384 6      4766.758          41.375    22596704.140    93817698.734 7      3707.479          47.312    22596703.420    93817695.735 7      3707.479          47.875
R24  21930652.000   117273052.792 7      1374.047          42.875    21930650.000   117273052.788 7      1374.047          43.562    21930663.060    91212415.949 7      1068.703          47.000    21930663.120    91212415.945 7      1068.703          47.625
R14  23991413.320   127887707.248 7      -978.408          43.500    23991411.920   127887707.238 7      -978.408          42.187    23991435.980    99468336.869 7      -760.984          44.562    23991436.920    99468336.870 7      -760.984          45.250
R17  20608315.980   110279270.900 7      3502.960          47.500    20608316.480   110279270.917 7      3502.960          47.062    20608325.340    85772794.850 8      2724.524          50.750    20608324.700    85772796.848 8      2724.524          50.687
G22  23854999.880   125358873.089 7      4540.952          44.750    23854999.200   125358873.089 4      4540.952          28.875    23855003.060    97682251.581 4      3538.405          29.250
G04  23750789.520   124811301.512 6      5701.787          39.187    23750788.880   124811301.525 4      5701.787          28.187    23750803.800    97255631.767 4      4442.951          28.687    23750803.980    97255646.801 7      4442.951          47.625
G27  24808890.520   130371593.573 6      -452.438          40.875    24808889.560   130371593.577 6      -452.438          37.437    24808907.820   101588314.183 6      -352.549          37.562    24808908.000   101588321.173 7      -352.549          42.750
R15  22134315.460   118279055.379 7        71.635          42.625    22134313.020   118279055.359 6        71.635          41.812    22134328.360    91994855.244 8        55.716          48.437    22134327.960    91994861.249 8        55.716          48.375
G17  23829812.960   125226528.705 7      5523.927          43.250    23829812.840   125226528.702 5      5523.927          32.187    23829815.380    97579119.640 5      4304.358          31.875    23829815.600    97579122.631 7      4304.358          44.000
G32  25508933.000   134050349.622 6       788.748          36.437    25508932.040   134050349.622 4       788.748          28.375    25508940.840   104454847.704 4       614.609          26.937    25508941.880   104454853.699 6       614.609          36.500
> 2024 05 03 15 59 58.0000000  0 19
G03  20104532.440   105650026.913 8      3508.568          48.500    20104531.680   105650026.918 7      3508.568          43.062    20104536.480    82324699.520 7      2733.949          42.875    20104537.400    82324699.520 8      2733.949          52.750
G02  21681181.060   113935377.221 7      2156.973          46.250    21681179.600   113935377.226 6      2156.973          40.062    21681180.720    88780813.302 6      1680.758          40.062
R16  22808545.160   121839152.984 7      2950.661          47.125    22808546.200   121839153.014 7      2950.661          45.750    22808553.640    94763814.502 7      2294.959          45.062    22808553.880    94763824.495 7      2294.959          45.375
R03  21554037.900   115380507.051 7      6645.165          45.437    21554037.980   115380507.074 7      6645.165          44.125    21554052.180    89740418.015 8      5168.462          49.937    21554052.180    89740418.015 8      5168.462          50.062
R02  19841636.300   105878817.024 8      3437.476          51.250    19841636.320   105878817.022 8      3437.476          50.312    19841643.200    82350194.618 8      2673.593          50.312    19841643.620    82350188.624 8      2673.593          50.500
G21  22100700.000   116139938.102 7      1374.056          46.812    22100698.080   116139938.104 6      1374.056          37.875    22100700.920    90498666.016 6      1070.693          38.312
G08  21790451.380   114509574.037 7       497.175          46.625    21790450.360   114509574.039 7       497.175          46.437    21790457.560    89228278.400 7       387.409          46.687    21790458.780    89228254.400 8       387.409          48.875
G14  22147890.680   116387965.852 7      3374.459          45.875    22147889.880   116387965.857 6      3374.459          36.250    22147894.200    90691922.223 6      2629.449          36.062    22147895.020    90691931.230 8      2629.449          49.812
R01  21918842.900   117168773.209 7      -285.124          42.000    21918842.820   117168773.226 6      -285.124          41.937    21918853.160    91131316.051 6      -221.763          41.875    21918852.060    91131313.041 7      -221.763          42.500
R18  22595800.920   120617928.619 6      4766.872          41.500    22595802.000   120617928.609 6      4766.872          41.375    22595810.920    93813991.245 7      3707.567          47.000    22595810.240    93813988.250 7      3707.567          47.812
R24  21930394.260   117271678.949 7      1373.838          43.500    21930392.460   117271678.959 7      1373.838          43.312    21930406.000    91211347.409 7      1068.541          47.125    21930406.340    91211347.407 8      1068.541          48.250
R14  23991596.860   127888685.673 7      -978.121          43.437    23991595.520   127888685.662 7      -978.121          42.437    23991619.640    99469097.880 7      -760.760          44.687    23991620.480    99469097.884 7      -760.760          45.062
R17  20607661.580   110275768.201 8      3502.594          48.687    20607662.000   110275768.221 7      3502.594          46.562    20607670.700    85770070.533 8      2724.240          50.687    20607670.180    85770072.533 8      2724.240          51.000
G22  23854135.940   125354332.523 7      4540.289          45.187    23854135.340   125354332.520 4      4540.289          28.875    23854138.280    97678713.478 4      3537.887          29.250
G04  23749704.700   124805599.691 6      5702.030          38.937    23749703.940   124805599.698 4      5702.030          28.187    23749719.000    97251188.804 4      4443.140          28.687    23749719.040    97251203.840 7      4443.140          47.500
G27  24808976.960   130372046.084 6      -452.394          40.125    24808975.600   130372046.091 6      -452.394          37.750    24808993.900   101588666.770 6      -352.515          37.437    24808994.280   101588673.762 7      -352.515          42.812
R15  22134302.260   118278984.043 6        71.243          41.750    22134299.900   118278984.015 6        71.243          41.687    22134314.860    91994799.742 8        55.411          48.375    22134314.400    91994805.749 8        55.411          48.000
G17  23828761.680   125221004.740 7      5523.987          42.500    23828761.460   125221004.737 5      5523.987          32.187    23828764.340    97574815.248 5      4304.406          31.875    23828764.300    97574818.235 7      4304.406          43.937
G32  25508782.160   134049561.023 6       788.244          36.437    25508781.900   134049561.022 4       788.244          26.875    25508790.800   104454233.213 4       614.216          26.937    25508792.440   104454239.214 6       614.216          36.500
> 2024 05 03 15 59 59.0000000  0 19
G03  20103864.920   105646518.617 8      3508.017          48.437    20103864.100   105646518.617 7      3508.017          43.375    20103869.000    82321966.138 7      2733.520          43.187    20103869.960    82321966.138 8      2733.520          52.625
G02  21680770.520   113933220.376 7      2156.791          47.250    21680769.140   113933220.380 6      2156.791          40.000    21680770.240    88779132.641 6      1680.616          39.750
R16  22807992.900   121836202.825 7      2949.826          46.437    22807994.200   121836202.847 7      2949.826          45.625    22808001.180    94761519.921 7      2294.309          44.687    22808001.680    94761529.914 7      2294.309          44.750
R03  21552796.720   115373862.021 7      6644.918          45.437    21552797.040   115373862.033 7      6644.918          43.562    21552811.040    89735249.664 8      5168.269          49.562    21552811.100    89735249.669 8      5168.269          49.875
R02  19840992.440   105875380.047 8      3436.451          50.937    19840992.340   105875380.050 8      3436.451          49.500    19840999.100    82347521.420 8      2672.795          50.875    19840999.380    82347515.421 8      2672.795          50.562
G21  22100438.300   116138564.212 7      1373.865          47.187    22100436.600   116138564.215 6      1373.865          38.000    22100439.420    90497595.451 6      1070.544          38.375
G08  21790356.900   114509077.013 7       496.894          46.375    21790355.640   114509077.018 7       496.894          46.937    21790363.180    89227891.104 7       387.190          46.687    21790364.340    89227867.109 8       387.190          49.375
G14  22147248.260   116384591.804 7      3373.718          45.500    22147247.720   116384591.809 6      3373.718          36.000    22147252.080    90689293.097 6      2628.871          36.062    22147252.700    90689302.097 8      2628.871          49.375
R01  21918896.280   117169058.686 7      -285.838          42.000    21918895.580   117169058.696 6      -285.838          41.562    21918906.260    91131538.085 6      -222.319          41.750    21918904.940    91131535.077 7      -222.319          42.250
R18  22594907.780   120613161.866 6      4766.881          41.625    22594909.980   120613161.869 6      4766.881          41.250    22594918.140    93810283.784 7      3707.574          46.750    22594917.380    93810280.792 7      3707.574          47.562
R24  21930137.320   117270305.254 7      1373.628          44.000    21930136.340   117270305.252 7      1373.628          43.187    21930149.240    91210278.967 7      1068.377          47.562    21930148.920    91210278.965 8      1068.377          48.187
R14  23991780.820   127889663.682 7      -977.871          43.187    23991778.960   127889663.677 7      -977.871          42.437    23991803.200    99469858.569 7      -760.566          44.625    23991803.500    99469858.576 7      -760.566          45.125
R17  20607007.580   110272265.687 7      3502.509          47.812    20607007.440   110272265.707 7      3502.509          46.687    20607015.880    85767346.358 8      2724.173          50.312    20607015.980    85767348.358 8      2724.173          49.937
G22  23853271.780   125349792.461 7      4539.875          44.062    23853271.340   125349792.458 4      4539.875          28.875    23853273.600    97675175.770 4      3537.565          29.250
G04  23748619.320   124799897.639 6      5701.890          39.125    23748618.720   124799897.649 4      5701.890          29.062    23748633.880    97246745.662 4      4443.032          28.687    23748633.720    97246760.690 8      4443.032          48.000
G27  24809063.260   130372498.595 6      -452.628          40.187    24809061.820   130372498.605 6      -452.628          37.625    24809080.100   101589019.360 6      -352.697          37.500    24809080.580   101589026.348 7      -352.697          42.812
R15  22134288.680   118278913.044 7        70.780          42.312    22134287.700   118278913.016 6        70.780          41.687    22134301.460    91994744.513 7        55.051          47.687    22134301.120    91994750.515 7        55.051          47.812
G17  23827710.780   125215480.883 6      5523.912          41.312    23827709.940   125215480.883 5      5523.912          32.187    23827713.060    97570510.948 5      4304.347          32.062    23827713.660    97570513.931 7      4304.347          43.875
G32  25508633.000   134048772.941 6       787.859          36.687    25508631.880   134048772.938 4       787.859          26.875    25508640.800   104453619.123 4       613.916          26.937    25508642.320   104453625.128 6       613.916          36.500
> 2024 05 03 16 00  0.0000000  0 19
G03  20103197.560   105643010.939 8      3507.343          48.687    20103196.680   105643010.938 7      3507.343          43.437    20103201.460    82319233.410 7      2732.994          43.312    20103202.220    82319233.410 8      2732.994          52.812
G02  21680360.140   113931063.394 7      2156.969          46.812    21680358.480   113931063.404 6      2156.969          39.625    21680359.640    88777451.880 6      1680.755          39.500
R16  22807440.880   121833253.210 7      2949.414          45.625    22807442.200   121833253.243 7      2949.414          44.812    22807448.760    94759225.777 7      2293.988          44.312    22807449.380    94759235.772 7      2293.988          44.375
R03  21551555.540   115367217.509 7      6644.167          46.500    21551555.760   115367217.535 7      6644.167          44.625    21551569.760    89730081.730 8      5167.686          49.500    21551569.620    89730081.732 8      5167.686          50.312
R02  19840348.340   105871944.004 8      3435.519          51.125    19840348.280   105871944.004 8      3435.519          49.875    19840355.260    82344848.942 8      2672.070          50.437    19840355.600    82344842.941 8      2672.070          51.000
G21  22100176.860   116137190.178 7      1374.027          45.875    22100174.960   116137190.180 6      1374.027          38.125    22100177.940    90496524.771 6      1070.670          37.812
G08  21790262.460   114508580.485 7       496.283          46.312    21790261.060   114508580.488 7       496.283          46.375    21790268.620    89227504.194 7       386.714          46.312    21790269.480    89227480.194 8       386.714          49.000
G14  22146606.640   116381218.229 7      3373.397          45.750    22146605.620   116381218.236 5      3373.397          35.812    22146610.000    90686664.339 5      2628.621          35.687    22146610.240    90686673.336 8      2628.621          48.312
R01  21918949.860   117169344.621 7      -286.367          42.187    21918948.860   117169344.622 6      -286.367          41.562    21918960.040    91131760.472 6      -222.730          41.750    21918958.940    91131757.463 7      -222.730          42.000
R18  22594014.900   120608394.803 6      4767.177          41.625    22594015.840   120608394.820 6      4767.177          41.250    22594025.020    93806576.081 7      3707.804          47.187    22594024.600    93806573.089 7      3707.804          47.687
R24  21929881.440   117268931.662 7      1373.438          44.562    21929879.960   117268931.661 7      1373.438          44.187    21929892.640    91209210.614 7      1068.230          47.812    21929892.740    91209210.610 8      1068.230          48.062
R14  23991963.880   127890641.683 7      -977.934          44.125    23991962.780   127890641.675 7      -977.934          42.625    23991986.620    99470619.249 7      -760.615          44.500    23991987.420    99470619.256 7      -760.615          45.000
R17  20606352.760   110268763.130 8      3502.532          48.437    20606352.660   110268763.139 7      3502.532          46.312    20606361.420    85764622.136 8      2724.191          49.875    20606361.260    85764624.134 8      2724.191          50.437
G22  23852407.900   125345252.634 6      4539.828          40.687    23852407.160   125345252.636 4      4539.828          28.875    23852409.340    97671638.242 4      3537.528          28.625
G04  23747534.480   124794195.760 6      5701.696          39.187    23747533.500   124794195.770 4      5701.696          29.062    23747548.800    97242302.654 4      4442.880          28.687    23747549.140    97242317.684 8      4442.880          48.250
G27  24809149.100   130372951.426 6      -453.033          40.125    24809147.920   130372951.442 6      -453.033          37.875    24809166.360   101589372.197 6      -353.013          37.500    24809166.940   101589379.179 7      -353.013          43.250
R15  22134276.660   118278842.459 7        70.313          42.312    22134274.520   118278842.444 6        70.313          41.687    22134288.080    91994689.607 7        54.688          47.750    22134287.760    91994695.611 7        54.688          47.562
G17  23826659.420   125209956.790 6      5524.247          41.375    23826658.340   125209956.790 5      5524.247          31.875    23826661.800    97566206.460 5      4304.608          32.062    23826662.820    97566209.439 7      4304.608          44.375
G32  25508482.560   134047985.116 6       787.646          36.687    25508482.240   134047985.119 4       787.646          26.875    25508491.100   104453005.236 4       613.750          26.937    25508492.740   104453011.241 6       613.750          36.500
> 2024 05 03 16 00  1.0000000  0 19
G03  20102530.220   105639503.702 8      3507.178          49.312    20102529.220   105639503.704 7      3507.178          42.937    20102534.060    82316500.764 7      2732.866          42.812    20102534.720    82316500.764 8      2732.866          52.750
G02  21679949.760   113928906.328 7      2157.212          47.062    21679947.960   113928906.333 6      2157.212          40.062    21679949.200    88775771.044 6      1680.944          40.062
R16  22806888.560   121830304.250 7      2948.717          45.625    22806890.000   121830304.278 7      2948.717          45.687    22806896.780    94756932.133 7      2293.446          44.375    22806897.040    94756942.126 7      2293.446          45.000
R03  21550314.140   115360573.178 7      6644.344          46.312    21550314.580   115360573.195 7      6644.344          44.750    21550328.480    89724913.919 8      5167.823          49.625    21550328.340    89724913.919 8      5167.823          49.937
R02  19839704.180   105868508.708 8      3435.004          51.687    19839704.460   105868508.708 8      3435.004          49.812    19839711.440    82342177.047 8      2671.669          50.312    19839711.920    82342171.049 8      2671.669          50.375
G21  22099915.300   116135816.018 7      1374.222          47.562    22099913.480   116135816.020 6      1374.222          37.750    22099916.240    90495453.999 6      1070.822          37.812
G08  21790167.940   114508084.184 7       496.283          47.187    21790166.740   114508084.186 7       496.283          46.687    21790174.140    89227117.463 7       386.714          46.375    21790174.880    89227093.464 8       386.714          49.562
G14  22145964.660   116377845.132 7      3372.968          45.437    22145963.840   116377845.145 6      3372.968          36.437    22145968.300    90684035.952 5      2628.287          35.812    22145968.300    90684044.955 8      2628.287          48.750
R01  21919002.960   117169630.997 7      -286.624          42.562    21919002.280   117169630.998 6      -286.624          41.750    21919013.220    91131983.207 6      -222.930          41.500    21919012.680    91131980.199 6      -222.930          41.625
R18  22593121.940   120603627.532 6      4767.333          40.062    22593121.820   120603627.543 6      4767.333          40.687    22593131.460    93802868.204 7      3707.926          46.687    22593131.340    93802865.209 7      3707.926          47.125
R24  21929624.780   117267558.119 7      1373.582          44.875    21929622.900   117267558.118 7      1373.582          44.062    21929635.760    91208142.294 7      1068.341          47.812    21929635.860    91208142.294 8      1068.341          48.062
R14  23992147.280   127891619.316 7      -977.313          44.125    23992146.240   127891619.316 7      -977.313          43.062    23992170.140    99471379.647 7      -760.132          44.937    23992170.540    99471379.650 7      -760.132          45.125
R17  20605698.080   110265260.447 8      3502.726          48.000    20605698.420   110265260.454 7      3502.726          46.500    20605706.820    85761897.825 8      2724.342          50.125    20605706.680    85761899.825 8      2724.342          50.187
G22  23851543.880   125340713.121 6      4539.598          40.687    23851542.640   125340713.134 4      4539.598          28.687    23851545.140    97668100.963 4      3537.349          28.625
G04  23746449.260   124788493.736 6      5702.264          39.187    23746448.520   124788493.744 4      5702.264          29.062    23746463.740    97237859.533 4      4443.322          28.937    23746464.140    97237874.555 7      4443.322          47.562
G27  24809235.380   130373404.303 6      -452.851          40.625    24809234.160   130373404.310 6      -452.851          37.687    24809252.460   101589725.059 6      -352.871          38.000    24809253.540   101589732.045 7      -352.871          43.250
R15  22134263.660   118278772.131 7        70.356          43.562    22134261.540   118278772.127 7        70.356          43.000    22134274.900    91994634.907 7        54.721          47.687    22134274.760    91994640.909 7        54.721          47.437
G17  23825608.340   125204432.542 6      5524.239          41.375    23825606.540   125204432.544 5      5524.239          31.875    23825610.780    97561901.857 5      4304.602          32.062    23825611.900    97561904.842 7      4304.602          44.500
G32  25508333.260   134047197.610 6       787.347          37.500    25508332.280   134047197.615 4       787.347          26.875    25508341.020   104452391.599 4       613.517          26.937    25508343.040   104452397.604 6       613.517          36.375
> 2024 05 03 16 00  2.0000000  0 19
G03  20101862.920   105635997.095 8      3506.277          48.875    20101861.940   105635997.095 7      3506.277          43.875    20101866.820    82313768.282 7      2732.164          43.562    20101867.540    82313768.282 8      2732.164          52.812
G02  21679539.300   113926749.330 7      2157.034          47.312    21679537.560   113926749.340 6      2157.034          39.500    21679538.800    88774090.270 6      1680.806          39.187
R16  22806336.740   121827356.089 7      2947.788          46.187    22806338.060   121827356.125 7      2947.788          45.875    22806345.020    94754639.120 7      2292.724          44.500    22806345.320    94754649.111 7      2292.724          45.000
R03  21549073.040   115353929.124 7      6643.884          46.875    21549073.160   115353929.147 7      6643.884          44.812    21549087.420    89719746.336 8      5167.465          49.750    21549087.320    89719746.338 8      5167.465          50.000
R02  19839060.720   105865074.255 8      3434.047          51.625    19839061.000   105865074.258 8      3434.047          49.750    19839067.740    82339505.808 8      2670.925          50.250    19839068.280    82339499.809 8      2670.925          51.187
G21  22099654.060   116134441.863 7      1374.167          47.750    22099652.020   116134441.871 6      1374.167          37.625    22099655.040    90494383.231 6      1070.779          37.687
G08  21790073.620   114507588.222 7       495.830          47.000    21790072.280   114507588.227 7       495.830          46.875    21790079.920    89226730.997 7       386.361          47.000    21790080.660    89226706.996 8       386.361          49.062
G14  22145322.960   116374472.710 7      3372.150          44.750    22145322.060   116374472.726 5      3372.150          35.875    22145326.540    90681408.091 5      2627.649          35.812    22145326.500    90681417.085 8      2627.649          48.687
R01  21919056.580   117169918.067 7      -287.433          42.562    21919056.200   117169918.058 6      -287.433          41.750    21919066.740    91132206.472 6      -223.559          41.625    21919066.180    91132203.460 6      -223.559          41.625
R18  22592229.020   120598860.197 6      4767.367          40.062    22592226.980   120598860.216 6      4767.367          40.687    22592237.940    93799160.289 7      3707.952          46.312    22592238.620    93799157.297 7      3707.952          46.812
R24  21929368.220   117266184.763 7      1373.332          45.687    21929366.180   117266184.762 7      1373.332          44.187    21929378.780    91207074.128 7      1068.147          47.562    21929379.500    91207074.127 7      1068.147          47.937
R14  23992331.060   127892596.706 7      -977.234          43.562    23992329.240   127892596.699 7      -977.234          43.062    23992353.640    99472139.843 7      -760.071          44.875    23992354.000    99472139.849 7      -760.071          45.000
R17  20605043.920   110261757.842 7      3502.704          47.812    20605043.920   110261757.854 7      3502.704          46.750    20605052.240    85759173.581 8      2724.326          50.687    20605052.040    85759175.579 8      2724.326          50.500
G22  23850679.620   125336174.166 5      4538.389          34.750    23850678.360   125336174.189 4      4538.389          28.687    23850681.600    97664564.121 4      3536.407          28.625
G04  23745364.580   124782791.615 6      5702.253          38.562    23745363.280   124782791.623 4      5702.253          29.062    23745378.640    97233416.336 4      4443.314          28.937    23745379.000    97233431.365 8      4443.314          48.375
G27  24809321.880   130373857.268 6      -453.077          39.750    24809320.360   130373857.281 6      -453.077          38.375    24809338.740   101590078.003 6      -353.047          38.437    24809339.440   101590084.991 7      -353.047          42.750
R15  22134250.380   118278702.294 7        69.690          44.375    22134249.020   118278702.285 7        69.690          43.000    22134261.520    91994580.575 7        54.203          47.250    22134261.640    91994586.579 7        54.203          47.125
G17  23824557.240   125198908.314 6      5524.182          40.812    23824555.040   125198908.322 5      5524.182          31.875    23824559.780    97557597.270 5      4304.558          31.250    23824561.100    97557600.259 7      4304.558          45.687
G32  25508183.220   134046410.550 6       786.929          37.500    25508182.440   134046410.555 4       786.929          26.875    25508191.280   104451778.305 4       613.192          26.937    25508192.700   104451784.308 6       613.192          36.375
> 2024 05 03 16 00  3.0000000  0 19
G03  20101195.580   105632491.072 8      3505.877          48.000    20101194.720   105632491.075 7      3505.877          43.187    20101199.580    82311035.637 7      2731.852          43.000    20101200.480    82311035.637 8      2731.852          52.875
G02  21679128.920   113924592.411 7      2157.010          47.500    21679127.080   113924592.416 6      2157.010          39.687    21679128.280    88772409.550 6      1680.787          39.562
R16  22805785.040   121824408.686 7      2947.088          45.125    22805785.540   121824408.719 7      2947.088          45.687    22805793.140    94752346.692 7      2292.180          44.437    22805793.780    94752356.691 7      2292.180          45.312
R03  21547831.860   115347285.462 7      6643.714          45.750    21547831.900   115347285.490 7      6643.714          44.937    21547846.100    89714579.055 8      5167.333          49.187    21547846.140    89714579.058 8      5167.333          49.937
R02  19838417.320   105861640.679 8      3433.335          51.562    19838417.400   105861640.680 8      3433.335          50.250    19838424.240    82336835.251 8      2670.372          50.250    19838424.840    82336829.255 8      2670.372          50.312
G21  22099392.640   116133067.745 8      1374.293          48.125    22099390.600   116133067.752 6      1374.293          37.812    22099393.620    90493312.487 6      1070.877          38.125
G08  21789979.520   114507092.677 7       495.598          47.937    21789978.020   114507092.685 7       495.598          46.812    21789985.560    89226344.852 7       386.180          46.500    21789986.480    89226320.853 8       386.180          48.687
G14  22144681.340   116371100.885 7      3371.636          45.187    22144680.520   116371100.903 6      3371.636          36.375    22144684.840    90678780.695 6      2627.249          36.062    22144685.300    90678789.695 8      2627.249          49.562
R01  21919111.140   117170205.753 7      -287.930          43.125    21919109.760   117170205.746 6      -287.930          41.750    21919120.800    91132430.231 6      -223.945          41.625    21919119.720    91132427.230 6      -223.945          41.687
R18  22591335.740   120594092.798 6      4767.577          40.062    22591333.140   120594092.807 6      4767.577          39.812    22591344.160    93795452.312 7      3708.116          46.125    22591345.020    93795449.326 7      3708.116          45.812
R24  21929111.240   117264811.621 7      1373.323          44.937    21929109.600   117264811.614 7      1373.323          44.000    21929122.240    91206006.123 7      1068.140          47.625    21929122.740    91206006.121 8      1068.140          48.125
R14  23992514.040   127893573.929 7      -976.820          43.750    23992512.400   127893573.924 7      -976.820          42.875    23992536.660    99472899.920 7      -759.749          44.750    23992537.140    99472899.923 7      -759.749          45.062
R17  20604389.200   110258255.370 7      3502.558          47.750    20604389.400   110258255.385 7      3502.558          47.000    20604397.840    85756449.439 8      2724.212          49.687    20604397.440    85756451.435 8      2724.212          49.812
G22  23849815.940   125331635.555 5      4538.340          34.750    23849814.380   125331635.580 4      4538.340          28.687    23849817.960    97661027.547 4      3536.369          28.625
G04  23744279.820   124777089.542 6      5702.321          38.687    23744278.100   124777089.555 4      5702.321          29.312    23744293.520    97228973.181 4      4443.367          28.937    23744294.000    97228988.215 8      4443.367          48.187
G27  24809408.180   130374310.455 6      -453.077          40.062    24809406.640   130374310.465 6      -453.077          37.875    24809424.900   101590431.115 6      -353.047          37.187    24809425.880   101590438.099 7      -353.047          43.062
R15  22134237.540   118278632.917 7        69.228          44.750    22134236.260   118278632.910 7        69.228          43.500    22134248.460    91994526.615 7        53.844          47.125    22134248.580    91994532.615 7        53.844          47.625
G17  23823505.960   125193384.108 6      5524.162          40.250    23823503.620   125193384.110 5      5524.162          31.687    23823508.840    97553292.694 5      4304.542          31.250    23823510.080    97553295.687 7      4304.542          45.750
G32  25508033.500   134045623.982 6       786.464          37.562    25508032.760   134045623.992 4       786.464          26.875    25508041.760   104451165.395 4       612.829          26.500    25508042.420   104451171.398 6       612.829          36.375
> 2024 05 03 16 00  4.0000000  0 19
G03  20100528.480   105628985.525 8      3505.104          48.937    20100527.560   105628985.527 7      3505.104          43.375    20100532.600    82308303.974 7      2731.250          43.062    20100533.340    82308303.974 8      2731.250          53.000
G02  21678718.400   113922435.395 7      2156.812          47.250    21678716.640   113922435.403 6      2156.812          39.750    21678717.860    88770728.759 6      1680.633          39.562
R16  22805233.060   121821461.994 7      2946.114          45.375    22805233.680   121821462.024 7      2946.114          45.250    22805241.660    94750054.824 7      2291.422          44.500    22805242.140    94750064.813 7      2291.422          45.062
R03  21546590.800   115340641.973 7      6643.269          46.375    21546591.300   115340641.996 7      6643.269          45.250    21546605.140    89709411.910 8      5166.987          49.375    21546605.220    89709411.912 8      5166.987          49.875
R02  19837774.080   105858207.758 8      3432.420          50.937    19837774.040   105858207.759 8      3432.420          50.562    19837781.080    82334165.206 8      2669.660          50.625    19837781.420    82334159.209 8      2669.660          51.000
G21  22099131.080   116131693.498 7      1374.086          47.062    22099129.120   116131693.505 6      1374.086          37.750    22099132.020    90492241.645 6      1070.716          38.062
G08  21789885.200   114506597.327 7       495.121          47.062    21789883.720   114506597.332 7       495.121          47.250    21789891.320    89225958.859 7       385.808          46.812    21789892.260    89225934.860 8       385.808          48.812
G14  22144039.900   116367729.604 7      3370.689          45.437    22144039.020   116367729.622 6      3370.689          36.437    22144043.060    90676153.722 6      2626.511          36.062    22144043.960    90676162.723 8      2626.511          49.437
R01  21919164.340   117170493.901 7      -288.568          42.625    21919163.520   117170493.902 6      -288.568          41.750    21919174.400    91132654.356 6      -224.442          41.437    21919173.500    91132651.349 6      -224.442          41.625
R18  22590441.980   120589325.198 6      4767.547          39.187    22590440.040   120589325.189 6      4767.547          39.812    22590450.660    93791744.175 7      3708.092          46.375    22590451.640    93791741.185 7      3708.092          45.750
R24  21928854.720   117263438.503 7      1372.896          44.750    21928853.000   117263438.502 7      1372.896          44.687    21928865.460    91204938.140 7      1067.808          47.625    21928865.940    91204938.138 8      1067.808          48.312
R14  23992696.700   127894550.861 7      -976.860          43.750    23992695.840   127894550.865 7      -976.860          42.812    23992720.020    99473659.771 7      -759.780          44.750    23992720.720    99473659.772 7      -759.780          45.187
R17  20603734.760   110254752.931 7      3502.162          47.687    20603735.100   110254752.946 7      3502.162          47.062    20603743.180    85753725.319 8      2723.904          49.937    20603742.780    85753727.317 8      2723.904          50.750
G22  23848952.900   125327097.366 5      4537.720          34.750    23848950.880   125327097.395 4      4537.720          28.687    23848954.640    97657491.298 4      3535.885          28.375
G04  23743194.300   124771387.240 6      5702.368          39.125    23743192.900   124771387.253 4      5702.368          29.312    23743208.380    97224529.845 4      4443.403          28.937    23743208.420    97224544.875 8      4443.403          48.000
G27  24809494.420   130374763.607 6      -453.295          40.500    24809492.900   130374763.612 6      -453.295          37.687    24809511.160   101590784.198 6      -353.217          37.750    24809511.980   101590791.180 7      -353.217          42.875
R15  22134224.520   118278563.863 7        68.640          44.562    22134222.840   118278563.856 7        68.640          43.500    22134235.600    91994472.896 7        53.387          47.437    22134235.520    91994478.900 7        53.387          47.062
G17  23822454.420   125187859.742 6      5524.258          41.562    23822452.400   125187859.739 5      5524.258          31.687    23822457.900    97548987.995 5      4304.617          31.937    23822458.840    97548990.990 7      4304.617          46.312
G32  25507883.820   134044837.684 6       786.025          36.750    25507883.320   134044837.691 4       786.025          26.562    25507892.140   104450552.697 4       612.487          26.500    25507893.460   104450558.711 6       612.487          36.375
> 2024 05 03 16 00  5.0000000  0 19
G03  20099861.700   105625480.805 8      3504.226          49.125    20099860.740   105625480.805 7      3504.226          43.375    20099865.660    82305573.621 7      2730.565          43.062    20099866.480    82305573.621 8      2730.565          52.500
G02  21678307.980   113920278.687 7      2156.634          47.375    21678306.220   113920278.694 6      2156.634          40.000    21678307.520    88769048.209 6      1680.494          39.750
R16  22804681.580   121818516.335 7      2945.214          45.437    22804682.120   121818516.360 7      2945.214          44.875    22804689.980    94747763.754 7      2290.722          44.625    22804690.300    94747773.741 7      2290.722          44.687
R03  21545349.660   115333999.036 7      6642.521          46.687    21545350.660   115333999.061 7      6642.521          45.125    21545364.040    89704245.194 8      5166.405          49.187    21545363.980    89704245.196 8      5166.405          49.312
R02  19837131.120   105854775.970 8      3431.227          51.437    19837130.840   105854775.968 8      3431.227          50.000    19837137.840    82331496.040 8      2668.732          50.312    19837138.120    82331490.041 8      2668.732          50.812
G21  22098869.680   116130319.516 7      1373.890          45.875    22098867.660   116130319.521 6      1373.890          37.562    22098870.520    90491171.006 6      1070.564          37.875
G08  21789790.920   114506102.594 7       494.376          46.937    21789789.480   114506102.599 7       494.376          46.687    21789797.240    89225573.351 7       385.228          46.437    21789798.220    89225549.351 8       385.228          48.937
G14  22143398.560   116364359.134 7      3370.115          45.250    22143397.620   116364359.144 5      3370.115          35.812    22143401.560    90673527.376 5      2626.064          35.937    22143402.320    90673536.375 8      2626.064          49.187
R01  21919218.680   117170782.970 7      -289.385          42.625    21919217.740   117170782.985 6      -289.385          41.750    21919228.280    91132879.195 6      -225.077          41.187    21919227.720    91132876.191 6      -225.077          41.687
R18  22589549.180   120584557.797 6      4767.388          39.187    22589547.980   120584557.763 6      4767.388          39.812    22589557.540    93788036.184 7      3707.968          45.812    22589558.240    93788033.191 7      3707.968          45.687
R24  21928597.780   117262065.815 7      1372.505          45.125    21928596.360   117262065.817 7      1372.505          44.312    21928608.940    91203870.494 7      1067.504          47.812    21928609.000    91203870.494 8      1067.504          48.312
R14  23992879.860   127895527.794 7      -977.065          43.875    23992879.560   127895527.792 7      -977.065          42.812    23992903.380    99474419.619 7      -759.940          44.437    23992904.160    99474419.623 7      -759.940          45.375
R17  20603080.640   110251250.885 8      3501.947          48.625    20603080.440   110251250.897 7      3501.947          47.000    20603088.680    85751001.508 8      2723.736          49.875    20603088.600    85751003.506 8      2723.736          50.062
G22  23848089.400   125322559.877 5      4537.235          34.437    23848087.440   125322559.895 4      4537.235          28.687    23848091.600    97653955.588 4      3535.508          28.375
G04  23742108.940   124765685.124 6      5701.954          38.812    23742107.820   124765685.140 4      5701.954          29.312    23742123.340    97220086.656 4      4443.081          29.062    23742123.480    97220101.689 8      4443.081          48.250
G27  24809580.820   130375217.143 6      -453.811          40.500    24809579.160   130375217.145 6      -453.811          37.687    24809597.420   101591137.584 6      -353.619          37.875    24809598.000   101591144.574 7      -353.619          42.875
R15  22134211.880   118278495.421 7        68.030          45.062    22134210.340   118278495.411 7        68.030          43.937    22134222.500    91994419.659 7        52.912          46.812    22134222.700    91994425.661 7        52.912          47.000
G17  23821403.020   125182335.661 7      5524.074          42.687    23821401.680   125182335.664 5      5524.074          32.375    23821407.140    97544683.523 5      4304.473          31.937    23821407.740    97544686.526 7      4304.473          46.250
G32  25507735.060   134044052.122 6       785.404          36.750    25507733.880   134044052.132 4       785.404          26.562    25507742.660   104449940.573 4       612.003          26.500    25507744.220   104449946.580 6       612.003          36.375
> 2024 05 03 16 00  6.0000000  0 19
G03  20099194.800   105621976.679 8      3503.766          48.812    20099193.880   105621976.679 7      3503.766          43.687    20099198.880    82302842.777 7      2730.207          43.187    20099199.440    82302842.777 8      2730.207          52.437
G02  21677897.620   113918121.936 7      2156.576          46.937    21677895.880   113918121.944 6      2156.576          39.875    21677897.040    88767367.626 6      1680.448          40.125
R16  22804130.620   121815571.381 7      2944.577          45.187    22804130.760   121815571.390 7      2944.577          45.125    22804139.160    94745473.218 7      2290.226          44.500    22804139.060    94745483.205 7      2290.226          44.625
R03  21544109.200   115327356.508 7      6642.371          47.062    21544109.720   115327356.528 7      6642.371          45.375    21544123.020    89699078.785 8      5166.288          49.250    21544123.160    89699078.792 8      5166.288          49.250
R02  19836488.200   105851345.101 8      3430.245          51.000    19836488.020   105851345.101 8      3430.245          49.750    19836495.000    82328827.587 8      2667.968          50.062    19836495.420    82328821.589 8      2667.968          50.062
G21  22098608.060   116128945.443 7      1373.890          47.062    22098606.080   116128945.450 6      1373.890          37.500    22098609.100    90490100.300 6      1070.563          37.375
G08  21789697.080   114505608.256 7       493.939          46.625    21789695.500   114505608.258 7       493.939          46.687    21789703.060    89225188.148 7       384.887          46.687    21789704.180    89225164.144 8       384.887          49.187
G14  22142757.220   116360989.277 7      3369.481          45.812    22142756.220   116360989.285 5      3369.481          35.812    22142760.260    90670901.513 5      2625.569          35.562    22142760.920    90670910.520 8      2625.569          48.437
R01  21919272.580   117171072.562 7      -290.122          42.250    21919271.640   117171072.571 6      -290.122          41.750    21919282.740    91133104.426 6      -225.650          41.187    21919281.960    91133101.421 6      -225.650          41.687
R18  22588655.940   120579790.229 6      4767.573          39.562    22588655.800   120579790.198 6      4767.573          39.937    22588664.420    93784328.069 7      3708.112          45.500    22588665.240    93784325.071 7      3708.112          45.750
R24  21928340.900   117260693.232 7      1372.245          44.687    21928339.760   117260693.233 7      1372.245          43.687    21928352.060    91202802.927 7      1067.301          47.250    21928352.260    91202802.925 7      1067.301          47.625
R14  23993063.260   127896504.593 7      -976.632          43.875    23993062.440   127896504.593 7      -976.632          42.750    23993086.260    99475179.362 7      -759.603          44.125    23993087.000    99475179.363 7      -759.603          45.000
R17  20602425.800   110247748.807 8      3501.867          48.000    20602426.180   110247748.819 7      3501.867          47.562    20602434.340    85748277.667 8      2723.675          49.500    20602434.060    85748279.669 8      2723.675          49.562
G22  23847226.020   125318022.745 6      4536.850          41.125    23847224.200   125318022.758 4      4536.850          28.000    23847228.660    97650420.159 4      3535.208          28.375
G04  23741023.820   124759983.103 6      5702.013          38.625    23741022.700   124759983.116 4      5702.013          29.312    23741038.300    97215643.535 4      4443.127          29.062    23741038.500    97215658.562 8      4443.127          48.000
G27  24809666.880   130375670.884 6      -453.953          40.125    24809665.560   130375670.889 6      -453.953          37.750    24809683.860   101591491.128 6      -353.729          37.437    24809684.400   101591498.120 7      -353.729          42.812
R15  22134199.440   118278427.430 7        67.790          45.062    22134197.640   118278427.423 7        67.790          44.062    22134209.860    91994366.771 7        52.726          46.500    22134210.120    91994372.771 7        52.726          46.437
G17  23820351.680   125176811.487 7      5524.118          42.562    23820350.780   125176811.486 5      5524.118          32.375    23820356.260    97540378.975 5      4304.508          31.937    23820356.420    97540381.977 7      4304.508          46.375
G32  25507585.780   134043266.896 6       784.773          37.250    25507584.260   134043266.903 4       784.773          26.562    25507593.200   104449328.707 4       611.511          26.500    25507594.800   104449334.712 6       611.511          36.250
> 2024 05 03 16 00  7.0000000  0 19
G03  20098527.960   105618473.060 8      3503.339          48.312    20098527.200   105618473.063 7      3503.339          43.625    20098532.120    82300112.179 7      2729.875          43.062    20098532.880    82300112.179 8      2729.875          52.937
G02  21677487.020   113915965.222 7      2156.718          47.312    21677485.280   113915965.230 6      2156.718          39.062    21677486.600    88765687.069 6      1680.559          39.000
R16  22803579.340   121812627.103 7      2943.854          44.687    22803579.060   121812627.115 7      2943.854          44.687    22803588.380    94743183.226 7      2289.664          45.187    22803588.060    94743193.213 7      2289.664          45.187
R03  21542868.200   115320714.149 7      6642.215          46.812    21542868.640   115320714.174 7      6642.215          45.687    21542882.320    89693912.527 8      5166.167          49.500    21542882.300    89693912.531 8      5166.167          49.500
R02  19835845.100   105847915.106 8      3429.591          51.500    19835845.260   105847915.107 8      3429.591          50.312    19835852.240    82326159.816 8      2667.460          50.437    19835852.620    82326153.820 8      2667.460          50.812
G21  22098346.700   116127571.377 7      1374.099          47.312    22098344.760   116127571.382 6      1374.099          37.875    22098347.760    90489029.601 6      1070.727          38.062
G08  21789603.060   114505114.196 7       493.912          46.937    21789601.420   114505114.203 7       493.912          47.000    21789609.060    89224803.164 7       384.867          46.625    21789609.860    89224779.167 8       384.867          49.125
G14  22142116.260   116357619.930 7      3369.023          45.687    22142115.060   116357619.942 6      3369.023          36.187    22142119.160    90668276.050 5      2625.213          35.812    22142119.640    90668285.047 8      2625.213          49.000
R01  21919326.900   117171362.730 7      -290.373          42.562    21919326.100   117171362.739 6      -290.373          41.750    21919336.940    91133330.117 6      -225.846          40.937    21919336.300    91133327.111 6      -225.846          41.187
R18  22587762.980   120575022.537 6      4767.785          39.562    22587763.380   120575022.506 6      4767.785          39.937    22587771.920    93780619.862 7      3708.278          45.625    22587772.020    93780616.867 7      3708.278          46.000
R24  21928084.040   117259320.812 7      1372.430          44.625    21928083.140   117259320.813 7      1372.430          44.625    21928095.360    91201735.487 7      1067.445          47.750    21928095.320    91201735.485 8      1067.445          48.625
R14  23993246.720   127897481.034 7      -976.243          43.687    23993245.620   127897481.030 7      -976.243          42.625    23993269.840    99475938.825 7      -759.300          44.812    23993269.980    99475938.829 7      -759.300          44.875
R17  20601771.400   110244246.761 7      3502.004          47.687    20601771.800   110244246.784 7      3502.004          47.000    20601779.680    85745553.864 8      2723.781          50.062    20601779.700    85745555.868 8      2723.781          50.500
G22  23846362.760   125313486.020 7      4536.384          42.312    23846361.320   125313486.031 4      4536.384          28.000    23846365.620    97646885.047 4      3534.844          28.375
G04  23739938.940   124754280.901 6      5702.287          38.625    23739937.560   124754280.917 4      5702.287          29.312    23739953.180    97211200.279 4      4443.341          29.062    23739953.480    97211215.314 8      4443.341          48.000
G27  24809753.100   130376124.745 6      -453.979          41.000    24809752.020   130376124.748 6      -453.979          37.875    24809770.360   101591844.766 6      -353.750          37.437    24809770.520   101591851.756 7      -353.750          42.687
R15  22134186.700   118278359.715 7        67.451          44.812    22134184.980   118278359.714 7        67.451          44.250    22134197.100    91994314.112 7        52.462          46.750    22134197.440    91994320.112 7        52.462          46.625
G17  23819299.940   125171287.228 7      5524.355          42.312    23819299.880   125171287.230 5      5524.355          32.375    23819305.200    97536074.360 5      4304.692          32.812    23819305.220    97536077.368 7      4304.692          46.312
G32  25507436.400   134042482.122 6       784.551          37.250    25507434.980   134042482.127 4       784.551          26.562    25507443.940   104448717.197 4       611.338          26.500    25507445.740   104448723.200 6       611.338          36.250
> 2024 05 03 16 00  8.0000000  0 19
G03  20097861.160   105614970.211 8      3502.672          48.750    20097860.480   105614970.208 7      3502.672          43.562    20097865.480    82297381.744 7      2729.355          43.312    20097866.360    82297381.744 8      2729.355          52.562
G02  21677076.760   113913808.671 7      2156.572          46.875    21677075.000   113913808.676 6      2156.572          40.125    21677076.220    88764006.638 6      1680.445          40.000
R16  22803028.180   121809683.728 7      2943.085          44.812    22803027.420   121809683.745 7      2943.085          44.125    22803037.760    94740893.938 7      2289.066          44.812    22803037.120    94740903.927 7      2289.066          46.125
R03  21541627.520   115314072.269 7      6641.826          46.000    21541627.960   115314072.294 7      6641.826          45.125    21541641.460    89688746.628 8      5165.865          49.125    21541641.560    89688746.630 8      5165.865          49.500
R02  19835202.560   105844486.125 8      3428.638          51.625    19835202.620   105844486.129 8      3428.638          49.750    19835209.520    82323492.837 8      2666.718          50.875    19835210.120    82323486.839 8      2666.718          50.875
G21  22098085.180   116126197.417 7      1373.994          46.437    22098083.300   116126197.421 6      1373.994          38.125    22098086.280    90487958.981 6      1070.645          38.250
G08  21789508.940   114504620.651 7       493.509          46.000    21789507.480   114504620.658 7       493.509          46.625    21789515.120    89224418.582 7       384.553          46.562    21789516.180    89224394.582 8       384.553          48.937
G14  22141474.920   116354251.384 7      3368.268          44.812    22141474.120   116354251.394 5      3368.268          35.687    22141478.060    90665651.205 5      2624.625          35.875    22141478.500    90665660.205 8      2624.625          48.937
R01  21919381.440   117171653.633 7      -291.217          42.562    21919380.780   117171653.645 6      -291.217          41.375    21919391.500    91133556.375 6      -226.502          41.375    21919390.620    91133553.370 6      -226.502          41.687
R18  22586869.720   120570254.868 6      4767.771          40.812    22586870.740   120570254.861 6      4767.771          41.000    22586879.260    93776911.688 7      3708.267          46.062    22586878.840    93776908.691 7      3708.267          46.750
R24  21927827.780   117257948.691 7      1372.161          45.875    21927826.700   117257948.700 7      1372.161          44.375    21927838.820    91200668.284 8      1067.237          48.125    21927839.140    91200668.282 7      1067.237          47.937
R14  23993429.920   127898457.508 7      -976.233          43.937    23993428.320   127898457.509 7      -976.233          42.625    23993452.920    99476698.319 7      -759.293          44.625    23993452.900    99476698.325 7      -759.293          45.000
R17  20601117.060   110240744.878 8      3501.941          48.000    20601117.340   110240744.893 7      3501.941          47.312    20601125.400    85742830.173 8      2723.732          50.000    20601124.960    85742832.171 8      2723.732          50.625
G22  23845499.560   125308949.863 7      4535.972          43.625    23845498.400   125308949.868 4      4535.972          28.000    23845502.740    97643350.375 4      3534.524          28.375
G04  23738853.260   124748578.891 6      5701.985          38.312    23738852.500   124748578.909 4      5701.985          29.312    23738868.140    97206757.173 4      4443.105          29.062    23738868.400    97206772.201 8      4443.105          48.125
G27  24809839.320   130376578.870 6      -454.156          41.062    24809838.420   130376578.872 6      -454.156          38.000    24809856.900   101592198.613 6      -353.888          37.687    24809856.940   101592205.599 7      -353.888          42.750
R15  22134174.200   118278292.620 7        66.982          45.500    22134172.280   118278292.623 7        66.982          44.500    22134184.480    91994261.923 7        52.097          46.562    22134184.560    91994267.925 7        52.097          46.875
G17  23818248.780   125165763.090 7      5524.375          42.125    23818248.780   125165763.090 5      5524.375          33.062    23818253.980    97531769.839 5      4304.708          32.812    23818253.800    97531772.859 7      4304.708          46.375
G32  25507286.820   134041697.866 6       784.141          37.000    25507285.640   134041697.871 4       784.141          26.562    25507294.680   104448106.086 4       611.019          26.500    25507295.700   104448112.075 6       611.019          36.250
> 2024 05 03 16 00  9.0000000  0 19
G03  20097194.760   105611467.788 8      3502.128          49.250    20097193.820   105611467.793 7      3502.128          43.500    20097198.920    82294652.947 7      2728.931          43.375    20097199.640    82294652.947 8      2728.931          52.687
G02  21676666.420   113911652.057 7      2156.600          46.812    21676664.560   113911652.062 6      2156.600          40.000    21676665.820    88762326.160 6      1680.467          39.687
R16  22802477.380   121806741.013 7      2942.344          44.562    22802476.180   121806741.022 7      2942.344          44.312    22802487.480    94738605.156 7      2288.490          45.625    22802486.720    94738615.151 7      2288.490          46.250
R03  21540386.620   115307430.528 7      6641.552          46.625    21540387.440   115307430.551 7      6641.552          45.562    21540400.660    89683580.838 8      5165.652          49.187    21540400.500    89683580.842 8      5165.652          49.250
R02  19834560.220   105841057.870 8      3427.826          51.250    19834560.180   105841057.874 8      3427.826          49.937    19834567.120    82320826.419 8      2666.087          50.250    19834567.400    82320820.422 8      2666.087          50.750
G21  22097823.840   116124823.367 7      1374.007          46.937    22097821.800   116124823.369 6      1374.007          37.250    22097824.740    90486888.292 6      1070.655          38.125
G08  21789414.980   114504127.374 7       492.998          46.500    21789413.580   114504127.376 7       492.998          46.625    21789421.200    89224034.204 7       384.154          46.437    21789421.960    89224010.206 8       384.154          48.812
G14  22140834.040   116350883.282 7      3367.806          45.562    22140833.340   116350883.289 6      3367.806          36.062    22140837.060    90663026.712 5      2624.264          35.875    22140837.400    90663035.706 8      2624.264          49.437
R01  21919436.100   117171945.047 7      -291.720          42.187    21919435.120   117171945.059 6      -291.720          41.375    21919446.180    91133783.032 6      -226.894          41.375    21919445.120    91133780.025 6      -226.894          41.687
R18  22585976.660   120565487.013 7      4767.760          42.125    22585977.780   120565487.003 6      4767.760          41.000    22585986.640    93773203.358 7      3708.258          46.562    22585985.840    93773200.359 7      3708.258          46.625
R24  21927570.920   117256576.696 7      1371.974          44.687    21927570.320   117256576.692 7      1371.974          44.562    21927582.640    91199601.166 7      1067.091          47.875    21927582.540    91199601.165 8      1067.091          48.250
R14  23993613.140   127899433.617 7      -976.034          43.625    23993611.880   127899433.612 7      -976.034          43.062    23993636.180    99477457.525 7      -759.137          44.437    23993636.260    99477457.529 7      -759.137          45.062
R17  20600462.720   110237243.019 8      3501.786          48.500    20600462.780   110237243.032 7      3501.786          47.312    20600470.940    85740106.507 8      2723.611          50.375    20600470.760    85740108.505 8      2723.611          50.500
G22  23844636.540   125304414.014 7      4535.677          43.312    23844635.720   125304414.013 4      4535.677          28.000    23844639.820    97639815.948 4      3534.294          28.750
G04  23737768.020   124742876.636 6      5702.180          39.312    23737767.280   124742876.654 4      5702.180          29.312    23737783.020    97202313.870 4      4443.257          29.000    23737783.220    97202328.902 8      4443.257          48.187
G27  24809925.380   130377033.005 6      -454.086          40.562    24809924.980   130377033.012 6      -454.086          38.062    24809943.320   101592552.468 6      -353.833          37.500    24809943.420   101592559.458 7      -353.833          42.687
R15  22134161.660   118278225.773 7        66.635          45.625    22134159.940   118278225.774 7        66.635          44.562    22134172.140    91994209.926 7        51.828          46.562    22134171.640    91994215.929 7        51.828          46.500
G17  23817197.520   125160238.863 6      5524.341          41.812    23817197.420   125160238.857 5      5524.341          33.062    23817202.540    97527465.244 5      4304.681          32.687    23817202.400    97527468.260 7      4304.681          45.500
G32  25507137.880   134040913.993 6       783.561          37.187    25507136.540   134040913.998 4       783.561          26.562    25507145.280   104447495.280 4       610.567          26.500    25507146.800   104447501.273 6       610.567          36.250
> 2024 05 03 16 00 10.0000000  0 19
G03  20096528.380   105607965.888 8      3501.492          49.312    20096527.580   105607965.892 7      3501.492          43.875    20096532.520    82291924.233 7      2728.435          43.437    20096533.260    82291924.233 8      2728.435          52.437
G02  21676255.640   113909495.370 7      2156.533          46.687    21676254.140   113909495.372 6      2156.533          39.562    21676255.420    88760645.622 6      1680.416          39.687
R16  22801926.760   121803798.960 7      2941.659          43.937    22801924.780   121803798.966 7      2941.659          43.875    22801937.400    94736316.892 7      2287.957          45.625    22801936.060    94736326.889 7      2287.957          46.312
R03  21539146.020   115300789.046 7      6641.185          46.437    21539146.540   115300789.075 7      6641.185          45.500    21539159.940    89678415.258 8      5165.366          48.937    21539160.100    89678415.262 8      5165.366          49.375
R02  19833917.440   105837630.357 8      3426.975          50.937    19833917.760   105837630.358 8      3426.975          49.875    19833924.780    82318160.577 8      2665.425          51.000    19833925.480    82318154.579 8      2665.425          51.000
G21  22097562.540   116123449.191 7      1374.066          46.875    22097560.360   116123449.193 6      1374.066          37.812    22097563.260    90485817.506 6      1070.700          37.500
G08  21789321.200   114503634.354 7       492.724          46.625    21789319.860   114503634.359 7       492.724          46.750    21789327.480    89223650.029 7       383.941          46.375    21789328.260    89223626.031 8       383.941          48.875
G14  22140193.180   116347515.676 7      3367.278          44.937    22140192.500   116347515.692 5      3367.278          35.875    22140196.160    90660402.604 6      2623.853          36.062    22140196.780    90660411.602 8      2623.853          48.687
R01  21919490.540   117172236.926 7      -292.275          42.187    21919489.840   117172236.938 6      -292.275          41.750    21919500.580    91134010.043 6      -227.325          41.062    21919499.800    91134007.042 6      -227.325          41.750
R18  22585083.440   120560718.917 7      4768.061          42.125    22585084.540   120560718.915 6      4768.061          41.750    22585094.060    93769494.845 7      3708.492          47.000    22585092.860    93769491.844 7      3708.492          47.562
R24  21927314.240   117255204.770 7      1371.669          44.812    21927313.780   117255204.769 7      1371.669          45.062    21927326.000    91198534.111 7      1066.854          47.750    21927326.040    91198534.109 8      1066.854          48.312
R14  23993796.360   127900409.464 7      -975.809          43.937    23993795.140   127900409.462 7      -975.809          42.812    23993819.040    99478216.532 7      -758.963          44.750    23993819.060    99478216.534 7      -758.963          45.125
R17  20599808.120   110233741.137 8      3501.792          48.125    20599808.580   110233741.149 7      3501.792          47.562    20599816.600    85737382.821 8      2723.616          50.437    20599816.280    85737384.821 8      2723.616          50.437
G22  23843773.820   125299878.503 7      4535.256          43.375    23843772.740   125299878.502 4      4535.256          28.000    23843776.860    97636281.782 4      3533.965          28.750
G04  23736683.520   124737174.316 6      5702.166          38.687    23736682.320   124737174.328 4      5702.166          29.312    23736697.880    97197870.518 4      4443.247          29.000    23736698.200    97197885.542 8      4443.247          48.250
G27  24810011.440   130377487.258 6      -454.372          41.000    24810011.340   130377487.268 6      -454.372          37.875    24810029.940   101592906.413 6      -354.056          37.562    24810030.060   101592913.393 7      -354.056          42.687
R15  22134148.640   118278159.302 7        66.188          45.875    22134147.540   118278159.301 7        66.188          44.125    22134159.800    91994158.223 7        51.480          47.000    22134159.540    91994164.223 7        51.480          47.437
G17  23816146.700   125154714.428 7      5524.428          42.625    23816146.020   125154714.425 5      5524.428          32.562    23816150.860    97523160.502 5      4304.749          32.687    23816150.780    97523163.528 7      4304.749          44.937
G32  25506988.800   134040130.417 6       783.270          37.187    25506987.440   134040130.417 4       783.270          26.625    25506996.320   104446884.702 4       610.340          26.500    25506997.680   104446890.703 6       610.340          36.250
> 2024 05 03 16 00 11.0000000  0 19
G03  20095862.100   105604464.626 8      3500.989          49.500    20095861.260   105604464.625 7      3500.989          43.812    20095866.360    82289195.928 7      2728.043          43.187    20095866.980    82289195.928 8      2728.043          53.062
G02  21675845.380   113907338.719 7      2156.565          47.125    21675843.840   113907338.721 6      2156.565          39.750    21675845.000    88758965.115 6      1680.440          39.812
R16  22801375.620   121800857.713 7      2940.707          43.250    22801373.700   121800857.730 7      2940.707          43.875    22801387.160    94734029.271 7      2287.216          46.375    22801385.780    94734039.266 7      2287.216          46.312
R03  21537905.180   115294148.023 7      6640.890          46.250    21537905.960   115294148.048 7      6640.890          45.250    21537919.400    89673250.024 8      5165.137          49.187    21537919.380    89673250.028 8      5165.137          49.125
R02  19833275.500   105834203.730 8      3426.197          51.625    19833275.640   105834203.728 8      3426.197          49.937    19833282.720    82315495.425 8      2664.820          50.812    19833283.060    82315489.424 8      2664.820          50.875
G21  22097300.860   116122075.012 7      1374.195          46.812    22097298.840   116122075.019 6      1374.195          37.875    22097301.740    90484746.721 6      1070.802          38.062
G08  21789227.300   114503141.781 7       492.439          46.000    21789226.100   114503141.783 7       492.439          46.937    21789233.820    89223266.204 7       383.719          46.750    21789234.760    89223242.204 8       383.719          48.937
G14  22139552.500   116344148.746 7      3366.651          45.687    22139551.600   116344148.759 5      3366.651          35.937    22139555.560    90657779.024 6      2623.364          36.062    22139555.980    90657788.016 8      2623.364          49.125
R01  21919545.020   117172529.409 7      -292.844          42.062    21919544.840   117172529.419 6      -292.844          41.750    21919555.360    91134237.532 6      -227.768          41.000    21919554.800    91134234.524 6      -227.768          41.625
R18  22584190.260   120555950.792 6      4768.133          41.750    22584191.500   120555950.798 6      4768.133          41.750    22584201.420    93765786.312 7      3708.548          47.062    22584199.900    93765783.311 7      3708.548          47.562
R24  21927057.640   117253832.976 7      1371.685          45.937    21927057.520   117253832.977 7      1371.685          44.812    21927069.400    91197467.155 7      1066.866          47.562    21927069.340    91197467.156 8      1066.866          48.000
R14  23993979.100   127901385.248 7      -975.639          43.937    23993977.800   127901385.240 7      -975.639          42.812    23994002.040    99478975.479 7      -758.830          44.625    23994002.720    99478975.480 7      -758.830          45.312
R17  20599153.660   110230239.372 7      3501.715          47.750    20599154.180   110230239.389 7      3501.715          47.187    20599162.160    85734659.230 8      2723.556          49.937    20599162.000    85734661.226 8      2723.556          49.687
G22  23842910.620   125295343.452 7      4534.741          43.500    23842909.800   125295343.454 4      4534.741          28.937    23842913.740    97632747.980 4      3533.564          28.750
G04  23735598.420   124731472.040 6      5702.381          38.687    23735597.100   124731472.050 4      5702.381          29.312    23735612.640    97193427.198 4      4443.414          29.000    23735613.020    97193442.239 8      4443.414          48.187
G27  24810098.000   130377941.766 6      -454.665          41.125    24810097.860   130377941.773 6      -454.665          37.937    24810116.380   101593260.552 6      -354.285          37.750    24810116.400   101593267.530 7      -354.285          42.937
R15  22134136.760   118278093.372 7        65.761          46.375    22134135.420   118278093.368 7        65.761          44.562    22134147.380    91994106.936 7        51.147          47.125    22134147.200    91994112.940 7        51.147          47.062
G17  23815095.360   125149190.017 7      5524.465          42.500    23815094.560   125149190.019 5      5524.465          32.562    23815099.220    97518855.772 5      4304.778          32.687    23815099.440    97518858.784 7      4304.778          44.687
G32  25506839.500   134039347.273 6       782.767          36.812    25506838.440   134039347.275 4       782.767          26.625    25506847.320   104446274.461 4       609.948          26.500    25506848.760   104446280.454 6       609.948          36.000
> 2024 05 03 16 00 12.0000000  0 19
G03  20095196.060   105600963.994 8      3500.334          49.062    20095195.260   105600963.991 7      3500.334          43.437    20095200.200    82286468.605 7      2727.533          43.062    20095200.680    82286468.605 8      2727.533          52.875
G02  21675435.080   113905182.189 7      2156.395          47.125    21675433.340   113905182.196 6      2156.395          40.125    21675434.880    88757284.704 6      1680.308          39.562
R16  22800824.920   121797917.303 7      2939.999          43.437    22800823.040   121797917.309 7      2939.999          43.687    22800836.880    94731742.283 7      2286.666          46.187    22800835.500    94731752.278 7      2286.666          47.125
R03  21536664.520   115287507.328 7      6640.487          45.500    21536665.260   115287507.346 7      6640.487          45.062    21536678.680    89668085.043 8      5164.824          49.000    21536678.760    89668085.048 8      5164.824          49.187
R02  19832633.600   105830778.007 8      3425.288          51.437    19832633.700   105830778.008 8      3425.288          49.625    19832640.620    82312830.975 8      2664.113          50.062    19832641.500    82312824.977 8      2664.113          50.625
G21  22097039.280   116120700.917 7      1374.092          46.562    22097037.340   116120700.925 6      1374.092          37.750    22097040.200    90483675.996 6      1070.721          37.625
G08  21789133.680   114502649.576 7       491.885          46.000    21789132.520   114502649.586 7       491.885          46.750    21789140.000    89222882.665 7       383.287          46.375    21789141.080    89222858.674 8       383.287          48.812
G14  22138911.980   116340782.502 7      3365.842          45.250    22138911.020   116340782.509 5      3365.842          35.937    22138915.000    90655155.974 5      2622.734          35.812    22138915.420    90655164.971 8      2622.734          49.000
R01  21919599.820   117172822.553 7      -293.459          42.750    21919600.020   117172822.570 6      -293.459          41.812    21919610.460    91134465.538 6      -228.246          41.000    21919609.160    91134462.533 6      -228.246          41.812
R18  22583297.140   120551182.661 6      4768.195          41.750    22583298.040   120551182.668 6      4768.195          41.500    22583308.540    93762077.766 7      3708.596          46.875    22583306.900    93762074.767 8      3708.596          48.062
R24  21926801.080   117252461.379 7      1371.504          45.250    21926800.760   117252461.383 7      1371.504          44.500    21926813.080    91196400.358 7      1066.725          47.750    21926812.600    91196400.356 8      1066.725          48.250
R14  23994162.160   127902360.749 7      -975.399          43.687    23994160.640   127902360.749 7      -975.399          42.812    23994185.300    99479734.217 7      -758.644          44.312    23994185.720    99479734.224 7      -758.644          44.937
R17  20598499.320   110226737.789 8      3501.503          48.187    20598499.860   110226737.803 7      3501.503          47.312    20598507.920    85731935.774 8      2723.391          50.625    20598507.740    85731937.772 8      2723.391          50.437
G22  23842047.560   125290808.940 7      4534.190          42.687    23842046.480   125290808.942 4      4534.190          28.937    23842050.860    97629214.594 4      3533.135          28.750
G04  23734513.540   124725769.743 6      5702.159          39.000    23734512.040   124725769.753 4      5702.159          29.187    23734527.580    97188983.866 4      4443.241          29.000    23734527.800    97188998.899 8      4443.241          48.437
G27  24810184.700   130378396.358 6      -454.905          40.500    24810184.300   130378396.363 6      -454.905          37.875    24810202.720   101593614.764 6      -354.471          37.375    24810203.300   101593621.758 7      -354.471          42.687
R15  22134124.620   118278027.874 7        65.254          46.187    22134123.240   118278027.878 7        65.254          44.937    22134135.080    91994055.993 7        50.753          46.562    22134135.140    91994061.997 7        50.753          46.750
G17  23814043.660   125143665.700 6      5524.378          40.687    23814043.020   125143665.707 5      5524.378          32.562    23814047.840    97514551.116 5      4304.710          32.000    23814047.840    97514554.122 7      4304.710          44.812
G32  25506690.920   134038564.630 6       782.422          36.812    25506689.520   134038564.629 4       782.422          26.625    25506698.220   104445664.607 4       609.679          26.500    25506699.220   104445670.596 6       609.679          36.000
> 2024 05 03 16 00 13.0000000  0 19
G03  20094530.200   105597464.064 8      3499.641          49.500    20094529.140   105597464.067 7      3499.641          43.500    20094534.180    82283742.020 7      2726.993          43.187    20094534.840    82283742.020 8      2726.993          52.875
G02  21675024.820   113903025.827 7      2156.326          46.750    21675023.080   113903025.832 6      2156.326          39.937    21675024.480    88755604.422 6      1680.254          40.000
R16  22800274.620   121794977.790 7      2939.107          43.500    22800272.340   121794977.793 7      2939.107          43.437    22800286.900    94729456.001 7      2285.972          46.500    22800285.160    94729465.996 7      2285.972          47.312
R03  21535424.360   115280867.081 7      6640.024          46.937    21535424.780   115280867.099 7      6640.024          45.062    21535438.080    89662920.419 8      5164.463          48.687    21535438.320    89662920.423 8      5164.463          48.875
R02  19831991.860   105827353.346 8      3424.225          50.750    19831991.960   105827353.349 8      3424.225          49.437    19831998.880    82310167.354 8      2663.286          50.625    19831999.380    82310161.356 8      2663.286          50.375
G21  22096777.780   116119326.936 7      1374.102          47.625    22096775.900   116119326.941 6      1374.102          37.875    22096778.820    90482605.357 6      1070.729          37.812
G08  21789040.100   114502157.847 7       491.433          46.187    21789038.800   114502157.852 7       491.433          46.937    21789046.520    89222499.493 7       382.935          46.562    21789047.180    89222475.494 8       382.935          48.812
G14  22138271.440   116337416.985 7      3365.128          45.500    22138270.580   116337416.995 5      3365.128          35.562    22138274.460    90652533.492 5      2622.178          35.875    22138275.120    90652542.486 8      2622.178          48.562
R01  21919654.980   117173116.471 7      -294.151          42.750    21919655.100   117173116.488 7      -294.151          42.187    21919665.300    91134694.140 6      -228.784          41.125    21919664.060    91134691.132 6      -228.784          41.812
R18  22582403.780   120546414.568 6      4768.270          41.750    22582404.400   120546414.569 6      4768.270          41.250    22582415.560    93758369.253 7      3708.655          47.750    22582413.900    93758366.254 8      3708.655          48.125
R24  21926544.440   117251090.119 7      1371.160          45.812    21926544.660   117251090.121 7      1371.160          44.500    21926556.440    91195333.818 8      1066.458          48.000    21926556.140    91195333.817 8      1066.458          48.250
R14  23994344.740   127903336.167 7      -975.424          43.812    23994344.200   127903336.157 7      -975.424          42.812    23994368.180    99480492.882 7      -758.663          44.625    23994368.740    99480492.883 7      -758.663          44.750
R17  20597845.100   110223236.398 7      3501.430          47.250    20597845.420   110223236.418 7      3501.430          46.687    20597853.500    85729212.473 8      2723.335          50.062    20597853.480    85729214.471 8      2723.335          50.250
G22  23841184.820   125286274.987 7      4533.729          42.812    23841183.560   125286275.000 4      4533.729          28.937    23841187.960    97625681.652 4      3532.776          28.750
G04  23733428.580   124720067.496 6      5702.181          39.000    23733426.920   124720067.504 4      5702.181          29.187    23733442.480    97184540.573 4      4443.258          28.937    23733442.720    97184555.596 8      4443.258          48.312
G27  24810271.140   130378851.205 6      -454.867          40.500    24810270.920   130378851.212 6      -454.867          37.875    24810289.300   101593969.165 6      -354.442          37.500    24810289.540   101593976.162 7      -354.442          43.062
R15  22134112.280   118277962.887 7        64.715          45.062    22134111.460   118277962.888 7        64.715          45.000    22134123.080    91994005.443 7        50.334          47.000    22134122.980    91994011.445 7        50.334          46.750
G17  23812992.940   125138141.499 7      5524.311          42.125    23812991.700   125138141.501 5      5524.311          32.062    23812996.360    97510246.542 5      4304.658          32.000    23812996.320    97510249.537 7      4304.658          44.750
G32  25506542.140   134037782.520 6       782.091          37.312    25506540.620   134037782.522 4       782.091          26.625    25506549.520   104445055.171 4       609.422          26.500    25506550.400   104445061.191 6       609.422          36.000
> 2024 05 03 16 00 14.0000000  0 19
G03  20093864.200   105593964.728 8      3499.156          48.937    20093863.300   105593964.736 6      3499.156          39.062    20093868.340    82281014.861 6      2726.615          39.937    20093868.980    82281014.861 8      2726.615          52.625
G02  21674614.440   113900869.479 7      2156.299          46.625    21674612.740   113900869.483 6      2156.299          39.562    21674614.100    88753924.152 6      1680.233          39.500
R16  22799724.340   121792039.017 7      2938.399          43.625    22799722.180   121792039.012 7      2938.399          43.312    22799737.000    94727170.295 7      2285.422          46.437    22799735.240    94727180.292 7      2285.422          47.375
R03  21534183.820   115274227.211 7      6639.676          46.062    21534184.340   115274227.242 7      6639.676          45.687    21534197.680    89657756.099 8      5164.192          48.437    21534197.780    89657756.101 8      5164.192          48.875
R02  19831350.140   105823929.589 8      3423.371          51.625    19831350.340   105823929.590 8      3423.371          50.312    19831357.320    82307504.435 8      2662.622          50.500    19831357.620    82307498.434 8      2662.622          50.750
G21  22096516.220   116117952.954 7      1373.974          47.062    22096514.560   116117952.957 6      1373.974          37.750    22096517.380    90481534.722 6      1070.629          37.625
G08  21788946.580   114501666.488 7       491.194          47.187    21788945.340   114501666.498 7       491.194          46.562    21788953.120    89222116.616 7       382.749          46.312    21788953.660    89222092.623 8       382.749          49.062
G14  22137631.060   116334052.042 7      3364.745          45.687    22137630.140   116334052.049 5      3364.745          35.812    22137634.100    90649911.460 5      2621.879          35.875    22137635.040    90649920.450 8      2621.879          48.687
R01  21919710.020   117173410.977 7      -294.723          42.687    21919710.200   117173410.984 7      -294.723          42.187    21919720.480    91134923.190 6      -229.229          41.562    21919719.300    91134920.188 6      -229.229          41.937
R18  22581510.380   120541646.326 6      4768.307          41.625    22581510.900   120541646.332 6      4768.307          41.250    22581522.260    93754660.641 7      3708.684          47.437    22581520.760    93754657.646 7      3708.684          47.875
R24  21926288.340   117249719.041 7      1370.934          45.000    21926288.300   117249719.045 7      1370.934          44.875    21926300.000    91194267.424 7      1066.282          47.812    21926299.980    91194267.427 8      1066.282          48.437
R14  23994527.420   127904311.402 7      -975.088          43.687    23994527.120   127904311.399 7      -975.088          42.437    23994550.740    99481251.414 7      -758.402          44.250    23994551.800    99481251.421 7      -758.402          44.750
R17  20597190.460   110219735.040 7      3501.372          47.062    20597191.120   110219735.049 7      3501.372          47.500    20597199.360    85726489.192 8      2723.289          50.312    20597199.180    85726491.192 8      2723.289          49.750
G22  23840322.220   125281741.457 7      4533.176          42.812    23840320.720   125281741.470 4      4533.176          28.937    23840325.040    97622149.034 4      3532.345          28.562
G04  23732343.000   124714365.257 6      5702.299          38.812    23732341.700   124714365.267 4      5702.299          29.187    23732357.440    97180097.287 4      4443.350          28.937    23732357.700    97180112.321 8      4443.350          48.500
G27  24810357.940   130379306.278 6      -455.077          41.437    24810357.500   130379306.285 6      -455.077          37.500    24810375.920   101594323.749 6      -354.606          37.187    24810376.100   101594330.745 7      -354.606          43.062
R15  22134100.280   118277898.316 7        64.420          45.562    22134099.380   118277898.315 7        64.420          45.187    22134111.180    91993955.215 7        50.104          47.000    22134110.920    91993961.220 7        50.104          47.312
G17  23811941.580   125132617.211 7      5524.390          42.187    23811940.720   125132617.211 5      5524.390          32.062    23811944.760    97505941.900 5      4304.719          32.000    23811944.840    97505944.904 7      4304.719          44.500
G32  25506393.360   134037000.907 6       781.369          37.312    25506391.920   134037000.909 4       781.369          26.625    25506400.720   104444446.122 4       608.859          26.500    25506400.460   104444452.129 6       608.859          36.000
> 2024 05 03 16 00 15.0000000  0 19
G03  20093198.420   105590465.968 8      3498.357          48.687    20093197.500   105590465.967 7      3498.357          46.562    20093202.560    82278288.603 7      2725.992          47.437    20093203.120    82278288.603 8      2725.992          52.687
G02  21674204.260   113898713.125 7      2156.192          47.000    21674202.200   113898713.130 6      2156.192          39.875    21674203.720    88752243.877 6      1680.150          39.500
R16  22799174.540   121789100.938 7      2937.640          43.625    22799172.560   121789100.926 7      2937.640          43.250    22799187.240    94724885.120 7      2284.831          47.000    22799185.520    94724895.122 7      2284.831          47.375
R03  21532943.540   115267587.619 7      6639.246          46.875    21532944.060   115267587.645 7      6639.246          45.250    21532957.300    89652591.976 8      5163.858          48.687    21532957.400    89652591.976 8      5163.858          48.812
R02  19830708.860   105820506.660 8      3422.386          51.625    19830708.840   105820506.660 8      3422.386          49.812    19830715.840    82304842.158 8      2661.856          50.187    19830716.240    82304836.158 8      2661.856          51.062
G21  22096254.800   116116578.923 7      1373.867          47.312    22096253.220   116116578.928 6      1373.867          37.625    22096255.960    90480464.048 6      1070.545          37.812
G08  21788853.260   114501175.502 7       490.624          47.562    21788851.900   114501175.504 7       490.624          46.750    21788859.560    89221734.024 7       382.304          46.312    21788860.380    89221710.028 8       382.304          49.250
G14  22136990.780   116330687.657 7      3363.963          45.437    22136989.840   116330687.662 5      3363.963          35.437    22136993.820    90647289.862 5      2621.269          35.562    22136994.480    90647298.860 8      2621.269          48.375
R01  21919765.420   117173706.082 7      -295.590          42.812    21919765.300   117173706.083 6      -295.590          41.875    21919775.880    91135152.712 6      -229.903          41.562    21919774.420    91135149.708 6      -229.903          41.750
R18  22580616.720   120536877.963 6      4768.220          41.625    22580617.020   120536877.967 6      4768.220          41.562    22580628.580    93750951.923 7      3708.615          47.125    22580627.360    93750948.932 7      3708.615          47.312
R24  21926032.020   117248348.124 7      1370.683          45.062    21926031.860   117248348.136 7      1370.683          44.437    21926043.860    91193201.159 7      1066.087          47.750    21926043.600    91193201.154 8      1066.087          48.375
R14  23994710.200   127905286.434 7      -975.171          43.375    23994709.520   127905286.445 7      -975.171          42.437    23994733.760    99482009.793 7      -758.466          44.812    23994734.700    99482009.800 7      -758.466          44.500
R17  20596536.040   110216233.692 8      3501.214          48.312    20596536.640   110216233.704 7      3501.214          47.250    20596544.940    85723765.926 8      2723.167          50.187    20596544.920    85723767.926 8      2723.167          50.312
G22  23839459.400   125277208.277 7      4532.869          42.000    23839458.000   125277208.293 4      4532.869          28.250    23839462.460    97618616.692 4      3532.106          28.562
G04  23731258.140   124708662.984 6      5702.105          38.187    23731256.540   124708662.999 4      5702.105          29.187    23731272.320    97175653.975 4      4443.199          28.937    23731272.480    97175669.006 8      4443.199          48.062
G27  24810444.820   130379761.493 6      -455.470          40.875    24810444.100   130379761.500 6      -455.470          37.937    24810462.540   101594678.446 6      -354.912          37.750    24810462.960   101594685.436 7      -354.912          43.000
R15  22134088.040   118277834.098 7        63.858          45.937    22134087.380   118277834.097 7        63.858          44.812    22134099.260    91993905.270 7        49.667          47.562    22134099.000    91993911.274 7        49.667          47.250
G17  23810890.420   125127092.837 7      5524.515          42.125    23810889.740   125127092.839 5      5524.515          32.062    23810893.360    97501637.196 5      4304.817          31.750    23810894.060    97501640.190 7      4304.817          44.250
G32  25506244.500   134036219.623 6       780.936          37.000    25506243.240   134036219.625 4       780.936          26.625    25506252.000   104443837.325 4       608.521          26.937    25506253.200   104443843.330 6       608.521          36.000
> 2024 05 03 16 00 16.0000000  0 19
G03  20092532.700   105586967.780 8      3498.070          48.437    20092531.880   105586967.777 7      3498.070          46.250    20092536.900    82275562.591 7      2725.769          47.062    20092537.340    82275562.591 8      2725.769          52.187
G02  21673793.880   113896556.797 7      2156.550          46.875    21673792.100   113896556.802 6      2156.550          39.312    21673793.420    88750563.623 6      1680.428          39.000
R16  22798624.880   121786163.652 7      2937.100          43.375    22798623.060   121786163.640 7      2937.100          43.062    22798637.280    94722600.575 7      2284.411          46.375    22798635.600    94722610.572 7      2284.411          47.062
R03  21531703.260   115260948.346 7      6639.209          46.375    21531703.700   115260948.375 7      6639.209          44.937    21531717.000    89647428.105 7      5163.829          47.937    21531717.220    89647428.110 8      5163.829          48.062
R02  19830067.440   105817084.568 8      3421.867          50.250    19830067.600   105817084.569 8      3421.867          49.875    19830074.580    82302180.535 8      2661.452          49.437    19830075.180    82302174.537 8      2661.452          49.562
G21  22095993.300   116115204.886 7      1374.250          46.875    22095991.760   116115204.891 6      1374.250          38.000    22095994.540    90479393.368 6      1070.845          37.812
G08  21788760.120   114500684.866 7       490.606          46.812    21788758.520   114500684.876 7       490.606          46.250    21788766.300    89221351.712 7       382.290          46.375    21788766.740    89221327.718 8       382.290          48.562
G14  22136350.680   116327323.880 7      3363.695          45.625    22136349.740   116327323.890 5      3363.695          35.375    22136353.700    90644668.737 5      2621.061          35.437    22136354.460    90644677.737 8      2621.061          48.812
R01  21919820.520   117174001.757 7      -295.692          42.562    21919820.580   117174001.758 6      -295.692          41.875    21919830.920    91135382.681 6      -229.983          41.312    21919829.960    91135379.675 6      -229.983          41.562
R18  22579723.480   120532109.497 6      4768.701          41.562    22579723.240   120532109.500 6      4768.701          41.562    22579734.380    93747243.121 7      3708.990          45.937    22579734.160    93747240.135 7      3708.990          46.937
R24  21925775.720   117246977.372 7      1370.859          45.500    21925775.880   117246977.381 7      1370.859          44.375    21925787.300    91192135.013 7      1066.224          46.937    21925787.060    91192135.009 7      1066.224          47.875
R14  23994893.180   127906261.319 7      -974.733          43.375    23994892.380   127906261.311 7      -974.733          42.750    23994916.900    99482768.033 7      -758.126          44.562    23994917.060    99482768.036 7      -758.126          44.500
R17  20595881.720   110212732.457 7      3501.465          47.625    20595882.400   110212732.469 7      3501.465          47.000    20595890.780    85721042.743 8      2723.362          49.125    20595890.580    85721044.743 8      2723.362          49.625
G22  23838596.420   125272675.536 6      4532.865          41.625    23838595.320   125272675.546 4      4532.865          28.250    23838599.780    97615084.685 4      3532.103          28.562
G04  23730173.340   124702960.690 6      5702.451          38.812    23730171.400   124702960.708 4      5702.451          29.375    23730186.980    97171210.648 4      4443.468          28.937    23730187.320    97171225.684 8      4443.468          48.500
G27  24810530.900   130380216.852 6      -455.289          41.125    24810530.760   130380216.854 6      -455.289          37.750    24810549.160   101595033.249 6      -354.771          37.500    24810549.840   101595040.237 7      -354.771          42.812
R15  22134076.160   118277770.332 7        63.709          46.187    22134075.380   118277770.330 7        63.709          44.250    22134087.500    91993855.666 7        49.551          46.687    22134086.840    91993861.670 7        49.551          47.000
G17  23809839.320   125121568.486 7      5524.559          42.125    23809838.520   125121568.486 5      5524.559          31.875    23809842.180    97497332.503 5      4304.851          31.750    23809842.520    97497335.501 7      4304.851          44.375
G32  25506096.520   134035438.769 6       780.950          36.875    25506094.620   134035438.774 4       780.950          26.812    25506103.520   104443228.874 4       608.532          26.937    25506103.560   104443234.879 6       608.532          36.125
> 2024 05 03 16 00 17.0000000  0 19
G03  20091867.120   105583470.070 8      3497.318          49.500    20091866.280   105583470.078 7      3497.318          46.125    20091871.240    82272837.152 7      2725.183          46.875    20091871.800    82272837.152 8      2725.183          51.437
G02  21673383.580   113894400.464 7      2156.181          47.000    21673381.580   113894400.469 6      2156.181          39.750    21673383.060    88748883.364 6      1680.141          39.687
R16  22798075.080   121783227.005 7      2935.997          44.500    22798073.960   121783226.990 7      2935.997          43.062    22798088.100    94720316.516 7      2283.553          46.875    22798086.180    94720326.511 7      2283.553          47.562
R03  21530463.000   115254309.244 7      6639.130          46.500    21530463.340   115254309.270 7      6639.130          44.875    21530476.620    89642264.368 7      5163.767          47.937    21530476.880    89642264.370 7      5163.767          47.312
R02  19829426.320   105813663.261 8      3420.874          50.937    19829426.400   105813663.262 8      3420.874          49.875    19829433.400    82299519.523 8      2660.680          49.625    19829433.860    82299513.524 8      2660.680          49.625
G21  22095731.700   116113830.815 7      1373.864          47.312    22095730.220   116113830.823 6      1373.864          37.812    22095732.820    90478322.666 6      1070.543          37.812
G08  21788666.740   114500194.529 7       490.276          46.187    21788665.280   114500194.536 7       490.276          46.312    21788673.020    89220969.627 7       382.033          46.437    21788673.760    89220945.633 8       382.033          48.750
G14  22135710.980   116323960.589 7      3362.901          45.000    22135709.740   116323960.599 5      3362.901          35.750    22135713.760    90642047.988 5      2620.443          35.312    22135714.140    90642056.989 8      2620.443          49.000
R01  21919876.880   117174298.022 7      -296.671          42.562    21919875.420   117174298.025 6      -296.671          41.937    21919886.560    91135613.109 6      -230.744          41.562    21919885.040    91135610.103 6      -230.744          41.562
R18  22578830.840   120527340.811 6      4768.568          41.562    22578828.940   120527340.820 6      4768.568          40.375    22578840.080    93743534.150 7      3708.886          46.312    22578840.560    93743531.164 7      3708.886          45.625
R24  21925519.240   117245606.743 7      1370.482          45.187    21925519.000   117245606.750 7      1370.482          44.187    21925530.960    91191068.964 7      1065.931          47.000    21925530.600    91191068.965 7      1065.931          47.812
R14  23995076.260   127907235.767 7      -974.126          43.312    23995075.200   127907235.768 7      -974.126          42.125    23995099.640    99483525.960 7      -757.653          44.125    23995099.780    99483525.961 7      -757.653          44.312
R17  20595227.900   110209231.267 7      3500.948          46.875    20595228.160   110209231.282 7      3500.948          46.812    20595236.580    85718319.597 8      2722.960          49.750    20595236.220    85718321.595 8      2722.960          50.187
G22  23837733.960   125268143.162 6      4531.914          40.562    23837732.520   125268143.175 4      4531.914          28.250    23837737.200    97611552.966 4      3531.361          28.562
G04  23729088.400   124697258.270 6      5702.594          38.687    23729086.220   124697258.285 4      5702.594          29.375    23729101.840    97166767.216 4      4443.579          29.125    23729102.100    97166782.244 8      4443.579          48.000
G27  24810618.180   130380672.303 6      -455.244          41.125    24810617.500   130380672.303 6      -455.244          38.187    24810635.840   101595388.127 6      -354.735          37.625    24810636.940   101595395.115 7      -354.735          42.437
R15  22134063.960   118277706.809 7        63.260          46.125    22134063.660   118277706.807 7        63.260          44.937    22134075.580    91993806.259 7        49.202          46.625    22134075.220    91993812.263 7        49.202          46.937
G17  23808788.220   125116043.959 7      5524.387          43.187    23808787.200   125116043.956 5      5524.387          31.875    23808790.960    97493027.673 5      4304.717          32.062    23808791.380    97493030.669 7      4304.717          44.937
G32  25505947.560   134034658.362 6       779.982          36.875    25505946.060   134034658.367 4       779.982          26.812    25505954.900   104442620.766 4       607.778          26.937    25505956.040   104442626.764 6       607.778          36.125
> 2024 05 03 16 00 18.0000000  0 19
G03  20091201.720   105579973.065 8      3496.705          49.437    20091200.800   105579973.067 7      3496.705          46.812    20091205.760    82270112.451 7      2724.705          47.562    20091206.200    82270112.451 8      2724.705          52.812
G02  21672973.100   113892244.265 7      2156.143          46.937    21672971.320   113892244.268 6      2156.143          40.000    21672972.840    88747203.209 6      1680.112          39.687
R16  22797525.320   121780291.362 7      2935.318          44.687    22797524.360   121780291.339 7      2935.318          43.750    22797538.240    94718033.239 7      2283.025          47.062    22797536.460    94718043.236 8      2283.025          48.375
R03  21529222.920   115247670.488 7      6638.636          46.375    21529223.600   115247670.508 7      6638.636          44.812    21529236.460    89637100.897 8      5163.384          48.437    21529236.960    89637100.897 8      5163.384          48.750
R02  19828785.540   105810242.847 8      3419.894          51.375    19828785.500   105810242.848 8      3419.894          49.750    19828792.360    82296859.199 8      2659.917          50.562    19828792.680    82296853.203 8      2659.917          50.625
G21  22095470.160   116112456.786 7      1373.969          47.687    22095468.700   116112456.791 6      1373.969          37.812    22095471.300    90477251.992 6      1070.625          38.125
G08  21788573.420   114499704.549 7       489.758          46.000    21788572.040   114499704.554 7       489.758          46.750    21788579.880    89220587.814 7       381.629          46.812    21788580.440    89220563.821 8       381.629          48.937
G14  22135070.860   116320598.126 7      3362.282          45.250    22135069.820   116320598.136 5      3362.282          35.562    22135073.960    90639427.883 5      2619.960          35.437    22135074.520    90639436.890 8      2619.960          49.625
R01  21919931.820   117174594.957 7      -297.247          42.562    21919930.880   117174594.959 6      -297.247          41.687    21919942.100    91135844.057 6      -231.192          41.437    21919940.520    91135841.052 6      -231.192          41.812
R18  22577937.000   120522572.286 6      4768.720          40.625    22577936.220   120522572.273 6      4768.720          40.375    22577946.020    93739825.297 7      3709.004          46.312    22577947.060    93739822.313 7      3709.004          46.000
R24  21925263.300   117244236.240 7      1370.323          45.562    21925262.920   117244236.239 7      1370.323          44.125    21925274.560    91190003.011 7      1065.807          47.437    21925274.520    91190003.011 8      1065.807          48.625
R14  23995258.720   127908210.082 7      -974.227          43.187    23995258.220   127908210.085 7      -974.227          42.125    23995282.340    99484283.771 7      -757.732          44.437    23995282.560    99484283.776 7      -757.732          44.875
R17  20594573.840   110205730.262 7      3501.088          47.562    20594573.740   110205730.277 7      3501.088          47.125    20594582.160    85715596.593 8      2723.069          50.562    20594582.040    85715598.591 8      2723.069          50.375
G22  23836871.440   125263611.440 6      4531.476          41.250    23836870.240   125263611.453 4      4531.476          28.250    23836874.820    97608021.758 4      3531.020          28.562
G04  23728002.920   124691555.794 6      5702.431          39.062    23728001.260   124691555.807 4      5702.431          29.375    23728016.740    97162323.741 4      4443.453          29.125    23728016.840    97162338.761 8      4443.453          48.687
G27  24810705.180   130381127.862 6      -455.832          41.187    24810704.240   130381127.859 6      -455.832          37.125    24810722.760   101595743.088 6      -355.194          37.312    24810723.620   101595750.082 7      -355.194          42.437
R15  22134051.940   118277643.895 7        62.746          45.750    22134051.700   118277643.904 7        62.746          44.937    22134063.900    91993757.328 7        48.803          47.437    22134063.480    91993763.332 7        48.803          47.937
G17  23807736.820   125110519.658 7      5524.393          42.312    23807735.760   125110519.658 5      5524.393          32.312    23807739.900    97488723.029 5      4304.722          32.062    23807740.620    97488726.031 7      4304.722          45.000
G32  25505798.780   134033878.402 6       779.671          36.875    25505797.500   134033878.407 4       779.671          26.812    25505806.420   104442013.009 4       607.536          26.937    25505807.500   104442019.004 6       607.536          36.125
> 2024 05 03 16 00 19.0000000  0 19
G03  20090536.400   105576476.640 8      3496.156          49.000    20090535.500   105576476.643 7      3496.156          47.312    20090540.380    82267388.076 7      2724.277          47.750    20090540.940    82267388.076 8      2724.277          52.875
G02  21672562.980   113890088.093 7      2156.327          47.500    21672561.000   113890088.095 6      2156.327          39.750    21672562.460    88745523.070 6      1680.255          39.062
R16  22796976.180   121777356.366 7      2934.846          44.750    22796975.060   121777356.346 7      2934.846          44.312    22796988.820    94715750.466 7      2282.658          46.937    22796987.340    94715760.469 7      2282.658          47.500
R03  21527983.160   115241032.152 7      6638.132          45.250    21527983.100   115241032.172 7      6638.132          45.312    21527996.420    89631937.759 8      5162.991          48.375    21527996.520    89631937.763 8      5162.991          48.875
R02  19828144.860   105806823.405 8      3419.078          51.125    19828144.860   105806823.406 8      3419.078          50.062    19828151.620    82294199.637 8      2659.283          50.375    19828152.020    82294193.637 8      2659.283          50.625
G21  22095208.880   116111082.781 7      1374.208          47.250    22095207.280   116111082.786 6      1374.208          38.062    22095209.960    90476181.336 6      1070.812          38.250
G08  21788480.260   114499215.019 7       489.440          47.187    21788478.900   114499215.027 7       489.440          46.937    21788486.680    89220206.362 7       381.382          46.875    21788487.500    89220182.369 8       381.382          48.937
G14  22134431.260   116317236.199 7      3361.671          45.312    22134430.160   116317236.211 5      3361.671          35.562    22134434.000    90636808.204 5      2619.484          35.437    22134434.720    90636817.206 8      2619.484          49.000
R01  21919987.080   117174892.489 7      -297.530          42.937    21919986.460   117174892.493 6      -297.530          41.687    21919997.700    91136075.473 6      -231.412          41.437    21919996.720    91136072.463 6      -231.412          41.812
R18  22577043.880   120517803.595 6      4768.852          40.625    22577043.880   120517803.580 6      4768.852          40.375    22577051.860    93736116.313 7      3709.107          45.687    22577053.480    93736113.325 7      3709.107          45.000
R24  21925006.680   117242866.001 7      1370.179          46.687    21925006.580   117242866.008 7      1370.179          44.937    21925018.400    91188937.276 8      1065.695          48.187    21925018.300    91188937.275 8      1065.695          48.437
R14  23995441.840   127909184.226 7      -974.144          43.187    23995441.120   127909184.221 7      -974.144          42.250    23995464.820    99485041.447 7      -757.667          44.625    23995465.360    99485041.452 7      -757.667          44.812
R17  20593919.420   110202229.302 7      3501.207          47.687    20593919.620   110202229.314 7      3501.207          46.812    20593928.040    85712873.624 8      2723.161          49.875    20593927.760    85712875.618 8      2723.161          50.562
G22  23836008.760   125259080.023 6      4531.503          41.312    23836007.880   125259080.034 4      4531.503          28.250    23836012.520    97604490.786 4      3531.041          28.062
G04  23726917.880   124685853.376 6      5702.378          39.062    23726916.180   124685853.384 4      5702.378          29.375    23726931.440    97157880.313 4      4443.412          29.125    23726931.920    97157895.343 7      4443.412          47.937
G27  24810791.940   130381583.674 6      -455.892          40.500    24810790.980   130381583.673 6      -455.892          37.562    24810809.560   101596098.247 6      -355.240          37.250    24810809.920   101596105.237 7      -355.240          42.312
R15  22134040.480   118277581.368 7        62.379          45.687    22134039.660   118277581.372 7        62.379          45.125    22134052.380    91993708.692 8        48.517          48.125    22134051.980    91993714.694 7        48.517          47.937
G17  23806685.300   125104995.197 6      5524.887          41.687    23806684.400   125104995.205 5      5524.887          32.312    23806688.560    97484418.261 5      4305.107          32.062    23806689.280    97484421.273 7      4305.107          45.000
G32  25505650.240   134033098.920 6       779.370          36.875    25505649.280   134033098.922 4       779.370          26.812    25505657.960   104441405.619 4       607.301          26.937    25505658.500   104441411.634 6       607.301          36.125
> 2024 05 03 16 00 20.0000000  0 19
G03  20089871.100   105572980.738 8      3495.703          49.500    20089870.160   105572980.743 7      3495.703          47.375    20089875.180    82264663.784 7      2723.925          47.812    20089875.720    82264663.784 8      2723.925          52.562
G02  21672152.860   113887931.860 7      2156.233          47.062    21672150.660   113887931.865 6      2156.233          39.187    21672152.080    88743842.895 6      1680.182          39.312
R16  22796426.980   121774422.085 7      2933.927          45.062    22796426.260   121774422.070 7      2933.927          44.937    22796439.620    94713468.254 7      2281.943          47.250    22796438.160    94713478.259 8      2281.943          48.437
R03  21526742.720   115234394.134 7      6637.820          46.562    21526743.060   115234394.159 7      6637.820          45.250    21526756.240    89626774.866 8      5162.749          48.687    21526756.320    89626774.866 8      5162.749          48.250
R02  19827503.900   105803404.785 8      3418.196          51.625    19827503.980   105803404.783 8      3418.196          50.187    19827510.900    82291540.712 8      2658.597          50.250    19827511.460    82291534.712 8      2658.597          51.375
G21  22094947.500   116109708.689 7      1374.106          47.375    22094945.780   116109708.694 6      1374.106          38.375    22094948.420    90475110.615 6      1070.732          38.125
G08  21788387.380   114498725.830 7       488.925          46.375    21788385.820   114498725.835 7       488.925          46.875    21788393.680    89219825.172 7       380.980          46.937    21788394.540    89219801.179 8       380.980          49.562
G14  22133791.260   116313874.794 7      3361.082          45.062    22133790.640   116313874.807 5      3361.082          35.375    22133794.460    90634188.923 5      2619.025          35.500    22133794.840    90634197.922 8      2619.025          48.875
R01  21920043.080   117175190.540 7      -298.283          42.937    21920042.700   117175190.546 6      -298.283          41.687    21920052.940    91136307.290 6      -231.998          41.250    21920052.540    91136304.280 6      -231.998          41.562
R18  22576150.640   120513034.730 6      4768.871          41.937    22576152.140   120513034.710 6      4768.871          40.750    22576158.000    93732407.178 7      3709.122          45.437    22576159.660    93732404.187 7      3709.122          44.750
R24  21924750.540   117241495.862 7      1370.116          46.000    21924750.640   117241495.874 7      1370.116          44.750    21924762.100    91187871.614 7      1065.646          47.562    21924762.200    91187871.613 8      1065.646          48.375
R14  23995624.400   127910158.155 7      -973.971          43.500    23995623.740   127910158.150 7      -973.971          42.250    23995647.760    99485798.955 7      -757.533          44.812    23995648.200    99485798.960 7      -757.533          44.875
R17  20593265.140   110198728.340 7      3500.851          47.687    20593265.340   110198728.360 7      3500.851          47.375    20593273.780    85710150.660 8      2722.884          50.687    20593273.260    85710152.660 8      2722.884          51.000
G22  23835147.140   125254549.021 6      4530.645          40.812    23835145.640   125254549.039 4      4530.645          28.375    23835150.560    97600960.139 4      3530.373          28.062
G04  23725832.820   124680150.930 6      5702.525          39.062    23725831.120   124680150.943 4      5702.525          29.437    23725846.240    97153436.866 4      4443.526          29.125    23725846.860    97153451.890 8      4443.526          48.562
G27  24810878.460   130382039.611 6      -455.996          40.500    24810877.720   130382039.624 6      -455.996          37.437    24810896.260   101596453.513 6      -355.322          36.937    24810896.460   101596460.505 7      -355.322          42.687
R15  22134028.340   118277519.242 7        61.893          45.750    22134028.440   118277519.246 7        61.893          44.625    22134040.840    91993660.365 7        48.139          47.875    22134040.280    91993666.370 8        48.139          48.062
G17  23805634.240   125099470.691 6      5524.578          41.687    23805632.940   125099470.699 5      5524.578          32.312    23805637.420    97480113.455 5      4304.866          32.000    23805637.940    97480116.463 7      4304.866          45.062
G32  25505501.760   134032319.750 6       778.925          36.937    25505501.080   134032319.753 4       778.925          26.812    25505509.760   104440798.476 4       606.954          26.937    25505511.280   104440804.475 6       606.954          36.125
> 2024 05 03 16 00 21.0000000  0 19
G03  20089205.920   105569485.470 8      3494.933          48.937    20089205.020   105569485.477 7      3494.933          47.625    20089210.020    82261939.983 8      2723.324          48.250    20089210.660    82261939.983 8      2723.324          52.562
G02  21671742.340   113885775.742 7      2156.006          47.250    21671740.400   113885775.745 6      2156.006          39.500    21671741.920    88742162.799 6      1680.005          39.375
R16  22795878.160   121771488.702 7      2932.757          45.312    22795877.340   121771488.682 7      2932.757          45.062    22795890.540    94711186.735 7      2281.034          47.875    22795889.260    94711196.737 8      2281.034          48.375
R03  21525502.520   115227756.370 7      6637.545          45.687    21525503.020   115227756.393 7      6637.545          44.937    21525516.260    89621612.172 8      5162.535          48.062    21525516.420    89621612.172 8      5162.535          48.062
R02  19826863.660   105799987.023 8      3417.274          51.437    19826863.580   105799987.027 8      3417.274          49.812    19826870.420    82288882.458 8      2657.880          50.562    19826870.800    82288876.459 8      2657.880          50.937
G21  22094685.940   116108334.621 7      1374.071          46.937    22094684.300   116108334.626 6      1374.071          37.750    22094686.980    90474039.913 6      1070.705          38.062
G08  21788294.220   114498236.915 7       488.712          45.875    21788292.880   114498236.917 7       488.712          46.750    21788300.640    89219444.191 7       380.815          46.562    21788301.360    89219420.198 8       380.815          49.062
G14  22133152.040   116310514.086 7      3360.280          45.625    22133151.000   116310514.094 5      3360.280          35.437    22133154.940    90631570.185 5      2618.400          35.312    22133155.560    90631579.186 8      2618.400          48.812
R01  21920098.800   117175489.224 7      -298.847          43.000    21920098.200   117175489.225 6      -298.847          41.687    21920109.400    91136539.591 6      -232.437          41.250    21920108.360    91136536.586 6      -232.437          41.562
R18  22575257.420   120508265.871 7      4768.780          42.687    22575260.580   120508265.859 7      4768.780          42.250    22575264.680    93728698.059 7      3709.051          45.250    22575265.900    93728695.064 7      3709.051          44.625
R24  21924493.700   117240125.920 7      1369.888          45.562    21924494.260   117240125.935 7      1369.888          44.812    21924505.940    91186806.102 7      1065.468          47.750    21924505.560    91186806.100 8      1065.468          48.000
R14  23995807.440   127911131.819 7      -973.619          43.437    23995806.380   127911131.804 7      -973.619          42.625    23995830.180    99486556.258 7      -757.259          44.312    23995830.480    99486556.261 7      -757.259          44.250
R17  20592610.800   110195227.567 8      3500.675          48.375    20592611.060   110195227.588 8      3500.675          48.062    20592619.580    85707427.837 8      2722.747          50.187    20592619.380    85707429.835 8      2722.747          50.687
G22  23834284.940   125250018.540 6      4530.149          40.375    23834283.680   125250018.555 4      4530.149          28.375    23834288.360    97597429.892 4      3529.986          28.062
G04  23724747.260   124674448.362 6      5702.626          38.562    23724745.880   124674448.373 4      5702.626          29.437    23724761.100    97148993.319 4      4443.605          29.125    23724761.720    97149008.339 8      4443.605          48.312
G27  24810965.740   130382495.622 6      -455.999          41.562    24810964.640   130382495.629 6      -455.999          37.812    24810983.080   101596808.823 6      -355.324          37.687    24810983.320   101596815.809 7      -355.324          42.562
R15  22134016.760   118277457.541 7        61.254          45.062    22134016.740   118277457.543 7        61.254          44.125    22134029.120    91993612.370 8        47.642          48.062    22134028.820    91993618.374 8        47.642          48.125
G17  23804582.680   125093946.267 6      5524.269          41.687    23804581.860   125093946.275 5      5524.269          32.187    23804586.080    97475808.715 5      4304.625          32.000    23804586.660    97475811.717 7      4304.625          45.062
G32  25505353.680   134031541.044 6       778.454          37.000    25505353.060   134031541.051 4       778.454          26.687    25505361.680   104440191.695 4       606.588          26.812    25505362.900   104440197.701 5       606.588          35.937
> 2024 05 03 16 00 22.0000000  0 19
G03  20088540.700   105565990.790 8      3494.491          49.437    20088540.060   105565990.797 7      3494.491          47.187    20088544.980    82259216.018 7      2722.980          47.937    20088545.660    82259216.018 8      2722.980          52.437
G02  21671332.140   113883619.604 7      2156.316          46.937    21671330.100   113883619.609 6      2156.316          39.812    21671331.640    88740482.694 6      1680.246          39.562
R16  22795329.360   121768555.973 7      2932.556          45.625    22795328.620   121768555.950 7      2932.556          45.250    22795341.320    94708905.722 7      2280.877          47.562    22795340.140    94708915.721 7      2280.877          47.750
R03  21524262.580   115221119.027 7      6637.183          47.437    21524263.120   115221119.045 7      6637.183          45.062    21524276.420    89616449.800 8      5162.253          48.062    21524276.680    89616449.802 8      5162.253          48.500
R02  19826223.340   105796570.132 8      3416.540          51.250    19826223.460   105796570.132 8      3416.540          50.062    19826230.040    82286224.875 8      2657.309          50.312    19826230.680    82286218.877 8      2657.309          50.750
G21  22094424.380   116106960.550 8      1374.101          48.125    22094422.760   116106960.555 6      1374.101          37.812    22094425.720    90472969.210 6      1070.728          38.312
G08  21788201.140   114497748.417 7       488.383          46.187    21788199.900   114497748.422 7       488.383          47.500    21788207.680    89219063.541 7       380.558          47.312    21788208.600    89219039.548 8       380.558          49.187
G14  22132512.440   116307153.951 7      3360.036          45.000    22132511.520   116307153.958 5      3360.036          34.937    22132515.400    90628951.898 5      2618.210          35.062    22132516.040    90628960.901 8      2618.210          48.375
R01  21920154.740   117175788.501 7      -299.394          43.000    21920154.140   117175788.502 6      -299.394          41.812    21920165.240    91136772.362 6      -232.862          41.250    21920164.200    91136769.353 6      -232.862          41.562
R18  22574363.480   120503496.881 7      4769.177          43.875    22574367.560   120503496.864 7      4769.177          43.125    22574371.680    93724988.832 7      3709.360          44.937    22574372.660    93724985.827 7      3709.360          44.812
R24  21924237.820   117238756.134 7      1369.852          46.562    21924238.240   117238756.140 7      1369.852          45.062    21924249.860    91185740.706 8      1065.441          48.000    21924249.720    91185740.704 8      1065.441          48.375
R14  23995989.740   127912105.380 7      -973.421          43.687    23995989.060   127912105.375 7      -973.421          42.875    23996013.200    99487313.488 7      -757.105          44.625    23996013.220    99487313.492 7      -757.105          44.625
R17  20591956.840   110191726.843 7      3500.868          47.250    20591956.800   110191726.858 7      3500.868          47.062    20591965.400    85704705.049 8      2722.898          50.062    20591965.060    85704707.050 8      2722.898          50.125
G22  23833423.260   125245488.471 6      4529.901          39.687    23833421.640   125245488.481 4      4529.901          28.375    23833426.700    97593899.965 4      3529.793          28.062
G04  23723662.260   124668745.842 6      5702.452          39.187    23723660.740   124668745.852 4      5702.452          29.437    23723676.000    97144549.811 4      4443.469          29.250    23723676.440    97144564.838 8      4443.469          48.187
G27  24811052.120   130382951.846 6      -456.325          41.000    24811051.300   130382951.851 6      -456.325          37.687    24811069.960   101597164.300 6      -355.578          37.562    24811070.480   101597171.300 7      -355.578          42.562
R15  22134005.160   118277396.241 7        61.276          45.062    22134005.180   118277396.242 7        61.276          44.062    22134017.920    91993564.681 8        47.659          48.062    22134017.400    91993570.686 8        47.659          48.187
G17  23803531.580   125088421.777 7      5524.693          42.687    23803530.940   125088421.774 5      5524.693          32.187    23803534.820    97471503.913 5      4304.955          32.000    23803535.100    97471506.903 7      4304.955          44.625
G32  25505206.100   134030762.747 6       778.384          37.000    25505205.080   134030762.751 4       778.384          26.687    25505213.520   104439585.234 4       606.533          26.812    25505214.920   104439591.231 5       606.533          35.937
> 2024 05 03 16 00 23.0000000  0 19
G03  20087875.820   105562496.627 8      3493.856          49.437    20087875.160   105562496.632 7      3493.856          47.250    20087880.020    82256493.446 8      2722.485          48.000    20087880.680    82256493.446 8      2722.485          52.437
G02  21670921.620   113881463.465 7      2155.988          47.062    21670919.720   113881463.473 6      2155.988          39.687    21670921.280    88738802.584 6      1679.991          39.312
R16  22794780.560   121765623.904 7      2931.578          45.812    22794779.980   121765623.886 7      2931.578          45.125    22794792.320    94706625.222 7      2280.116          47.375    22794791.060    94706635.225 7      2280.116          47.750
R03  21523022.820   115214481.954 7      6636.839          46.687    21523023.400   115214481.980 7      6636.839          45.750    21523036.540    89611287.649 8      5161.986          48.250    21523036.680    89611287.651 8      5161.986          48.187
R02  19825583.100   105793154.043 8      3415.530          51.437    19825582.940   105793154.044 8      3415.530          49.875    19825589.800    82283567.920 8      2656.524          50.937    19825590.340    82283561.923 8      2656.524          51.000
G21  22094163.040   116105586.374 7      1374.116          47.562    22094161.260   116105586.379 6      1374.116          37.750    22094164.080    90471898.422 6      1070.740          38.125
G08  21788108.300   114497260.243 7       487.899          46.937    21788106.980   114497260.248 7       487.899          47.125    21788114.680    89218683.142 7       380.181          46.937    21788115.920    89218659.146 8       380.181          49.375
G14  22131873.000   116303794.354 7      3359.134          44.562    22131872.220   116303794.364 5      3359.134          34.937    22131876.060    90626334.031 5      2617.507          35.062    22131876.480    90626343.031 8      2617.507          48.437
R01  21920211.000   117176088.302 7      -300.172          43.187    21920210.060   117176088.311 6      -300.172          41.812    21920221.000    91137005.547 6      -233.467          41.437    21920220.300    91137002.538 6      -233.467          41.312
R18  22573470.160   120498727.683 7      4769.109          44.562    22573473.940   120498727.666 7      4769.109          43.125    22573478.500    93721279.441 7      3709.307          45.312    22573479.120    93721276.432 7      3709.307          44.625
R24  21923981.920   117237386.459 7      1369.536          45.562    21923982.320   117237386.461 7      1369.536          44.625    21923993.660    91184675.393 8      1065.195          48.250    21923993.600    91184675.394 8      1065.195          48.562
R14  23996172.520   127913078.658 7      -973.300          43.687    23996171.400   127913078.659 7      -973.300          42.875    23996195.760    99488070.497 7      -757.011          44.375    23996196.000    99488070.502 7      -757.011          44.375
R17  20591302.460   110188226.097 8      3500.544          48.375    20591302.620   110188226.120 7      3500.544          47.000    20591311.220    85701982.253 8      2722.646          50.687    20591310.500    85701984.252 8      2722.646          50.687
G22  23832560.920   125240958.722 6      4529.281          40.000    23832559.380   125240958.732 4      4529.281          28.375    23832564.760    97590370.297 4      3529.310          28.062
G04  23722576.440   124663043.191 6      5702.705          38.937    23722575.640   124663043.204 4      5702.705          29.437    23722590.820    97140106.203 4      4443.667          29.250    23722591.200    97140121.244 8      4443.667          48.687
G27  24811139.200   130383408.182 6      -456.442          41.187    24811138.260   130383408.187 6      -456.442          37.625    24811156.740   101597519.869 6      -355.669          37.687    24811157.140   101597526.861 7      -355.669          42.812
R15  22133993.420   118277335.326 7        60.508          44.812    22133993.680   118277335.338 7        60.508          43.750    22134006.520    91993517.303 8        47.062          48.062    22134006.340    91993523.305 7        47.062          47.937
G17  23802480.320   125082897.174 7      5524.317          42.875    23802479.960   125082897.171 5      5524.317          32.437    23802483.480    97467199.026 5      4304.662          31.875    23802483.900    97467202.023 7      4304.662          44.750
G32  25505057.820   134029984.862 6       777.439          37.125    25505057.040   134029984.867 4       777.439          26.687    25505065.620   104438979.086 4       605.797          26.812    25505066.840   104438985.087 5       605.797          35.937
> 2024 05 03 16 00 24.0000000  0 19
G03  20087210.980   105559003.040 8      3493.334          49.312    20087210.440   105559003.040 7      3493.334          47.187    20087215.360    82253771.037 8      2722.079          48.250    20087216.020    82253771.037 8      2722.079          52.625
G02  21670511.400   113879307.324 7      2156.152          46.250    21670509.480   113879307.329 6      2156.152          39.500    21670511.040    88737122.474 6      1680.119          39.250
R16  22794231.520   121762692.593 7      2930.914          45.750    22794231.100   121762692.584 7      2930.914          45.187    22794243.420    94704345.322 7      2279.600          47.250    22794242.860    94704355.323 8      2279.600          48.000
R03  21521782.940   115207845.154 7      6636.679          46.000    21521783.280   115207845.185 7      6636.679          45.187    21521796.640    89606125.703 7      5161.861          47.750    21521797.280    89606125.702 8      5161.861          48.312
R02  19824943.080   105789738.771 8      3414.778          51.250    19824943.160   105789738.772 8      3414.778          49.562    19824949.860    82280911.601 8      2655.939          50.625    19824950.380    82280905.601 8      2655.939          50.812
G21  22093901.460   116104212.203 7      1374.145          47.625    22093899.720   116104212.211 6      1374.145          37.812    22093902.480    90470827.643 6      1070.762          38.250
G08  21788015.480   114496772.410 7       487.509          46.562    21788014.240   114496772.420 7       487.509          46.687    21788021.860    89218303.012 7       379.877          46.687    21788023.200    89218279.013 8       379.877          49.250
G14  22131233.900   116300435.325 7      3358.734          45.125    22131233.080   116300435.332 5      3358.734          35.187    22131236.920    90623716.607 5      2617.196          35.000    22131237.580    90623725.602 8      2617.196          48.187
R01  21920267.340   117176388.721 7      -300.716          42.562    21920266.700   117176388.722 6      -300.716          41.625    21920277.160    91137239.204 6      -233.890          40.937    21920276.420    91137236.190 6      -233.890          41.500
R18  22572576.500   120493958.384 7      4769.299          44.000    22572580.420   120493958.387 7      4769.299          43.312    22572585.560    93717569.992 7      3709.455          45.625    22572585.800    93717566.989 7      3709.455          45.687
R24  21923726.040   117236016.935 7      1369.368          45.375    21923726.240   117236016.941 7      1369.368          44.812    21923737.640    91183610.210 8      1065.064          48.000    21923737.480    91183610.210 8      1065.064          48.312
R14  23996354.800   127914051.675 7      -972.969          43.750    23996353.940   127914051.668 7      -972.969          42.562    23996378.100    99488827.294 7      -756.754          44.562    23996378.300    99488827.297 7      -756.754          44.937
R17  20590648.060   110184725.424 7      3500.668          46.437    20590648.320   110184725.439 7      3500.668          47.250    20590656.940    85699259.503 8      2722.741          50.437    20590656.720    85699261.501 8      2722.741          50.312
G22  23831699.160   125236429.386 6      4529.201          38.562    23831697.160   125236429.393 4      4529.201          28.375    23831702.920    97586840.945 4      3529.247          28.250
G04  23721491.120   124657340.550 6      5702.523          39.875    23721490.500   124657340.563 4      5702.523          29.750    23721505.600    97135662.603 4      4443.524          29.250    23721505.960    97135677.640 8      4443.524          48.437
G27  24811225.920   130383864.635 6      -456.465          41.687    24811225.160   130383864.637 6      -456.465          37.750    24811243.780   101597875.525 6      -355.687          37.312    24811244.560   101597882.515 7      -355.687          42.687
R15  22133982.160   118277274.782 7        60.354          44.625    22133982.480   118277274.799 7        60.354          43.812    22133995.220    91993470.206 8        46.942          48.062    22133994.700    91993476.209 8        46.942          48.750
G17  23801428.900   125077372.497 7      5524.651          42.375    23801428.820   125077372.494 5      5524.651          32.437    23801432.120    97462894.089 5      4304.923          31.875    23801432.320    97462897.079 7      4304.923          44.812
G32  25504910.080   134029207.345 6       777.393          37.125    25504909.020   134029207.348 4       777.393          26.687    25504917.720   104438373.233 4       605.761          26.812    25504919.180   104438379.224 5       605.761          35.937
> 2024 05 03 16 00 25.0000000  0 19
G03  20086546.360   105555510.171 8      3492.616          49.062    20086545.760   105555510.176 7      3492.616          47.250    20086550.640    82251049.530 7      2721.519          47.812    20086551.160    82251049.530 8      2721.519          52.625
G02  21670101.160   113877151.399 7      2155.925          46.250    21670099.200   113877151.401 6      2155.925          39.750    21670100.720    88735442.532 6      1679.942          39.812
R16  22793682.760   121759762.201 7      2930.116          45.125    22793682.980   121759762.197 7      2930.116          45.187    22793694.780    94702066.128 7      2278.979          47.250    22793694.040    94702076.133 7      2278.979          47.625
R03  21520543.220   115201208.782 7      6636.353          46.625    21520543.640   115201208.813 7      6636.353          45.125    21520556.760    89600964.093 7      5161.608          47.750    21520557.440    89600964.094 8      5161.608          48.437
R02  19824303.500   105786324.505 8      3413.943          51.250    19824303.280   105786324.506 8      3413.943          50.000    19824310.040    82278256.063 8      2655.289          50.375    19824310.560    82278250.064 8      2655.289          50.937
G21  22093640.000   116102838.185 7      1374.099          47.187    22093638.220   116102838.190 6      1374.099          38.000    22093640.920    90469756.978 6      1070.726          38.000
G08  21787922.820   114496285.040 7       487.281          46.562    21787921.540   114496285.042 7       487.281          47.125    21787929.120    89217923.235 7       379.699          46.625    21787930.260    89217899.239 8       379.699          48.812
G14  22130595.060   116297077.060 7      3357.946          44.750    22130593.800   116297077.070 5      3357.946          35.250    22130597.760    90621099.778 5      2616.581          35.062    22130598.180    90621108.770 8      2616.581          48.062
R01  21920323.240   117176689.906 7      -301.444          42.562    21920322.960   117176689.916 6      -301.444          41.625    21920333.360    91137473.460 6      -234.457          40.937    21920332.640    91137470.456 6      -234.457          41.500
R18  22571682.640   120489189.117 7      4769.449          43.562    22571686.020   120489189.131 7      4769.449          43.000    22571692.640    93713860.572 7      3709.571          46.000    22571692.620    93713857.565 7      3709.571          46.187
R24  21923469.800   117234647.723 7      1369.187          45.687    21923470.020   117234647.735 7      1369.187          44.812    21923481.480    91182545.271 7      1064.923          47.500    21923481.220    91182545.270 8      1064.923          48.187
R14  23996537.540   127915024.561 7      -972.745          43.687    23996536.480   127915024.562 7      -972.745          42.250    23996560.680    99489583.998 7      -756.579          44.437    23996560.860    99489584.003 7      -756.579          44.687
R17  20589994.160   110181225.005 7      3500.457          47.750    20589994.040   110181225.014 7      3500.457          47.062    20590002.860    85696536.955 8      2722.577          50.375    20590002.320    85696538.953 8      2722.577          50.125
G22  23830837.120   125231900.670 6      4528.442          38.562    23830835.240   125231900.677 4      4528.442          28.187    23830841.300    97583312.079 4      3528.656          28.250
G04  23720406.120   124651637.951 6      5702.567          39.250    23720405.260   124651637.971 4      5702.567          29.750    23720420.440    97131219.040 4      4443.559          29.250    23720420.860    97131234.056 8      4443.559          48.687
G27  24811312.620   130384321.358 6      -456.719          41.125    24811311.980   130384321.363 6      -456.719          37.812    24811330.620   101598231.395 6      -355.885          37.687    24811330.980   101598238.391 7      -355.885          42.937
R15  22133970.800   118277214.788 7        59.815          44.375    22133971.060   118277214.808 7        59.815          43.812    22133984.140    91993423.541 8        46.523          48.437    22133984.020    91993429.543 8        46.523          48.562
G17  23800377.320   125071847.963 7      5524.682          42.687    23800377.560   125071847.965 5      5524.682          32.437    23800380.840    97458589.259 5      4304.947          32.187    23800381.460    97458592.246 7      4304.947          44.812
G32  25504762.500   134028430.417 6       777.061          36.750    25504761.120   134028430.419 4       777.061          26.687    25504769.820   104437767.833 4       605.502          26.812    25504771.100   104437773.811 5       605.502          35.937
> 2024 05 03 16 00 26.0000000  0 19
G03  20085881.560   105552017.848 8      3491.842          49.000    20085881.160   105552017.850 7      3491.842          46.250    20085886.000    82248327.285 7      2720.916          46.937    20085886.800    82248327.285 8      2720.916          52.562
G02  21669690.860   113874995.431 7      2155.777          47.000    21669688.900   113874995.436 6      2155.777          39.312    21669690.360    88733762.559 6      1679.826          39.250
R16  22793134.280   121756832.576 7      2929.078          46.250    22793134.960   121756832.569 7      2929.078          45.375    22793146.460    94699787.526 7      2278.172          46.875    22793145.560    94699797.530 7      2278.172          47.187
R03  21519303.540   115194572.699 7      6635.805          46.500    21519304.080   115194572.725 7      6635.805          45.312    21519317.120    89595802.700 8      5161.182          48.000    21519317.540    89595802.700 7      5161.182          47.812
R02  19823663.680   105782911.079 8      3412.840          51.437    19823663.720   105782911.088 8      3412.840          49.500    19823670.420    82275601.182 8      2654.431          49.125    19823670.780    82275595.186 8      2654.431          49.437
G21  22093378.460   116101464.101 7      1373.901          47.125    22093376.740   116101464.103 6      1373.901          38.125    22093379.480    90468686.257 6      1070.572          38.187
G08  21787830.120   114495798.008 7       486.737          45.812    21787828.820   114495798.019 7       486.737          46.750    21787836.480    89217543.734 7       379.275          46.812    21787837.540    89217519.734 8       379.275          48.625
G14  22129956.160   116293719.347 7      3357.294          45.312    22129954.980   116293719.355 5      3357.294          35.125    22129958.640    90618483.376 5      2616.073          35.062    22129959.420    90618492.369 7      2616.073          47.750
R01  21920380.040   117176991.624 7      -302.269          43.000    21920379.980   117176991.630 6      -302.269          41.687    21920389.960    91137708.131 6      -235.098          40.875    21920388.880    91137705.117 6      -235.098          41.500
R18  22570789.420   120484419.726 7      4769.287          43.500    22570791.760   120484419.754 7      4769.287          42.437    22570799.820    93710151.059 7      3709.445          45.812    22570799.160    93710148.058 7      3709.445          46.500
R24  21923214.080   117233278.637 7      1368.777          45.937    21923214.140   117233278.654 7      1368.777          44.437    21923225.520    91181480.427 7      1064.604          46.562    21923225.440    91181480.423 7      1064.604          47.812
R14  23996720.000   127915997.242 7      -972.612          43.562    23996719.240   127915997.238 7      -972.612          42.250    23996743.140    99490340.534 7      -756.476          43.750    23996743.300    99490340.541 7      -756.476          44.375
R17  20589340.000   110177724.604 7      3500.196          47.812    20589340.080   110177724.611 7      3500.196          46.625    20589348.740    85693814.415 8      2722.375          49.562    20589348.340    85693816.413 8      2722.375          49.875
G22  23829975.000   125227372.322 5      4527.887          35.937    23829973.360   125227372.337 4      4527.887          28.187    23829979.400    97579783.498 4      3528.223          28.250
G04  23719321.100   124645935.291 6      5702.550          40.062    23719320.080   124645935.307 4      5702.550          29.750    23719335.200    97126775.422 4      4443.545          29.437    23719335.660    97126790.444 8      4443.545          48.312
G27  24811399.600   130384778.212 6      -457.059          41.312    24811398.920   130384778.217 6      -457.059          37.812    24811417.660   101598587.367 6      -356.150          37.187    24811418.120   101598594.359 7      -356.150          42.625
R15  22133959.400   118277155.152 7        59.293          44.375    22133960.360   118277155.167 7        59.293          43.187    22133973.020    91993377.145 7        46.116          47.562    22133972.900    91993383.145 8        46.116          48.000
G17  23799326.080   125066323.370 6      5524.462          41.937    23799326.220   125066323.378 5      5524.462          32.062    23799329.460    97454284.384 5      4304.775          32.187    23799330.660    97454287.377 7      4304.775          44.875
G32  25504614.240   134027653.912 6       776.084          36.750    25504613.300   134027653.917 4       776.084          26.687    25504622.140   104437162.766 4       604.741          26.812    25504623.020   104437168.767 5       604.741          35.937
> 2024 05 03 16 00 27.0000000  0 19
G03  20085217.200   105548526.145 8      3491.608          50.062    20085216.720   105548526.147 7      3491.608          47.187    20085221.540    82245606.842 7      2720.734          47.625    20085222.120    82245606.842 8      2720.734          52.437
G02  21669280.660   113872839.527 7      2156.053          47.500    21669278.660   113872839.531 6      2156.053          40.000    21669280.120    88732082.633 6      1680.041          39.687
R16  22792585.980   121753903.677 7      2928.745          47.000    22792587.320   121753903.681 7      2928.745          45.562    22792598.400    94697509.498 7      2277.913          47.437    22792597.300    94697519.499 8      2277.913          48.000
R03  21518064.020   115187936.981 7      6635.739          47.000    21518064.520   115187937.009 7      6635.739          44.937    21518077.620    89590641.596 7      5161.130          47.750    21518077.960    89590641.596 7      5161.130          47.625
R02  19823024.180   105779498.614 8      3412.237          50.937    19823023.980   105779498.620 8      3412.237          50.375    19823030.760    82272947.045 8      2653.962          50.437    19823031.500    82272941.049 8      2653.962          51.250
G21  22093117.020   116100090.027 7      1374.371          47.000    22093115.260   116100090.027 6      1374.371          38.250    22093118.080    90467615.544 6      1070.939          38.125
G08  21787737.680   114495311.413 7       486.628          46.625    21787736.360   114495311.423 7       486.628          47.000    21787743.980    89217164.561 7       379.191          46.875    21787744.780    89217140.565 8       379.191          49.625
G14  22129317.240   116290362.268 7      3356.886          45.687    22129316.080   116290362.275 5      3356.886          35.125    22129319.740    90615867.470 5      2615.755          34.625    22129320.540    90615876.462 8      2615.755          48.500
R01  21920436.700   117177293.937 7      -302.375          42.125    21920436.220   117177293.949 6      -302.375          41.937    21920446.340    91137943.261 6      -235.181          41.125    21920445.140    91137940.258 6      -235.181          41.625
R18  22569896.020   120479650.261 7      4769.702          43.500    22569897.680   120479650.284 7      4769.702          42.437    22569906.240    93706441.477 7      3709.768          46.250    22569906.000    93706438.477 7      3709.768          46.812
R24  21922957.640   117231909.765 7      1369.055          46.000    21922958.140   117231909.769 7      1369.055          44.812    21922969.540    91180415.738 8      1064.821          48.125    21922969.120    91180415.736 8      1064.821          48.000
R14  23996902.520   127916969.836 7      -972.352          43.562    23996901.500   127916969.833 7      -972.352          42.625    23996925.660    99491097.006 7      -756.274          44.062    23996926.180    99491097.011 7      -756.274          44.812
R17  20588685.700   110174224.281 7      3500.533          47.250    20588685.680   110174224.294 7      3500.533          47.312    20588694.540    85691091.948 8      2722.637          50.187    20588694.020    85691093.946 8      2722.637          50.375
G22  23829113.600   125222844.418 5      4527.873          35.937    23829111.700   125222844.433 4      4527.873          28.187    23829117.360    97576255.263 4      3528.213          28.250
G04  23718235.960   124640232.682 6      5702.805          40.000    23718234.880   124640232.695 4      5702.805          29.750    23718250.220    97122331.842 4      4443.744          29.437    23718250.340    97122346.869 8      4443.744          48.250
G27  24811486.760   130385235.295 6      -457.026          41.125    24811485.880   130385235.300 6      -457.026          37.437    24811504.620   101598943.515 6      -356.124          37.125    24811505.300   101598950.501 7      -356.124          42.625
R15  22133948.260   118277095.955 7        59.214          43.937    22133948.820   118277095.961 7        59.214          43.625    22133962.020    91993331.084 8        46.055          48.250    22133961.760    91993337.084 8        46.055          48.812
G17  23798275.000   125060798.746 6      5524.906          41.625    23798274.620   125060798.756 5      5524.906          32.062    23798278.140    97449979.480 5      4305.122          32.187    23798279.180    97449982.471 7      4305.122          45.187
G32  25504467.040   134026877.833 6       776.013          36.937    25504465.720   134026877.840 4       776.013          26.687    25504474.500   104436558.027 4       604.686          26.750    25504475.980   104436564.011 6       604.686          36.000
> 2024 05 03 16 00 28.0000000  0 19
G03  20084552.980   105545035.014 8      3490.798          48.937    20084552.360   105545035.017 7      3490.798          46.750    20084557.140    82242886.972 7      2720.102          47.062    20084557.820    82242886.972 8      2720.102          53.000
G02  21668870.480   113870683.614 7      2155.826          47.125    21668868.500   113870683.622 6      2155.826          39.500    21668869.740    88730402.704 6      1679.864          39.562
R16  22792037.920   121750975.572 7      2927.650          46.562    22792039.060   121750975.578 7      2927.650          45.625    22792050.540    94695232.083 7      2277.061          47.562    22792049.300    94695242.082 8      2277.061          48.375
R03  21516824.440   115181301.540 7      6635.276          46.625    21516824.800   115181301.569 7      6635.276          45.437    21516837.940    89585480.706 7      5160.770          47.375    21516838.480    89585480.710 7      5160.770          47.687
R02  19822384.940   105776086.976 8      3411.126          51.312    19822384.720   105776086.977 8      3411.126          50.250    19822391.500    82270293.546 8      2653.098          50.250    19822391.580    82270287.548 8      2653.098          51.062
G21  22092855.700   116098715.920 7      1374.049          47.000    22092853.700   116098715.922 6      1374.049          38.000    22092856.580    90466544.815 6      1070.687          38.000
G08  21787644.880   114494825.110 7       486.094          46.812    21787643.720   114494825.117 7       486.094          47.250    21787651.360    89216785.619 7       378.774          46.625    21787652.480    89216761.617 8       378.774          49.125
G14  22128678.580   116287005.761 7      3356.252          46.000    22128677.340   116287005.769 5      3356.252          35.000    22128680.960    90613252.006 5      2615.261          35.312    22128681.840    90613261.003 8      2615.261          48.750
R01  21920493.380   117177596.823 7      -303.213          42.125    21920493.480   117177596.821 6      -303.213          41.937    21920502.840    91138178.829 6      -235.832          41.125    21920501.860    91138175.823 6      -235.832          41.625
R18  22569002.800   120474880.703 7      4769.618          42.312    22569003.320   120474880.707 7      4769.618          42.062    22569012.900    93702731.819 7      3709.703          46.687    22569012.620    93702728.818 7      3709.703          46.812
R24  21922701.960   117230540.975 7      1368.695          45.250    21922702.100   117230540.982 7      1368.695          44.812    21922713.480    91179351.118 8      1064.541          48.000    21922713.320    91179351.118 8      1064.541          48.000
R14  23997085.300   127917942.202 7      -972.338          43.562    23997084.000   127917942.187 7      -972.338          42.500    23997108.020    99491853.295 7      -756.263          44.312    23997108.560    99491853.298 7      -756.263          44.625
R17  20588031.820   110170724.023 7      3500.107          46.750    20588031.740   110170724.040 7      3500.107          46.937    20588040.460    85688369.531 8      2722.306          50.000    20588040.240    85688371.529 8      2722.306          50.687
G22  23828252.000   125218316.981 6      4527.163          36.625    23828250.160   125218316.991 4      4527.163          28.187    23828255.380    97572727.389 4      3527.659          28.250
G04  23717150.660   124634530.007 6      5702.611          39.875    23717149.720   124634530.020 4      5702.611          29.750    23717165.000    97117888.216 4      4443.593          29.437    23717165.180    97117903.234 8      4443.593          48.437
G27  24811573.880   130385692.436 6      -457.316          41.062    24811572.780   130385692.446 6      -457.316          37.812    24811591.720   101599299.716 6      -356.350          37.812    24811591.740   101599306.708 7      -356.350          42.812
R15  22133937.400   118277037.209 7        58.497          44.687    22133938.520   118277037.205 7        58.497          43.250    22133950.920    91993285.372 8        45.498          48.437    22133950.860    91993291.374 8        45.498          48.375
G17  23797223.800   125055274.112 6      5524.508          41.562    23797223.060   125055274.124 5      5524.508          32.062    23797227.060    97445674.578 5      4304.811          31.625    23797228.160    97445677.584 7      4304.811          45.375
G32  25504319.760   134026102.124 6       775.273          36.625    25504318.020   134026102.129 4       775.273          26.687    25504326.800   104435953.578 4       604.109          26.750    25504328.300   104435959.569 6       604.109          36.000
> 2024 05 03 16 00 29.0000000  0 19
G03  20083888.800   105541544.614 8      3489.954          49.312    20083888.220   105541544.622 7      3489.954          47.437    20083892.980    82240167.266 7      2719.444          47.812    20083893.780    82240167.266 8      2719.444          52.750
G02  21668460.220   113868527.951 7      2155.583          46.625    21668458.300   113868527.959 6      2155.583          39.250    21668459.600    88728722.964 6      1679.675          39.062
R16  22791490.140   121748048.390 7      2926.557          46.875    22791491.460   121748048.402 7      2926.557          45.750    22791502.740    94692955.388 7      2276.211          47.375    22791501.540    94692965.385 8      2276.211          48.125
R03  21515585.060   115174666.579 7      6634.660          46.875    21515585.440   115174666.602 7      6634.660          45.000    21515598.300    89580320.187 7      5160.291          47.812    21515598.720    89580320.191 8      5160.291          48.125
R02  19821745.600   105772676.357 8      3410.125          51.312    19821745.580   105772676.363 8      3410.125          49.937    19821752.360    82267640.849 8      2652.319          50.687    19821752.820    82267634.853 8      2652.319          50.687
G21  22092594.420   116097342.009 7      1373.933          46.437    22092592.480   116097342.011 6      1373.933          37.687    22092595.160    90465474.233 6      1070.597          38.187
G08  21787552.420   114494339.339 7       485.514          46.812    21787551.420   114494339.347 7       485.514          46.812    21787558.940    89216407.092 7       378.323          46.625    21787559.960    89216383.091 8       378.323          49.062
G14  22128039.960   116283650.048 7      3355.217          45.187    22128038.780   116283650.055 5      3355.217          35.437    22128042.380    90610637.167 5      2614.455          34.875    22128043.240    90610646.165 8      2614.455          49.000
R01  21920550.160   117177900.534 7      -304.001          42.937    21920550.200   117177900.527 6      -304.001          41.625    21920560.040    91138415.045 6      -236.445          41.000    21920558.560    91138412.039 6      -236.445          41.812
R18  22568109.580   120470111.206 7      4769.547          42.312    22568110.140   120470111.194 7      4769.547          42.062    22568119.240    93699022.208 7      3709.647          45.937    22568119.060    93699019.209 7      3709.647          46.687
R24  21922446.100   117229172.579 7      1368.293          45.687    21922446.240   117229172.583 7      1368.293          45.062    21922457.560    91178286.812 7      1064.228          47.500    21922457.280    91178286.806 8      1064.228          48.312
R14  23997267.620   127918914.444 7      -972.357          43.375    23997266.440   127918914.433 7      -972.357          42.500    23997290.660    99492609.497 7      -756.278          44.312    23997290.840    99492609.503 7      -756.278          44.500
R17  20587377.520   110167224.050 7      3499.882          46.875    20587377.440   110167224.068 7      3499.882          47.187    20587386.340    85685647.330 8      2722.131          50.062    20587386.180    85685649.330 8      2722.131          50.562
G22  23827391.020   125213790.118 6      4526.621          41.250    23827388.960   125213790.125 4      4526.621          28.187    23827393.660    97569199.960 4      3527.237          27.937
G04  23716065.800   124628827.395 6      5702.481          39.500    23716064.520   124628827.405 4      5702.481          29.750    23716080.040    97113444.636 4      4443.492          29.437    23716079.960    97113459.658 8      4443.492          48.625
G27  24811660.900   130386149.918 6      -457.707          40.187    24811660.020   130386149.926 6      -457.707          37.562    24811678.800   101599656.176 6      -356.655          37.375    24811679.040   101599663.155 7      -356.655          42.437
R15  22133926.820   118276978.984 7        57.735          43.812    22133927.080   118276978.974 7        57.735          43.250    22133940.280    91993240.073 8        44.905          48.812    22133939.860    91993246.073 8        44.905          48.812
G17  23796172.960   125049749.608 6      5524.413          40.875    23796171.460   125049749.621 5      5524.413          31.875    23796176.080    97441369.774 5      4304.737          31.625    23796176.600    97441372.778 7      4304.737          45.750
G32  25504172.120   134025327.046 6       774.840          36.625    25504170.460   134025327.050 4       774.840          26.687    25504179.320   104435349.623 4       603.771          26.750    25504180.300   104435355.610 6       603.771          36.000
> 2024 05 03 16 00 30.0000000  0 19
G03  20083224.740   105538054.966 8      3489.376          48.812    20083224.100   105538054.971 7      3489.376          47.062    20083228.920    82237448.051 7      2718.994          47.625    20083229.600    82237448.051 8      2718.994          53.000
G02  21668050.020   113866372.475 7      2155.444          46.812    21668048.100   113866372.480 6      2155.444          39.687    21668049.560    88727043.370 6      1679.567          39.562
R16  22790942.060   121745122.130 7      2925.838          46.312    22790943.380   121745122.145 7      2925.838          45.000    22790954.980    94690679.410 7      2275.652          47.812    22790953.560    94690689.415 8      2275.652          48.875
R03  21514345.820   115168032.140 7      6634.213          46.375    21514346.160   115168032.171 7      6634.213          44.875    21514358.920    89575160.084 7      5159.943          47.312    21514359.120    89575160.091 8      5159.943          48.062
R02  19821106.640   105769266.798 8      3409.066          51.625    19821106.620   105769266.798 8      3409.066          50.625    19821113.300    82264988.969 8      2651.496          50.562    19821114.000    82264982.973 8      2651.496          50.875
G21  22092333.260   116095968.274 7      1373.699          46.875    22092331.000   116095968.282 6      1373.699          37.875    22092333.820    90464403.795 6      1070.415          38.125
G08  21787460.060   114493854.116 7       484.998          46.625    21787459.080   114493854.120 7       484.998          46.687    21787466.600    89216028.994 7       377.921          46.687    21787467.700    89216004.990 8       377.921          48.875
G14  22127401.460   116280295.086 7      3354.660          44.437    22127400.400   116280295.096 5      3354.660          35.125    22127404.160    90608022.911 5      2614.021          34.875    22127405.060    90608031.905 8      2614.021          48.937
R01  21920606.840   117178204.973 7      -304.754          42.562    21920606.700   117178204.987 6      -304.754          41.625    21920617.360    91138651.851 6      -237.031          41.250    21920616.040    91138648.845 6      -237.031          41.500
R18  22567215.860   120465341.781 7      4769.515          42.000    22567217.120   120465341.774 7      4769.515          42.000    22567225.660    93695312.668 7      3709.623          46.625    22567225.600    93695309.669 7      3709.623          46.375
R24  21922190.020   117227804.506 7      1367.957          44.812    21922190.220   117227804.516 7      1367.957          45.437    21922201.740    91177222.757 7      1063.967          47.750    21922201.400    91177222.756 8      1063.967          48.375
R14  23997450.100   127919886.653 7      -972.152          43.250    23997448.940   127919886.651 7      -972.152          42.125    23997472.500    99493365.681 7      -756.118          44.500    23997473.440    99493365.688 7      -756.118          44.812
R17  20586723.380   110163724.343 7      3499.662          47.750    20586723.480   110163724.358 7      3499.662          46.812    20586732.380    85682925.337 8      2721.959          50.000    20586732.180    85682927.338 8      2721.959          51.125
G22  23826530.020   125209263.879 6      4525.938          41.875    23826528.020   125209263.876 4      4525.938          28.000    23826532.120    97565673.017 4      3526.705          27.937
G04  23714980.400   124623124.946 6      5702.546          39.125    23714979.240   124623124.958 4      5702.546          29.750    23714994.840    97109001.186 4      4443.542          29.625    23714994.900    97109016.216 8      4443.542          48.562
G27  24811747.560   130386607.713 6      -457.997          41.187    24811747.180   130386607.721 6      -457.997          37.875    24811765.780   101600012.879 6      -356.881          37.812    24811766.160   101600019.873 7      -356.881          42.437
R15  22133915.680   118276921.355 7        57.358          43.687    22133916.180   118276921.351 7        57.358          43.250    22133929.560    91993195.242 8        44.612          48.375    22133929.240    91993201.242 8        44.612          48.937
G17  23795121.300   125044225.263 6      5524.405          40.875    23795119.980   125044225.270 5      5524.405          31.875    23795125.000    97437065.094 5      4304.731          31.625    23795125.160    97437068.093 7      4304.731          45.625
G32  25504024.340   134024552.582 6       774.140          36.875    25504022.920   134024552.587 4       774.140          26.687    25504032.000   104434746.143 4       603.226          26.750    25504032.460   104434752.138 6       603.226          36.000
> 2024 05 03 16 00 31.0000000  0 19
G03  20082560.880   105534565.938 8      3488.687          49.187    20082560.120   105534565.940 7      3488.687          47.375    20082565.020    82234729.655 8      2718.457          48.250    20082565.540    82234729.655 8      2718.457          53.500
G02  21667639.860   113864217.036 7      2155.338          47.125    21667637.940   113864217.043 6      2155.338          40.312    21667639.400    88725363.809 6      1679.484          39.750
R16  22790394.180   121742196.623 7      2925.081          45.250    22790395.080   121742196.643 7      2925.081          45.312    22790407.660    94688404.020 7      2275.063          47.812    22790406.200    94688414.023 8      2275.063          48.375
R03  21513106.580   115161398.062 7      6633.920          45.562    21513106.560   115161398.090 7      6633.920          45.187    21513119.540    89570000.252 7      5159.716          47.125    21513119.780    89570000.252 7      5159.716          47.375
R02  19820467.740   105765858.086 8      3408.334          51.500    19820467.840   105765858.084 8      3408.334          49.750    19820474.380    82262337.750 8      2650.926          50.437    19820475.300    82262331.755 8      2650.926          50.375
G21  22092071.660   116094594.529 7      1373.775          47.250    22092069.620   116094594.534 6      1373.775          38.312    22092072.360    90463333.344 6      1070.474          37.812
G08  21787367.680   114493369.257 7       484.695          46.750    21787366.860   114493369.262 7       484.695          47.125    21787374.380    89215651.176 7       377.684          47.125    21787375.440    89215627.174 8       377.684          49.312
G14  22126763.040   116276940.752 7      3354.004          45.000    22126762.100   116276940.760 5      3354.004          35.125    22126765.760    90605409.144 5      2613.509          35.187    22126766.820    90605418.137 8      2613.509          48.750
R01  21920664.140   117178510.045 7      -305.370          42.562    21920663.760   117178510.051 7      -305.370          42.062    21920674.220    91138889.118 6      -237.510          41.250    21920672.940    91138886.117 6      -237.510          41.812
R18  22566322.440   120460572.282 7      4769.556          42.000    22566324.060   120460572.269 7      4769.556          42.500    22566331.920    93691603.051 7      3709.655          46.000    22566332.180    93691600.052 7      3709.655          46.937
R24  21921933.820   117226436.640 7      1367.799          45.937    21921934.480   117226436.652 7      1367.799          45.250    21921945.620    91176158.859 8      1063.843          48.312    21921945.560    91176158.857 7      1063.843          47.750
R14  23997632.440   127920858.657 7      -971.869          43.250    23997631.020   127920858.658 7      -971.869          42.750    23997655.080    99494121.696 7      -755.898          44.375    23997655.360    99494121.702 7      -755.898          44.875
R17  20586069.420   110160224.732 7      3499.526          47.937    20586069.700   110160224.744 7      3499.526          47.187    20586078.420    85680203.413 8      2721.854          50.000    20586078.240    85680205.414 8      2721.854          50.625
G22  23825668.760   125204738.048 7      4525.598          44.875    23825667.320   125204738.043 4      4525.598          28.000    23825670.620    97562146.394 4      3526.440          27.937
G04  23713895.180   124617422.554 6      5702.289          39.312    23713894.020   124617422.564 4      5702.289          29.750    23713909.560    97104557.774 4      4443.342          29.625    23713909.820    97104572.800 8      4443.342          48.687
G27  24811834.660   130387065.666 6      -457.924          41.000    24811834.340   130387065.674 6      -457.924          37.375    24811852.960   101600369.712 6      -356.824          37.437    24811853.440   101600376.701 7      -356.824          42.625
R15  22133905.420   118276864.188 7        56.899          43.562    22133904.960   118276864.178 7        56.899          42.875    22133919.100    91993150.767 8        44.255          48.937    22133918.680    91993156.769 8        44.255          49.187
G17  23794069.680   125038700.902 6      5524.263          40.437    23794068.640   125038700.901 5      5524.263          31.875    23794073.920    97432760.395 5      4304.620          30.750    23794074.040    97432763.400 7      4304.620          45.437
G32  25503876.640   134023778.489 6       774.001          36.875    25503875.620   134023778.497 4       774.001          26.687    25503884.620   104434142.958 4       603.118          26.750    25503885.300   104434148.955 6       603.118          36.000
> 2024 05 03 16 00 32.0000000  0 19
G03  20081897.000   105531077.320 8      3488.497          48.687    20081896.260   105531077.322 6      3488.497          40.937    20081901.240    82232011.178 6      2718.310          38.625    20081901.820    82232011.178 8      2718.310          48.625
G02  21667229.540   113862061.462 7      2155.857          46.437    21667227.740   113862061.467 6      2155.857          39.750    21667229.240    88723684.141 6      1679.888          39.437
R16  22789846.860   121739271.744 7      2924.706          45.437    22789847.080   121739271.772 7      2924.706          45.000    22789860.140    94686129.123 8      2274.771          48.312    22789858.760    94686139.126 8      2274.771          48.375
R03  21511867.140   115154764.107 7      6633.984          45.875    21511867.560   115154764.149 7      6633.984          44.562    21511880.300    89564840.526 7      5159.765          47.437    21511880.600    89564840.528 7      5159.765          47.875
R02  19819829.080   105762450.077 8      3407.764          50.937    19819829.160   105762450.080 8      3407.764          50.312    19819835.880    82259687.078 8      2650.483          50.437    19819836.620    82259681.083 8      2650.483          50.187
G21  22091810.040   116093220.629 7      1374.109          46.750    22091808.020   116093220.634 6      1374.109          37.437    22091810.820    90462262.770 6      1070.735          37.687
G08  21787275.520   114492884.593 7       484.594          47.125    21787274.680   114492884.598 7       484.594          47.125    21787282.140    89215273.512 7       377.606          46.937    21787283.180    89215249.510 8       377.606          49.500
G14  22126124.980   116273586.870 7      3353.847          44.750    22126123.780   116273586.875 5      3353.847          35.250    22126127.440    90602795.726 5      2613.387          35.000    22126128.600    90602804.720 8      2613.387          48.625
R01  21920721.340   117178815.552 7      -305.612          42.812    21920721.000   117178815.567 6      -305.612          41.562    21920731.300    91139126.748 6      -237.698          41.312    21920730.420    91139123.738 6      -237.698          41.812
R18  22565428.800   120455802.582 7      4769.918          42.937    22565431.400   120455802.572 7      4769.918          42.500    22565438.380    93687893.282 7      3709.936          46.125    22565438.540    93687890.283 7      3709.936          46.500
R24  21921678.000   117225068.778 7      1367.985          46.250    21921678.760   117225068.785 7      1367.985          44.750    21921690.000    91175094.960 7      1063.988          47.625    21921689.640    91175094.958 8      1063.988          48.250
R14  23997814.040   127921830.248 7      -971.301          43.437    23997813.860   127921830.243 7      -971.301          42.750    23997837.560    99494877.387 7      -755.457          44.062    23997837.740    99494877.386 7      -755.457          44.562
R17  20585415.460   110156725.019 7      3499.912          46.875    20585415.460   110156725.031 7      3499.912          46.625    20585424.360    85677481.417 8      2722.154          50.625    20585424.260    85677483.417 8      2722.154          50.250
G22  23824807.700   125200212.535 7      4525.540          44.437    23824806.500   125200212.522 4      4525.540          28.000    23824809.280    97558620.012 4      3526.395          27.937
G04  23712810.280   124611719.855 6      5702.839          39.750    23712808.880   124611719.863 5      5702.839          30.000    23712824.240    97100114.129 4      4443.770          29.625    23712824.860    97100129.143 8      4443.770          48.500
G27  24811922.300   130387523.600 6      -457.858          38.937    24811921.620   130387523.605 6      -457.858          37.875    24811940.040   101600726.524 6      -356.773          37.687    24811940.720   101600733.508 7      -356.773          42.562
R15  22133894.780   118276807.256 7        56.950          43.562    22133893.620   118276807.236 7        56.950          42.875    22133908.420    91993106.463 8        44.294          49.312    22133908.120    91993112.464 8        44.294          49.562
G17  23793018.360   125033176.356 6      5524.811          41.812    23793017.580   125033176.351 5      5524.811          31.187    23793022.300    97428455.556 5      4305.047          30.750    23793022.360    97428458.562 7      4305.047          45.562
G32  25503729.180   134023004.717 6       773.904          37.312    25503728.340   134023004.724 4       773.904          26.812    25503737.380   104433540.022 4       603.042          26.750    25503738.040   104433546.032 6       603.042          36.000
> 2024 05 03 16 00 33.0000000  0 19
G03  20081233.300   105527589.355 8      3487.929          48.375    20081232.600   105527589.358 8      3487.929          50.187    20081237.480    82229293.437 8      2717.867          50.562    20081238.240    82229293.437 8      2717.867          51.125
G02  21666819.420   113859905.980 7      2155.630          46.937    21666817.580   113859905.988 6      2155.630          39.375    21666819.040    88722004.545 6      1679.712          38.937
R16  22789299.640   121736347.573 7      2923.993          44.312    22789299.040   121736347.598 7      2923.993          44.562    22789313.020    94683854.769 7      2274.217          47.437    22789311.480    94683864.768 8      2274.217          48.875
R03  21510627.920   115148130.682 7      6633.470          44.625    21510628.400   115148130.713 7      6633.470          44.937    21510641.100    89559681.196 7      5159.365          47.062    21510641.440    89559681.198 7      5159.365          47.375
R02  19819190.940   105759043.044 8      3406.773          51.125    19819190.660   105759043.047 8      3406.773          50.000    19819197.260    82257037.167 8      2649.712          50.375    19819197.940    82257031.175 8      2649.712          50.562
G21  22091548.500   116091846.771 7      1374.030          47.500    22091546.660   116091846.779 6      1374.030          37.687    22091549.460    90461192.232 6      1070.673          37.687
G08  21787183.620   114492400.439 7       484.002          47.250    21787182.600   114492400.446 7       484.002          46.687    21787189.960    89214896.249 7       377.145          46.750    21787191.020    89214872.249 8       377.145          49.125
G14  22125486.820   116270233.609 7      3353.132          44.375    22125485.780   116270233.613 5      3353.132          34.812    22125489.320    90600182.796 5      2612.830          35.000    22125490.240    90600191.799 8      2612.830          48.937
R01  21920778.700   117179121.722 7      -306.324          43.000    21920778.500   117179121.724 6      -306.324          41.562    21920789.160    91139364.866 6      -238.252          41.625    21920787.380    91139361.860 6      -238.252          41.625
R18  22564535.460   120451032.735 7      4770.038          43.625    22564538.120   120451032.728 7      4770.038          43.000    22564544.740    93684183.397 7      3710.029          46.250    22564544.840    93684180.394 7      3710.029          46.500
R24  21921422.420   117223701.130 7      1367.802          45.812    21921423.120   117223701.137 7      1367.802          45.062    21921434.160    91174031.232 7      1063.846          47.625    21921433.960    91174031.230 8      1063.846          48.500
R14  23997996.760   127922801.780 7      -971.168          43.875    23997995.520   127922801.768 7      -971.168          42.812    23998019.760    99495633.029 7      -755.353          44.187    23998020.200    99495633.028 7      -755.353          45.000
R17  20584761.340   110153225.381 7      3499.706          47.625    20584761.700   110153225.396 7      3499.706          46.937    20584770.640    85674759.476 8      2721.993          50.125    20584770.260    85674761.478 8      2721.993          50.562
G22  23823946.700   125195687.445 7      4524.936          45.125    23823945.720   125195687.432 4      4524.936          28.000    23823948.160    97555093.970 4      3525.924          27.937
G04  23711725.060   124606017.335 6      5702.808          39.312    23711723.780   124606017.340 5      5702.808          30.000    23711739.160    97095670.615 4      4443.746          29.687    23711739.540    97095685.643 8      4443.746          48.687
G27  24812009.500   130387981.839 6      -457.998          39.937    24812008.860   130387981.850 6      -457.998          37.625    24812027.040   101601083.577 6      -356.882          37.437    24812028.540   101601090.571 7      -356.882          42.625
R15  22133884.320   118276750.797 7        56.401          43.187    22133882.940   118276750.783 6        56.401          41.625    22133897.720    91993062.549 8        43.868          49.312    22133897.400    91993068.549 8        43.868          49.437
G17  23791967.060   125027651.772 6      5524.727          41.250    23791966.600   125027651.769 5      5524.727          31.187    23791970.880    97424150.689 5      4304.982          30.750    23791971.160    97424153.711 7      4304.982          45.250
G32  25503582.020   134022231.438 6       773.119          37.312    25503581.080   134022231.446 4       773.119          26.812    25503590.240   104432937.465 4       602.431          26.750    25503591.140   104432943.463 6       602.431          36.000
> 2024 05 03 16 00 34.0000000  0 19
G03  20080569.780   105524101.967 8      3487.036          49.062    20080569.000   105524101.969 8      3487.036          50.250    20080573.920    82226576.434 8      2717.171          50.875    20080574.620    82226576.434 8      2717.171          51.437
G02  21666409.280   113857750.544 7      2155.366          47.125    21666407.340   113857750.546 6      2155.366          39.562    21666408.760    88720324.982 6      1679.506          39.062
R16  22788751.760   121733424.243 7      2922.919          45.062    22788751.400   121733424.266 7      2922.919          44.625    22788765.880    94681581.070 8      2273.381          48.062    22788764.060    94681591.073 8      2273.381          49.125
R03  21509388.420   115141497.394 7      6633.018          45.312    21509389.360   115141497.420 7      6633.018          45.125    21509401.780    89554521.973 7      5159.014          46.750    21509402.160    89554521.976 7      5159.014          47.562
R02  19818552.700   105755636.806 8      3405.722          50.687    19818552.280   105755636.807 8      3405.722          50.062    19818558.900    82254387.869 8      2648.895          50.500    19818559.580    82254381.873 8      2648.895          50.500
G21  22091287.000   116090472.892 7      1373.811          47.437    22091285.320   116090472.902 6      1373.811          38.187    22091288.020    90460121.674 6      1070.502          38.000
G08  21787091.180   114491916.492 7       483.685          46.500    21787090.560   114491916.494 7       483.685          47.312    21787097.880    89214519.137 7       376.898          47.187    21787098.960    89214495.131 8       376.898          49.250
G14  22124848.920   116266880.998 7      3352.212          45.500    22124847.900   116266881.003 5      3352.212          34.750    22124851.400    90597570.371 5      2612.113          34.375    22124852.040    90597579.365 8      2612.113          48.125
R01  21920836.140   117179428.491 7      -307.153          43.000    21920835.620   117179428.487 6      -307.153          41.875    21920846.280    91139603.464 6      -238.897          41.812    21920845.200    91139600.452 6      -238.897          41.812
R18  22563642.100   120446262.843 7      4769.904          44.375    22563644.840   120446262.839 7      4769.904          43.437    22563651.740    93680473.483 7      3709.925          46.125    22563651.220    93680470.480 7      3709.925          46.375
R24  21921166.160   117222333.595 7      1367.369          46.062    21921167.280   117222333.605 7      1367.369          45.375    21921178.500    91172967.591 7      1063.509          47.562    21921178.140    91172967.588 7      1063.509          47.812
R14  23998178.900   127923772.988 7      -971.217          43.437    23998178.060   127923772.977 7      -971.217          42.500    23998201.640    99496388.423 7      -755.391          44.500    23998202.340    99496388.430 7      -755.391          45.187
R17  20584107.440   110149725.885 8      3499.389          48.125    20584107.700   110149725.894 7      3499.389          47.187    20584116.520    85672037.644 8      2721.747          50.812    20584116.320    85672039.646 8      2721.747          51.000
G22  23823085.640   125191162.820 7      4524.410          45.375    23823084.840   125191162.815 4      4524.410          28.000    23823087.300    97551568.292 4      3525.514          27.875
G04  23710639.800   124600314.621 6      5702.688          40.062    23710638.620   124600314.628 5      5702.688          30.000    23710653.880    97091226.958 4      4443.653          29.687    23710654.280    97091241.990 8      4443.653          48.687
G27  24812096.560   130388440.118 6      -458.488          40.937    24812095.980   130388440.123 6      -458.488          37.500    24812114.440   101601440.655 6      -357.263          37.687    24812115.660   101601447.645 7      -357.263          42.625
R15  22133874.000   118276694.742 7        55.725          42.750    22133872.080   118276694.735 6        55.725          41.937    22133887.320    91993018.936 8        43.342          49.312    22133887.000    91993024.934 8        43.342          49.625
G17  23790915.460   125022127.250 6      5524.505          41.250    23790915.600   125022127.245 5      5524.505          31.187    23790919.540    97419845.867 5      4304.809          31.187    23790919.480    97419848.875 7      4304.809          45.125
G32  25503435.300   134021458.533 6       772.841          37.062    25503434.120   134021458.538 4       772.841          26.812    25503442.960   104432335.200 4       602.214          26.750    25503443.740   104432341.186 6       602.214          36.000
> 2024 05 03 16 00 35.0000000  0 19
G03  20079906.120   105520615.193 8      3486.702          49.312    20079905.440   105520615.200 8      3486.702          50.437    20079910.480    82223858.857 8      2716.911          50.625    20079911.100    82223858.857 8      2716.911          51.312
G02  21665999.260   113855595.133 7      2155.637          47.562    21665997.200   113855595.135 6      2155.637          39.937    21665998.640    88718645.441 6      1679.717          40.000
R16  22788204.500   121730501.656 7      2922.380          45.000    22788204.360   121730501.681 7      2922.380          45.187    22788218.980    94679307.955 8      2272.962          48.250    22788217.340    94679317.956 8      2272.962          49.250
R03  21508149.420   115134864.547 7      6632.831          45.875    21508149.960   115134864.575 7      6632.831          45.187    21508162.680    89549363.103 7      5158.869          47.062    21508163.100    89549363.107 7      5158.869          47.312
R02  19817914.340   105752231.531 8      3405.057          51.437    19817914.160   105752231.530 8      3405.057          50.000    19817920.900    82251739.324 8      2648.377          50.375    19817921.540    82251733.328 8      2648.377          50.375
G21  22091025.500   116089099.034 7      1374.107          46.187    22091023.880   116089099.039 6      1374.107          37.812    22091026.560    90459051.134 6      1070.733          38.125
G08  21786999.360   114491433.024 7       483.589          46.750    21786998.480   114491433.031 7       483.589          47.312    21787005.960    89214142.408 7       376.822          47.437    21787006.940    89214118.407 8       376.822          49.375
G14  22124211.120   116263528.969 7      3351.846          45.562    22124210.080   116263528.971 5      3351.846          34.750    22124213.660    90594958.398 5      2611.828          34.687    22124214.260    90594967.392 8      2611.828          48.750
R01  21920893.160   117179735.843 7      -307.289          43.312    21920892.960   117179735.852 6      -307.289          41.875    21920903.780    91139842.517 6      -239.002          41.812    21920902.720    91139839.510 6      -239.002          41.937
R18  22562748.480   120441492.807 7      4770.283          43.062    22562750.940   120441492.808 7      4770.283          43.312    22562758.240    93676763.453 7      3710.220          46.812    22562757.820    93676760.448 7      3710.220          46.937
R24  21920910.600   117220966.311 7      1367.463          46.375    21920911.360   117220966.313 7      1367.463          44.812    21920922.760    91171904.140 7      1063.582          47.437    21920922.520    91171904.136 8      1063.582          48.125
R14  23998360.980   127924744.112 7      -970.841          43.437    23998359.840   127924744.107 7      -970.841          42.500    23998384.020    99497143.754 7      -755.098          44.687    23998384.360    99497143.760 7      -755.098          45.125
R17  20583453.440   110146226.472 8      3499.513          48.125    20583453.700   110146226.492 7      3499.513          46.812    20583462.680    85669315.882 8      2721.844          50.125    20583462.200    85669317.884 8      2721.844          50.437
G22  23822224.620   125186638.626 7      4524.101          42.562    23822223.860   125186638.626 4      4524.101          27.750    23822226.660    97548042.950 4      3525.273          27.875
G04  23709554.440   124594612.040 6      5702.772          39.437    23709553.540   124594612.048 5      5702.772          30.000    23709568.760    97086783.405 4      4443.719          29.687    23709569.320    97086798.427 8      4443.719          48.437
G27  24812184.360   130388898.633 6      -458.300          41.187    24812183.340   130388898.635 6      -458.300          37.750    24812201.700   101601797.921 6      -357.117          37.375    24812202.740   101601804.921 7      -357.117          42.562
R15  22133863.760   118276639.098 7        55.599          42.750    22133861.480   118276639.094 6        55.599          41.937    22133876.900    91992975.645 8        43.244          48.937    22133876.660    91992981.647 8        43.244          49.375
G17  23789864.500   125016602.655 6      5524.827          40.875    23789864.320   125016602.655 5      5524.827          31.375    23789867.840    97415540.988 5      4305.060          31.187    23789868.080    97415544.002 7      4305.060          44.625
G32  25503288.280   134020686.116 6       772.505          37.687    25503287.240   134020686.118 4       772.505          26.812    25503296.140   104431733.316 4       601.952          26.750    25503297.640   104431739.322 6       601.952          36.000
> 2024 05 03 16 00 36.0000000  0 19
G03  20079242.720   105517129.005 8      3485.743          49.312    20079242.020   105517129.010 8      3485.743          49.500    20079246.980    82221142.345 8      2716.163          49.937    20079247.780    82221142.345 8      2716.163          51.000
G02  21665589.060   113853439.772 7      2155.207          47.062    21665586.960   113853439.780 6      2155.207          39.062    21665588.420    88716965.944 6      1679.382          38.875
R16  22787657.380   121727579.899 7      2921.183          44.812    22787657.240   121727579.916 7      2921.183          44.750    22787672.380    94677035.479 8      2272.031          48.187    22787670.620    94677045.483 8      2272.031          48.562
R03  21506910.800   115128231.976 7      6632.377          45.937    21506910.740   115128232.004 7      6632.377          44.687    21506923.480    89544204.445 7      5158.516          46.062    21506923.980    89544204.445 7      5158.516          46.250
R02  19817276.380   105748827.108 8      3403.857          50.875    19817276.020   105748827.109 8      3403.857          50.187    19817282.840    82249091.445 8      2647.444          49.187    19817283.360    82249085.447 8      2647.444          49.562
G21  22090764.040   116087725.160 7      1373.777          46.687    22090762.500   116087725.165 6      1373.777          37.875    22090765.120    90457980.580 6      1070.476          37.875
G08  21786907.640   114490949.907 7       482.831          47.187    21786906.640   114490949.917 7       482.831          46.375    21786913.920    89213765.954 7       376.232          46.562    21786914.800    89213741.954 8       376.232          48.312
G14  22123573.580   116260177.557 7      3350.956          44.875    22123572.200   116260177.564 5      3350.956          34.875    22123575.820    90592346.910 5      2611.134          34.687    22123576.800    90592355.906 8      2611.134          48.312
R01  21920950.900   117180043.850 7      -308.484          43.312    21920950.400   117180043.848 6      -308.484          41.687    21920961.480    91140082.066 6      -239.932          41.375    21920960.540    91140079.064 7      -239.932          42.125
R18  22561854.760   120436722.726 7      4769.981          44.375    22561857.200   120436722.727 7      4769.981          43.687    22561865.140    93673053.390 7      3709.985          46.500    22561864.360    93673050.391 7      3709.985          46.500
R24  21920655.060   117219599.166 7      1366.837          45.625    21920655.680   117219599.168 7      1366.837          44.750    21920666.960    91170840.805 7      1063.095          47.062    21920667.020    91170840.801 7      1063.095          46.937
R14  23998543.320   127925715.024 7      -970.884          43.562    23998542.120   127925715.016 7      -970.884          42.312    23998566.000    99497898.916 7      -755.132          44.125    23998566.380    99497898.925 7      -755.132          44.437
R17  20582799.280   110142727.165 8      3499.053          48.312    20582799.980   110142727.172 7      3499.053          46.625    20582808.660    85666594.193 8      2721.486          49.562    20582808.640    85666596.193 8      2721.486          49.812
G22  23821363.600   125182114.884 7      4523.441          42.375    23821362.740   125182114.894 4      4523.441          27.750    23821366.100    97544517.969 4      3524.759          27.875
G04  23708469.640   124588909.339 6      5702.592          39.500    23708468.420   124588909.346 4      5702.592          29.812    23708483.540    97082339.758 4      4443.578          29.687    23708484.160    97082354.780 8      4443.578          48.375
G27  24812271.380   130389357.250 6      -458.672          40.937    24812270.620   130389357.258 6      -458.672          37.687    24812288.880   101602155.266 6      -357.407          37.000    24812289.420   101602162.263 7      -357.407          42.187
R15  22133853.560   118276583.860 7        54.930          42.312    22133851.420   118276583.843 6        54.930          41.875    22133866.580    91992932.661 8        42.724          48.250    22133866.400    91992938.659 8        42.724          48.750
G17  23788813.600   125011078.091 6      5524.296          41.187    23788812.960   125011078.096 5      5524.296          31.375    23788816.200    97411236.135 5      4304.646          31.187    23788816.580    97411239.139 7      4304.646          44.437
G32  25503141.460   134019914.136 6       771.468          37.687    25503140.280   134019914.138 4       771.468          26.812    25503149.300   104431131.773 4       601.144          26.750    25503150.020   104431137.768 6       601.144          36.000
> 2024 05 03 16 00 37.0000000  0 19
G03  20078579.400   105513643.545 8      3485.096          49.500    20078578.740   105513643.552 8      3485.096          50.062    20078583.740    82218426.160 8      2715.659          50.625    20078584.400    82218426.160 8      2715.659          51.625
G02  21665179.000   113851284.624 7      2155.188          46.875    21665177.040   113851284.629 6      2155.188          39.500    21665178.340    88715286.606 6      1679.367          39.312
R16  22787110.660   121724659.064 7      2920.416          44.750    22787110.140   121724659.083 7      2920.416          44.187    22787125.840    94674763.731 8      2271.435          48.187    22787124.080    94674773.734 8      2271.435          49.562
R03  21505671.760   115121599.884 7      6631.842          46.250    21505672.200   115121599.907 7      6631.842          44.312    21505684.580    89539046.162 7      5158.099          46.687    21505684.900    89539046.162 7      5158.099          46.937
R02  19816638.680   105745423.730 8      3402.850          50.750    19816638.240   105745423.726 8      3402.850          49.562    19816645.020    82246444.372 8      2646.661          50.125    19816645.680    82246438.376 8      2646.661          50.187
G21  22090502.760   116086351.470 7      1373.667          46.750    22090501.140   116086351.472 6      1373.667          37.812    22090503.660    90456910.169 6      1070.390          37.875
G08  21786815.720   114490467.277 7       482.478          47.687    21786814.800   114490467.279 7       482.478          46.875    21786822.060    89213389.868 7       375.957          46.750    21786822.860    89213365.868 8       375.957          49.125
G14  22122935.920   116256826.912 7      3350.361          44.500    22122934.760   116256826.920 5      3350.361          34.500    22122938.140    90589736.018 5      2610.671          34.437    22122939.080    90589745.016 8      2610.671          48.312
R01  21921009.200   117180352.607 7      -309.132          42.750    21921008.240   117180352.601 6      -309.132          41.687    21921019.360    91140322.206 6      -240.436          41.562    21921018.140    91140319.197 7      -240.436          42.125
R18  22560961.600   120431952.754 7      4769.982          44.125    22560963.400   120431952.765 7      4769.982          43.687    22560971.720    93669343.426 7      3709.986          46.812    22560970.740    93669340.427 7      3709.986          47.375
R24  21920399.300   117218232.342 7      1366.643          45.312    21920400.220   117218232.349 7      1366.643          44.687    21920411.420    91169777.718 7      1062.944          47.125    21920411.300    91169777.716 7      1062.944          47.687
R14  23998724.980   127926685.866 7      -970.877          43.687    23998724.020   127926685.853 7      -970.877          42.500    23998748.220    99498654.026 7      -755.126          44.750    23998748.740    99498654.027 7      -755.126          44.937
R17  20582145.680   110139228.103 8      3498.964          48.312    20582146.080   110139228.118 7      3498.964          46.437    20582154.740    85663872.704 8      2721.416          49.500    20582154.560    85663874.704 8      2721.416          50.437
G22  23820502.720   125177591.789 6      4522.814          41.062    23820501.700   125177591.804 4      4522.814          27.750    23820505.740    97540993.482 4      3524.271          27.875
G04  23707384.220   124583206.761 6      5702.470          39.562    23707383.380   124583206.771 4      5702.470          29.812    23707398.460    97077896.205 4      4443.483          29.437    23707398.980    97077911.229 8      4443.483          48.687
G27  24812358.760   130389816.207 6      -459.221          40.937    24812357.940   130389816.220 6      -459.221          37.687    24812376.280   101602512.878 6      -357.834          37.500    24812377.320   101602519.875 7      -357.834          42.187
R15  22133843.260   118276529.189 7        54.412          42.625    22133841.360   118276529.163 6        54.412          41.875    22133856.360    91992890.114 8        42.320          49.062    22133855.940    91992896.116 8        42.320          49.375
G17  23787761.920   125005553.643 6      5524.489          40.062    23787761.460   125005553.654 5      5524.489          31.375    23787764.740    97406931.372 5      4304.797          30.750    23787765.120    97406934.362 7      4304.797          44.062
G32  25502995.060   134019142.736 6       771.218          36.937    25502993.600   134019142.738 4       771.218          26.812    25503002.640   104430530.684 4       600.949          26.750    25503003.340   104430536.698 5       600.949          35.937
> 2024 05 03 16 00 38.0000000  0 19
G03  20077916.220   105510158.863 8      3484.222          49.687    20077915.620   105510158.870 8      3484.222          50.625    20077920.640    82215710.549 8      2714.978          51.062    20077921.380    82215710.549 8      2714.978          51.187
G02  21664768.780   113849129.689 7      2154.783          46.375    21664767.060   113849129.697 6      2154.783          39.750    21664768.440    88713607.434 6      1679.052          39.062
R16  22786564.020   121721739.160 7      2919.447          44.437    22786563.300   121721739.177 7      2919.447          44.250    22786579.600    94672492.704 8      2270.681          48.812    22786577.820    94672502.705 8      2270.681          49.375
R03  21504433.000   115114968.271 7      6631.284          46.562    21504432.960   115114968.302 7      6631.284          44.500    21504445.700    89533888.255 7      5157.666          46.687    21504446.260    89533888.259 7      5157.666          47.500
R02  19816000.800   105742021.369 8      3401.812          51.250    19816000.660   105742021.365 8      3401.812          49.812    19816007.400    82243798.091 8      2645.854          49.750    19816007.820    82243792.093 8      2645.854          50.500
G21  22090241.680   116084977.922 7      1373.463          46.500    22090239.700   116084977.924 6      1373.463          37.937    22090242.380    90455839.873 6      1070.231          38.312
G08  21786724.000   114489985.222 7       481.675          47.125    21786723.040   114489985.221 7       481.675          47.187    21786730.340    89213014.231 7       375.331          47.125    21786731.100    89212990.231 8       375.331          49.062
G14  22122298.300   116253477.087 7      3349.452          45.500    22122297.180   116253477.092 5      3349.452          34.687    22122300.740    90587125.756 5      2609.963          34.562    22122301.560    90587134.753 8      2609.963          48.312
R01  21921066.820   117180662.119 7      -309.967          42.562    21921065.880   117180662.109 6      -309.967          41.687    21921077.040    91140562.925 6      -241.085          41.625    21921075.740    91140559.917 7      -241.085          42.375
R18  22560067.800   120427182.854 7      4769.904          43.312    22560069.700   120427182.863 7      4769.904          43.062    22560078.460    93665633.508 7      3709.925          47.437    22560077.220    93665630.509 7      3709.925          47.437
R24  21920143.900   117216865.852 7      1366.304          45.937    21920144.520   117216865.862 7      1366.304          44.812    21920155.940    91168714.890 7      1062.681          47.625    21920155.880    91168714.888 7      1062.681          47.625
R14  23998906.820   127927656.652 7      -970.836          43.500    23998906.060   127927656.642 7      -970.836          42.500    23998930.220    99499409.090 7      -755.094          44.312    23998930.900    99499409.099 7      -755.094          44.500
R17  20581491.680   110135729.275 8      3498.707          48.187    20581492.260   110135729.288 7      3498.707          47.312    20581500.880    85661151.396 8      2721.216          50.625    20581500.340    85661153.394 8      2721.216          50.500
G22  23819642.220   125173069.300 6      4522.058          39.937    23819640.600   125173069.313 4      4522.058          27.750    23819645.600    97537469.463 4      3523.682          27.875
G04  23706299.240   124577504.319 6      5702.249          39.562    23706298.220   124577504.330 4      5702.249          29.812    23706313.300    97073452.758 4      4443.311          29.437    23706313.660    97073467.791 8      4443.311          48.562
G27  24812446.100   130390275.450 6      -459.434          41.500    24812445.380   130390275.460 6      -459.434          37.750    24812463.800   101602870.705 6      -358.001          37.750    24812464.360   101602877.695 7      -358.001          42.437
R15  22133833.460   118276475.124 7        53.768          42.625    22133831.760   118276475.107 6        53.768          41.875    22133846.140    91992848.053 8        41.819          49.312    22133845.900    91992854.053 8        41.819          49.250
G17  23786710.580   125000029.379 6      5524.013          40.000    23786709.940   125000029.395 5      5524.013          31.375    23786713.460    97402626.753 5      4304.426          30.750    23786714.580    97402629.753 7      4304.426          44.312
G32  25502847.980   134018371.906 6       770.835          36.937    25502846.940   134018371.911 4       770.835          26.562    25502855.900   104429930.038 4       600.651          26.750    25502856.380   104429936.027 5       600.651          35.937
> 2024 05 03 16 00 39.0000000  0 19
G03  20077253.260   105506674.884 8      3483.553          50.250    20077252.720   105506674.892 8      3483.553          50.812    20077257.680    82212995.839 8      2714.457          51.000    20077258.580    82212995.839 8      2714.457          51.687
G02  21664358.860   113846974.833 7      2154.828          47.125    21664356.940   113846974.838 6      2154.828          39.687    21664358.420    88711928.323 6      1679.087          39.312
R16  22786017.560   121718820.085 7      2918.590          44.187    22786016.400   121718820.102 7      2918.590          44.187    22786033.400    94670222.316 8      2270.015          48.875    22786031.580    94670232.321 8      2270.015          49.437
R03  21503194.420   115108337.196 7      6630.863          45.750    21503194.580   115108337.219 7      6630.863          44.750    21503207.020    89528730.748 7      5157.338          46.500    21503207.520    89528730.752 7      5157.338          47.125
R02  19815363.400   105738620.025 8      3400.868          51.750    19815363.160   105738620.023 8      3400.868          50.625    19815369.980    82241152.607 8      2645.119          50.187    19815370.760    82241146.611 8      2645.119          50.687
G21  22089980.260   116083604.450 7      1373.457          47.687    22089978.280   116083604.455 6      1373.457          37.750    22089980.980    90454769.634 6      1070.226          37.875
G08  21786632.320   114489503.650 7       481.400          47.437    21786631.480   114489503.650 7       481.400          47.000    21786638.700    89212638.978 7       375.117          47.000    21786639.400    89212614.981 8       375.117          49.250
G14  22121661.100   116250127.914 7      3348.772          44.875    22121659.840   116250127.916 5      3348.772          34.687    22121663.440    90584516.011 5      2609.433          34.250    22121663.880    90584525.008 8      2609.433          48.062
R01  21921124.780   117180972.304 7      -310.588          42.562    21921124.020   117180972.297 7      -310.588          42.062    21921134.940    91140804.178 6      -241.568          41.937    21921133.740    91140801.172 6      -241.568          41.937
R18  22559174.260   120422412.916 7      4769.916          44.687    22559176.160   120422412.915 7      4769.916          43.187    22559184.660    93661923.553 7      3709.935          47.500    22559183.900    93661920.556 7      3709.935          47.687
R24  21919888.400   117215499.689 7      1366.110          45.687    21919889.520   117215499.690 7      1366.110          44.375    21919900.580    91167652.310 7      1062.530          47.750    21919900.140    91167652.308 8      1062.530          48.062
R14  23999089.360   127928627.374 7      -970.685          43.937    23999088.600   127928627.369 7      -970.685          43.000    23999112.380    99500164.110 7      -754.977          44.437    23999112.640    99500164.112 7      -754.977          44.687
R17  20580838.060   110132230.614 8      3498.561          49.000    20580838.320   110132230.624 7      3498.561          47.562    20580847.060    85658430.213 8      2721.103          50.562    20580846.800    85658432.213 8      2721.103          50.375
G22  23818781.600   125168547.284 6      4521.600          40.562    23818780.040   125168547.302 4      4521.600          27.750    23818785.380    97533945.819 4      3523.325          28.000
G04  23705213.560   124571802.057 6      5702.233          39.125    23705213.140   124571802.067 4      5702.233          29.812    23705228.080    97069009.455 4      4443.299          29.437    23705228.180    97069024.486 8      4443.299          48.750
G27  24812533.860   130390735.055 6      -459.673          41.125    24812532.820   130390735.055 6      -459.673          38.187    24812551.240   101603228.815 6      -358.187          37.500    24812551.380   101603235.805 7      -358.187          42.250
R15  22133823.800   118276421.628 7        53.178          43.062    22133821.820   118276421.627 7        53.178          42.625    22133836.160    91992806.452 8        41.361          49.250    22133835.680    91992812.454 8        41.361          49.562
G17  23785659.780   124994505.078 6      5524.288          40.062    23785658.440   124994505.094 5      5524.288          30.625    23785662.360    97398322.109 5      4304.640          30.750    23785663.360    97398325.105 7      4304.640          44.500
G32  25502701.760   134017601.626 6       770.035          37.375    25502700.360   134017601.633 4       770.035          26.562    25502709.380   104429329.822 4       600.027          26.687    25502709.420   104429335.819 5       600.027          35.937
> 2024 05 03 16 00 40.0000000  0 19
G03  20076590.480   105503191.458 8      3483.190          49.625    20076589.880   105503191.466 8      3483.190          51.312    20076594.820    82210281.865 8      2714.174          51.250    20076595.780    82210281.865 8      2714.174          51.250
G02  21663948.860   113844820.045 7      2154.769          47.437    21663946.920   113844820.053 6      2154.769          40.187    21663948.260    88710249.269 6      1679.041          39.687
R16  22785472.180   121715901.787 7      2918.087          44.750    22785469.440   121715901.799 7      2918.087          44.812    22785487.240    94667952.535 8      2269.623          48.500    22785485.420    94667962.540 8      2269.623          49.250
R03  21501955.860   115101706.319 7      6630.847          46.687    21501955.440   115101706.342 7      6630.847          45.500    21501968.240    89523573.408 7      5157.325          46.562    21501968.360    89523573.408 7      5157.325          46.500
R02  19814726.040   105735219.507 8      3400.104          51.687    19814725.960   105735219.505 8      3400.104          50.750    19814732.740    82238507.762 8      2644.526          50.187    19814733.260    82238501.764 8      2644.526          50.187
G21  22089718.600   116082230.984 8      1373.469          48.375    22089716.900   116082230.988 6      1373.469          38.187    22089719.580    90453699.402 6      1070.236          37.562
G08  21786540.800   114489022.394 7       481.081          47.312    21786539.840   114489022.397 7       481.081          47.500    21786547.040    89212263.973 7       374.868          47.375    21786547.920    89212239.976 8       374.868          49.000
G14  22121023.640   116246779.361 7      3348.319          45.812    22121022.720   116246779.365 5      3348.319          34.500    22121026.260    90581906.751 5      2609.080          34.250    22121026.760    90581915.745 8      2609.080          48.312
R01  21921182.560   117181283.114 7      -311.157          42.812    21921182.220   117181283.113 7      -311.157          42.062    21921193.360    91141045.925 6      -242.011          41.937    21921192.120    91141042.912 7      -242.011          42.250
R18  22558280.500   120417642.880 7      4770.170          44.875    22558282.400   120417642.876 7      4770.170          44.125    22558290.820    93658213.531 7      3710.132          47.000    22558290.200    93658210.536 7      3710.132          47.187
R24  21919633.000   117214133.696 7      1365.904          47.062    21919633.840   117214133.703 7      1365.904          45.625    21919644.860    91166589.869 7      1062.370          47.437    21919644.820    91166589.863 7      1062.370          47.625
R14  23999271.520   127929597.797 7      -970.189          43.937    23999270.200   127929597.801 7      -970.189          43.062    23999294.500    99500918.899 7      -754.591          43.937    23999294.980    99500918.908 7      -754.591          44.875
R17  20580184.380   110128732.052 8      3498.544          49.375    20580184.700   110128732.067 8      3498.544          48.562    20580193.320    85655709.111 8      2721.090          50.312    20580193.080    85655711.109 8      2721.090          51.000
G22  23817921.020   125164025.775 6      4521.206          41.125    23817919.760   125164025.788 4      4521.206          28.187    23817925.160    97530422.567 4      3523.018          28.000
G04  23704128.200   124566099.673 6      5702.541          39.937    23704128.040   124566099.686 4      5702.541          29.375    23704142.740    97064566.056 4      4443.539          29.437    23704143.160    97064581.078 8      4443.539          48.500
G27  24812620.960   130391194.721 6      -459.733          40.750    24812620.260   130391194.718 6      -459.733          37.687    24812638.700   101603586.971 6      -358.233          37.625    24812639.120   101603593.964 7      -358.233          42.250
R15  22133813.940   118276368.533 7        53.051          44.687    22133812.100   118276368.529 7        53.051          42.625    22133826.240    91992765.135 8        41.262          49.187    22133825.800    91992771.137 8        41.262          49.437
G17  23784608.500   124988980.849 6      5524.448          41.437    23784607.180   124988980.856 5      5524.448          30.625    23784611.480    97394017.515 5      4304.764          30.750    23784612.280    97394020.494 7      4304.764          45.625
G32  25502554.740   134016831.800 6       769.508          37.687    25502553.780   134016831.810 4       769.508          26.562    25502562.900   104428729.957 4       599.616          26.687    25502563.340   104428735.956 5       599.616          35.937
> 2024 05 03 16 00 41.0000000  0 19
G03  20075927.880   105499708.746 8      3482.155          50.062    20075927.080   105499708.754 8      3482.155          51.312    20075932.040    82207568.629 8      2713.368          51.125    20075932.980    82207568.629 8      2713.368          51.625
G02  21663538.820   113842665.426 7      2154.429          46.500    21663536.940   113842665.428 6      2154.429          39.187    21663538.120    88708570.343 6      1678.776          39.062
R16  22784925.740   121712984.405 7      2916.953          43.937    22784922.220   121712984.412 7      2916.953          44.312    22784941.160    94665683.477 7      2268.741          47.937    22784939.700    94665693.484 8      2268.741          48.812
R03  21500717.040   115095075.914 7      6629.911          46.875    21500717.060   115095075.926 7      6629.911          45.500    21500729.700    89518416.428 7      5156.597          46.250    21500729.820    89518416.430 7      5156.597          47.000
R02  19814088.900   105731819.982 8      3398.766          51.812    19814088.920   105731819.978 8      3398.766          50.812    19814095.660    82235863.687 8      2643.485          49.437    19814096.280    82235857.689 8      2643.485          50.062
G21  22089457.260   116080857.641 8      1373.103          48.437    22089455.500   116080857.645 6      1373.103          38.062    22089458.160    90452629.262 6      1069.950          38.250
G08  21786449.260   114488541.593 7       480.237          46.500    21786448.340   114488541.595 7       480.237          47.062    21786455.520    89211889.319 7       374.211          47.125    21786456.420    89211865.325 8       374.211          49.250
G14  22120386.740   116243431.556 7      3347.414          44.875    22120385.600   116243431.561 5      3347.414          35.312    22120389.100    90579298.070 5      2608.375          34.937    22120389.780    90579307.064 8      2608.375          48.000
R01  21921240.960   117181594.665 7      -312.058          43.625    21921240.460   117181594.661 7      -312.058          42.937    21921251.780    91141288.236 6      -242.712          41.812    21921250.420    91141285.229 7      -242.712          42.000
R18  22557386.660   120412872.938 7      4769.893          45.500    22557389.300   120412872.936 7      4769.893          44.000    22557397.140    93654503.582 7      3709.917          46.812    22557396.700    93654500.587 7      3709.917          47.250
R24  21919377.580   117212767.957 7      1365.411          47.000    21919378.460   117212767.969 7      1365.411          46.125    21919389.560    91165527.630 7      1061.986          47.375    21919389.460    91165527.624 7      1061.986          47.500
R14  23999453.560   127930568.162 7      -970.689          43.875    23999452.420   127930568.152 7      -970.689          43.062    23999476.460    99501673.631 7      -754.980          44.187    23999476.960    99501673.637 7      -754.980          44.750
R17  20579530.460   110125233.717 8      3498.131          49.187    20579530.740   110125233.734 8      3498.131          49.000    20579539.580    85652988.190 8      2720.769          49.875    20579539.440    85652990.190 8      2720.769          50.500
G22  23817061.120   125159504.813 6      4520.693          41.750    23817059.600   125159504.821 4      4520.693          28.187    23817064.880    97526899.739 4      3522.618          28.000
G04  23703043.260   124560397.337 6      5701.975          40.375    23703042.760   124560397.347 4      5701.975          29.375    23703057.800    97060122.687 4      4443.097          29.062    23703057.920    97060137.712 8      4443.097          48.750
G27  24812708.600   130391654.589 6      -460.365          41.375    24812707.800   130391654.589 6      -460.365          38.187    24812726.140   101603945.296 6      -358.726          37.750    24812726.200   101603952.286 7      -358.726          42.187
R15  22133804.320   118276315.962 7        52.051          44.812    22133803.040   118276315.955 7        52.051          43.562    22133816.320    91992724.234 8        40.484          48.625    22133816.080    91992730.238 8        40.484          49.312
G17  23783557.340   124983456.761 6      5523.952          40.750    23783556.100   124983456.765 5      5523.952          30.625    23783560.520    97389713.034 5      4304.378          30.125    23783561.280    97389716.026 7      4304.378          45.750
G32  25502408.740   134016062.486 6       768.926          37.687    25502407.380   134016062.494 4       768.926          26.562    25502416.360   104428130.490 4       599.163          26.687    25502417.600   104428136.493 5       599.163          35.937
> 2024 05 03 16 00 42.0000000  0 19
G03  20075265.180   105496226.523 8      3482.010          49.250    20075264.480   105496226.526 8      3482.010          50.875    20075269.460    82204854.983 8      2713.254          51.250    20075270.140    82204854.983 8      2713.254          51.812
G02  21663128.740   113840510.701 7      2154.749          46.562    21663126.880   113840510.706 6      2154.749          39.500    21663128.080    88706891.338 6      1679.025          39.750
R16  22784379.500   121710067.627 7      2916.358          43.937    22784375.940   121710067.631 7      2916.358          44.312    22784395.380    94663414.884 8      2268.279          48.000    22784393.680    94663424.889 8      2268.279          49.062
R03  21499478.420   115088445.810 7      6629.963          45.625    21499478.300   115088445.823 7      6629.963          45.500    21499490.840    89513259.691 7      5156.638          46.812    21499491.140    89513259.693 7      5156.638          46.750
R02  19813452.080   105728421.260 8      3398.298          51.562    19813452.060   105728421.256 8      3398.298          50.187    19813458.800    82233220.239 8      2643.120          50.500    19813459.420    82233214.241 8      2643.120          50.187
G21  22089195.940   116079484.142 8      1373.615          48.437    22089194.320   116079484.147 6      1373.615          37.812    22089196.840    90451559.000 6      1070.350          37.937
G08  21786357.960   114488061.088 7       480.376          46.000    21786356.820   114488061.085 7       480.376          47.000    21786364.060    89211514.893 7       374.319          46.937    21786364.800    89211490.894 8       374.319          49.250
G14  22119749.800   116240084.238 7      3347.014          45.312    22119748.620   116240084.243 5      3347.014          34.687    22119752.100    90576689.768 5      2608.063          34.437    22119752.700    90576698.752 8      2608.063          48.062
R01  21921299.240   117181906.696 7      -312.314          43.625    21921298.840   117181906.695 7      -312.314          42.937    21921309.920    91141530.926 6      -242.911          41.875    21921308.700    91141527.916 7      -242.911          42.375
R18  22556493.460   120408102.760 7      4770.235          44.625    22556495.640   120408102.761 7      4770.235          44.000    22556503.180    93650793.446 7      3710.183          46.812    22556503.200    93650790.457 7      3710.183          47.062
R24  21919122.260   117211402.272 7      1365.748          45.812    21919122.940   117211402.290 7      1365.748          45.000    21919134.260    91164465.431 7      1062.248          47.187    21919133.840    91164465.427 7      1062.248          47.375
R14  23999635.440   127931538.288 7      -970.028          43.687    23999634.900   127931538.275 7      -970.028          43.500    23999658.580    99502428.181 7      -754.466          44.375    23999659.160    99502428.185 7      -754.466          44.312
R17  20578876.660   110121735.299 8      3498.492          48.312    20578877.040   110121735.314 7      3498.492          47.750    20578885.900    85650267.194 8      2721.049          50.000    20578885.640    85650269.196 8      2721.049          50.750
G22  23816200.660   125154984.143 7      4520.549          42.062    23816199.460   125154984.147 4      4520.549          28.187    23816204.420    97523377.141 4      3522.506          28.000
G04  23701958.300   124554694.948 6      5702.342          39.125    23701957.720   124554694.961 4      5702.342          29.375    23701972.840    97055679.284 4      4443.383          29.062    23701972.720    97055694.314 8      4443.383          48.500
G27  24812796.220   130392114.594 6      -459.992          41.500    24812795.340   130392114.593 6      -459.992          37.500    24812813.780   101604303.725 6      -358.435          37.812    24812813.800   101604310.715 7      -358.435          42.062
R15  22133794.760   118276263.639 7        52.097          45.250    22133793.520   118276263.635 7        52.097          44.437    22133806.440    91992683.530 8        40.520          48.875    22133806.200    91992689.534 8        40.520          48.937
G17  23782505.740   124977932.441 6      5524.439          40.625    23782504.880   124977932.446 5      5524.439          30.625    23782509.520    97385408.370 5      4304.758          30.125    23782510.180    97385411.370 7      4304.758          45.812
G32  25502262.220   134015293.488 6       768.850          37.750    25502260.960   134015293.498 4       768.850          26.562    25502270.220   104427531.273 4       599.104          26.687    25502271.920   104427537.264 5       599.104          35.687
> 2024 05 03 16 00 43.0000000  0 19
G03  20074602.540   105492744.949 8      3481.261          49.125    20074601.940   105492744.954 8      3481.261          50.500    20074606.960    82202141.583 8      2712.671          50.812    20074607.940    82202141.583 8      2712.671          51.500
G02  21662718.760   113838356.089 7      2154.598          47.375    21662716.880   113838356.099 6      2154.598          39.500    21662718.200    88705212.418 6      1678.907          39.375
R16  22783834.060   121707151.693 7      2915.553          42.625    22783829.760   121707151.678 7      2915.553          43.062    22783849.320    94661146.939 7      2267.652          47.625    22783848.440    94661156.942 8      2267.652          48.687
R03  21498239.560   115081816.063 7      6629.706          45.937    21498239.540   115081816.083 7      6629.706          44.250    21498252.280    89508103.233 7      5156.438          46.187    21498252.640    89508103.238 7      5156.438          46.937
R02  19812815.060   105725023.451 8      3397.442          51.625    19812815.120   105725023.449 8      3397.442          49.375    19812822.040    82230577.505 8      2642.455          50.375    19812823.000    82230571.506 8      2642.455          50.750
G21  22088934.840   116078110.755 7      1373.443          46.875    22088933.000   116078110.762 6      1373.443          37.812    22088935.480    90450488.830 6      1070.215          37.937
G08  21786266.480   114487580.975 7       479.998          46.625    21786265.540   114487580.977 7       479.998          46.562    21786272.720    89211140.777 7       374.024          46.562    21786273.360    89211116.784 8       374.024          48.375
G14  22119113.100   116236737.574 7      3346.422          45.312    22119111.860   116236737.579 5      3346.422          34.687    22119115.080    90574081.976 5      2607.602          34.750    22119116.420    90574090.970 8      2607.602          48.437
R01  21921358.040   117182219.378 7      -313.096          43.000    21921357.700   117182219.390 7      -313.096          42.000    21921368.060    91141774.135 6      -243.519          41.625    21921366.840    91141771.129 7      -243.519          42.375
R18  22555600.020   120403332.566 7      4770.277          44.187    22555602.100   120403332.573 7      4770.277          44.000    22555609.280    93647083.301 7      3710.216          46.875    22555609.340    93647080.315 7      3710.216          46.875
R24  21918866.580   117210036.852 7      1365.358          44.562    21918867.760   117210036.864 7      1365.358          45.000    21918879.020    91163403.435 7      1061.945          47.875    21918878.960    91163403.427 7      1061.945          47.875
R14  23999817.040   127932508.234 7      -969.818          44.000    23999815.940   127932508.235 7      -969.818          43.062    23999840.260    99503182.605 7      -754.303          44.250    23999841.320    99503182.608 7      -754.303          44.562
R17  20578223.500   110118237.071 8      3498.258          48.500    20578223.300   110118237.083 7      3498.258          47.562    20578232.080    85647546.350 8      2720.868          50.500    20578231.840    85647548.346 8      2720.868          50.250
G22  23815340.300   125150464.021 6      4519.867          40.562    23815339.320   125150464.023 4      4519.867          28.187    23815344.220    97519854.969 4      3521.974          28.000
G04  23700873.160   124548992.544 6      5702.531          39.187    23700872.480   124548992.557 4      5702.531          29.375    23700887.520    97051235.866 4      4443.531          29.062    23700887.900    97051250.882 8      4443.531          48.500
G27  24812883.940   130392574.764 6      -460.232          41.937    24812882.900   130392574.772 6      -460.232          38.125    24812901.300   101604662.277 6      -358.623          37.375    24812901.580   101604669.277 7      -358.623          42.062
R15  22133784.620   118276211.805 7        51.610          44.375    22133783.560   118276211.804 7        51.610          43.937    22133796.640    91992643.208 8        40.141          48.687    22133796.340    91992649.213 8        40.141          49.000
G17  23781454.420   124972408.227 6      5524.295          40.125    23781453.520   124972408.237 5      5524.295          30.625    23781458.740    97381103.794 5      4304.645          30.125    23781458.840    97381106.802 7      4304.645          45.812
G32  25502115.960   134014524.979 6       768.290          37.750    25502114.780   134014524.989 4       768.290          26.562    25502124.040   104426932.436 4       598.668          26.687    25502125.360   104426938.431 5       598.668          35.687
> 2024 05 03 16 00 44.0000000  0 19
G03  20073940.060   105489264.101 8      3480.428          48.625    20073939.600   105489264.105 8      3480.428          50.562    20073944.520    82199428.838 8      2712.022          51.000    20073945.400    82199428.838 8      2712.022          51.625
G02  21662308.760   113836201.643 8      2154.293          48.000    21662306.860   113836201.650 6      2154.293          39.812    21662308.220    88703533.629 6      1678.670          39.500
R16  22783287.640   121704236.619 7      2914.630          42.062    22783283.480   121704236.606 7      2914.630          42.687    22783303.560    94658879.670 7      2266.935          47.625    22783302.820    94658889.677 8      2266.935          48.500
R03  21497001.360   115075186.824 7      6628.939          44.875    21497001.280   115075186.847 7      6628.939          44.125    21497013.980    89502947.169 7      5155.842          46.312    21497014.520    89502947.174 7      5155.842          46.500
R02  19812179.060   105721626.658 8      3396.257          51.250    19812178.700   105721626.654 8      3396.257          50.125    19812185.480    82227935.555 8      2641.533          50.625    19812185.840    82227929.558 8      2641.533          50.687
G21  22088673.360   116076737.509 7      1373.081          47.375    22088671.660   116076737.514 6      1373.081          37.750    22088674.160    90449418.766 6      1069.933          37.937
G08  21786175.260   114487101.400 7       479.257          46.625    21786174.280   114487101.405 7       479.257          46.937    21786181.440    89210767.081 7       373.447          47.000    21786182.320    89210743.085 8       373.447          48.687
G14  22118476.160   116233391.651 7      3345.430          45.187    22118475.060   116233391.661 5      3345.430          34.687    22118478.460    90571474.767 5      2606.828          34.750    22118479.560    90571483.761 8      2606.828          48.625
R01  21921416.340   117182532.781 7      -313.752          43.250    21921416.160   117182532.787 7      -313.752          42.000    21921426.820    91142017.888 6      -244.030          41.625    21921425.580    91142014.877 7      -244.030          42.187
R18  22554706.660   120398562.357 7      4770.245          44.187    22554708.560   120398562.368 7      4770.245          43.375    22554715.340    93643373.145 7      3710.190          46.500    22554715.700    93643370.156 7      3710.190          47.125
R24  21918611.780   117208671.742 7      1364.851          45.750    21918612.240   117208671.751 7      1364.851          45.062    21918623.620    91162341.674 7      1061.551          47.437    21918623.440    91162341.673 8      1061.551          48.000
R14  23999999.200   127933478.103 7      -969.838          43.812    23999998.320   127933478.104 7      -969.838          42.562    24000022.240    99503936.964 7      -754.319          44.437    24000023.120    99503936.968 7      -754.319          44.875
R17  20577570.000   110114739.054 8      3497.903          48.000    20577569.660   110114739.064 7      3497.903          47.187    20577578.280    85644825.671 8      2720.591          50.375    20577578.080    85644827.669 8      2720.591          50.687
G22  23814480.000   125145944.388 6      4519.327          38.625    23814478.900   125145944.396 4      4519.327          28.250    23814484.060    97516333.181 4      3521.553          28.187
G04  23699787.640   124543290.265 6      5702.179          39.750    23699787.280   124543290.278 4      5702.179          29.312    23699802.380    97046792.551 4      4443.256          29.062    23699802.840    97046807.573 8      4443.256          48.562
G27  24812971.460   130393035.279 6      -460.748          40.812    24812970.540   130393035.284 6      -460.748          38.000    24812988.940   101605021.101 6      -359.024          38.187    24812989.540   101605028.093 7      -359.024          42.187
R15  22133775.600   118276160.511 7        50.968          44.500    22133774.240   118276160.504 7        50.968          44.125    22133787.000    91992603.300 8        39.641          48.500    22133786.860    91992609.303 8        39.641          48.562
G17  23780403.280   124966884.076 6      5524.017          38.875    23780401.920   124966884.091 5      5524.017          30.625    23780407.480    97376799.269 5      4304.429          30.437    23780407.720    97376802.283 7      4304.429          45.750
G32  25501969.940   134013757.060 6       767.574          37.250    25501968.820   134013757.070 4       767.574          26.437    25501977.860   104426334.058 4       598.109          26.562    25501978.660   104426340.053 5       598.109          35.687
> 2024 05 03 16 00 45.0000000  0 19
G03  20073277.860   105485783.980 8      3479.916          48.250    20073277.300   105485783.985 8      3479.916          50.062    20073282.380    82196717.240 8      2711.623          50.562    20073283.120    82196717.240 8      2711.623          51.187
G02  21661898.640   113834047.375 7      2154.366          47.062    21661897.000   113834047.377 6      2154.366          39.437    21661898.320    88701854.977 6      1678.727          39.375
R16  22782742.620   121701322.522 7      2913.704          42.062    22782738.260   121701322.502 7      2913.704          42.375    22782757.740    94656613.156 7      2266.215          47.250    22782757.240    94656623.162 8      2266.215          48.250
R03  21495762.980   115068558.022 7      6628.757          45.125    21495762.620   115068558.048 7      6628.757          43.875    21495775.760    89497791.446 7      5155.700          46.125    21495776.040    89497791.445 7      5155.700          46.437
R02  19811542.860   105718230.855 8      3395.470          51.312    19811542.240   105718230.853 8      3395.470          49.625    19811549.120    82225294.379 8      2640.921          50.312    19811549.320    82225288.383 8      2640.921          50.250
G21  22088411.980   116075364.389 7      1373.256          47.062    22088410.380   116075364.397 6      1373.256          37.875    22088412.920    90448348.803 6      1070.069          37.875
G08  21786084.280   114486622.317 7       479.026          47.437    21786083.100   114486622.322 7       479.026          46.687    21786090.180    89210393.765 7       373.267          46.312    21786091.300    89210369.771 8       373.267          49.125
G14  22117839.800   116230046.463 7      3345.055          44.687    22117838.620   116230046.471 5      3345.055          34.750    22117841.800    90568868.125 5      2606.536          34.750    22117842.820    90568877.122 8      2606.536          48.750
R01  21921475.100   117182846.921 7      -314.342          43.250    21921475.360   117182846.933 7      -314.342          42.250    21921485.260    91142262.224 6      -244.488          41.375    21921484.580    91142259.214 7      -244.488          42.437
R18  22553813.140   120393792.238 7      4770.266          43.812    22553815.660   120393792.247 7      4770.266          43.937    22553821.400    93639663.044 7      3710.207          46.250    22553821.780    93639660.062 7      3710.207          46.187
R24  21918356.140   117207306.915 7      1364.890          45.562    21918357.420   117207306.924 7      1364.890          45.000    21918368.480    91161280.140 7      1061.581          47.562    21918367.960    91161280.138 7      1061.581          47.687
R14  24000181.520   127934447.901 7      -969.712          43.812    24000180.160   127934447.909 7      -969.712          42.562    24000204.300    99504691.268 7      -754.221          44.062    24000204.820    99504691.267 7      -754.221          44.687
R17  20576916.400   110111241.255 7      3497.893          46.937    20576916.040   110111241.259 7      3497.893          47.250    20576924.760    85642105.156 8      2720.583          50.500    20576924.460    85642107.158 8      2720.583          50.750
G22  23813620.640   125141425.386 6      4518.870          38.625    23813618.660   125141425.397 4      4518.870          28.250    23813623.860    97512811.883 4      3521.198          28.187
G04  23698702.860   124537588.113 6      5702.220          39.250    23698702.140   124537588.134 4      5702.220          29.312    23698717.400    97042349.334 4      4443.288          29.187    23698717.560    97042364.362 8      4443.288          48.625
G27  24813059.360   130393496.045 6      -460.662          41.937    24813058.420   130393496.053 6      -460.662          38.000    24813076.640   101605380.125 6      -358.958          37.937    24813077.140   101605387.113 7      -358.958          42.125
R15  22133765.900   118276109.800 7        50.642          44.875    22133764.800   118276109.798 7        50.642          43.812    22133777.500    91992563.852 8        39.388          48.500    22133777.360    91992569.858 8        39.388          48.937
G17  23779352.600   124961360.072 6      5524.087          39.687    23779350.560   124961360.087 5      5524.087          30.500    23779356.360    97372494.854 5      4304.483          30.437    23779356.040    97372497.870 7      4304.483          45.437
G32  25501823.920   134012989.696 6       767.284          37.062    25501822.600   134012989.701 4       767.284          26.437    25501831.880   104425736.106 4       597.884          26.562    25501831.960   104425742.099 5       597.884          35.687
> 2024 05 03 16 00 46.0000000  0 19
G03  20072615.800   105482304.452 8      3479.064          49.062    20072615.200   105482304.457 8      3479.064          50.000    20072620.200    82194006.215 8      2710.959          49.937    20072621.120    82194006.215 8      2710.959          50.187
G02  21661488.760   113831893.155 7      2154.044          47.312    21661487.020   113831893.157 6      2154.044          39.437    21661488.440    88700176.363 6      1678.475          39.437
R16  22782197.160   121698409.155 7      2912.847          42.250    22782192.780   121698409.132 7      2912.847          42.375    22782212.180    94654347.210 7      2265.548          45.937    22782212.000    94654357.215 7      2265.548          46.750
R03  21494525.000   115061929.535 7      6628.248          45.062    21494524.640   115061929.553 7      6628.248          44.250    21494537.440    89492635.961 7      5155.304          45.625    21494537.620    89492635.959 7      5155.304          46.000
R02  19810906.280   105714835.935 8      3394.365          50.750    19810905.940   105714835.934 8      3394.365          49.687    19810912.860    82222653.888 8      2640.062          49.937    19810913.540    82222647.893 8      2640.062          49.375
G21  22088150.840   116073991.272 7      1373.051          47.437    22088149.000   116073991.277 6      1373.051          37.875    22088151.480    90447278.839 6      1069.910          37.875
G08  21785993.100   114486143.594 7       478.446          47.125    21785991.940   114486143.601 7       478.446          46.812    21785999.140    89210020.734 7       372.815          46.812    21786000.160    89209996.740 8       372.815          48.750
G14  22117203.380   116226701.904 7      3344.148          45.062    22117202.320   116226701.914 5      3344.148          34.937    22117205.400    90566261.977 5      2605.830          34.750    22117206.380    90566270.972 7      2605.830          47.687
R01  21921533.840   117183161.642 7      -315.062          42.750    21921534.160   117183161.654 6      -315.062          41.937    21921544.160    91142507.005 6      -245.048          41.312    21921543.400    91142503.995 6      -245.048          41.812
R18  22552919.680   120389022.015 7      4770.154          43.187    22552921.300   120389022.032 7      4770.154          43.687    22552927.340    93635952.877 7      3710.119          46.062    22552928.260    93635949.892 7      3710.119          46.250
R24  21918101.440   117205942.280 7      1364.394          46.062    21918101.920   117205942.290 7      1364.394          44.875    21918113.240    91160218.754 7      1061.195          47.250    21918113.120    91160218.750 7      1061.195          47.375
R14  24000363.180   127935417.423 7      -969.519          44.125    24000362.020   127935417.424 7      -969.519          42.687    24000386.100    99505445.343 7      -754.070          43.875    24000386.660    99505445.346 7      -754.070          44.187
R17  20576262.940   110107743.535 7      3497.535          46.875    20576262.400   110107743.542 7      3497.535          46.937    20576271.100    85639384.711 8      2720.305          49.687    20576270.640    85639386.711 8      2720.305          49.562
G22  23812760.300   125136906.784 5      4518.401          34.312    23812758.320   125136906.802 4      4518.401          28.250    23812763.860    97509290.902 4      3520.832          28.187
G04  23697617.540   124531885.945 6      5701.946          39.125    23697617.220   124531885.960 4      5701.946          29.312    23697632.100    97037906.100 4      4443.075          29.187    23697632.360    97037921.120 8      4443.075          48.250
G27  24813147.180   130393957.004 6      -461.134          41.437    24813146.080   130393957.011 6      -461.134          38.062    24813164.320   101605739.291 6      -359.325          37.937    24813164.640   101605746.286 7      -359.325          42.125
R15  22133756.700   118276059.539 7        49.948          45.250    22133755.440   118276059.538 7        49.948          44.125    22133768.040    91992524.754 7        38.848          47.937    22133767.820    91992530.761 7        38.848          47.437
G17  23778301.040   124955836.039 6      5523.898          39.562    23778299.300   124955836.047 5      5523.898          30.500    23778305.000    97368190.423 5      4304.336          30.437    23778305.040    97368193.435 7      4304.336          45.000
G32  25501677.820   134012222.732 6       766.665          37.062    25501676.620   134012222.737 4       766.665          26.437    25501685.980   104425138.473 4       597.401          26.562    25501686.300   104425144.466 5       597.401          35.687
> 2024 05 03 16 00 47.0000000  0 19
G03  20071953.520   105478825.401 8      3478.801          49.187    20071953.200   105478825.403 8      3478.801          50.437    20071958.140    82191294.289 8      2710.754          50.750    20071958.980    82191294.289 8      2710.754          51.500
G02  21661079.000   113829738.848 7      2154.309          47.562    21661077.140   113829738.855 6      2154.309          39.500    21661078.320    88698497.689 6      1678.682          39.125
R16  22781651.540   121695496.447 7      2912.478          42.250    22781647.840   121695496.416 7      2912.478          42.312    22781666.760    94652081.769 7      2265.261          46.250    22781666.640    94652091.780 7      2265.261          47.312
R03  21493286.640   115055301.263 7      6628.130          44.375    21493285.880   115055301.286 7      6628.130          44.250    21493299.160    89487480.650 7      5155.212          46.500    21493299.360    89487480.651 7      5155.212          46.375
R02  19810270.280   105711441.797 8      3393.758          51.250    19810269.900   105711441.793 8      3393.758          50.062    19810276.900    82220014.003 8      2639.590          50.125    19810277.280    82220008.006 8      2639.590          49.812
G21  22087889.340   116072618.055 7      1373.204          47.875    22087887.720   116072618.065 6      1373.204          38.000    22087890.280    90446208.802 6      1070.029          38.000
G08  21785902.180   114485665.168 7       478.231          45.875    21785900.940   114485665.172 7       478.231          46.937    21785908.100    89209647.926 7       372.647          46.500    21785909.180    89209623.930 8       372.647          48.812
G14  22116566.940   116223357.859 7      3343.730          45.312    22116565.920   116223357.867 5      3343.730          34.562    22116569.160    90563656.224 5      2605.504          34.750    22116570.260    90563665.217 8      2605.504          48.187
R01  21921593.600   117183476.881 7      -315.554          42.562    21921593.140   117183476.885 6      -315.554          41.937    21921603.540    91142752.184 6      -245.431          41.625    21921602.080    91142749.175 6      -245.431          41.812
R18  22552025.860   120384251.616 7      4770.497          42.250    22552027.520   120384251.633 7      4770.497          43.750    22552033.520    93632242.558 7      3710.387          46.125    22552034.300    93632239.576 7      3710.387          45.812
R24  21917845.820   117204577.718 7      1364.491          46.000    21917846.640   117204577.725 7      1364.491          45.250    21917857.920    91159157.425 7      1061.270          46.812    21917857.720    91159157.422 8      1061.270          48.312
R14  24000545.020   127936386.682 7      -969.219          43.687    24000543.880   127936386.685 7      -969.219          42.562    24000567.720    99506199.221 7      -753.837          43.937    24000568.200    99506199.225 7      -753.837          44.375
R17  20575609.080   110104245.810 8      3497.625          48.062    20575608.600   110104245.820 7      3497.625          47.375    20575617.420    85636664.259 8      2720.375          50.187    20575617.240    85636666.259 8      2720.375          50.500
G22  23811900.720   125132388.575 5      4518.233          34.312    23811898.320   125132388.591 4      4518.233          28.250    23811903.900    97505770.218 4      3520.701          28.187
G04  23696532.180   124526183.669 6      5702.204          39.437    23696532.120   124526183.674 4      5702.204          29.312    23696547.180    97033462.773 4      4443.276          29.187    23696547.340    97033477.786 8      4443.276          48.562
G27  24813234.680   130394417.997 7      -461.148          42.062    24813233.940   130394418.009 6      -461.148          38.312    24813252.200   101606098.490 6      -359.336          37.812    24813252.380   101606105.488 6      -359.336          41.937
R15  22133747.080   118276009.581 7        49.905          45.312    22133746.020   118276009.577 7        49.905          44.625    22133758.620    91992485.892 8        38.815          48.250    22133758.540    91992491.894 8        38.815          48.812
G17  23777249.900   124950311.878 6      5524.132          39.437    23777248.160   124950311.885 5      5524.132          30.500    23777253.780    97363885.888 5      4304.519          30.437    23777254.080    97363888.892 7      4304.519          45.062
G32  25501531.300   134011456.130 6       766.324          38.062    25501530.640   134011456.137 4       766.324          26.437    25501540.020   104424541.123 4       597.135          26.562    25501540.700   104424547.120 5       597.135          35.687
> 2024 05 03 16 00 48.0000000  0 19
G03  20071291.720   105475347.030 8      3477.980          48.875    20071291.280   105475347.037 8      3477.980          50.250    20071296.220    82188584.329 8      2710.115          50.875    20071297.000    82188584.329 8      2710.115          51.312
G02  21660669.080   113827584.677 7      2154.103          46.562    21660667.220   113827584.687 6      2154.103          39.625    21660668.560    88696819.114 6      1678.522          39.687
R16  22781106.260   121692584.591 7      2911.375          42.312    22781102.640   121692584.560 7      2911.375          42.875    22781121.000    94649816.998 7      2264.403          45.062    22781121.640    94649827.016 7      2264.403          46.687
R03  21492048.500   115048673.392 7      6627.586          44.375    21492047.780   115048673.417 7      6627.586          43.437    21492061.040    89482325.650 7      5154.789          46.437    21492061.140    89482325.652 7      5154.789          46.250
R02  19809634.420   105708048.599 8      3392.739          50.687    19809633.920   105708048.594 8      3392.739          49.687    19809640.960    82217374.852 8      2638.797          50.687    19809641.460    82217368.856 8      2638.797          50.687
G21  22087628.080   116071244.914 7      1373.077          47.437    22087626.540   116071244.919 6      1373.077          37.625    22087629.040    90445138.818 6      1069.930          37.812
G08  21785811.220   114485187.177 7       477.618          47.187    21785809.960   114485187.185 7       477.618          47.375    21785817.080    89209275.466 7       372.170          47.187    21785818.180    89209251.473 8       372.170          49.187
G14  22115930.600   116220014.464 7      3343.040          45.125    22115929.880   116220014.469 5      3343.040          35.062    22115932.900    90561050.979 5      2604.966          34.437    22115933.940    90561059.975 8      2604.966          48.000
R01  21921652.480   117183792.799 7      -316.266          42.562    21921651.920   117183792.800 7      -316.266          42.125    21921662.060    91142997.896 6      -245.985          41.625    21921661.420    91142994.883 6      -245.985          41.812
R18  22551132.300   120379481.198 7      4770.312          43.875    22551133.620   120379481.212 7      4770.312          43.437    22551139.680    93628532.231 7      3710.243          45.812    22551140.600    93628529.245 7      3710.243          45.562
R24  21917590.920   117203213.450 7      1364.114          45.562    21917591.520   117203213.452 7      1364.114          44.687    21917602.840    91158096.320 7      1060.977          47.562    21917602.700    91158096.314 7      1060.977          47.937
R14  24000726.680   127937355.813 7      -969.060          43.500    24000725.320   127937355.803 7      -969.060          42.562    24000749.520    99506952.996 7      -753.713          43.875    24000750.420    99506952.997 7      -753.713          44.562
R17  20574955.780   110100748.265 7      3497.346          47.437    20574955.200   110100748.269 7      3497.346          47.062    20574963.780    85633943.943 8      2720.158          50.312    20574963.360    85633945.943 8      2720.158          50.437
G22  23811041.300   125127870.897 5      4517.268          34.687    23811038.440   125127870.902 4      4517.268          28.250    23811044.200    97502249.947 4      3519.949          28.062
G04  23695447.500   124520481.370 6      5702.208          39.125    23695447.060   124520481.375 4      5702.208          29.562    23695462.080    97029019.437 4      4443.279          29.187    23695462.060    97029034.475 8      4443.279          48.625
G27  24813322.440   130394879.252 7      -461.531          42.500    24813321.800   130394879.257 6      -461.531          37.937    24813339.960   101606457.887 6      -359.635          37.500    24813340.080   101606464.884 7      -359.635          42.250
R15  22133737.500   118275960.104 7        49.208          46.000    22133736.720   118275960.102 7        49.208          44.437    22133749.220    91992447.405 8        38.273          48.187    22133749.180    91992453.411 8        38.273          48.687
G17  23776198.480   124944787.769 6      5524.064          39.937    23776197.080   124944787.771 5      5524.064          30.500    23776202.380    97359581.385 4      4304.465          29.812    23776202.640    97359584.389 7      4304.465          45.250
G32  25501385.820   134010690.048 6       765.711          38.062    25501384.840   134010690.058 4       765.711          26.437    25501394.180   104423944.177 4       596.658          26.562    25501394.660   104423950.184 5       596.658          35.687
> 2024 05 03 16 00 49.0000000  0 19
G03  20070630.060   105471869.350 8      3477.275          49.125    20070629.520   105471869.352 8      3477.275          50.250    20070634.460    82185874.942 8      2709.565          50.750    20070635.320    82185874.942 8      2709.565          51.312
G02  21660259.360   113825430.651 7      2154.005          46.937    21660257.300   113825430.661 6      2154.005          39.875    21660258.500    88695140.653 6      1678.445          39.812
R16  22780561.660   121689673.606 7      2910.555          42.812    22780558.300   121689673.586 7      2910.555          42.875    22780575.540    94647552.907 7      2263.765          44.562    22780576.620    94647562.921 7      2263.765          45.500
R03  21490810.640   115042045.930 7      6627.093          44.750    21490809.520   115042045.956 7      6627.093          43.875    21490823.040    89477170.970 7      5154.406          46.250    21490822.960    89477170.970 7      5154.406          46.750
R02  19808998.820   105704656.360 8      3391.679          51.125    19808998.260   105704656.361 8      3391.679          49.687    19809005.240    82214736.451 8      2637.972          50.000    19809005.680    82214730.454 8      2637.972          50.875
G21  22087366.880   116069871.858 7      1373.020          47.937    22087365.340   116069871.862 6      1373.020          38.250    22087367.780    90444068.904 6      1069.885          38.187
G08  21785720.480   114484709.623 7       477.214          46.562    21785719.140   114484709.628 7       477.214          47.000    21785726.340    89208903.342 7       371.855          46.937    21785727.460    89208879.346 8       371.855          49.250
G14  22115294.600   116216671.822 7      3342.242          44.875    22115293.760   116216671.830 5      3342.242          35.062    22115296.760    90558446.325 5      2604.344          34.875    22115297.660    90558455.322 8      2604.344          48.562
R01  21921711.480   117184109.425 7      -316.978          42.562    21921711.520   117184109.435 7      -316.978          42.125    21921721.360    91143244.168 6      -246.538          41.687    21921720.220    91143241.158 7      -246.538          42.125
R18  22550238.520   120374710.783 7      4770.394          42.750    22550239.780   120374710.811 7      4770.394          43.437    22550246.040    93624821.916 7      3710.306          46.187    22550246.780    93624818.924 7      3710.306          46.000
R24  21917336.040   117201849.442 7      1363.863          45.625    21917336.420   117201849.446 7      1363.863          45.312    21917347.900    91157035.420 7      1060.782          47.125    21917347.920    91157035.418 8      1060.782          48.250
R14  24000908.420   127938324.877 7      -969.133          43.500    24000907.660   127938324.875 7      -969.133          43.000    24000931.600    99507706.729 7      -753.770          44.250    24000931.980    99507706.731 7      -753.770          44.437
R17  20574301.700   110097250.885 7      3497.290          47.812    20574301.540   110097250.894 7      3497.290          47.125    20574310.040    85631223.759 8      2720.114          50.000    20574309.860    85631225.761 8      2720.114          50.562
G22  23810181.720   125123353.721 6      4516.952          38.312    23810179.060   125123353.716 4      4516.952          28.187    23810184.500    97498730.064 4      3519.702          28.062
G04  23694362.560   124514779.170 6      5702.165          38.500    23694362.160   124514779.180 4      5702.165          29.562    23694376.880    97024576.187 4      4443.245          29.187    23694377.080    97024591.213 8      4443.245          48.562
G27  24813410.260   130395340.715 6      -461.703          41.187    24813409.560   130395340.720 6      -461.703          37.750    24813427.740   101606817.446 6      -359.768          37.750    24813428.160   101606824.441 7      -359.768          42.250
R15  22133728.260   118275911.137 7        48.631          45.437    22133727.500   118275911.141 7        48.631          44.625    22133740.060    91992409.318 7        37.824          47.750    22133739.880    91992415.320 8        37.824          48.375
G17  23775147.340   124939263.783 6      5523.982          41.000    23775146.560   124939263.780 5      5523.982          30.125    23775150.740    97355276.983 4      4304.402          29.812    23775151.180    97355279.978 7      4304.402          44.875
G32  25501240.080   134009924.513 6       765.204          37.125    25501239.100   134009924.518 4       765.204          26.500    25501248.500   104423347.656 4       596.262          26.562    25501248.820   104423353.649 5       596.262          35.687
> 2024 05 03 16 00 50.0000000  0 19
G03  20069968.260   105468392.287 8      3476.733          49.437    20069967.860   105468392.297 8      3476.733          51.000    20069972.720    82183164.981 8      2709.142          51.000    20069973.620    82183164.981 8      2709.142          51.875
G02  21659849.100   113823276.712 7      2153.874          46.687    21659847.400   113823276.722 6      2153.874          39.250    21659848.680    88693462.260 6      1678.344          39.250
R16  22780016.860   121686763.444 7      2909.759          43.500    22780013.460   121686763.407 7      2909.759          42.875    22780029.600    94645289.435 7      2263.146          44.312    22780031.480    94645299.455 7      2263.146          44.750
R03  21489572.380   115035418.873 7      6626.877          45.312    21489571.760   115035418.896 7      6626.877          43.687    21489585.100    89472016.598 7      5154.237          46.437    21489585.280    89472016.596 7      5154.237          46.625
R02  19808363.380   105701265.048 8      3390.857          50.812    19808362.640   105701265.041 8      3390.857          49.937    19808369.840    82212098.761 8      2637.333          49.812    19808370.100    82212092.763 8      2637.333          51.000
G21  22087105.500   116068498.864 7      1372.886          47.000    22087103.880   116068498.869 6      1372.886          37.500    22087106.440    90442999.039 6      1069.781          37.812
G08  21785629.520   114484232.519 7       476.871          47.375    21785628.360   114484232.518 7       476.871          47.000    21785635.540    89208531.564 7       371.588          46.875    21785636.480    89208507.570 8       371.588          49.187
G14  22114658.560   116213329.809 7      3341.688          45.062    22114657.740   116213329.817 5      3341.688          34.750    22114660.860    90555842.157 5      2603.913          34.562    22114661.640    90555851.149 8      2603.913          48.437
R01  21921770.380   117184426.728 7      -317.635          43.000    21921771.180   117184426.732 6      -317.635          41.875    21921780.920    91143490.954 6      -247.049          41.687    21921779.960    91143487.949 7      -247.049          42.187
R18  22549344.700   120369940.328 7      4770.502          42.750    22549346.340   120369940.348 7      4770.502          43.062    22549352.760    93621111.558 7      3710.390          46.250    22549353.120    93621108.559 7      3710.390          46.062
R24  21917080.740   117200485.692 7      1363.582          45.750    21917081.380   117200485.694 7      1363.582          44.562    21917092.700    91155974.720 7      1060.564          47.375    21917092.560    91155974.718 8      1060.564          48.312
R14  24001090.400   127939293.811 7      -968.804          43.937    24001089.040   127939293.814 7      -968.804          42.875    24001112.880    99508460.357 7      -753.514          44.687    24001113.860    99508460.362 7      -753.514          44.687
R17  20573648.140   110093753.620 7      3497.182          47.625    20573647.980   110093753.630 7      3497.182          47.000    20573656.640    85628503.670 8      2720.030          50.437    20573656.220    85628505.668 8      2720.030          50.875
G22  23809322.060   125118837.037 6      4516.511          41.187    23809319.980   125118837.023 4      4516.511          28.187    23809324.880    97495210.561 4      3519.359          28.062
G04  23693278.080   124509077.015 6      5702.240          38.500    23693277.000   124509077.028 4      5702.240          29.562    23693291.780    97020132.968 4      4443.304          28.937    23693292.080    97020147.992 8      4443.304          48.750
G27  24813497.880   130395802.402 6      -461.819          41.875    24813497.280   130395802.409 6      -461.819          37.937    24813515.560   101607177.186 6      -359.859          37.812    24813516.160   101607184.178 6      -359.859          41.875
R15  22133719.420   118275862.611 7        48.260          45.375    22133718.900   118275862.615 7        48.260          45.062    22133731.000    91992371.573 8        37.536          48.000    22133730.960    91992377.573 8        37.536          48.375
G17  23774095.840   124933739.784 6      5523.914          41.312    23774095.720   124933739.787 5      5523.914          30.125    23774099.380    97350972.568 4      4304.349          29.812    23774100.200    97350975.568 7      4304.349          44.750
G32  25501094.260   134009159.375 6       765.145          37.562    25501093.500   134009159.377 4       765.145          26.500    25501102.960   104422751.446 4       596.217          26.500    25501103.420   104422757.453 5       596.217          35.687
> 2024 05 03 16 00 51.0000000  0 19
G03  20069306.760   105464915.816 8      3476.165          48.875    20069306.280   105464915.826 8      3476.165          50.250    20069311.180    82180456.249 8      2708.700          50.875    20069312.040    82180456.249 8      2708.700          51.312
G02  21659439.300   113821122.804 7      2153.803          47.250    21659437.580   113821122.812 6      2153.803          39.187    21659438.760    88691783.893 6      1678.288          39.000
R16  22779472.300   121683854.050 7      2909.032          43.812    22779469.600   121683854.014 7      2909.032          43.125    22779483.300    94643026.561 7      2262.581          43.312    22779486.840    94643036.593 7      2262.581          44.187
R03  21488334.360   115028792.144 7      6626.512          44.812    21488333.880   115028792.165 7      6626.512          44.250    21488347.140    89466862.485 7      5153.954          46.500    21488347.280    89466862.485 7      5153.954          46.000
R02  19807727.920   105697874.592 8      3389.936          50.625    19807727.240   105697874.587 8      3389.936          50.000    19807734.300    82209461.742 8      2636.617          50.375    19807734.840    82209455.743 8      2636.617          50.500
G21  22086844.240   116067125.828 7      1372.916          47.125    22086842.720   116067125.836 6      1372.916          38.062    22086845.160    90441929.141 6      1069.805          38.375
G08  21785538.840   114483755.714 7       476.551          47.125    21785537.640   114483755.719 7       476.551          46.687    21785544.780    89208160.025 7       371.339          46.687    21785545.940    89208136.032 8       371.339          49.062
G14  22114022.640   116209988.424 7      3341.046          45.250    22114021.940   116209988.431 5      3341.046          34.687    22114025.080    90553238.482 5      2603.413          34.562    22114025.760    90553247.477 8      2603.413          48.062
R01  21921830.620   117184744.629 7      -318.269          42.562    21921830.180   117184744.630 7      -318.269          42.437    21921840.380    91143738.207 6      -247.542          41.812    21921838.780    91143735.203 7      -247.542          42.437
R18  22548451.020   120365169.793 7      4770.532          43.625    22548452.180   120365169.826 7      4770.532          43.062    22548459.680    93617401.152 7      3710.414          46.437    22548459.720    93617398.156 7      3710.414          46.375
R24  21916825.780   117199122.039 7      1363.412          45.062    21916826.220   117199122.041 7      1363.412          44.750    21916837.680    91154914.101 7      1060.431          47.812    21916837.500    91154914.095 8      1060.431          48.062
R14  24001271.760   127940262.524 7      -968.483          43.750    24001270.640   127940262.519 7      -968.483          42.875    24001294.740    99509213.810 7      -753.265          44.250    24001295.640    99509213.816 7      -753.265          44.500
R17  20572994.640   110090256.454 8      3497.095          48.250    20572994.260   110090256.467 7      3497.095          46.750    20573003.060    85625783.655 8      2719.963          50.125    20573002.840    85625785.657 8      2719.963          50.437
G22  23808463.020   125114320.815 7      4515.919          44.062    23808461.120   125114320.796 4      4515.919          28.187    23808465.440    97491691.425 4      3518.898          28.062
G04  23692193.120   124503374.803 6      5702.283          39.187    23692191.940   124503374.815 4      5702.283          29.562    23692206.660    97015689.697 4      4443.337          28.937    23692206.980    97015704.723 8      4443.337          48.562
G27  24813586.160   130396264.214 7      -462.101          42.000    24813585.160   130396264.222 6      -462.101          38.437    24813603.480   101607537.023 6      -360.079          37.625    24813603.840   101607544.017 6      -360.079          41.875
R15  22133710.280   118275814.507 7        47.965          45.500    22133709.940   118275814.513 7        47.965          44.937    22133721.740    91992334.155 8        37.306          48.125    22133721.560    91992340.155 7        37.306          47.875
G17  23773044.280   124928215.801 6      5524.030          41.250    23773044.700   124928215.804 5      5524.030          30.125    23773048.120    97346668.166 5      4304.439          30.312    23773049.500    97346671.160 7      4304.439          44.875
G32  25500948.720   134008394.780 6       764.199          37.562    25500948.000   134008394.782 4       764.199          26.500    25500957.340   104422155.662 4       595.480          26.500    25500958.300   104422161.653 5       595.480          35.687
> 2024 05 03 16 00 52.0000000  0 19
G03  20068645.360   105461440.046 8      3475.401          48.750    20068644.840   105461440.054 8      3475.401          50.500    20068649.840    82177747.927 8      2708.105          50.875    20068650.620    82177747.927 8      2708.105          51.312
G02  21659029.260   113818969.012 7      2153.722          47.062    21659027.720   113818969.020 6      2153.722          39.562    21659028.980    88690105.609 6      1678.225          39.500
R16  22778927.580   121680945.499 7      2908.120          44.125    22778925.180   121680945.470 7      2908.120          43.875    22778936.720    94640764.348 7      2261.871          42.625    22778941.640    94640774.388 7      2261.871          43.687
R03  21487096.700   115022165.847 7      6626.041          45.125    21487096.180   115022165.873 7      6626.041          44.250    21487109.260    89461708.713 7      5153.587          46.312    21487109.360    89461708.713 7      5153.587          46.500
R02  19807092.860   105694485.139 8      3388.835          50.937    19807092.040   105694485.134 8      3388.835          50.000    19807099.140    82206825.503 8      2635.760          50.500    19807099.440    82206819.504 8      2635.760          49.937
G21  22086582.980   116065752.898 7      1372.841          47.000    22086581.340   116065752.903 6      1372.841          38.000    22086584.000    90440859.321 6      1069.746          38.062
G08  21785448.180   114483279.413 7       475.973          47.812    21785447.040   114483279.418 7       475.973          47.125    21785454.200    89207788.882 7       370.888          46.937    21785455.360    89207764.889 8       370.888          49.062
G14  22113386.860   116206647.719 7      3340.427          45.625    22113386.400   116206647.721 5      3340.427          34.875    22113389.360    90550635.329 5      2602.930          34.625    22113389.980    90550644.326 8      2602.930          48.500
R01  21921889.960   117185063.220 7      -318.938          42.562    21921890.020   117185063.232 7      -318.938          42.437    21921900.320    91143986.008 6      -248.063          41.812    21921898.460    91143983.000 7      -248.063          42.437
R18  22547557.260   120360399.231 7      4770.630          42.500    22547558.320   120360399.258 7      4770.630          43.062    22547566.220    93613690.717 7      3710.490          46.750    22547565.980    93613687.719 7      3710.490          46.750
R24  21916570.800   117197758.659 7      1363.152          45.500    21916571.280   117197758.671 7      1363.152          44.875    21916582.680    91153853.696 7      1060.230          47.750    21916582.800    91153853.694 7      1060.230          47.812
R14  24001453.540   127941231.140 7      -968.668          43.875    24001452.480   127941231.133 7      -968.668          42.750    24001476.600    99509967.179 7      -753.409          44.250    24001477.100    99509967.188 7      -753.409          44.625
R17  20572340.920   110086759.463 7      3496.933          47.437    20572340.760   110086759.480 7      3496.933          47.062    20572349.640    85623063.776 8      2719.837          50.062    20572349.360    85623065.777 8      2719.837          50.375
G22  23807603.780   125109805.097 7      4515.481          45.000    23807602.520   125109805.073 4      4515.481          28.187    23807606.140    97488172.682 4      3518.556          28.062
G04  23691107.860   124497672.695 6      5701.941          38.875    23691106.740   124497672.705 4      5701.941          29.375    23691121.420    97011246.511 4      4443.071          28.937    23691122.100    97011261.533 8      4443.071          48.500
G27  24813674.100   130396726.261 6      -462.276          41.375    24813673.160   130396726.265 6      -462.276          37.812    24813691.300   101607897.039 6      -360.215          37.437    24813691.360   101607904.031 6      -360.215          41.750
R15  22133701.340   118275766.951 7        47.295          46.375    22133701.160   118275766.946 7        47.295          44.750    22133712.760    91992297.152 7        36.785          47.687    22133712.660    91992303.152 8        36.785          48.000
G17  23771993.440   124922691.874 6      5523.853          40.000    23771993.480   124922691.879 5      5523.853          30.312    23771996.920    97342363.805 5      4304.301          30.312    23771998.040    97342366.794 7      4304.301          45.000
G32  25500803.560   134007630.614 6       763.883          37.000    25500802.700   134007630.613 4       763.883          26.500    25500811.780   104421560.206 4       595.234          26.500    25500812.540   104421566.193 5       595.234          35.687
> 2024 05 03 16 00 53.0000000  0 19
G03  20067984.080   105457964.768 8      3475.073          49.250    20067983.500   105457964.775 8      3475.073          49.687    20067988.500    82175040.096 8      2707.849          50.062    20067989.200    82175040.096 8      2707.849          51.562
G02  21658619.460   113816815.168 7      2153.844          46.875    21658617.780   113816815.173 6      2153.844          39.562    21658619.100    88688427.289 6      1678.320          39.437
R16  22778382.960   121678037.588 7      2907.633          44.125    22778381.220   121678037.554 7      2907.633          43.687    22778390.060    94638502.619 6      2261.493          41.687    22778396.680    94638512.670 6      2261.493          41.750
R03  21485859.160   115015539.871 7      6625.798          45.062    21485858.440   115015539.889 7      6625.798          43.875    21485871.540    89456555.176 7      5153.398          46.000    21485871.660    89456555.176 7      5153.398          46.000
R02  19806457.700   105691096.468 8      3388.269          51.375    19806456.940   105691096.460 8      3388.269          49.250    19806464.160    82204189.872 8      2635.321          49.500    19806464.560    82204183.873 8      2635.321          49.687
G21  22086321.700   116064379.844 7      1373.162          47.125    22086319.960   116064379.846 6      1373.162          37.937    22086322.680    90439789.408 6      1069.996          38.125
G08  21785357.540   114482803.407 7       475.877          47.687    21785356.420   114482803.409 7       475.877          46.625    21785363.540    89207417.960 7       370.813          47.125    21785364.820    89207393.968 8       370.813          49.125
G14  22112751.440   116203307.521 7      3340.000          44.875    22112750.800   116203307.526 5      3340.000          35.000    22112753.840    90548032.576 5      2602.597          35.250    22112754.180    90548041.570 7      2602.597          47.625
R01  21921949.680   117185382.319 7      -319.333          43.250    21921949.060   117185382.323 7      -319.333          42.500    21921960.140    91144234.191 7      -248.370          42.312    21921958.300    91144231.184 7      -248.370          42.562
R18  22546663.340   120355628.490 7      4770.827          42.812    22546664.300   120355628.510 7      4770.827          43.062    22546673.040    93609980.137 7      3710.643          46.375    22546672.220    93609977.140 7      3710.643          47.062
R24  21916315.820   117196395.372 7      1363.248          45.562    21916316.260   117196395.376 7      1363.248          44.687    21916327.720    91152793.351 7      1060.304          46.750    21916327.680    91152793.350 7      1060.304          46.625
R14  24001634.920   127942199.413 7      -968.195          43.625    24001634.460   127942199.411 7      -968.195          42.750    24001658.140    99510720.305 7      -753.040          44.250    24001658.700    99510720.302 7      -753.040          44.500
R17  20571687.440   110083262.442 7      3497.020          47.375    20571687.500   110083262.464 7      3497.020          46.687    20571696.160    85620343.873 8      2719.904          49.375    20571695.740    85620345.875 8      2719.904          49.312
G22  23806744.420   125105289.713 7      4515.227          45.500    23806743.760   125105289.686 4      4515.227          28.250    23806746.860    97484654.199 4      3518.359          28.250
G04  23690022.740   124491970.482 6      5702.247          38.562    23690021.600   124491970.500 4      5702.247          29.375    23690036.320    97006803.245 4      4443.309          29.437    23690036.840    97006818.275 8      4443.309          48.500
G27  24813762.340   130397188.425 6      -462.182          41.750    24813761.160   130397188.438 6      -462.182          37.875    24813779.300   101608257.153 6      -360.142          37.750    24813779.860   101608264.149 6      -360.142          41.875
R15  22133692.600   118275719.715 7        46.980          45.562    22133692.400   118275719.719 7        46.980          44.812    22133703.880    91992260.415 7        36.540          47.062    22133703.780    91992266.417 7        36.540          47.375
G17  23770942.380   124917167.786 6      5524.097          39.000    23770941.800   124917167.796 5      5524.097          30.312    23770945.800    97338059.331 5      4304.491          30.312    23770947.000    97338062.324 7      4304.491          44.875
G32  25500658.740   134006866.807 6       763.667          37.000    25500657.240   134006866.812 4       763.667          26.500    25500666.500   104420965.034 4       595.065          26.500    25500667.420   104420971.023 5       595.065          35.812
> 2024 05 03 16 00 54.0000000  0 19
G03  20067322.980   105454490.180 8      3474.488          49.187    20067322.320   105454490.183 8      3474.488          50.812    20067327.280    82172333.002 8      2707.393          51.000    20067328.040    82172333.002 8      2707.393          51.062
G02  21658209.520   113814661.462 7      2153.767          46.562    21658208.000   113814661.470 6      2153.767          39.687    21658209.280    88686749.079 6      1678.260          39.375
R16  22777839.060   121675130.588 7      2906.717          44.687    22777837.220   121675130.552 7      2906.717          44.125    22777844.560    94636241.602 6      2260.780          41.687    22777851.620    94636251.663 6      2260.780          41.750
R03  21484621.140   115008914.256 7      6625.579          44.062    21484620.500   115008914.274 7      6625.579          43.937    21484633.900    89451401.930 7      5153.228          46.687    21484633.580    89451401.930 7      5153.228          46.312
R02  19805822.800   105687708.754 8      3387.347          50.562    19805822.040   105687708.750 8      3387.347          49.812    19805829.440    82201554.988 8      2634.603          50.250    19805829.820    82201548.989 8      2634.603          50.687
G21  22086060.500   116063006.910 7      1372.940          47.500    22086058.860   116063006.915 6      1372.940          37.687    22086061.500    90438719.592 6      1069.823          38.000
G08  21785266.720   114482327.844 7       475.386          45.750    21785266.080   114482327.854 7       475.386          47.000    21785273.120    89207047.396 7       370.431          46.562    21785274.340    89207023.398 8       370.431          49.500
G14  22112115.800   116199968.059 7      3339.183          44.625    22112115.420   116199968.066 5      3339.183          35.000    22112118.280    90545430.402 5      2601.961          34.937    22112119.080    90545439.400 8      2601.961          48.937
R01  21922009.040   117185702.118 7      -319.968          43.062    21922008.880   117185702.119 7      -319.968          42.500    21922019.960    91144482.918 7      -248.864          42.062    21922018.540    91144479.908 7      -248.864          42.562
R18  22545769.480   120350857.795 6      4770.747          41.062    22545771.180   120350857.809 7      4770.747          43.000    22545779.260    93606269.598 7      3710.581          47.125    22545778.620    93606266.602 7      3710.581          47.437
R24  21916060.660   117195032.353 7      1362.993          45.437    21916061.340   117195032.349 7      1362.993          44.562    21916072.860    91151733.219 7      1060.106          47.125    21916072.580    91151733.215 7      1060.106          47.812
R14  24001816.700   127943167.539 7      -967.762          43.625    24001815.880   127943167.540 7      -967.762          42.750    24001839.800    99511473.300 7      -752.704          43.812    24001840.080    99511473.303 7      -752.704          44.625
R17  20571034.020   110079765.640 7      3496.731          46.375    20571034.000   110079765.655 7      3496.731          46.875    20571042.660    85617624.136 8      2719.680          50.687    20571042.340    85617626.134 8      2719.680          50.437
G22  23805885.540   125100774.894 7      4514.645          45.375    23805885.000   125100774.867 4      4514.645          28.250    23805887.740    97481136.164 4      3517.905          28.250
G04  23688937.360   124486268.325 6      5702.474          38.875    23688936.500   124486268.343 4      5702.474          29.375    23688951.160    97002360.021 4      4443.486          29.437    23688951.880    97002375.037 8      4443.486          48.625
G27  24813850.380   130397650.834 7      -462.350          42.625    24813849.180   130397650.842 6      -462.350          38.000    24813867.400   101608617.449 6      -360.273          37.687    24813867.860   101608624.441 6      -360.273          41.875
R15  22133683.800   118275672.963 7        46.700          45.625    22133683.820   118275672.967 7        46.700          45.687    22133695.020    91992224.048 7        36.323          47.062    22133694.900    91992230.051 7        36.323          47.437
G17  23769891.120   124911643.829 6      5523.894          38.875    23769890.140   124911643.839 5      5523.894          30.312    23769894.740    97333754.951 5      4304.333          30.312    23769896.100    97333757.951 7      4304.333          45.687
G32  25500514.000   134006103.564 6       762.933          37.375    25500511.880   134006103.568 4       762.933          26.500    25500521.220   104420370.299 4       594.494          26.500    25500522.940   104420376.306 5       594.494          35.812
> 2024 05 03 16 00 55.0000000  0 19
G03  20066661.900   105451016.237 8      3473.699          48.875    20066661.340   105451016.242 8      3473.699          50.562    20066666.300    82169625.990 8      2706.778          50.750    20066666.920    82169625.990 8      2706.778          51.437
G02  21657799.960   113812507.857 7      2153.569          46.375    21657798.260   113812507.867 6      2153.569          39.875    21657799.460    88685070.943 6      1678.106          39.625
R16  22777295.240   121672224.426 7      2905.714          45.000    22777293.180   121672224.401 7      2905.714          44.375    22777299.300    94633981.250 6      2260.000          40.875    22777306.240    94633991.309 6      2260.000          40.000
R03  21483383.500   115002289.043 7      6624.958          45.187    21483383.360   115002289.055 7      6624.958          43.750    21483396.380    89446248.991 7      5152.745          46.375    21483396.100    89446248.989 7      5152.745          47.000
R02  19805188.280   105684321.978 8      3386.314          50.625    19805187.320   105684321.976 8      3386.314          49.875    19805194.680    82198920.830 8      2633.800          50.187    19805195.140    82198914.832 8      2633.800          50.437
G21  22085799.300   116061634.009 7      1372.862          47.250    22085797.520   116061634.016 6      1372.862          37.875    22085800.100    90437649.799 6      1069.762          37.937
G08  21785176.380   114481852.679 7       474.974          46.312    21785175.660   114481852.678 7       474.974          47.000    21785182.780    89206677.125 7       370.110          46.750    21785183.780    89206653.131 8       370.110          48.875
G14  22111480.540   116196629.251 7      3338.472          44.125    22111479.920   116196629.259 5      3338.472          35.125    22111483.000    90542828.733 5      2601.407          34.937    22111483.840    90542837.728 8      2601.407          48.562
R01  21922069.180   117186022.582 7      -320.842          43.062    21922068.860   117186022.583 6      -320.842          41.750    21922080.000    91144732.159 7      -249.544          42.625    21922078.740    91144729.154 7      -249.544          42.687
R18  22544875.940   120346087.033 7      4770.814          43.312    22544878.160   120346087.050 7      4770.814          43.375    22544885.400    93602559.012 7      3710.633          46.687    22544884.900    93602556.015 7      3710.633          47.375
R24  21915806.180   117193669.558 7      1362.647          45.000    21915806.720   117193669.554 7      1362.647          44.250    21915818.000    91150673.261 7      1059.837          47.500    21915817.880    91150673.257 7      1059.837          47.875
R14  24001998.580   127944135.532 7      -967.809          43.562    24001997.520   127944135.530 7      -967.809          42.625    24002021.360    99512226.194 7      -752.740          43.937    24002021.840    99512226.199 7      -752.740          44.500
R17  20570380.560   110076268.966 7      3496.602          47.812    20570380.480   110076268.973 7      3496.602          47.187    20570389.160    85614904.495 8      2719.579          50.375    20570388.980    85614906.493 8      2719.579          50.812
G22  23805026.500   125096260.564 7      4514.099          45.500    23805026.020   125096260.542 4      4514.099          28.250    23805028.580    97477618.508 4      3517.480          28.250
G04  23687852.100   124480566.212 6      5702.004          38.562    23687851.400   124480566.233 4      5702.004          29.375    23687866.080    96997916.833 4      4443.120          29.437    23687866.720    96997931.847 8      4443.120          48.875
G27  24813938.340   130398113.416 6      -462.750          41.687    24813937.060   130398113.424 6      -462.750          38.000    24813955.400   101608977.886 6      -360.585          38.250    24813955.540   101608984.879 6      -360.585          41.875
R15  22133675.240   118275626.697 7        46.050          45.562    22133675.200   118275626.704 7        46.050          45.000    22133686.400    91992188.064 7        35.817          47.312    22133686.440    91992194.070 7        35.817          47.375
G17  23768840.460   124906119.870 6      5524.018          38.875    23768838.620   124906119.880 5      5524.018          30.312    23768843.880    97329450.573 4      4304.430          29.937    23768844.480    97329453.577 7      4304.430          45.687
G32  25500368.520   134005340.774 6       762.380          37.375    25500366.880   134005340.776 4       762.380          26.375    25500376.240   104419775.919 4       594.062          26.500    25500376.700   104419781.902 5       594.062          35.812
> 2024 05 03 16 00 56.0000000  0 19
G03  20066001.040   105447542.847 8      3473.248          49.062    20066000.340   105447542.855 8      3473.248          49.625    20066005.240    82166919.879 8      2706.427          49.812    20066005.840    82166919.879 8      2706.427          49.812
G02  21657389.980   113810354.246 7      2153.774          47.187    21657388.520   113810354.254 6      2153.774          39.250    21657389.640    88683392.802 6      1678.265          39.437
R16  22776751.220   121669318.989 7      2905.349          44.750    22776749.420   121669318.963 7      2905.349          44.187    22776754.640    94631721.447 6      2259.716          40.875    22776760.900    94631731.510 6      2259.716          40.000
R03  21482146.060   114995664.116 7      6624.807          45.125    21482145.840   114995664.128 7      6624.807          43.750    21482158.680    89441096.274 7      5152.628          46.250    21482158.880    89441096.278 7      5152.628          46.750
R02  19804553.840   105680936.068 8      3385.537          50.375    19804552.820   105680936.066 8      3385.537          49.500    19804560.200    82196287.347 8      2633.195          49.750    19804560.640    82196281.349 8      2633.195          49.812
G21  22085537.900   116060261.062 7      1373.061          47.250    22085536.300   116060261.067 6      1373.061          37.937    22085538.780    90436579.971 6      1069.918          37.937
G08  21785086.120   114481377.855 7       474.688          47.562    21785085.280   114481377.857 7       474.688          46.687    21785092.380    89206307.130 7       369.887          46.875    21785093.540    89206283.132 8       369.887          48.562
G14  22110845.240   116193291.021 7      3338.166          44.562    22110844.860   116193291.026 5      3338.166          35.000    22110847.700    90540227.509 5      2601.169          34.875    22110848.520    90540236.508 8      2601.169          48.125
R01  21922129.240   117186343.578 7      -321.322          42.687    21922128.560   117186343.585 6      -321.322          41.875    21922140.520    91144981.827 7      -249.917          42.062    21922138.840    91144978.818 7      -249.917          43.000
R18  22543982.380   120341316.145 7      4771.302          43.937    22543984.280   120341316.159 7      4771.302          42.937    22543991.220    93598848.317 7      3711.013          46.812    22543991.300    93598845.327 7      3711.013          46.937
R24  21915551.380   117192306.859 7      1362.718          45.187    21915551.980   117192306.858 7      1362.718          44.687    21915563.200    91149613.382 7      1059.891          46.812    21915563.160    91149613.383 7      1059.891          47.750
R14  24002180.000   127945103.338 7      -967.569          43.500    24002179.260   127945103.341 7      -967.569          42.437    24002203.060    99512978.940 7      -752.553          43.562    24002203.480    99512978.948 7      -752.553          43.812
R17  20569727.180   110072772.328 8      3496.736          48.125    20569726.860   110072772.340 7      3496.736          47.000    20569735.740    85612184.892 8      2719.684          49.875    20569735.460    85612186.894 8      2719.684          50.562
G22  23804167.380   125091746.638 7      4513.987          42.625    23804166.740   125091746.627 4      4513.987          28.250    23804169.560    97474101.170 4      3517.392          28.250
G04  23686766.620   124474863.994 6      5702.247          38.625    23686766.320   124474864.012 4      5702.247          29.750    23686781.040    96993473.556 4      4443.310          29.437    23686781.540    96993488.583 8      4443.310          48.062
G27  24814026.140   130398576.109 7      -462.593          42.250    24814025.260   130398576.117 6      -462.593          37.625    24814043.500   101609338.402 6      -360.462          37.812    24814043.480   101609345.398 6      -360.462          41.812
R15  22133666.540   118275580.848 7        45.910          46.187    22133666.820   118275580.855 7        45.910          45.250    22133677.600    91992152.397 7        35.708          46.062    22133677.680    91992158.402 7        35.708          47.125
G17  23767789.100   124900595.905 6      5524.176          39.687    23767787.300   124900595.918 5      5524.176          30.000    23767792.760    97325146.191 4      4304.553          29.937    23767792.960    97325149.191 7      4304.553          45.562
G32  25500223.300   134004578.318 6       762.471          37.375    25500221.760   134004578.321 4       762.471          26.375    25500231.220   104419181.798 4       594.133          26.437    25500231.800   104419187.791 5       594.133          35.812
> 2024 05 03 16 00 57.0000000  0 19
G03  20065340.240   105444070.070 8      3472.398          49.000    20065339.480   105444070.075 8      3472.398          50.562    20065344.420    82164214.013 8      2705.764          50.937    20065344.920    82164214.013 8      2705.764          51.625
G02  21656980.220   113808200.706 7      2153.428          46.875    21656978.560   113808200.709 6      2153.428          39.562    21656979.860    88681714.717 6      1677.996          39.500
R16  22776207.480   121666414.315 7      2904.137          45.125    22776205.820   121666414.290 7      2904.137          44.750    22776210.020    94629462.239 6      2258.773          39.750    22776216.120    94629472.293 6      2258.773          40.000
R03  21480908.720   114989039.519 7      6624.336          45.000    21480908.080   114989039.536 7      6624.336          44.125    21480921.260    89435943.824 7      5152.261          46.437    21480920.940    89435943.824 7      5152.261          47.125
R02  19803918.920   105677551.082 8      3384.397          51.000    19803918.520   105677551.080 8      3384.397          49.937    19803925.820    82193654.584 8      2632.308          50.375    19803926.300    82193648.585 8      2632.308          50.250
G21  22085276.700   116058888.161 7      1372.785          47.312    22085275.020   116058888.166 6      1372.785          38.125    22085277.520    90435510.175 6      1069.703          38.000
G08  21784995.880   114480903.420 7       474.140          47.000    21784995.020   114480903.430 7       474.140          47.125    21785002.040    89205937.444 7       369.460          46.812    21785003.160    89205913.447 8       369.460          49.375
G14  22110210.120   116189953.399 7      3337.194          44.625    22110209.840   116189953.406 5      3337.194          35.000    22110212.640    90537626.764 5      2600.411          34.875    22110213.160    90537635.773 8      2600.411          48.750
R01  21922189.600   117186665.187 7      -322.026          43.125    21922189.040   117186665.193 6      -322.026          41.875    21922200.560    91145231.967 7      -250.465          42.437    21922199.020    91145228.962 7      -250.465          42.812
R18  22543088.380   120336545.202 7      4770.902          43.437    22543090.260   120336545.216 7      4770.902          43.500    22543096.940    93595137.575 7      3710.701          46.375    22543097.360    93595134.587 7      3710.701          46.500
R24  21915296.280   117190944.450 7      1362.099          45.687    21915297.000   117190944.448 7      1362.099          44.687    21915308.240    91148553.726 7      1059.410          47.312    21915308.220    91148553.729 8      1059.410          48.062
R14  24002361.340   127946070.931 7      -967.545          43.562    24002360.620   127946070.932 7      -967.545          42.437    24002384.380    99513731.527 7      -752.535          44.062    24002384.880    99513731.530 7      -752.535          44.000
R17  20569073.660   110069275.855 7      3496.228          47.250    20569073.660   110069275.865 7      3496.228          47.000    20569082.400    85609465.409 8      2719.288          50.375    20569081.860    85609467.409 8      2719.288          50.375
G22  23803308.340   125087233.185 6      4513.131          41.750    23803307.360   125087233.180 4      4513.131          28.250    23803310.760    97470584.202 4      3516.726          28.250
G04  23685681.620   124469161.794 6      5702.148          39.750    23685681.220   124469161.810 4      5702.148          29.750    23685695.940    96989030.300 4      4443.232          29.375    23685696.320    96989045.325 8      4443.232          48.812
G27  24814114.360   130399039.017 6      -463.004          41.625    24814113.260   130399039.025 6      -463.004          37.625    24814131.640   101609699.095 6      -360.782          37.937    24814131.460   101609706.081 6      -360.782          41.812
R15  22133657.900   118275535.422 7        45.093          46.625    22133658.260   118275535.428 7        45.093          45.625    22133669.160    91992117.065 7        35.072          46.937    22133668.920    91992123.070 7        35.072          47.000
G17  23766737.860   124895071.928 6      5523.806          39.375    23766736.200   124895071.930 5      5523.806          30.000    23766741.700    97320841.795 4      4304.264          29.937    23766741.940    97320844.789 7      4304.264          45.562
G32  25500078.760   134003816.435 6       761.378          37.562    25500076.700   134003816.443 4       761.378          26.375    25500086.320   104418588.127 4       593.281          26.437    25500087.300   104418594.118 5       593.281          35.812
