     3.05           OBSERVATION DATA    MIXED               RINEX VERSION / TYPE
TPS2RIN 1.0.29.3920 TPS-USER            20240511 181958 UTC PGM / RUN BY / DATE
Win64 build Feb 23, 2024 (c) Topcon Positioning Systems     COMMENT
SRC: 20240503_FA06.tps                                      COMMENT
OPT: -S -v 3.05                                             COMMENT
Observer            Agency                                  OBSERVER / AGENCY
O0M3X53SBGM         TPS HIPER_SR        4.8 HSR Jul,08,2022 REC # / TYPE / VERS
FW: 4.8 HSR Jul,08,2022 p3                                  COMMENT
SN: HiPer SR 1212-12575                                     COMMENT
000                 TPSHIPER_SR     NONE                    ANT # / TYPE
        1.8000        0.0000        0.0000                  ANTENNA: DELTA H/E/N
DELTA H stands for **SLANT** height here!                   COMMENT
FA06                                                        MARKER NAME
  5390986.7896 -1598487.7798  3005048.1667                  APPROX POSITION XYZ
  2024     5     3    16    21   38.0000000     GPS         TIME OF FIRST OBS
  2024     5     3    16    26   38.0000000     GPS         TIME OF LAST OBS
     1.000                                                  INTERVAL
   301 EPOCHS                                               COMMENT
G   16 C1C L1C D1C S1C C1W L1W D1W S1W C2W L2W D2W S2W C2X  SYS / # / OBS TYPES
       L2X D2X S2X                                          SYS / # / OBS TYPES
R   16 C1C L1C D1C S1C C1P L1P D1P S1P C2P L2P D2P S2P C2C  SYS / # / OBS TYPES
       L2C D2C S2C                                          SYS / # / OBS TYPES
    16                                                      # OF SATELLITES
   G02   301   301   301   301   301   301   301   301   301PRN / # OF OBS
         301   301   301     0     0     0     0            PRN / # OF OBS
   G03   301   301   301   301   301   301   301   301   301PRN / # OF OBS
         301   301   301   301   301   301   301            PRN / # OF OBS
   G04   301   301   301   301   301   301   301   301   301PRN / # OF OBS
         301   301   301   301   301   301   301            PRN / # OF OBS
   G08   301   301   301   301   301   301   301   301   301PRN / # OF OBS
         301   301   301   301   301   301   301            PRN / # OF OBS
   G14   301   301   301   301   301   301   301   301   301PRN / # OF OBS
         301   301   301   301   301   301   301            PRN / # OF OBS
   G17   301   301   301   301   301   301   301   301   301PRN / # OF OBS
         301   301   301   301   301   301   301            PRN / # OF OBS
   G21   301   301   301   301   301   301   301   301   301PRN / # OF OBS
         301   301   301     0     0     0     0            PRN / # OF OBS
   G22   301   301   301   301   301   301   301   301   301PRN / # OF OBS
         301   301   301     0     0     0     0            PRN / # OF OBS
   R01   301   301   301   301   301   301   301   301   301PRN / # OF OBS
         301   301   301   301   301   301   301            PRN / # OF OBS
   R02   301   301   301   301   301   301   301   301   301PRN / # OF OBS
         301   301   301   301   301   301   301            PRN / # OF OBS
   R03   301   301   301   301   301   301   301   301   301PRN / # OF OBS
         301   301   301   301   301   301   301            PRN / # OF OBS
   R15   274   274   274   274   269   269   269   269   269PRN / # OF OBS
         269   269   269   268   268   268   268            PRN / # OF OBS
   R16   301   301   301   301   301   301   301   301   301PRN / # OF OBS
         301   301   301   301   301   301   301            PRN / # OF OBS
   R17   301   301   301   301   301   301   301   301   301PRN / # OF OBS
         301   301   301   301   301   301   301            PRN / # OF OBS
   R18   301   301   301   301   301   301   301   301   301PRN / # OF OBS
         301   301   301   301   301   301   301            PRN / # OF OBS
   R24   301   301   301   301   301   301   301   301   301PRN / # OF OBS
         301   301   301   301   301   301   301            PRN / # OF OBS
G L1C                                                       SYS / PHASE SHIFT
G L1W -0.25000                                              SYS / PHASE SHIFT
G L2W  0.00000                                              SYS / PHASE SHIFT
G L2X  0.00000  01 G03                                      SYS / PHASE SHIFT
G L2X  0.25000  04 G04 G08 G14 G17                          SYS / PHASE SHIFT
R L1C                                                       SYS / PHASE SHIFT
R L1P -0.25000                                              SYS / PHASE SHIFT
R L2P -0.25000                                              SYS / PHASE SHIFT
R L2C                                                       SYS / PHASE SHIFT
  8 R01  1 R02 -4 R03  5 R15  0 R16 -1 R17  4 R18 -3 R24  2 GLONASS SLOT / FRQ #
                                                            GLONASS COD/PHS/BIS
    18    18  1929     7GPS                                 LEAP SECONDS
                                                            END OF HEADER
> 2024 05 03 16 21 38.0000000  0 16
G03  19935056.380   104759428.539 8      2714.173          49.125    19935055.860   104759428.544 8      2714.173          50.562    19935060.080    81630723.386 8      2114.940          51.312    19935060.840    81630723.386 8      2114.940          51.500
G02  21758202.120   114340120.568 7      2065.348          46.687    21758200.700   114340120.570 6      2065.348          38.750    21758201.640    89096197.919 6      1609.362          38.625
R16  22813443.380   121865312.162 8      1950.186          48.625    22813443.960   121865312.179 7      1950.186          47.375    22813454.060    94784165.582 8      1516.812          48.437    22813453.860    94784184.584 8      1516.812          48.375
R15  22777056.500   121713651.331 7      -380.479          44.750    22777056.220   121713651.319 7      -380.479          43.375    22777071.420    94666256.325 7      -295.928          46.187    22777071.180    94666256.330 7      -295.928          46.187
R02  19748823.940   105383559.186 8      2242.699          50.062    19748823.380   105383559.187 8      2242.699          49.625    19748830.960    81964996.587 8      1744.321          50.062    19748831.420    81964990.590 8      1744.321          51.437
G21  22364876.580   117528189.078 7      1335.301          46.375    22364875.500   117528189.086 6      1335.301          36.187    22364878.120    91580419.366 6      1040.494          36.375
G08  22328900.240   117339163.355 7         5.816          44.500    22328899.540   117339163.360 7         5.816          44.937    22328908.060    91433145.330 7         4.532          44.812    22328908.860    91433148.331 8         4.532          48.000
G14  22015390.280   115691665.284 7      2545.611          45.000    22015389.240   115691665.291 5      2545.611          35.812    22015393.800    90149352.954 5      1983.593          35.500    22015394.380    90149357.956 8      1983.593          48.750
R01  22678944.220   121231939.144 6      -994.902          41.875    22678943.700   121231939.145 6      -994.902          41.687    22678956.960    94291553.599 6      -773.812          40.937    22678955.920    94291550.592 6      -773.812          41.625
G22  23409345.060   123016939.099 7      3889.131          45.062    23409343.880   123016939.101 5      3889.131          31.062    23409348.100    95857349.591 5      3030.492          31.062
R24  22230967.160   118878971.545 7      1073.013          46.625    22230969.540   118878971.557 7      1073.013          45.562    22230979.820    92461464.418 7       834.566          46.500    22230979.820    92461470.415 7       834.566          46.625
R18  22025421.000   117573197.277 7      4836.275          43.062    22025420.980   117573197.265 7      4836.275          43.500    22025429.220    91445854.647 7      3761.547          46.187    22025429.300    91445856.662 7      3761.547          46.000
R17  20377848.560   109045990.840 7      3308.350          46.812    20377848.800   109045990.858 7      3308.350          46.437    20377857.520    84813577.851 8      2573.161          50.125    20377857.160    84813579.849 8      2573.161          50.062
G17  23067205.660   121218988.163 7      5461.489          43.500    23067203.960   121218988.163 5      5461.489          34.000    23067207.620    94456360.975 5      4255.706          33.875    23067209.420    94456370.017 7      4255.706          46.000
G04  22946084.080   120582487.684 7      5611.390          43.125    22946083.200   120582487.691 5      5611.390          31.812    22946094.160    93960417.630 5      4372.512          31.687    22946094.400    93960424.635 7      4372.512          46.687
R03  20606526.320   110308344.076 7      6051.055          46.687    20606525.560   110308344.110 7      6051.055          45.375    20606537.280    85795430.095 8      4706.376          50.625    20606537.120    85795429.098 8      4706.376          50.562
> 2024 05 03 16 21 39.0000000  0 16
G03  19934539.920   104756714.571 8      2713.887          49.187    19934539.460   104756714.573 8      2713.887          50.500    19934543.660    81628608.568 8      2114.717          50.937    19934544.380    81628608.568 8      2114.717          51.875
G02  21757809.280   114338055.278 7      2065.518          46.500    21757807.640   114338055.283 6      2065.518          38.812    21757808.520    89094588.600 6      1609.494          38.562
R16  22813078.260   121863362.200 8      1949.724          48.687    22813079.220   121863362.220 7      1949.724          47.500    22813089.220    94782648.940 8      1516.452          48.062    22813089.040    94782667.941 8      1516.452          48.562
R15  22777127.780   121714031.738 7      -380.396          45.187    22777127.420   121714031.723 7      -380.396          44.187    22777142.380    94666552.174 7      -295.864          46.437    22777142.560    94666552.179 7      -295.864          46.375
R02  19748403.780   105381316.905 8      2242.081          50.562    19748403.360   105381316.906 8      2242.081          49.125    19748410.860    81963252.588 8      1743.841          50.500    19748411.380    81963246.592 8      1743.841          50.562
G21  22364622.400   117526853.774 7      1335.540          45.937    22364621.380   117526853.778 6      1335.540          36.250    22364624.100    91579378.865 6      1040.681          36.375
G08  22328899.340   117339157.601 7         5.704          45.187    22328898.480   117339157.603 7         5.704          44.812    22328907.080    91433140.837 7         4.444          44.937    22328908.080    91433143.839 7         4.444          47.437
G14  22014905.760   115689119.850 7      2545.284          45.062    22014905.020   115689119.860 5      2545.284          35.875    22014909.500    90147369.499 5      1983.338          35.937    22014909.720    90147374.495 8      1983.338          49.062
R01  22679130.440   121232934.191 7      -995.154          42.000    22679129.960   121232934.197 6      -995.154          41.375    22679142.580    94292327.527 6      -774.009          40.937    22679141.640    94292324.523 6      -774.009          41.937
G22  23408605.180   123013050.170 7      3888.914          45.625    23408603.780   123013050.175 5      3888.914          31.062    23408608.200    95854319.257 5      3030.323          30.875
R24  22230766.320   118877898.577 7      1073.117          47.125    22230768.660   118877898.592 7      1073.117          46.187    22230779.280    92460629.878 7       834.647          46.375    22230779.180    92460635.880 7       834.647          47.062
R18  22024515.260   117568360.830 6      4836.759          39.562    22024512.200   117568360.837 7      4836.759          42.937    22024522.800    91442092.987 7      3761.924          45.750    22024522.880    91442094.999 7      3761.924          45.812
R17  20377230.400   109042682.612 7      3308.422          47.062    20377230.840   109042682.627 7      3308.422          46.500    20377239.380    84811004.778 8      2573.217          49.937    20377239.000    84811006.776 8      2573.217          50.187
G17  23066166.220   121213526.697 7      5461.726          42.750    23066164.700   121213526.699 5      5461.726          33.562    23066168.520    94452105.287 5      4255.890          33.687    23066169.120    94452114.333 7      4255.890          44.687
G04  22945016.140   120576876.257 7      5611.425          43.312    22945015.540   120576876.265 5      5611.425          32.000    22945026.380    93956045.096 5      4372.539          31.687    22945026.740    93956052.103 7      4372.539          47.187
R03  20605395.860   110302293.165 7      6050.721          46.437    20605395.260   110302293.196 7      6050.721          45.437    20605406.860    85790723.831 8      4706.116          50.625    20605406.980    85790722.834 8      4706.116          50.625
> 2024 05 03 16 21 40.0000000  0 16
G03  19934023.500   104754001.257 8      2712.891          48.500    19934023.060   104754001.262 8      2712.891          51.000    19934027.300    81626493.915 8      2113.941          51.375    19934028.080    81626493.915 8      2113.941          51.750
G02  21757416.300   114335990.078 7      2064.970          46.312    21757414.680   114335990.080 6      2064.970          38.250    21757415.660    89092979.349 6      1609.067          38.250
R16  22812713.580   121861413.050 8      1948.649          48.562    22812714.420   121861413.062 7      1948.649          47.375    22812724.320    94781132.930 8      1515.616          48.125    22812724.420    94781151.933 8      1515.616          48.125
R15  22777199.020   121714412.495 7      -380.931          45.000    22777198.460   121714412.481 7      -380.931          43.812    22777213.800    94666848.302 7      -296.280          45.875    22777213.640    94666848.307 7      -296.280          46.000
R02  19747983.800   105379075.585 8      2240.777          50.375    19747983.300   105379075.586 8      2240.777          49.062    19747990.880    81961509.337 8      1742.826          50.875    19747991.260    81961503.343 8      1742.826          51.375
G21  22364368.560   117525518.493 7      1335.132          46.250    22364367.340   117525518.500 6      1335.132          36.375    22364370.120    91578338.383 6      1040.363          36.437
G08  22328898.260   117339152.252 7         5.090          45.750    22328897.500   117339152.256 7         5.090          44.875    22328906.000    91433136.663 7         3.967          44.437    22328906.900    91433139.665 7         3.967          47.812
G14  22014421.620   115686575.122 7      2544.270          43.812    22014420.780   115686575.135 5      2544.270          35.875    22014425.180    90145386.593 5      1982.548          35.437    22014425.480    90145391.593 8      1982.548          48.812
R01  22679316.760   121233929.635 7      -995.763          42.062    22679316.240   121233929.639 6      -995.763          41.375    22679328.880    94293101.761 6      -774.482          40.937    22679327.720    94293098.754 6      -774.482          41.937
G22  23407865.220   123009161.838 7      3887.970          45.125    23407863.820   123009161.845 5      3887.970          31.062    23407868.140    95851289.386 5      3029.587          30.875
R24  22230565.920   118876825.881 7      1072.429          46.187    22230567.960   118876825.893 7      1072.429          45.750    22230578.820    92459795.549 7       834.111          46.500    22230578.960    92459801.555 7       834.111          47.625
R18  22023608.740   117563524.423 6      4836.304          39.562    22023604.880   117563524.435 7      4836.304          42.312    22023616.840    91438331.347 7      3761.570          45.500    22023616.520    91438333.349 7      3761.570          45.562
R17  20376612.300   109039374.595 8      3307.730          48.187    20376612.720   109039374.610 7      3307.730          47.000    20376621.340    84808431.874 8      2572.679          49.875    20376620.940    84808433.874 8      2572.679          50.812
G17  23065126.980   121208065.372 7      5461.184          43.250    23065125.560   121208065.380 5      5461.184          33.562    23065129.080    94447849.715 5      4255.468          33.687    23065128.560    94447858.718 7      4255.468          42.375
G04  22943948.420   120571265.033 7      5611.077          42.312    22943947.740   120571265.040 5      5611.077          32.000    22943958.560    93951672.722 5      4372.268          32.062    22943958.680    93951679.734 7      4372.268          47.562
R03  20604265.320   110296242.915 7      6049.863          46.812    20604264.840   110296242.949 7      6049.863          45.437    20604276.620    85786018.089 8      4705.449          50.187    20604276.600    85786017.095 8      4705.449          50.875
> 2024 05 03 16 21 41.0000000  0 16
G03  19933507.200   104751288.429 8      2712.614          48.687    19933506.800   104751288.431 8      2712.614          51.125    19933511.080    81624379.752 8      2113.725          51.250    19933511.900    81624379.752 8      2113.725          51.312
G02  21757023.180   114333924.917 7      2065.131          46.500    21757021.600   114333924.922 6      2065.131          38.812    21757022.580    89091370.137 6      1609.193          38.375
R16  22812348.580   121859464.543 8      1948.180          48.812    22812349.540   121859464.558 7      1948.180          47.187    22812359.240    94779617.423 8      1515.251          48.187    22812359.540    94779636.428 8      1515.251          48.250
R15  22777270.340   121714793.317 7      -380.952          44.312    22777269.700   121714793.310 7      -380.952          43.812    22777285.020    94667144.486 7      -296.296          46.312    22777285.260    94667144.491 7      -296.296          46.187
R02  19747564.200   105376835.121 8      2240.101          50.562    19747563.460   105376835.116 8      2240.101          48.687    19747570.980    81959766.756 8      1742.301          50.250    19747571.160    81959760.759 8      1742.301          50.437
G21  22364114.240   117524183.238 7      1335.247          47.062    22364113.260   117524183.246 6      1335.247          36.250    22364116.160    91577297.925 6      1040.452          36.812
G08  22328897.420   117339147.133 7         4.977          44.750    22328896.620   117339147.135 7         4.977          44.875    22328905.100    91433132.674 7         3.878          44.625    22328905.940    91433135.676 7         3.878          47.437
G14  22013937.300   115684030.894 7      2543.968          44.437    22013936.560   115684030.907 5      2543.968          35.875    22013940.940    90143404.079 5      1982.312          35.750    22013941.380    90143409.071 8      1982.312          49.312
R01  22679503.200   121234925.582 7      -995.872          42.062    22679502.880   121234925.581 6      -995.872          41.562    22679515.180    94293876.383 6      -774.567          40.437    22679514.100    94293873.377 6      -774.567          41.062
G22  23407125.260   123005273.950 7      3887.701          45.312    23407124.120   123005273.955 5      3887.701          31.062    23407128.120    95848259.861 5      3029.378          30.875
R24  22230364.920   118875753.400 7      1072.432          46.875    22230367.180   118875753.414 7      1072.432          46.187    22230378.160    92458961.399 7       834.114          46.437    22230378.420    92458967.401 7       834.114          47.437
R18  22022702.380   117558687.944 6      4836.565          39.562    22022699.440   117558687.948 7      4836.565          42.312    22022711.000    91434569.641 7      3761.773          46.125    22022710.580    91434571.641 7      3761.773          46.250
R17  20375994.140   109036066.758 7      3307.837          47.562    20375994.440   109036066.770 7      3307.837          46.375    20376002.980    84805859.114 8      2572.762          49.687    20376002.660    84805861.110 8      2572.762          50.437
G17  23064087.740   121202604.103 7      5461.253          44.875    23064086.240   121202604.108 5      5461.253          33.937    23064089.740    94443594.179 5      4255.522          33.750    23064089.100    94443603.143 7      4255.522          42.375
G04  22942880.560   120565653.790 7      5611.288          42.687    22942879.860   120565653.797 5      5611.288          32.000    22942890.800    93947300.329 5      4372.433          32.062    22942891.060    93947307.344 7      4372.433          47.375
R03  20603135.040   110290193.078 7      6049.646          46.937    20603134.620   110290193.101 7      6049.646          45.750    20603146.460    85781312.664 8      4705.280          50.187    20603146.620    85781311.665 8      4705.280          49.937
> 2024 05 03 16 21 42.0000000  0 16
G03  19932991.080   104748576.289 8      2711.762          49.250    19932990.700   104748576.294 8      2711.762          50.812    19932995.000    81622266.327 8      2113.062          51.375    19932995.840    81622266.327 8      2113.062          51.625
G02  21756630.380   114331859.880 7      2064.971          46.625    21756628.520   114331859.885 6      2064.971          38.312    21756629.660    89089761.011 6      1609.069          38.375
R16  22811984.040   121857516.889 8      1947.231          48.625    22811984.720   121857516.903 7      1947.231          47.500    22811994.780    94778102.579 7      1514.513          47.875    22811994.880    94778121.581 8      1514.513          48.312
R15  22777341.580   121715174.512 7      -381.328          44.562    22777341.160   121715174.505 7      -381.328          43.937    22777356.520    94667440.955 7      -296.588          45.875    22777356.480    94667440.955 7      -296.588          46.437
R02  19747144.400   105374595.630 8      2238.986          50.312    19747143.800   105374595.626 8      2238.986          48.750    19747151.200    81958024.928 8      1741.434          50.562    19747151.600    81958018.932 8      1741.434          51.187
G21  22363860.220   117522848.036 7      1335.168          46.437    22363859.060   117522848.041 6      1335.168          36.250    22363862.060    91576257.505 6      1040.391          36.250
G08  22328896.340   117339142.438 7         4.488          45.062    22328895.780   117339142.443 7         4.488          44.500    22328904.300    91433129.010 7         3.497          44.375    22328904.940    91433132.007 7         3.497          47.750
G14  22013453.480   115681487.397 7      2543.199          44.750    22013452.460   115681487.409 5      2543.199          35.750    22013456.860    90141422.127 5      1981.713          35.750    22013457.300    90141427.121 8      1981.713          48.750
R01  22679689.900   121235922.024 6      -996.740          41.750    22679689.320   121235922.036 6      -996.740          41.562    22679701.520    94294651.405 6      -775.242          40.437    22679700.480    94294648.396 6      -775.242          41.375
G22  23406385.540   123001386.669 7      3886.972          43.687    23406384.380   123001386.674 5      3886.972          31.062    23406388.420    95845230.809 5      3028.809          31.187
R24  22230164.580   118874681.239 7      1072.001          45.750    22230166.940   118874681.253 7      1072.001          45.812    22230177.840    92458127.494 7       833.779          46.562    22230177.980    92458133.496 7       833.779          47.250
R18  22021796.400   117553851.495 6      4836.454          39.187    22021795.540   117553851.485 7      4836.454          42.125    22021805.420    91430807.948 7      3761.687          46.125    22021804.840    91430809.950 7      3761.687          46.312
R17  20375376.120   109032759.159 7      3307.447          47.687    20375376.500   109032759.171 7      3307.447          46.375    20375384.980    84803286.530 8      2572.459          50.000    20375384.720    84803288.530 8      2572.459          50.625
G17  23063048.160   121197142.976 7      5461.057          46.250    23063047.040   121197142.973 5      5461.057          33.937    23063050.440    94439338.751 5      4255.369          33.750    23063050.600    94439347.713 7      4255.369          42.437
G04  22941813.020   120560042.786 7      5610.964          42.250    22941812.000   120560042.796 5      5610.964          32.125    22941823.040    93942928.129 5      4372.180          32.062    22941823.440    93942935.137 7      4372.180          47.375
R03  20602005.100   110284143.912 7      6048.823          46.750    20602004.820   110284143.938 7      6048.823          45.812    20602016.400    85776607.764 8      4704.640          50.437    20602016.480    85776606.767 8      4704.640          50.500
> 2024 05 03 16 21 43.0000000  0 16
G03  19932474.960   104745864.617 8      2711.412          48.812    19932474.680   104745864.620 8      2711.412          50.437    19932478.960    81620152.902 8      2112.789          49.875    19932479.740    81620152.902 8      2112.789          50.812
G02  21756237.320   114329794.814 7      2065.025          47.062    21756235.680   114329794.819 6      2065.025          38.937    21756236.740    89088151.871 6      1609.111          38.750
R16  22811619.640   121855569.873 7      1946.610          47.875    22811620.280   121855569.885 7      1946.610          47.500    22811630.200    94776588.227 7      1514.030          47.562    22811630.180    94776607.229 8      1514.030          48.250
R15  22777412.940   121715555.838 7      -381.432          44.687    22777412.440   121715555.834 7      -381.432          43.937    22777427.840    94667737.525 7      -296.669          46.312    22777427.940    94667737.528 7      -296.669          45.625
R02  19746724.920   105372356.943 8      2238.259          50.375    19746724.380   105372356.936 8      2238.259          49.500    19746731.720    81956283.723 8      1740.868          49.875    19746732.060    81956277.726 8      1740.868          50.437
G21  22363606.040   117521512.789 7      1335.229          46.562    22363604.940   117521512.792 6      1335.229          36.250    22363607.900    91575217.049 6      1040.438          36.187
G08  22328895.700   117339137.982 7         4.342          46.000    22328894.800   117339137.986 7         4.342          44.687    22328903.340    91433125.531 7         3.383          44.250    22328904.180    91433128.533 7         3.383          47.375
G14  22012969.600   115678944.435 7      2542.658          44.875    22012968.660   115678944.443 6      2542.658          36.000    22012973.080    90139440.594 6      1981.292          36.187    22012973.560    90139445.584 8      1981.292          49.375
R01  22679876.440   121236918.791 6      -996.947          41.750    22679875.060   121236918.801 6      -996.947          41.375    22679887.820    94295426.658 6      -775.403          40.250    22679887.000    94295423.653 6      -775.403          41.375
G22  23405645.860   122997499.800 7      3886.693          42.062    23405644.700   122997499.810 5      3886.693          31.062    23405648.780    95842202.084 5      3028.592          31.187
R24  22229964.300   118873609.249 7      1071.894          47.250    22229966.220   118873609.258 7      1071.894          45.937    22229977.340    92457293.711 7       833.695          46.250    22229977.460    92457299.715 7       833.695          46.937
R18  22020890.500   117549014.922 6      4836.564          41.687    22020892.200   117549014.907 7      4836.564          42.812    22020900.040    91427046.161 7      3761.772          45.687    22020899.080    91427048.165 7      3761.772          46.812
R17  20374757.940   109029451.632 8      3307.468          48.312    20374758.180   109029451.649 7      3307.468          46.562    20374766.880    84800714.015 8      2572.475          49.375    20374766.460    84800716.011 8      2572.475          49.750
G17  23062009.060   121191681.859 7      5461.004          44.750    23062007.700   121191681.848 5      5461.004          33.875    23062011.360    94435083.327 5      4255.328          33.625    23062012.040    94435092.317 7      4255.328          45.875
G04  22940745.340   120554431.798 7      5611.081          42.562    22940744.200   120554431.806 5      5611.081          32.125    22940755.260    93938555.940 5      4372.271          32.000    22940755.420    93938562.943 7      4372.271          47.250
R03  20600875.080   110278095.166 7      6048.522          47.312    20600874.880   110278095.189 7      6048.522          45.875    20600886.440    85771903.186 8      4704.406          50.437    20600886.400    85771902.187 8      4704.406          50.250
> 2024 05 03 16 21 44.0000000  0 16
G03  19931959.140   104743153.332 8      2711.158          48.812    19931958.800   104743153.337 8      2711.158          50.000    19931962.940    81618040.706 8      2112.590          50.437    19931963.880    81618040.706 8      2112.590          50.937
G02  21755844.180   114327729.583 7      2065.418          47.437    21755842.640   114327729.588 6      2065.418          38.875    21755843.720    89086542.598 6      1609.417          38.750
R16  22811254.980   121853623.321 7      1946.446          47.750    22811255.660   121853623.330 7      1946.446          47.187    22811265.820    94775074.238 7      1513.902          47.500    22811265.940    94775093.243 8      1513.902          48.187
R15  22777483.920   121715937.210 7      -381.263          44.500    22777483.880   121715937.208 7      -381.263          43.687    22777499.200    94668034.131 7      -296.538          45.812    22777499.120    94668034.134 7      -296.538          46.062
R02  19746305.440   105370118.939 8      2237.766          50.562    19746304.860   105370118.929 8      2237.766          49.500    19746312.480    81954543.053 8      1740.485          50.375    19746312.620    81954537.059 8      1740.485          50.812
G21  22363351.920   117520177.325 7      1335.636          46.687    22363350.860   117520177.324 6      1335.636          36.062    22363353.800    91574176.421 6      1040.756          36.062
G08  22328894.840   117339133.707 7         4.274          46.125    22328894.000   117339133.706 7         4.274          44.625    22328902.560    91433122.188 7         3.330          44.500    22328903.360    91433125.189 7         3.330          47.562
G14  22012485.660   115676401.862 7      2542.430          44.875    22012484.740   115676401.875 5      2542.430          35.812    22012489.400    90137459.369 5      1981.114          35.562    22012489.520    90137464.369 8      1981.114          49.125
R01  22680062.640   121237915.773 6      -996.960          41.687    22680062.000   121237915.769 6      -996.960          41.375    22680074.080    94296202.074 6      -775.413          40.250    22680073.720    94296199.066 6      -775.413          41.187
G22  23404906.480   122993613.231 7      3886.570          42.937    23404905.240   122993613.241 5      3886.570          30.937    23404909.260    95839173.589 5      3028.496          31.187
R24  22229763.620   118872537.246 7      1072.097          45.875    22229765.800   118872537.258 7      1072.097          45.187    22229776.780    92456459.927 7       833.853          46.125    22229777.080    92456465.931 7       833.853          46.875
R18  22019984.520   117544178.016 7      4837.196          45.187    22019987.400   117544177.990 7      4837.196          43.375    22019994.420    91423284.108 7      3762.264          46.250    22019993.200    91423286.119 7      3762.264          46.375
R17  20374140.320   109026143.995 7      3307.797          47.437    20374140.080   109026144.010 7      3307.797          46.562    20374148.800    84798141.405 8      2572.731          49.250    20374148.460    84798143.403 8      2572.731          50.000
G17  23060969.740   121186220.516 7      5461.545          44.375    23060968.360   121186220.513 5      5461.545          33.875    23060971.900    94430827.741 5      4255.749          33.625    23060973.880    94430836.774 7      4255.749          46.000
G04  22939677.300   120548820.800 6      5610.985          41.812    22939676.480   120548820.807 5      5610.985          32.187    22939687.680    93934183.740 5      4372.196          32.000    22939687.680    93934190.759 7      4372.196          46.875
R03  20599745.180   110272046.787 7      6048.313          46.562    20599744.760   110272046.808 7      6048.313          45.875    20599756.580    85767198.897 8      4704.243          49.937    20599756.560    85767197.896 8      4704.243          50.312
> 2024 05 03 16 21 45.0000000  0 16
G03  19931443.340   104740442.538 8      2710.495          48.625    19931442.900   104740442.542 8      2710.495          50.250    19931447.160    81615928.591 8      2112.074          50.000    19931448.040    81615928.591 8      2112.074          50.875
G02  21755451.200   114325664.396 7      2065.058          47.062    21755449.640   114325664.398 6      2065.058          38.500    21755450.700    89084933.355 6      1609.136          38.562
R16  22810890.860   121851677.424 8      1945.565          48.312    22810891.260   121851677.431 7      1945.565          46.750    22810901.580    94773560.765 7      1513.217          47.187    22810901.900    94773579.767 7      1513.217          47.500
R15  22777554.980   121716318.670 7      -381.455          44.625    22777554.840   121716318.665 7      -381.455          43.625    22777570.840    94668330.803 7      -296.687          46.062    22777570.520    94668330.806 7      -296.687          46.437
R02  19745886.240   105367881.789 8      2236.611          50.187    19745885.660   105367881.787 8      2236.611          48.750    19745893.080    81952803.053 8      1739.587          49.687    19745893.600    81952797.057 8      1739.587          49.937
G21  22363098.040   117518841.857 7      1335.359          46.500    22363096.740   117518841.862 6      1335.359          36.000    22363099.640    91573135.799 6      1040.540          36.250
G08  22328894.180   117339129.639 7         3.850          45.812    22328893.080   117339129.639 7         3.850          44.437    22328901.820    91433119.012 7         3.000          44.312    22328902.580    91433122.014 7         3.000          47.000
G14  22012001.760   115673859.813 7      2541.866          44.687    22012000.960   115673859.825 5      2541.866          35.750    22012005.700    90135478.551 5      1980.674          35.375    22012005.840    90135483.549 8      1980.674          49.062
R01  22680249.100   121238913.179 6      -997.717          41.750    22680248.500   121238913.178 6      -997.717          41.062    22680260.960    94296977.830 6      -776.002          40.187    22680259.980    94296974.827 6      -776.002          41.187
G22  23404166.920   122989727.159 7      3885.807          43.000    23404165.840   122989727.169 5      3885.807          30.937    23404169.760    95836145.484 5      3027.902          30.937
R24  22229563.280   118871465.478 7      1071.535          46.687    22229565.220   118871465.487 7      1071.535          45.250    22229576.460    92455626.323 7       833.416          46.062    22229576.840    92455632.330 7       833.416          46.375
R18  22019078.340   117539341.073 7      4836.889          44.750    22019080.720   117539341.052 7      4836.889          43.375    22019088.000    91419522.045 7      3762.025          46.250    22019087.400    91419524.060 7      3762.025          46.500
R17  20373521.800   109022836.532 7      3307.235          47.812    20373522.080   109022836.541 7      3307.235          46.500    20373530.800    84795568.929 8      2572.294          48.750    20373530.460    84795570.925 8      2572.294          49.000
G17  23059930.360   121180759.288 7      5461.119          43.187    23059929.240   121180759.293 5      5461.119          33.687    23059932.560    94426572.247 5      4255.417          33.875    23059934.560    94426581.301 7      4255.417          46.125
G04  22938609.700   120543209.759 7      5610.873          42.500    22938608.620   120543209.775 5      5610.873          32.187    22938619.900    93929811.513 5      4372.109          32.000    22938619.880    93929818.530 7      4372.109          47.062
R03  20598615.380   110265998.810 7      6047.663          47.187    20598615.220   110265998.833 7      6047.663          45.500    20598626.820    85762494.919 8      4703.738          49.187    20598626.860    85762493.918 8      4703.738          49.625
> 2024 05 03 16 21 46.0000000  0 16
G03  19930927.780   104737732.511 8      2709.919          48.437    19930927.200   104737732.518 8      2709.919          50.250    19930931.480    81613817.459 8      2111.625          51.125    19930932.260    81613817.459 8      2111.625          50.937
G02  21755058.420   114323599.424 7      2065.155          47.625    21755056.760   114323599.427 6      2065.155          38.687    21755057.880    89083324.288 6      1609.212          38.562
R16  22810526.780   121849732.374 7      1944.946          47.625    22810526.720   121849732.378 7      1944.946          46.500    22810537.300    94772047.950 7      1512.735          47.500    22810537.620    94772066.955 8      1512.735          48.062
R15  22777626.900   121716700.568 7      -381.848          44.562    22777626.720   121716700.566 7      -381.848          43.375    22777642.160    94668627.818 7      -296.993          46.562    22777642.300    94668627.823 7      -296.993          46.937
R02  19745467.360   105365645.743 8      2235.742          50.812    19745466.580   105365645.741 8      2235.742          49.187    19745474.060    81951063.907 8      1738.911          50.937    19745474.320    81951057.910 8      1738.911          50.437
G21  22362843.800   117517506.589 7      1335.430          46.125    22362842.680   117517506.592 5      1335.430          35.937    22362845.540    91572095.327 6      1040.594          36.062
G08  22328893.620   117339126.142 7         3.454          46.187    22328892.400   117339126.147 7         3.454          44.812    22328901.200    91433116.291 7         2.692          44.500    22328902.060    91433119.293 7         2.692          47.500
G14  22011518.240   115671318.564 7      2541.151          45.187    22011517.320   115671318.577 6      2541.151          36.312    22011522.100    90133498.355 6      1980.118          36.000    22011522.280    90133503.357 8      1980.118          49.000
R01  22680436.000   121239911.174 6      -997.977          41.750    22680435.040   121239911.180 6      -997.977          41.062    22680447.560    94297754.050 6      -776.204          40.062    22680446.600    94297751.045 6      -776.204          40.687
G22  23403427.680   122985841.714 7      3885.347          42.500    23403426.400   122985841.724 5      3885.347          30.937    23403430.380    95833117.865 5      3027.543          30.937
R24  22229362.880   118870394.178 7      1071.319          47.437    22229365.040   118870394.190 7      1071.319          45.687    22229376.100    92454793.092 7       833.248          46.500    22229376.340    92454799.094 7       833.248          46.750
R18  22018172.200   117534504.180 7      4837.111          44.062    22018172.800   117534504.160 7      4837.111          42.812    22018181.640    91415760.030 7      3762.198          46.250    22018181.000    91415762.049 7      3762.198          46.625
R17  20372904.020   109019529.414 7      3307.215          47.500    20372903.740   109019529.424 7      3307.215          46.375    20372912.780    84792996.731 8      2572.278          50.000    20372912.540    84792998.729 8      2572.278          50.125
G17  23058891.000   121175298.253 7      5461.237          43.125    23058890.060   121175298.260 5      5461.237          33.687    23058893.240    94422316.901 5      4255.509          33.875    23058894.300    94422325.947 7      4255.509          44.812
G04  22937542.240   120537599.071 7      5610.688          42.750    22937541.060   120537599.086 5      5610.688          32.187    22937552.300    93925439.560 5      4371.965          32.125    22937552.200    93925446.583 7      4371.965          47.625
R03  20597485.640   110259951.598 7      6046.985          46.562    20597485.280   110259951.621 7      6046.985          45.562    20597497.260    85757791.542 8      4703.211          50.562    20597497.160    85757790.543 8      4703.211          50.562
> 2024 05 03 16 21 47.0000000  0 16
G03  19930412.140   104735022.980 8      2709.043          48.625    19930411.600   104735022.982 8      2709.043          50.687    19930415.880    81611705.999 8      2110.942          51.750    19930416.840    81611705.999 8      2110.942          52.062
G02  21754665.340   114321534.382 7      2064.825          47.750    21754663.960   114321534.390 6      2064.825          39.000    21754665.080    89081715.168 6      1608.955          38.687
R16  22810162.800   121847787.991 7      1943.824          47.312    22810162.660   121847787.987 7      1943.824          46.937    22810173.400    94770535.650 7      1511.863          47.750    22810173.660    94770554.657 8      1511.863          48.750
R15  22777697.900   121717082.677 7      -382.448          44.812    22777697.580   121717082.672 7      -382.448          43.437    22777714.020    94668924.995 7      -297.459          46.812    22777713.680    94668925.002 7      -297.459          46.687
R02  19745048.380   105363410.428 8      2234.727          50.437    19745047.760   105363410.424 8      2234.727          49.687    19745055.200    81949325.324 8      1738.121          50.687    19745055.420    81949319.328 8      1738.121          51.125
G21  22362589.620   117516171.177 7      1335.268          46.625    22362588.760   117516171.185 6      1335.268          36.187    22362591.400    91571054.750 6      1040.469          36.375
G08  22328892.820   117339122.863 7         3.054          45.500    22328891.840   117339122.865 7         3.054          45.187    22328900.460    91433113.724 7         2.380          44.562    22328901.080    91433116.725 7         2.380          47.625
G14  22011034.840   115668777.883 7      2540.096          44.437    22011033.760   115668777.901 5      2540.096          35.750    22011038.660    90131518.610 5      1979.295          35.875    22011038.900    90131523.608 8      1979.295          49.187
R01  22680622.780   121240909.478 6      -998.841          41.937    22680622.180   121240909.493 6      -998.841          40.937    22680634.140    94298530.511 6      -776.877          40.062    22680633.320    94298527.508 6      -776.877          40.812
G22  23402688.660   122981956.753 7      3884.416          43.687    23402687.100   122981956.761 5      3884.416          30.687    23402691.100    95830090.623 5      3026.818          30.937
R24  22229162.280   118869322.937 7      1071.011          45.812    22229164.700   118869322.946 7      1071.011          46.187    22229175.760    92453959.898 7       833.009          47.000    22229175.920    92453965.900 7       833.009          47.000
R18  22017266.500   117529667.095 7      4836.902          44.062    22017264.160   117529667.096 7      4836.902          43.062    22017274.680    91411997.878 7      3762.035          46.437    22017274.620    91411999.897 7      3762.035          46.437
R17  20372285.740   109016222.390 7      3306.722          47.750    20372285.880   109016222.397 7      3306.722          46.625    20372294.660    84790424.597 8      2571.895          50.062    20372294.540    84790426.595 8      2571.895          50.312
G17  23057851.860   121169837.233 7      5460.752          45.000    23057850.760   121169837.236 5      5460.752          33.750    23057854.040    94418061.559 5      4255.132          33.625    23057853.600    94418070.564 7      4255.132          42.500
G04  22936474.380   120531988.427 7      5610.491          42.437    22936473.280   120531988.443 5      5610.491          32.000    22936484.620    93921067.644 5      4371.811          32.125    22936484.720    93921074.655 7      4371.811          47.312
R03  20596356.280   110253904.836 7      6046.295          47.187    20596355.660   110253904.856 7      6046.295          46.062    20596367.720    85753088.507 8      4702.674          50.562    20596367.500    85753087.510 8      4702.674          51.062
> 2024 05 03 16 21 48.0000000  0 16
G03  19929896.800   104732313.904 8      2708.857          49.312    19929896.040   104732313.906 8      2708.857          51.000    19929900.360    81609595.768 8      2110.797          51.375    19929901.200    81609595.768 8      2110.797          51.375
G02  21754272.240   114319469.292 7      2065.192          47.562    21754270.900   114319469.297 6      2065.192          38.500    21754271.940    89080106.006 6      1609.241          38.750
R16  22809798.760   121845844.191 7      1943.582          47.687    22809798.480   121845844.190 7      1943.582          46.875    22809809.680    94769023.804 8      1511.675          48.125    22809809.640    94769042.808 8      1511.675          48.500
R15  22777769.740   121717464.847 7      -382.161          44.250    22777769.200   121717464.838 7      -382.161          43.437    22777785.460    94669222.218 7      -297.236          46.625    22777785.180    94669222.219 7      -297.236          46.500
R02  19744629.660   105361175.914 8      2234.225          50.875    19744629.060   105361175.910 8      2234.225          48.937    19744636.440    81947587.371 8      1737.730          50.562    19744636.880    81947581.375 8      1737.730          50.937
G21  22362335.580   117514835.683 7      1335.684          46.812    22362334.520   117514835.686 6      1335.684          36.312    22362337.480    91570014.101 6      1040.792          36.437
G08  22328892.360   117339119.804 7         3.050          45.750    22328891.180   117339119.809 7         3.050          44.812    22328899.940    91433111.336 7         2.377          44.625    22328900.680    91433114.338 7         2.377          47.812
G14  22010551.300   115666237.665 7      2540.060          43.812    22010550.520   115666237.680 5      2540.060          35.875    22010555.320    90129539.217 5      1979.268          35.687    22010555.500    90129544.215 8      1979.268          49.187
R01  22680809.920   121241908.039 6      -998.536          41.937    22680808.880   121241908.051 6      -998.536          40.937    22680821.080    94299307.172 6      -776.639          40.125    22680819.920    94299304.169 6      -776.639          40.812
G22  23401949.140   122978072.150 7      3884.438          44.000    23401947.920   122978072.154 5      3884.438          30.687    23401951.900    95827063.661 5      3026.835          30.625
R24  22228962.140   118868251.800 7      1071.182          46.125    22228964.260   118868251.812 7      1071.182          45.687    22228975.500    92453126.786 7       833.142          46.437    22228975.480    92453132.790 7       833.142          46.562
R18  22016360.380   117524829.863 6      4837.395          40.062    22016356.100   117524829.880 7      4837.395          43.062    22016367.880    91408235.603 7      3762.419          46.312    22016368.460    91408237.616 7      3762.419          45.500
R17  20371668.020   109012915.377 7      3307.113          47.500    20371667.940   109012915.391 7      3307.113          47.000    20371676.740    84787852.481 8      2572.199          50.000    20371676.560    84787854.480 8      2572.199          50.562
G17  23056812.560   121164376.158 7      5461.193          45.000    23056811.520   121164376.158 5      5461.193          33.750    23056814.840    94413806.176 5      4255.475          33.625    23056813.880    94413815.126 7      4255.475          42.500
G04  22935406.640   120526377.823 7      5610.552          42.375    22935405.640   120526377.841 5      5610.552          32.000    22935416.920    93916695.757 5      4371.858          32.125    22935417.000    93916702.762 7      4371.858          47.437
R03  20595226.480   110247858.483 7      6046.198          47.000    20595226.500   110247858.495 7      6046.198          45.937    20595238.300    85748385.788 8      4702.598          50.937    20595238.000    85748384.791 8      4702.598          50.937
> 2024 05 03 16 21 49.0000000  0 16
G03  19929381.240   104729605.296 8      2708.383          48.687    19929380.640   104729605.301 8      2708.383          51.062    19929384.880    81607484.636 8      2110.428          51.500    19929385.840    81607484.636 8      2110.428          51.437
G02  21753879.300   114317404.142 7      2065.239          47.500    21753877.940   114317404.144 6      2065.239          39.250    21753878.860    89078496.792 6      1609.277          39.125
R16  22809435.340   121843900.994 7      1942.988          47.125    22809434.880   121843900.995 7      1942.988          46.125    22809445.860    94767512.426 8      1511.213          48.250    22809445.860    94767531.433 8      1511.213          48.625
R15  22777841.300   121717847.135 7      -382.228          43.437    22777840.200   121717847.128 7      -382.228          43.187    22777857.020    94669519.535 7      -297.289          46.562    22777856.920    94669519.538 7      -297.289          46.687
R02  19744210.920   105358942.235 8      2233.372          50.562    19744210.480   105358942.236 8      2233.372          49.000    19744217.820    81945850.069 8      1737.067          50.875    19744218.240    81945844.073 8      1737.067          51.500
G21  22362081.360   117513500.111 7      1335.707          46.375    22362080.200   117513500.108 6      1335.707          36.187    22362083.200    91568973.389 6      1040.811          36.062
G08  22328891.880   117339117.019 7         2.809          45.125    22328890.660   117339117.027 7         2.809          44.812    22328899.400    91433109.158 7         2.189          44.562    22328900.200    91433112.164 7         2.189          47.437
G14  22010068.240   115663697.946 7      2539.568          43.812    22010067.200   115663697.961 5      2539.568          35.750    22010071.980    90127560.213 5      1978.884          35.437    22010072.140    90127565.215 8      1978.884          49.062
R01  22680996.640   121242906.964 6      -998.968          41.500    22680995.680   121242906.965 6      -998.968          40.937    22681008.000    94300084.101 6      -776.975          40.125    22681007.220    94300081.091 6      -776.975          40.875
G22  23401210.020   122974187.919 7      3884.208          44.375    23401208.600   122974187.919 5      3884.208          30.687    23401212.760    95824036.984 5      3026.656          30.625
R24  22228762.020   118867180.831 7      1070.925          45.750    22228763.900   118867180.833 7      1070.925          45.625    22228775.120    92452293.798 7       832.942          46.937    22228775.120    92452299.804 7       832.942          47.125
R18  22015453.660   117519992.464 6      4837.551          40.062    22015450.800   117519992.470 7      4837.551          42.375    22015460.900    91404473.179 7      3762.540          45.937    22015461.840    91404475.181 7      3762.540          45.375
R17  20371050.040   109009608.411 8      3306.999          48.250    20371050.080   109009608.426 7      3306.999          46.687    20371058.700    84785280.393 8      2572.110          49.937    20371058.620    84785282.391 8      2572.110          50.250
G17  23055773.360   121158915.013 7      5461.258          44.625    23055772.300   121158915.012 5      5461.258          33.875    23055775.500    94409550.736 5      4255.526          33.687    23055776.140    94409559.687 6      4255.526          41.312
G04  22934338.800   120520767.234 7      5610.727          42.187    22934337.960   120520767.250 5      5610.727          32.000    22934349.360    93912323.878 5      4371.995          31.687    22934349.480    93912330.885 7      4371.995          47.125
R03  20594097.440   110241812.604 7      6045.742          46.750    20594097.320   110241812.619 7      6045.742          45.625    20594108.780    85743683.448 8      4702.244          50.437    20594108.620    85743682.449 8      4702.244          51.062
> 2024 05 03 16 21 50.0000000  0 16
G03  19928865.880   104726897.071 8      2707.922          49.500    19928865.240   104726897.071 8      2707.922          50.625    19928869.540    81605374.323 8      2110.069          51.250    19928870.420    81605374.323 8      2110.069          51.562
G02  21753486.120   114315338.911 7      2065.134          46.750    21753484.840   114315338.913 6      2065.134          39.000    21753485.920    89076887.524 6      1609.195          38.750
R16  22809071.600   121841958.372 7      1942.254          47.250    22809071.120   121841958.373 7      1942.254          46.312    22809082.180    94766001.500 7      1510.642          47.812    22809082.200    94766020.504 8      1510.642          48.375
R15  22777912.580   121718229.418 7      -382.440          43.625    22777911.900   121718229.416 7      -382.440          42.500    22777928.680    94669816.851 7      -297.453          46.750    22777928.380    94669816.854 7      -297.453          46.750
R02  19743792.440   105356709.279 8      2232.520          50.750    19743792.400   105356709.280 8      2232.520          49.812    19743799.380    81944113.325 8      1736.405          50.500    19743799.820    81944107.331 8      1736.405          51.250
G21  22361827.320   117512164.399 7      1335.633          46.937    22361825.920   117512164.404 6      1335.633          36.250    22361829.200    91567932.575 6      1040.753          36.437
G08  22328891.400   117339114.347 7         2.537          45.750    22328890.220   117339114.355 7         2.537          44.125    22328898.820    91433107.071 7         1.977          44.312    22328899.760    91433110.073 7         1.977          47.625
G14  22009585.160   115661158.668 7      2538.945          44.062    22009583.880   115661158.683 5      2538.945          35.125    22009588.720    90125581.557 5      1978.399          35.312    22009589.080    90125586.557 8      1978.399          49.250
R01  22681183.680   121243906.177 6      -999.537          41.500    22681182.700   121243906.176 6      -999.537          40.937    22681194.580    94300861.263 6      -777.418          40.125    22681193.900    94300858.257 6      -777.418          40.812
G22  23400470.840   122970304.069 7      3883.553          44.250    23400469.500   122970304.074 5      3883.553          31.000    23400473.700    95821010.609 5      3026.145          30.625
R24  22228561.780   118866109.914 7      1070.691          46.562    22228563.580   118866109.920 7      1070.691          45.625    22228574.940    92451460.864 7       832.760          46.937    22228575.100    92451466.868 7       832.760          46.500
R18  22014547.560   117515154.874 6      4837.567          39.687    22014547.000   117515154.867 7      4837.567          42.500    22014554.640    91400710.597 7      3762.552          45.812    22014555.640    91400712.589 7      3762.552          45.125
R17  20370431.760   109006301.451 7      3306.855          47.000    20370431.920   109006301.466 7      3306.855          46.375    20370440.780    84782708.311 8      2571.998          50.250    20370440.600    84782710.311 8      2571.998          50.375
G17  23054734.200   121153453.814 7      5461.139          44.312    23054733.300   121153453.819 5      5461.139          34.250    23054736.260    94405295.265 5      4255.433          33.687    23054738.300    94405304.241 7      4255.433          45.875
G04  22933271.560   120515156.549 7      5610.556          42.812    22933270.200   120515156.561 5      5610.556          31.750    22933281.440    93907951.921 5      4371.861          31.687    22933282.020    93907958.936 7      4371.861          47.562
R03  20592967.620   110235767.030 7      6045.300          47.437    20592968.260   110235767.058 7      6045.300          45.250    20592979.400    85738981.352 8      4701.900          50.125    20592979.420    85738980.355 8      4701.900          50.750
> 2024 05 03 16 21 51.0000000  0 16
G03  19928350.720   104724189.362 8      2707.570          48.437    19928350.080   104724189.361 8      2707.570          50.687    19928354.300    81603264.829 8      2109.795          51.250    19928355.280    81603264.829 8      2109.795          51.812
G02  21753093.300   114313273.671 7      2065.373          46.375    21753091.980   114313273.673 6      2065.373          39.125    21753092.940    89075278.243 6      1609.382          38.750
R16  22808707.980   121840016.388 7      1941.784          46.375    22808707.620   121840016.384 7      1941.784          46.375    22808718.580    94764491.061 8      1510.276          48.187    22808719.160    94764510.068 8      1510.276          48.312
R15  22777984.000   121718611.789 7      -382.301          43.937    22777983.240   121718611.785 7      -382.301          42.562    22778000.160    94670114.232 7      -297.345          47.062    22777999.800    94670114.233 7      -297.345          47.125
R02  19743374.100   105354477.110 8      2231.935          50.500    19743373.960   105354477.111 8      2231.935          49.000    19743380.960    81942377.198 8      1735.950          50.750    19743381.220    81942371.202 8      1735.950          50.875
G21  22361573.060   117510828.635 7      1335.909          46.687    22361571.880   117510828.637 6      1335.909          36.062    22361575.060    91566891.720 6      1040.968          36.375
G08  22328890.840   117339111.932 7         2.425          45.437    22328889.720   117339111.935 7         2.425          44.500    22328898.380    91433105.180 7         1.890          44.125    22328899.580    91433108.181 7         1.890          47.750
G14  22009102.140   115658619.921 7      2538.578          43.875    22009100.840   115658619.931 5      2538.578          35.937    22009105.660    90123603.306 5      1978.113          35.562    22009105.840    90123608.306 8      1978.113          48.812
R01  22681370.660   121244905.735 6      -999.639          41.750    22681369.560   121244905.736 6      -999.639          40.812    22681381.960    94301638.699 6      -777.497          40.125    22681380.740    94301635.693 6      -777.497          40.812
G22  23399731.940   122966420.661 7      3883.203          43.875    23399730.420   122966420.666 5      3883.203          31.000    23399734.680    95817984.579 5      3025.872          31.312
R24  22228361.380   118865039.196 7      1070.725          46.250    22228363.160   118865039.200 7      1070.725          45.750    22228374.740    92450628.082 7       832.786          46.812    22228374.720    92450634.082 7       832.786          46.875
R18  22013641.220   117510317.170 7      4837.847          42.125    22013643.720   117510317.147 7      4837.847          42.875    22013649.200    91396947.924 7      3762.770          45.812    22013649.200    91396949.903 7      3762.770          45.562
R17  20369813.820   109002994.641 7      3306.750          47.500    20369814.160   109002994.651 7      3306.750          47.125    20369822.900    84780136.346 8      2571.917          49.937    20369822.580    84780138.342 8      2571.917          50.250
G17  23053695.180   121147992.647 7      5461.185          44.562    23053693.960   121147992.657 5      5461.185          34.250    23053697.200    94401039.814 5      4255.469          34.312    23053699.820    94401048.817 7      4255.469          47.125
G04  22932203.700   120509545.881 7      5610.801          42.625    22932202.500   120509545.897 5      5610.801          31.750    22932213.880    93903579.987 5      4372.052          31.875    22932214.580    93903587.000 7      4372.052          47.000
R03  20591838.700   110229721.922 7      6045.013          46.312    20591838.520   110229721.942 7      6045.013          45.312    20591850.120    85734279.603 8      4701.677          50.437    20591849.840    85734278.606 8      4701.677          50.687
> 2024 05 03 16 21 52.0000000  0 16
G03  19927835.500   104721482.267 8      2706.885          48.750    19927834.920   104721482.272 8      2706.885          50.687    19927839.180    81601155.089 8      2109.261          51.125    19927839.860    81601155.089 8      2109.261          51.500
G02  21752700.320   114311208.524 7      2065.251          46.312    21752698.780   114311208.526 6      2065.251          38.437    21752699.860    89073669.035 6      1609.287          38.437
R16  22808344.420   121838075.133 7      1941.025          46.812    22808344.100   121838075.137 7      1941.025          46.187    22808355.340    94762981.196 8      1509.686          48.125    22808355.380    94763000.207 8      1509.686          48.437
R15  22778055.740   121718994.459 7      -382.775          43.937    22778054.820   121718994.447 7      -382.775          42.562    22778072.100    94670411.844 7      -297.714          47.062    22778071.840    94670411.844 7      -297.714          46.875
R02  19742956.040   105352245.872 8      2230.891          50.500    19742955.760   105352245.868 8      2230.891          49.250    19742962.800    81940641.789 8      1735.138          50.812    19742963.140    81940635.793 8      1735.138          51.250
G21  22361318.980   117509492.928 7      1335.787          46.000    22361317.680   117509492.931 6      1335.787          36.312    22361320.800    91565850.905 6      1040.873          36.375
G08  22328890.340   117339109.909 7         1.999          45.875    22328889.360   117339109.911 7         1.999          44.375    22328898.020    91433103.597 7         1.558          43.875    22328899.060    91433106.597 7         1.558          47.875
G14  22008619.080   115656081.836 7      2537.857          43.500    22008617.740   115656081.846 5      2537.857          35.750    22008622.740    90121625.578 5      1977.551          35.750    22008622.640    90121630.576 8      1977.551          49.125
R01  22681557.400   121245905.753 6     -1000.117          41.750    22681556.240   121245905.765 6     -1000.117          40.812    22681569.160    94302416.497 6      -777.869          40.062    22681568.240    94302413.491 6      -777.869          40.625
G22  23398992.960   122962537.779 7      3882.733          43.750    23398991.440   122962537.786 5      3882.733          31.000    23398995.880    95814958.960 5      3025.506          31.312
R24  22228161.360   118863968.723 7      1070.544          46.687    22228162.900   118863968.727 7      1070.544          45.437    22228174.440    92449795.485 7       832.645          46.750    22228174.660    92449801.489 7       832.645          46.937
R18  22012734.860   117505479.445 7      4837.878          45.312    22012738.820   117505479.419 7      4837.878          43.562    22012744.340    91393185.232 7      3762.794          46.125    22012743.540    91393187.213 7      3762.794          45.937
R17  20369196.300   108999688.016 7      3306.661          46.687    20369195.700   108999688.025 7      3306.661          46.625    20369205.020    84777564.526 8      2571.848          50.125    20369204.460    84777566.524 8      2571.848          50.250
G17  23052655.880   121142531.578 7      5461.096          44.437    23052655.020   121142531.583 5      5461.096          34.312    23052658.000    94396784.433 5      4255.399          34.312    23052660.660    94396793.458 7      4255.399          46.937
G04  22931136.180   120503935.411 7      5610.569          42.375    22931134.780   120503935.424 5      5610.569          31.875    22931146.280    93899208.198 5      4371.872          31.875    22931146.820    93899215.215 7      4371.872          47.250
R03  20590709.080   110223677.416 7      6044.348          46.875    20590709.120   110223677.433 7      6044.348          45.750    20590721.000    85729578.327 8      4701.160          50.562    20590720.780    85729577.330 8      4701.160          50.937
> 2024 05 03 16 21 53.0000000  0 16
G03  19927320.480   104718775.714 8      2706.225          49.187    19927319.840   104718775.719 8      2706.225          50.812    19927324.120    81599046.168 8      2108.747          50.937    19927324.840    81599046.168 8      2108.747          51.625
G02  21752307.400   114309143.424 7      2064.949          46.875    21752305.900   114309143.423 6      2064.949          38.875    21752306.900    89072059.862 6      1609.051          38.687
R16  22807981.100   121836134.538 7      1940.138          47.625    22807980.860   121836134.539 7      1940.138          45.687    22807992.180    94761471.842 8      1508.997          48.000    22807992.160    94761490.851 8      1508.997          48.250
R15  22778127.400   121719377.265 7      -382.956          43.375    22778126.360   121719377.250 7      -382.956          42.375    22778143.640    94670709.555 7      -297.854          46.625    22778143.320    94670709.558 7      -297.854          47.187
R02  19742538.100   105350015.510 8      2229.878          50.937    19742537.960   105350015.502 8      2229.878          49.750    19742544.720    81938907.058 8      1734.349          50.625    19742545.300    81938901.060 8      1734.349          50.375
G21  22361064.660   117508157.209 7      1335.633          46.062    22361063.560   117508157.211 6      1335.633          36.375    22361066.540    91564810.081 6      1040.753          36.562
G08  22328890.040   117339108.196 7         1.595          46.187    22328889.000   117339108.198 7         1.595          44.812    22328897.760    91433102.254 7         1.243          44.562    22328898.900    91433105.256 7         1.243          47.750
G14  22008136.060   115653544.300 7      2537.153          43.375    22008134.960   115653544.318 5      2537.153          35.687    22008139.920    90119648.277 5      1977.002          35.750    22008140.240    90119653.275 8      1977.002          49.062
R01  22681744.200   121246906.196 6     -1000.780          41.375    22681743.700   121246906.199 6     -1000.780          40.750    22681756.380    94303194.608 6      -778.384          40.062    22681755.220    94303191.607 6      -778.384          40.625
G22  23398253.880   122958655.372 7      3882.047          43.125    23398252.840   122958655.384 5      3882.047          31.000    23398257.080    95811933.712 5      3024.972          31.312
R24  22227961.260   118862898.495 7      1070.094          46.375    22227962.820   118862898.488 7      1070.094          45.125    22227974.360    92448963.077 7       832.295          46.812    22227974.800    92448969.079 7       832.295          46.937
R18  22011829.060   117500641.604 7      4837.756          45.500    22011832.180   117500641.584 7      4837.756          44.187    22011839.480    91389422.467 7      3762.699          46.500    22011837.500    91389424.459 7      3762.699          47.312
R17  20368578.220   108996381.532 7      3306.379          47.812    20368577.680   108996381.547 7      3306.379          46.500    20368587.000    84774992.819 8      2571.628          49.812    20368586.400    84774994.817 8      2571.628          50.562
G17  23051616.780   121137070.537 7      5460.918          46.062    23051615.880   121137070.534 5      5460.918          34.312    23051618.920    94392529.071 5      4255.261          34.312    23051620.720    94392538.114 7      4255.261          45.750
G04  22930068.540   120498325.046 6      5610.355          41.312    22930067.100   120498325.058 5      5610.355          31.875    22930078.580    93894836.499 5      4371.705          31.875    22930079.060    93894843.512 7      4371.705          47.437
R03  20589580.240   110217633.421 7      6043.811          47.750    20589580.040   110217633.441 7      6043.811          45.562    20589591.900    85724877.451 8      4700.742          50.125    20589591.640    85724876.452 8      4700.742          50.875
> 2024 05 03 16 21 54.0000000  0 16
G03  19926805.620   104716069.780 8      2705.485          49.312    19926804.940   104716069.788 8      2705.485          50.250    19926809.220    81596937.903 8      2108.170          51.250    19926809.940    81596937.903 8      2108.170          51.062
G02  21751914.300   114307078.379 7      2064.852          46.937    21751912.800   114307078.378 6      2064.852          38.875    21751913.880    89070450.736 6      1608.975          38.375
R16  22807617.940   121834194.682 7      1939.337          46.875    22807617.760   121834194.675 7      1939.337          46.000    22807629.140    94759963.056 7      1508.374          47.500    22807629.100    94759982.060 8      1508.374          48.125
R15  22778199.300   121719760.371 7      -383.486          44.062    22778198.040   121719760.364 7      -383.486          42.625    22778215.320    94671007.518 7      -298.267          47.312    22778215.140    94671007.521 7      -298.267          46.750
R02  19742120.260   105347786.102 8      2228.790          51.250    19742120.180   105347786.100 8      2228.790          50.187    19742127.100    81937173.079 8      1733.504          50.375    19742127.540    81937167.080 8      1733.504          50.375
G21  22360810.240   117506821.531 7      1335.493          46.812    22360809.320   117506821.536 6      1335.493          36.500    22360812.240    91563769.295 6      1040.644          36.500
G08  22328889.740   117339106.853 7         1.010          45.937    22328888.800   117339106.858 7         1.010          44.687    22328897.480    91433101.206 7          .787          44.687    22328898.680    91433104.207 7          .787          47.625
G14  22007653.400   115651007.453 7      2536.331          43.625    22007652.260   115651007.463 5      2536.331          35.687    22007657.240    90117671.505 5      1976.362          35.437    22007657.300    90117676.499 8      1976.362          49.187
R01  22681931.340   121247907.093 6     -1001.202          41.375    22681930.780   121247907.086 6     -1001.202          40.750    22681943.320    94303973.071 6      -778.713          39.812    22681942.760    94303970.066 6      -778.713          40.375
G22  23397515.720   122954773.524 7      3881.469          43.187    23397513.920   122954773.542 5      3881.469          31.000    23397518.560    95808908.896 5      3024.521          30.937
R24  22227761.260   118861828.524 7      1069.684          46.062    22227762.580   118861828.522 7      1069.684          45.812    22227774.320    92448130.873 7       831.977          46.562    22227774.700    92448136.877 7       831.977          47.312
R18  22010922.600   117495803.705 7      4837.835          44.250    22010923.480   117495803.698 7      4837.835          44.187    22010933.640    91385659.674 7      3762.761          46.625    22010931.340    91385661.682 8      3762.761          48.000
R17  20367960.420   108993075.247 7      3306.115          47.250    20367960.200   108993075.264 7      3306.115          46.312    20367969.080    84772421.263 8      2571.423          49.500    20367968.840    84772423.261 8      2571.423          50.062
G17  23050577.480   121131609.588 7      5460.803          45.500    23050576.500   121131609.588 5      5460.803          34.125    23050579.860    94388273.786 5      4255.171          34.000    23050579.980    94388282.813 7      4255.171          44.437
G04  22929000.800   120492714.859 6      5609.875          41.687    22928999.420   120492714.872 5      5609.875          31.875    22929010.980    93890464.938 5      4371.331          31.625    22929011.520    93890471.948 7      4371.331          47.062
R03  20588451.060   110211590.042 7      6042.953          47.937    20588451.100   110211590.062 7      6042.953          45.687    20588462.940    85720177.049 8      4700.074          50.125    20588462.960    85720176.050 8      4700.074          50.437
> 2024 05 03 16 21 55.0000000  0 16
G03  19926290.840   104713364.291 8      2705.237          49.500    19926290.120   104713364.296 8      2705.237          49.500    19926294.420    81594829.965 8      2107.977          49.812    19926295.120    81594829.965 8      2107.977          51.250
G02  21751521.340   114305013.270 7      2065.088          46.437    21751519.900   114305013.273 6      2065.088          38.562    21751521.100    89068841.567 6      1609.160          38.562
R16  22807254.800   121832255.364 7      1939.059          47.250    22807254.680   121832255.359 7      1939.059          46.375    22807266.320    94758454.697 7      1508.157          47.375    22807266.060    94758473.699 8      1508.157          48.062
R15  22778270.900   121720143.589 7      -383.271          43.312    22778269.880   121720143.587 7      -383.271          42.625    22778286.980    94671305.564 7      -298.100          46.500    22778286.880    94671305.564 7      -298.100          45.687
R02  19741702.680   105345557.490 8      2228.210          50.812    19741702.600   105345557.488 8      2228.210          49.375    19741709.400    81935439.716 8      1733.052          48.875    19741709.700    81935433.715 8      1733.052          49.562
G21  22360555.980   117505485.754 7      1335.794          46.375    22360555.040   117505485.756 5      1335.794          35.875    22360558.140    91562728.421 6      1040.879          36.250
G08  22328889.560   117339105.747 7         1.015          45.750    22328888.440   117339105.752 7         1.015          43.937    22328897.280    91433100.338 7          .791          43.937    22328898.300    91433103.343 7          .791          47.562
G14  22007170.420   115648471.036 7      2536.141          43.812    22007169.640   115648471.046 5      2536.141          35.625    22007174.480    90115695.074 5      1976.214          35.437    22007174.480    90115700.074 8      1976.214          49.375
R01  22682118.520   121248908.265 6     -1001.254          40.937    22682118.580   121248908.264 6     -1001.254          40.500    22682131.100    94304751.757 6      -778.753          39.812    22682129.780    94304748.751 6      -778.753          40.375
G22  23396776.420   122950892.034 7      3881.431          43.875    23396775.340   122950892.047 5      3881.431          31.000    23396779.880    95805884.356 5      3024.492          30.937
R24  22227561.240   118860758.678 7      1069.793          46.187    22227562.200   118860758.682 7      1069.793          44.875    22227574.400    92447298.773 7       832.061          46.375    22227574.560    92447304.773 7       832.061          46.500
R18  22010016.360   117490965.593 6      4838.224          41.437    22010014.600   117490965.575 7      4838.224          43.125    22010026.500    91381896.703 7      3763.063          45.937    22010025.200    91381898.728 7      3763.063          47.625
R17  20367342.660   108989769.028 7      3306.172          46.937    20367342.400   108989769.045 7      3306.172          46.000    20367351.320    84769849.762 8      2571.467          49.000    20367350.920    84769851.762 8      2571.467          49.187
G17  23049538.480   121126148.595 7      5460.977          43.562    23049537.320   121126148.594 5      5460.977          34.187    23049540.680    94384018.468 5      4255.307          34.000    23049540.400    94384027.457 7      4255.307          42.625
G04  22927932.900   120487104.649 7      5610.322          42.187    22927931.740   120487104.662 5      5610.322          31.750    22927943.360    93886093.358 5      4371.679          31.625    22927944.000    93886100.370 7      4371.679          47.375
R03  20587321.920   110205547.077 7      6042.791          47.375    20587322.360   110205547.103 7      6042.791          45.937    20587334.000    85715476.972 8      4699.949          49.625    20587334.120    85715475.975 8      4699.949          49.312
> 2024 05 03 16 21 56.0000000  0 16
G03  19925776.140   104710659.424 8      2704.422          49.000    19925775.420   104710659.427 8      2704.422          50.875    19925779.640    81592722.354 8      2107.342          51.187    19925780.380    81592722.354 8      2107.342          51.687
G02  21751128.540   114302948.249 7      2064.950          46.687    21751127.020   114302948.254 6      2064.950          38.187    21751128.040    89067232.457 6      1609.052          38.312
R16  22806891.760   121830316.860 7      1938.062          46.500    22806891.900   121830316.863 7      1938.062          46.062    22806903.400    94756946.976 8      1507.382          48.250    22806903.360    94756965.982 8      1507.382          49.000
R15  22778343.040   121720527.130 7      -383.787          43.312    22778341.640   121720527.134 7      -383.787          42.625    22778358.940    94671603.857 7      -298.501          46.750    22778358.720    94671603.858 7      -298.501          47.062
R02  19741285.320   105343329.811 8      2227.205          50.875    19741285.180   105343329.812 8      2227.205          49.500    19741291.960    81933707.079 8      1732.271          50.500    19741292.140    81933701.080 8      1732.271          50.687
G21  22360301.700   117504150.000 7      1335.707          45.937    22360300.960   117504149.999 6      1335.707          36.125    22360304.020    91561687.570 6      1040.811          36.187
G08  22328889.220   117339104.977 7          .544          45.125    22328888.360   117339104.977 7          .544          44.125    22328897.040    91433099.727 7          .424          44.187    22328898.380    91433102.727 7          .424          47.562
G14  22006688.100   115645935.300 7      2535.391          44.000    22006687.160   115645935.310 6      2535.391          36.062    22006691.880    90113719.172 5      1975.629          35.625    22006691.940    90113724.172 8      1975.629          49.250
R01  22682306.620   121249909.927 6     -1001.955          40.937    22682306.140   121249909.938 6     -1001.955          40.500    22682317.840    94305530.841 6      -779.298          39.437    22682316.940    94305527.832 6      -779.298          40.250
G22  23396038.080   122947011.146 7      3880.573          43.750    23396036.920   122947011.153 5      3880.573          31.000    23396041.500    95802860.285 5      3023.823          30.937
R24  22227361.620   118859689.116 7      1069.386          46.250    22227361.960   118859689.117 7      1069.386          45.562    22227374.540    92446466.881 7       831.745          46.937    22227374.500    92446472.885 7       831.745          47.312
R18  22009110.140   117486127.465 6      4838.184          41.437    22009105.940   117486127.479 7      4838.184          42.250    22009117.900    91378133.748 7      3763.032          45.687    22009118.640    91378135.791 7      3763.032          46.375
R17  20366724.400   108986463.029 7      3305.929          46.375    20366724.400   108986463.041 7      3305.929          46.062    20366733.500    84767278.429 8      2571.278          50.000    20366733.240    84767280.431 8      2571.278          50.437
G17  23048499.560   121120687.712 7      5460.798          43.312    23048498.160   121120687.714 5      5460.798          34.187    23048501.520    94379763.237 5      4255.167          34.125    23048501.360    94379772.221 7      4255.167          42.625
G04  22926865.580   120481494.625 7      5609.807          43.250    22926864.260   120481494.638 5      5609.807          31.750    22926875.740    93881721.917 5      4371.279          31.625    22926876.260    93881728.923 7      4371.279          47.625
R03  20586192.760   110199504.643 7      6042.093          46.937    20586193.860   110199504.677 7      6042.093          45.687    20586205.220    85710777.313 8      4699.406          50.187    20586205.140    85710776.316 8      4699.406          50.437
> 2024 05 03 16 21 57.0000000  0 16
G03  19925261.340   104707954.981 8      2704.083          49.250    19925260.740   104707954.986 8      2704.083          51.062    19925265.020    81590614.334 8      2107.077          51.062    19925265.680    81590614.334 8      2107.077          52.125
G02  21750735.660   114300883.199 7      2064.906          46.812    21750734.080   114300883.204 6      2064.906          38.625    21750735.120    89065623.327 6      1609.018          38.562
R16  22806529.060   121828378.946 7      1937.468          46.687    22806528.840   121828378.942 7      1937.468          46.562    22806540.840    94755439.699 8      1506.920          48.250    22806540.400    94755458.704 8      1506.920          49.000
R15  22778414.840   121720910.725 7      -383.713          43.250    22778413.420   121720910.720 7      -383.713          42.062    22778430.840    94671902.181 7      -298.443          46.687    22778430.280    94671902.184 7      -298.443          46.625
R02  19740868.040   105341102.922 8      2226.362          51.000    19740867.900   105341102.923 8      2226.362          50.187    19740874.580    81931975.052 8      1731.615          50.562    19740874.920    81931969.056 8      1731.615          50.437
G21  22360047.500   117502814.191 7      1335.665          46.125    22360046.800   117502814.190 6      1335.665          36.500    22360049.680    91560646.678 6      1040.778          36.437
G08  22328889.520   117339104.423 7          .298          45.562    22328888.180   117339104.425 7          .298          44.562    22328897.100    91433099.289 7          .232          43.875    22328898.000    91433102.295 7          .232          47.812
G14  22006205.540   115643400.066 7      2534.649          43.812    22006204.640   115643400.076 5      2534.649          35.562    22006209.460    90111743.665 5      1975.051          35.937    22006209.600    90111748.667 8      1975.051          49.187
R01  22682493.800   121250911.906 6     -1002.274          40.187    22682493.120   121250911.923 6     -1002.274          40.500    22682505.660    94306310.157 6      -779.546          39.437    22682504.800    94306307.151 6      -779.546          40.500
G22  23395299.700   122943130.630 7      3880.144          44.250    23395298.500   122943130.638 5      3880.144          31.000    23395302.820    95799836.505 5      3023.489          31.062
R24  22227161.380   118858619.666 7      1069.215          46.562    22227161.980   118858619.665 7      1069.215          45.250    22227174.540    92445635.085 7       831.612          47.250    22227174.380    92445641.087 7       831.612          47.437
R18  22008203.780   117481289.259 6      4837.956          39.750    22008200.060   117481289.281 7      4837.956          42.250    22008209.420    91374370.701 7      3762.855          45.750    22008211.780    91374372.740 7      3762.855          45.062
R17  20366106.600   108983157.101 7      3305.615          45.625    20366106.740   108983157.122 7      3305.615          46.375    20366115.720    84764707.156 8      2571.034          50.187    20366115.300    84764709.157 8      2571.034          50.437
G17  23047460.500   121115226.821 7      5460.637          44.250    23047458.960   121115226.831 5      5460.637          34.125    23047462.280    94375508.001 5      4255.041          34.125    23047463.180    94375516.996 7      4255.041          44.125
G04  22925798.000   120475884.533 7      5610.162          42.625    22925796.580   120475884.544 5      5610.162          31.750    22925808.080    93877350.427 5      4371.555          31.562    22925808.780    93877357.427 7      4371.555          47.875
R03  20585064.380   110193462.621 7      6041.640          47.437    20585065.480   110193462.655 7      6041.640          46.000    20585076.540    85706077.967 8      4699.054          50.500    20585076.700    85706076.970 8      4699.054          50.500
> 2024 05 03 16 21 58.0000000  0 16
G03  19924746.880   104705251.228 8      2703.612          49.937    19924746.200   104705251.233 8      2703.612          50.625    19924750.520    81588507.707 8      2106.711          51.062    19924751.160    81588507.707 8      2106.711          51.312
G02  21750342.700   114298818.269 7      2065.054          46.812    21750340.920   114298818.274 6      2065.054          38.437    21750342.220    89064014.289 6      1609.133          38.375
R16  22806166.200   121826441.826 7      1936.900          46.687    22806166.040   121826441.829 7      1936.900          46.562    22806178.140    94753933.050 7      1506.478          47.937    22806177.860    94753952.054 8      1506.478          48.500
R15  22778486.660   121721294.640 7      -383.773          42.562    22778485.280   121721294.628 7      -383.773          42.062    22778502.700    94672200.755 7      -298.490          46.562    22778502.260    94672200.758 7      -298.490          46.750
R02  19740451.020   105338877.005 8      2225.637          50.937    19740450.720   105338877.006 8      2225.637          49.687    19740457.540    81930243.781 8      1731.051          50.625    19740457.720    81930237.782 8      1731.051          51.312
G21  22359793.460   117501478.461 7      1335.820          46.687    22359792.460   117501478.460 6      1335.820          36.125    22359795.580    91559605.845 6      1040.899          36.437
G08  22328889.280   117339104.284 7          .149          45.625    22328888.080   117339104.288 7          .149          44.375    22328897.120    91433099.177 7          .116          44.000    22328897.920    91433102.182 7          .116          47.187
G14  22005723.440   115640865.497 7      2534.414          43.562    22005722.320   115640865.510 5      2534.414          35.562    22005727.240    90109768.674 5      1974.868          35.187    22005727.420    90109773.674 8      1974.868          49.250
R01  22682681.000   121251914.386 6     -1002.508          40.187    22682680.880   121251914.411 6     -1002.508          40.437    22682693.020    94307089.867 6      -779.729          39.875    22682692.000    94307086.860 6      -779.729          40.500
G22  23394561.440   122939250.714 7      3879.865          44.375    23394560.040   122939250.719 5      3879.865          31.000    23394564.480    95796813.190 5      3023.271          31.062
R24  22226961.720   118857550.516 7      1069.218          46.250    22226962.060   118857550.512 7      1069.218          45.125    22226974.680    92444803.515 7       831.614          47.250    22226974.640    92444809.517 7       831.614          47.750
R18  22007297.300   117476451.039 6      4838.376          39.750    22007295.840   117476451.038 7      4838.376          42.187    22007302.160    91370607.617 7      3763.182          45.562    22007304.920    91370609.623 7      3763.182          43.687
R17  20365488.840   108979851.354 7      3305.838          46.812    20365489.000   108979851.366 7      3305.838          47.125    20365497.840    84762136.011 8      2571.208          49.875    20365497.540    84762138.013 8      2571.208          50.125
G17  23046421.180   121109766.069 7      5460.912          44.750    23046419.920   121109766.074 5      5460.912          34.125    23046423.040    94371252.870 5      4255.256          34.000    23046424.520    94371261.875 7      4255.256          45.687
G04  22924730.460   120470274.710 6      5609.977          41.750    22924729.140   120470274.717 5      5609.977          32.062    22924740.500    93872979.140 5      4371.411          31.562    22924741.420    93872986.158 7      4371.411          47.062
R03  20583936.380   110187421.222 7      6041.302          47.562    20583936.580   110187421.251 7      6041.302          46.250    20583947.880    85701379.101 8      4698.790          50.687    20583947.780    85701378.104 8      4698.790          51.125
> 2024 05 03 16 21 59.0000000  0 16
G03  19924232.460   104702547.886 8      2702.851          49.937    19924231.800   104702547.888 8      2702.851          51.375    19924236.060    81586401.243 8      2106.118          51.562    19924236.940    81586401.243 8      2106.118          51.937
G02  21749949.500   114296753.256 7      2064.791          47.062    21749948.140   114296753.256 6      2064.791          38.562    21749949.180    89062405.184 6      1608.928          39.062
R16  22805803.820   121824505.239 7      1936.052          46.125    22805803.480   121824505.227 7      1936.052          45.500    22805815.380    94752426.804 8      1505.818          48.250    22805815.220    94752445.804 8      1505.818          48.750
R15  22778558.220   121721678.552 7      -384.220          43.437    22778557.200   121721678.538 7      -384.220          42.000    22778574.400    94672499.335 7      -298.838          46.812    22778573.860    94672499.338 7      -298.838          46.812
R02  19740033.760   105336651.823 8      2224.534          51.000    19740033.720   105336651.827 8      2224.534          50.625    19740040.460    81928513.090 8      1730.193          50.250    19740040.860    81928507.092 8      1730.193          50.812
G21  22359539.260   117500142.586 7      1335.687          46.750    22359538.160   117500142.583 6      1335.687          36.312    22359541.380    91558564.902 6      1040.795          36.437
G08  22328889.400   117339104.328 7         -.341          45.375    22328888.140   117339104.336 7         -.341          44.375    22328897.140    91433099.211 7         -.266          44.250    22328897.860    91433102.213 7         -.266          47.500
G14  22005241.320   115638331.409 7      2533.478          44.562    22005240.120   115638331.421 6      2533.478          36.062    22005245.020    90107794.060 5      1974.138          35.562    22005245.220    90107799.055 8      1974.138          49.250
R01  22682868.360   121252917.140 6     -1003.184          40.875    22682868.540   121252917.179 6     -1003.184          40.437    22682880.660    94307869.792 6      -780.254          39.875    22682879.840    94307866.786 6      -780.254          40.125
G22  23393823.340   122935371.142 7      3879.134          44.562    23393821.940   122935371.145 5      3879.134          31.062    23393826.180    95793790.143 5      3022.702          31.062
R24  22226761.420   118856481.494 7      1068.676          46.187    22226762.020   118856481.495 7      1068.676          45.000    22226774.760    92443972.049 7       831.193          47.375    22226774.880    92443978.053 7       831.193          47.812
R18  22006390.780   117471612.599 6      4838.289          41.937    22006392.040   117471612.578 7      4838.289          42.875    22006396.320    91366844.366 7      3763.114          45.250    22006398.300    91366846.329 7      3763.114          43.000
R17  20364870.960   108976545.638 7      3305.375          46.437    20364871.440   108976545.647 7      3305.375          46.437    20364880.200    84759564.903 8      2570.847          50.125    20364879.800    84759566.901 8      2570.847          50.625
G17  23045382.200   121104305.244 7      5460.564          45.187    23045380.760   121104305.246 5      5460.564          34.437    23045383.940    94366997.679 5      4254.985          34.000    23045385.260    94367006.711 7      4254.985          45.250
G04  22923663.140   120464664.851 7      5609.583          42.062    22923661.740   120464664.859 5      5609.583          32.062    22923673.160    93868607.834 5      4371.104          31.562    22923673.880    93868614.851 8      4371.104          48.000
R03  20582807.600   110181380.215 7      6040.511          47.875    20582808.260   110181380.243 7      6040.511          46.312    20582819.260    85696680.548 8      4698.176          50.187    20582819.420    85696679.551 8      4698.176          50.750
> 2024 05 03 16 22  0.0000000  0 16
G03  19923718.100   104699845.195 8      2702.460          49.562    19923717.520   104699845.197 8      2702.460          50.500    19923721.800    81584295.024 8      2105.813          51.375    19923722.580    81584295.024 8      2105.813          51.562
G02  21749556.740   114294688.376 7      2064.903          47.312    21749555.280   114294688.381 6      2064.903          38.500    21749556.140    89060796.189 6      1609.015          38.437
R16  22805441.240   121822569.428 7      1935.598          46.437    22805441.100   121822569.421 7      1935.598          45.500    22805452.900    94750921.170 7      1505.465          47.812    22805453.040    94750940.175 8      1505.465          48.125
R15  22778630.420   121722062.767 7      -384.334          43.437    22778629.080   121722062.747 7      -384.334          42.000    22778646.440    94672798.150 7      -298.926          46.937    22778645.980    94672798.150 7      -298.926          46.562
R02  19739616.640   105334427.621 8      2223.763          51.000    19739616.860   105334427.625 8      2223.763          49.000    19739623.680    81926783.158 8      1729.594          50.437    19739623.940    81926777.159 8      1729.594          50.812
G21  22359285.100   117498806.824 7      1335.807          46.437    22359283.940   117498806.824 6      1335.807          36.312    22359287.260    91557524.048 6      1040.889          36.187
G08  22328889.180   117339104.788 7         -.487          45.687    22328888.340   117339104.796 7         -.487          44.687    22328897.180    91433099.564 7         -.379          44.437    22328898.080    91433102.567 7         -.379          47.625
G14  22004759.240   115635797.982 7      2533.181          44.437    22004758.240   115635797.992 5      2533.181          35.812    22004762.860    90105819.961 5      1973.907          35.812    22004763.000    90105824.963 8      1973.907          49.125
R01  22683056.340   121253920.427 6     -1003.348          40.875    22683056.560   121253920.447 6     -1003.348          40.500    22683068.620    94308650.111 6      -780.381          39.250    22683067.300    94308647.095 6      -780.381          40.125
G22  23393085.180   122931492.169 7      3878.798          44.812    23393083.880   122931492.174 5      3878.798          31.062    23393087.940    95790767.571 5      3022.440          31.062
R24  22226561.600   118855412.801 7      1068.640          46.875    22226561.880   118855412.802 7      1068.640          45.250    22226574.880    92443140.837 7       831.164          47.312    22226574.800    92443146.844 7       831.164          47.875
R18  22005484.320   117466774.185 7      4838.552          44.437    22005487.000   117466774.167 7      4838.552          43.750    22005491.680    91363081.145 7      3763.318          45.812    22005491.700    91363083.112 7      3763.318          44.625
R17  20364253.280   108973240.214 8      3305.321          48.125    20364253.680   108973240.229 7      3305.321          47.125    20364262.300    84756994.017 8      2570.805          50.000    20364262.140    84756996.013 8      2570.805          50.625
G17  23044342.880   121098844.581 7      5460.716          45.125    23044341.600   121098844.583 5      5460.716          34.437    23044344.860    94362742.620 5      4255.103          34.187    23044345.540    94362751.649 7      4255.103          44.250
G04  22922595.440   120459055.188 7      5609.594          42.000    22922594.240   120459055.198 5      5609.594          32.125    22922605.620    93864236.682 5      4371.112          32.062    22922606.320    93864243.699 8      4371.112          48.062
R03  20581679.320   110175339.831 7      6040.156          47.750    20581680.080   110175339.859 7      6040.156          45.500    20581690.860    85691982.473 8      4697.899          50.312    20581691.100    85691981.474 8      4697.899          50.625
> 2024 05 03 16 22  1.0000000  0 16
G03  19923203.900   104697143.082 8      2701.907          50.625    19923203.260   104697143.084 8      2701.907          51.375    19923207.640    81582189.461 8      2105.382          51.000    19923208.500    81582189.461 8      2105.382          51.812
G02  21749163.660   114292623.547 7      2064.851          47.375    21749162.220   114292623.552 6      2064.851          38.687    21749163.100    89059187.231 6      1608.975          38.500
R16  22805079.300   121820634.345 7      1934.717          46.437    22805078.920   121820634.338 7      1934.717          45.937    22805090.600    94749416.106 7      1504.780          47.875    22805090.480    94749435.109 8      1504.780          48.750
R15  22778702.460   121722447.241 7      -384.493          43.500    22778701.280   121722447.218 7      -384.493          42.187    22778718.160    94673097.158 7      -299.050          46.375    22778717.820    94673097.154 7      -299.050          46.750
R02  19739200.260   105332204.329 8      2222.911          51.062    19739200.180   105332204.330 8      2222.911          49.437    19739207.100    81925053.930 8      1728.930          50.812    19739207.320    81925047.930 8      1728.930          51.375
G21  22359031.200   117497471.084 7      1335.746          46.437    22359029.680   117497471.088 6      1335.746          36.062    22359033.000    91556483.212 6      1040.841          36.000
G08  22328889.200   117339105.613 7         -.879          45.187    22328888.460   117339105.621 7         -.879          44.562    22328897.480    91433100.194 7         -.685          44.375    22328898.560    91433103.196 7         -.685          47.875
G14  22004277.100   115633265.163 7      2532.665          44.500    22004276.140   115633265.176 6      2532.665          36.000    22004280.940    90103846.336 5      1973.505          35.437    22004281.160    90103851.329 8      1973.505          48.937
R01  22683244.120   121254924.144 6     -1003.885          40.875    22683243.900   121254924.161 6     -1003.885          40.500    22683255.660    94309430.773 6      -780.800          39.250    22683254.980    94309427.760 6      -780.800          39.875
G22  23392347.300   122927613.677 7      3878.417          44.812    23392345.840   122927613.687 5      3878.417          31.062    23392350.000    95787745.371 5      3022.143          31.062
R24  22226361.540   118854344.367 7      1068.324          45.687    22226362.220   118854344.355 7      1068.324          45.312    22226375.120    92442309.817 7       830.919          47.125    22226375.160    92442315.819 8       830.919          48.125
R18  22004578.140   117461935.674 7      4838.630          45.500    22004580.800   117461935.665 7      4838.630          44.000    22004587.520    91359317.853 7      3763.379          45.937    22004585.940    91359319.834 7      3763.379          46.312
R17  20363635.820   108969934.974 7      3305.235          47.312    20363635.840   108969934.981 7      3305.235          46.250    20363644.800    84754423.269 8      2570.738          49.875    20363644.460    84754425.267 8      2570.738          49.937
G17  23043303.840   121093383.974 7      5460.561          44.625    23043302.400   121093383.971 5      5460.561          34.125    23043305.800    94358487.601 5      4254.983          33.875    23043305.720    94358496.608 7      4254.983          44.250
G04  22921528.040   120453445.648 7      5609.720          42.687    22921526.720   120453445.655 5      5609.720          32.125    22921538.240    93859865.622 5      4371.210          32.062    22921538.940    93859872.634 8      4371.210          48.000
R03  20580550.800   110169300.001 7      6039.606          47.812    20580551.760   110169300.037 7      6039.606          46.562    20580562.620    85687284.844 8      4697.471          50.625    20580562.620    85687283.848 8      4697.471          50.687
> 2024 05 03 16 22  2.0000000  0 16
G03  19922689.780   104694441.465 8      2701.193          49.375    19922689.180   104694441.470 8      2701.193          50.562    19922693.480    81580084.226 8      2104.826          51.312    19922694.360    81580084.226 8      2104.826          52.062
G02  21748770.780   114290558.704 7      2064.714          45.875    21748769.280   114290558.706 6      2064.714          38.875    21748770.260    89057578.256 6      1608.868          38.437
R16  22804717.220   121818699.915 7      1933.956          47.000    22804716.980   121818699.905 7      1933.956          46.000    22804728.180    94747911.543 7      1504.188          47.750    22804728.420    94747930.545 8      1504.188          48.062
R15  22778774.460   121722831.867 7      -384.904          43.687    22778772.980   121722831.854 7      -384.904          42.187    22778790.220    94673396.295 7      -299.370          46.500    22778789.840    94673396.297 7      -299.370          46.562
R02  19738783.760   105329981.845 8      2221.983          51.062    19738783.860   105329981.849 8      2221.983          49.312    19738790.640    81923325.332 8      1728.209          50.437    19738790.820    81923319.336 8      1728.209          51.000
G21  22358777.080   117496135.261 7      1335.798          46.937    22358775.360   117496135.266 6      1335.798          36.437    22358778.720    91555442.309 6      1040.882          36.250
G08  22328889.620   117339106.669 7        -1.403          46.125    22328888.580   117339106.674 7        -1.403          44.187    22328897.660    91433101.015 7        -1.093          44.187    22328898.860    91433104.015 7        -1.093          47.687
G14  22003795.320   115630732.898 7      2531.867          44.562    22003794.420   115630732.908 5      2531.867          35.625    22003799.200    90101873.136 5      1972.884          35.437    22003799.560    90101878.132 8      1972.884          49.875
R01  22683431.880   121255928.192 6     -1004.305          41.062    22683432.040   121255928.217 6     -1004.305          40.500    22683443.600    94310211.706 6      -781.126          39.312    22683442.860    94310208.692 6      -781.126          39.875
G22  23391609.440   122923735.669 7      3877.592          45.812    23391607.920   122923735.674 5      3877.592          31.125    23391612.140    95784723.544 5      3021.500          31.062
R24  22226161.760   118853276.019 7      1068.185          45.687    22226162.420   118853276.002 7      1068.185          44.750    22226175.460    92441478.869 7       830.811          47.250    22226175.500    92441484.871 8       830.811          48.000
R18  22003671.720   117457097.041 7      4838.545          44.375    22003673.160   117457097.048 7      4838.545          43.687    22003682.740    91355554.486 7      3763.313          46.875    22003680.080    91355556.482 8      3763.313          48.187
R17  20363018.180   108966629.823 7      3304.959          47.937    20363017.900   108966629.841 7      3304.959          46.812    20363026.980    84751852.602 8      2570.523          50.000    20363026.700    84751854.600 8      2570.523          50.125
G17  23042264.700   121087923.367 7      5460.438          44.500    23042263.320   121087923.364 5      5460.438          34.250    23042266.580    94354232.585 5      4254.887          33.875    23042266.000    94354241.559 7      4254.887          43.187
G04  22920460.460   120447836.131 6      5609.429          41.937    22920459.280   120447836.144 5      5609.429          32.125    22920470.780    93855494.578 5      4370.983          31.937    22920471.180    93855501.595 8      4370.983          48.062
R03  20579422.700   110163260.604 7      6039.040          47.812    20579423.800   110163260.632 7      6039.040          46.375    20579434.280    85682587.536 8      4697.031          51.000    20579434.240    85682586.539 8      4697.031          51.125
> 2024 05 03 16 22  3.0000000  0 16
G03  19922175.820   104691740.377 8      2700.785          49.500    19922175.160   104691740.385 8      2700.785          50.937    19922179.520    81577979.646 8      2104.508          51.375    19922180.540    81577979.646 8      2104.508          51.812
G02  21748377.900   114288493.885 7      2064.782          45.750    21748376.280   114288493.887 6      2064.782          38.687    21748377.300    89055969.308 6      1608.921          38.812
R16  22804355.100   121816766.170 7      1933.413          45.750    22804354.860   121816766.161 7      1933.413          45.937    22804366.380    94746407.517 7      1503.765          47.500    22804366.520    94746426.518 8      1503.765          48.000
R15  22778846.340   121723216.671 7      -384.862          43.375    22778845.200   121723216.662 7      -384.862          42.187    22778862.380    94673695.573 7      -299.337          46.375    22778861.860    94673695.578 7      -299.337          46.375
R02  19738367.420   105327760.218 8      2221.158          50.750    19738367.440   105327760.219 8      2221.158          49.750    19738374.200    81921597.397 8      1727.568          50.312    19738374.460    81921591.399 8      1727.568          50.812
G21  22358522.760   117494799.450 7      1335.726          46.312    22358521.260   117494799.452 6      1335.726          36.062    22358524.520    91554401.415 6      1040.826          36.187
G08  22328889.740   117339108.015 7        -1.616          45.062    22328888.880   117339108.022 7        -1.616          44.187    22328897.960    91433102.057 7        -1.260          44.062    22328899.020    91433105.061 8        -1.260          48.000
G14  22003313.500   115628201.203 7      2531.389          44.625    22003312.700   115628201.216 5      2531.389          35.812    22003317.420    90099900.387 5      1972.511          35.875    22003317.540    90099905.381 8      1972.511          49.562
R01  22683620.080   121256932.676 6     -1004.736          41.062    22683619.720   121256932.685 6     -1004.736          40.875    22683631.700    94310992.951 6      -781.462          39.312    22683630.360    94310989.949 6      -781.462          39.687
G22  23390871.520   122919858.102 7      3877.305          44.937    23390869.980   122919858.104 5      3877.305          31.125    23390874.420    95781702.065 5      3021.276          31.125
R24  22225961.740   118852207.877 7      1067.996          45.875    22225962.380   118852207.875 7      1067.996          44.937    22225975.700    92440648.096 7       830.664          47.625    22225975.860    92440654.096 7       830.664          47.562
R18  22002764.960   117452258.288 6      4838.950          41.375    22002764.140   117452258.292 7      4838.950          43.687    22002776.300    91351791.024 7      3763.628          46.625    22002774.140    91351793.037 8      3763.628          48.812
R17  20362400.420   108963324.795 7      3304.933          47.187    20362400.660   108963324.805 7      3304.933          46.625    20362409.560    84749282.019 8      2570.504          49.937    20362409.220    84749284.019 8      2570.504          50.250
G17  23041225.380   121082462.823 7      5460.441          45.312    23041224.300   121082462.822 5      5460.441          34.250    23041227.660    94349977.617 5      4254.889          34.250    23041227.840    94349986.587 7      4254.889          42.875
G04  22919392.700   120442226.728 7      5609.430          42.562    22919391.720   120442226.738 5      5609.430          32.062    22919403.400    93851123.621 5      4370.984          31.937    22919403.660    93851130.631 8      4370.984          48.000
R03  20578294.720   110157221.727 7      6038.593          47.000    20578295.520   110157221.753 7      6038.593          46.687    20578306.340    85677890.634 8      4696.683          50.750    20578306.180    85677889.637 8      4696.683          50.875
> 2024 05 03 16 22  4.0000000  0 16
G03  19921661.920   104689039.904 8      2700.187          51.250    19921661.340   104689039.903 8      2700.187          50.937    19921665.600    81575875.311 8      2104.042          51.687    19921666.520    81575875.311 8      2104.042          51.062
G02  21747985.020   114286429.137 7      2064.770          46.437    21747983.320   114286429.142 6      2064.770          38.562    21747984.420    89054360.412 6      1608.912          38.062
R16  22803993.140   121814833.136 7      1932.624          46.250    22803992.800   121814833.127 7      1932.624          46.187    22804004.580    94744904.038 7      1503.152          47.562    22804004.400    94744923.038 7      1503.152          47.937
R15  22778918.580   121723601.720 7      -385.201          43.375    22778917.560   121723601.715 7      -385.201          42.562    22778934.300    94673995.038 7      -299.600          46.812    22778933.860    94673995.037 7      -299.600          46.812
R02  19737951.060   105325539.522 8      2220.271          50.875    19737951.260   105325539.520 8      2220.271          50.187    19737958.100    81919870.187 8      1726.878          50.562    19737958.400    81919864.191 8      1726.878          50.312
G21  22358268.500   117493463.680 7      1335.785          45.625    22358267.000   117493463.685 6      1335.785          36.125    22358270.320    91553360.551 6      1040.871          36.187
G08  22328890.240   117339109.767 7        -1.972          44.875    22328889.140   117339109.767 7        -1.972          44.125    22328898.380    91433103.409 7        -1.536          43.750    22328899.500    91433106.412 7        -1.536          47.625
G14  22002831.640   115625670.139 7      2530.618          44.500    22002831.000   115625670.152 5      2530.618          35.937    22002835.680    90097928.123 5      1971.910          35.625    22002836.140    90097933.121 8      1971.910          49.000
R01  22683808.000   121257937.566 6     -1004.974          40.750    22683807.960   121257937.567 6     -1004.974          40.875    22683819.560    94311774.520 6      -781.646          39.312    22683818.720    94311771.518 6      -781.646          39.687
G22  23390133.660   122915981.055 7      3876.831          43.875    23390132.120   122915981.057 5      3876.831          31.125    23390136.660    95778680.988 5      3020.907          31.125
R24  22225762.460   118851140.093 7      1067.604          44.750    22225762.840   118851140.089 7      1067.604          45.000    22225776.280    92439817.593 7       830.358          47.437    22225775.980    92439823.595 7       830.358          47.937
R18  22001858.740   117447419.503 6      4838.913          41.375    22001855.760   117447419.526 7      4838.913          43.250    22001869.040    91348027.552 7      3763.599          46.187    22001867.500    91348029.572 7      3763.599          47.687
R17  20361782.900   108960019.930 8      3304.832          48.375    20361782.740   108960019.945 7      3304.832          46.625    20361791.980    84746711.572 8      2570.425          49.562    20361791.500    84746713.566 8      2570.425          50.375
G17  23040186.220   121077002.328 7      5460.440          44.937    23040185.080   121077002.331 5      5460.440          34.062    23040188.620    94345722.689 5      4254.889          34.250    23040189.460    94345731.673 7      4254.889          44.437
G04  22918325.600   120436617.511 7      5609.112          42.687    22918324.320   120436617.521 5      5609.112          32.062    22918336.020    93846752.816 5      4370.737          31.937    22918336.580    93846759.839 7      4370.737          47.812
R03  20577166.640   110151183.441 7      6037.939          47.812    20577167.600   110151183.467 7      6037.939          46.375    20577178.140    85673194.196 8      4696.174          50.375    20577178.120    85673193.196 8      4696.174          50.125
> 2024 05 03 16 22  5.0000000  0 16
G03  19921148.180   104686340.006 8      2699.628          49.812    19921147.460   104686340.013 8      2699.628          49.875    19921151.800    81573771.632 8      2103.606          49.562    19921152.640    81573771.632 8      2103.606          51.125
G02  21747592.100   114284364.470 7      2064.670          45.062    21747590.480   114284364.473 6      2064.670          37.875    21747591.580    89052751.578 6      1608.834          37.937
R16  22803631.520   121812900.810 7      1931.933          44.562    22803631.060   121812900.809 7      1931.933          45.375    22803643.020    94743401.122 7      1502.615          46.875    22803642.780    94743420.122 7      1502.615          47.125
R15  22778990.800   121723986.963 7      -385.404          42.937    22778989.620   121723986.961 7      -385.404          42.125    22779006.440    94674294.655 7      -299.758          45.562    22779005.940    94674294.653 7      -299.758          45.500
R02  19737535.500   105323319.741 8      2219.382          51.062    19737535.220   105323319.744 8      2219.382          49.750    19737541.960    81918143.695 8      1726.186          49.625    19737542.420    81918137.699 8      1726.186          49.750
G21  22358014.380   117492127.942 7      1335.669          45.687    22358012.780   117492127.944 5      1335.669          35.625    22358016.120    91552319.715 6      1040.781          36.187
G08  22328890.740   117339111.835 7        -2.186          44.562    22328889.480   117339111.837 7        -2.186          43.750    22328898.740    91433105.014 7        -1.704          43.625    22328899.780    91433108.018 7        -1.704          47.375
G14  22002350.220   115623139.682 7      2530.089          45.687    22002349.380   115623139.692 5      2530.089          35.562    22002354.080    90095956.334 5      1971.498          35.687    22002354.340    90095961.328 8      1971.498          49.187
R01  22683996.140   121258942.897 6     -1005.470          40.750    22683995.900   121258942.912 6     -1005.470          40.000    22684007.800    94312556.452 6      -782.032          39.000    22684006.860    94312553.447 6      -782.032          39.687
G22  23389395.900   122912104.541 7      3876.255          43.812    23389394.540   122912104.546 5      3876.255          30.812    23389398.920    95775660.330 5      3020.459          31.125
R24  22225562.480   118850072.538 7      1067.420          45.250    22225562.940   118850072.534 7      1067.420          45.000    22225576.480    92438987.267 7       830.215          46.687    22225576.540    92438993.271 7       830.215          47.437
R18  22000952.140   117442580.737 6      4838.749          41.312    22000949.500   117442580.743 7      4838.749          42.750    22000961.000    91344264.063 7      3763.471          46.187    22000961.060    91344266.085 7      3763.471          46.125
R17  20361165.280   108956715.255 7      3304.580          47.375    20361165.620   108956715.273 7      3304.580          46.062    20361174.320    84744141.268 8      2570.229          48.750    20361174.120    84744143.264 8      2570.229          48.812
G17  23039147.320   121071541.942 7      5460.365          44.562    23039146.100   121071541.944 5      5460.365          34.062    23039149.660    94341467.840 5      4254.830          34.437    23039150.900    94341476.845 7      4254.830          46.000
G04  22917258.660   120431008.414 6      5609.105          41.625    22917256.900   120431008.425 5      5609.105          32.000    22917268.720    93842382.102 5      4370.731          31.875    22917269.100    93842389.121 7      4370.731          47.562
R03  20576038.840   110145145.664 7      6037.507          47.250    20576039.740   110145145.690 7      6037.507          46.687    20576050.320    85668498.151 8      4695.838          49.187    20576050.280    85668497.154 8      4695.838          49.500
> 2024 05 03 16 22  6.0000000  0 16
G03  19920634.600   104683640.610 8      2699.347          50.250    19920633.860   104683640.614 8      2699.347          51.000    19920638.180    81571668.607 8      2103.387          51.562    19920638.920    81571668.607 8      2103.387          51.500
G02  21747199.260   114282299.772 7      2064.847          45.500    21747197.640   114282299.774 6      2064.847          38.750    21747198.780    89051142.719 6      1608.971          38.750
R16  22803269.920   121810969.120 7      1931.529          45.625    22803269.480   121810969.121 7      1931.529          45.437    22803281.600    94741898.692 7      1502.301          47.687    22803281.140    94741917.694 8      1502.301          48.625
R15  22779062.860   121724372.371 7      -385.387          42.812    22779061.740   121724372.362 7      -385.387          42.125    22779078.420    94674594.397 7      -299.745          45.937    22779078.000    94674594.397 7      -299.745          46.500
R02  19737119.580   105321100.811 8      2218.709          50.937    19737119.340   105321100.815 8      2218.709          49.687    19737126.120    81916417.861 8      1725.663          50.937    19737126.560    81916411.864 8      1725.663          50.937
G21  22357760.300   117490792.112 7      1336.037          45.062    22357758.620   117490792.114 6      1336.037          36.187    22357762.080    91551278.804 6      1041.068          36.062
G08  22328891.060   117339114.189 7        -2.343          45.562    22328890.020   117339114.192 7        -2.343          44.562    22328899.220    91433106.840 7        -1.826          44.062    22328900.100    91433109.846 7        -1.826          47.812
G14  22001868.700   115620609.763 7      2529.731          45.875    22001867.940   115620609.771 5      2529.731          35.750    22001872.820    90093984.965 5      1971.219          35.500    22001873.120    90093989.967 8      1971.219          49.250
R01  22684184.240   121259948.587 6     -1005.698          41.250    22684184.220   121259948.599 6     -1005.698          40.000    22684195.880    94313338.659 6      -782.210          39.000    22684194.840    94313335.647 6      -782.210          39.375
G22  23388658.220   122908228.456 7      3876.007          42.625    23388657.120   122908228.461 5      3876.007          30.812    23388661.180    95772640.004 5      3020.266          30.875
R24  22225363.120   118849005.118 7      1067.519          45.750    22225363.160   118849005.109 7      1067.519          44.937    22225376.800    92438157.040 7       830.292          47.375    22225376.740    92438163.044 8       830.292          48.250
R18  22000045.500   117437741.786 7      4839.127          42.187    22000044.780   117437741.793 7      4839.127          43.375    22000053.240    91340500.434 7      3763.766          46.562    22000054.380    91340502.453 7      3763.766          45.937
R17  20360548.000   108953410.690 7      3304.674          47.000    20360548.060   108953410.708 7      3304.674          47.187    20360556.840    84741571.046 8      2570.302          49.875    20360556.300    84741573.042 8      2570.302          50.000
G17  23038108.220   121066081.548 7      5460.520          45.375    23038106.960   121066081.550 5      5460.520          34.875    23038110.600    94337212.991 5      4254.951          34.437    23038111.740    94337222.008 7      4254.951          46.125
G04  22916190.820   120425399.387 6      5609.191          41.625    22916189.640   120425399.392 5      5609.191          32.000    22916201.360    93838011.438 5      4370.798          31.875    22916201.440    93838018.444 7      4370.798          47.875
R03  20574910.800   110139108.395 7      6037.159          47.625    20574911.920   110139108.432 7      6037.159          46.750    20574922.480    85663802.510 8      4695.568          50.750    20574922.400    85663801.511 8      4695.568          50.937
> 2024 05 03 16 22  7.0000000  0 16
G03  19920120.960   104680941.660 8      2698.556          50.125    19920120.240   104680941.665 8      2698.556          51.187    19920124.620    81569565.337 8      2102.771          50.625    19920125.300    81569565.337 8      2102.771          51.062
G02  21746806.440   114280235.021 7      2064.534          46.687    21746804.740   114280235.026 6      2064.534          38.437    21746805.880    89049533.828 6      1608.728          38.312
R16  22802908.460   121809038.049 7      1930.578          47.187    22802908.340   121809038.050 7      1930.578          45.750    22802920.340    94740396.748 7      1501.561          47.687    22802919.700    94740415.748 8      1501.561          48.062
R15  22779135.100   121724757.874 7      -385.730          43.687    22779133.960   121724757.875 7      -385.730          42.750    22779150.740    94674894.217 7      -300.012          46.562    22779150.400    94674894.218 7      -300.012          46.250
R02  19736704.120   105318882.655 8      2217.616          50.812    19736703.780   105318882.658 8      2217.616          50.562    19736710.500    81914692.630 8      1724.812          50.062    19736710.860    81914686.634 8      1724.812          50.625
G21  22357506.180   117489456.201 7      1335.688          44.750    22357504.480   117489456.203 6      1335.688          36.062    22357507.780    91550237.836 6      1040.796          36.250
G08  22328891.260   117339116.699 7        -2.827          44.812    22328890.460   117339116.698 7        -2.827          44.812    22328899.860    91433108.789 7        -2.203          44.125    22328900.460    91433111.793 7        -2.203          47.187
G14  22001387.280   115618080.323 7      2529.072          45.875    22001386.620   115618080.330 6      2529.072          36.250    22001391.320    90092013.972 5      1970.705          35.625    22001391.820    90092018.972 8      1970.705          48.500
R01  22684371.880   121260954.578 6     -1006.299          41.250    22684372.740   121260954.587 6     -1006.299          40.250    22684384.100    94314121.095 6      -782.677          38.875    22684383.040    94314118.081 6      -782.677          39.375
G22  23387920.380   122904352.780 7      3875.441          43.125    23387919.480   122904352.783 5      3875.441          30.750    23387923.740    95769619.993 5      3019.824          30.875
R24  22225163.900   118847937.764 7      1067.131          46.000    22225163.380   118847937.758 7      1067.131          44.500    22225177.340    92437326.881 7       829.990          47.187    22225177.220    92437332.881 7       829.990          47.625
R18  21999139.100   117432902.697 7      4838.877          44.875    21999140.980   117432902.687 7      4838.877          43.375    21999146.020    91336736.684 7      3763.571          46.375    21999147.340    91336738.696 7      3763.571          45.187
R17  20359930.180   108950106.200 7      3304.228          47.375    20359930.580   108950106.217 7      3304.228          47.187    20359939.100    84739000.887 8      2569.955          49.562    20359938.920    84739002.885 8      2569.955          49.625
G17  23037069.240   121060621.132 7      5460.202          44.687    23037067.940   121060621.134 5      5460.202          34.625    23037071.400    94332958.126 5      4254.702          34.625    23037072.400    94332967.154 7      4254.702          45.625
G04  22915123.220   120419790.283 7      5608.962          42.187    22915122.280   120419790.285 5      5608.962          32.000    22915134.020    93833640.717 5      4370.620          31.875    22915134.320    93833647.734 7      4370.620          47.562
R03  20573783.500   110133071.526 8      6036.518          48.250    20573784.540   110133071.554 7      6036.518          47.000    20573794.980    85659107.163 8      4695.069          49.687    20573794.720    85659106.163 8      4695.069          51.125
> 2024 05 03 16 22  8.0000000  0 16
G03  19919607.400   104678243.410 8      2697.925          50.062    19919606.840   104678243.412 8      2697.925          51.250    19919611.140    81567462.395 8      2102.280          51.437    19919611.780    81567462.395 8      2102.280          51.875
G02  21746413.540   114278170.431 7      2064.588          46.875    21746411.760   114278170.436 6      2064.588          38.375    21746412.960    89047925.054 6      1608.770          38.562
R16  22802547.080   121807107.793 7      1929.950          46.000    22802547.300   121807107.780 7      1929.950          46.250    22802559.160    94738895.429 7      1501.072          47.562    22802558.560    94738914.428 8      1501.072          48.312
R15  22779207.020   121725143.710 7      -386.096          43.687    22779206.220   121725143.717 7      -386.096          42.375    22779222.900    94675194.293 7      -300.297          46.187    22779222.420    94675194.296 7      -300.297          46.812
R02  19736288.600   105316665.497 8      2216.712          51.312    19736288.100   105316665.497 8      2216.712          49.750    19736295.080    81912968.174 8      1724.110          50.875    19736295.280    81912962.177 8      1724.110          51.125
G21  22357251.540   117488120.405 7      1335.731          45.562    22357250.240   117488120.404 5      1335.731          35.812    22357253.640    91549196.952 6      1040.829          36.062
G08  22328892.180   117339119.647 7        -3.111          45.125    22328890.960   117339119.649 7        -3.111          44.125    22328900.400    91433111.082 7        -2.424          43.875    22328901.180    91433114.086 7        -2.424          47.750
G14  22000906.240   115615551.618 7      2528.400          45.000    22000905.460   115615551.626 5      2528.400          35.937    22000910.120    90090043.551 5      1970.182          35.750    22000910.480    90090048.551 8      1970.182          49.375
R01  22684560.380   121261961.120 6     -1006.693          41.062    22684560.300   121261961.129 6     -1006.693          40.250    22684572.540    94314903.959 6      -782.983          38.875    22684571.380    94314900.947 6      -782.983          39.062
G22  23387183.320   122900477.741 7      3874.787          42.125    23387182.040   122900477.746 5      3874.787          30.750    23387186.300    95766600.483 5      3019.314          30.875
R24  22224964.180   118846870.793 7      1066.760          45.500    22224964.000   118846870.795 7      1066.760          44.375    22224977.940    92436497.012 7       829.702          47.312    22224977.820    92436503.014 8       829.702          48.187
R18  21998232.540   117428063.624 7      4839.053          45.812    21998235.980   117428063.619 7      4839.053          44.125    21998239.360    91332972.950 7      3763.708          46.687    21998240.740    91332974.954 7      3763.708          45.500
R17  20359312.860   108946801.996 7      3304.134          46.812    20359312.820   108946802.002 7      3304.134          46.812    20359321.800    84736430.944 8      2569.882          49.937    20359321.480    84736432.940 8      2569.882          50.437
G17  23036029.940   121055160.890 7      5460.261          44.875    23036028.920   121055160.898 5      5460.261          34.625    23036032.380    94328703.392 5      4254.749          34.312    23036032.800    94328712.411 7      4254.749          44.625
G04  22914055.780   120414181.428 7      5608.692          42.375    22914054.920   120414181.436 5      5608.692          31.875    22914066.580    93829270.196 5      4370.410          31.562    22914066.840    93829277.208 7      4370.410          47.875
R03  20572655.520   110127035.309 8      6035.915          48.500    20572656.800   110127035.340 7      6035.915          46.937    20572667.380    85654412.338 8      4694.600          50.687    20572667.320    85654411.339 8      4694.600          50.812
> 2024 05 03 16 22  9.0000000  0 16
G03  19919094.120   104675545.756 8      2697.378          50.375    19919093.460   104675545.758 8      2697.378          50.750    19919097.800    81565360.599 8      2101.853          51.187    19919098.560    81565360.599 8      2101.853          51.625
G02  21746020.780   114276105.951 7      2064.340          47.125    21746019.020   114276105.953 6      2064.340          38.937    21746020.060    89046316.366 6      1608.576          39.125
R16  22802185.900   121805178.266 7      1929.080          46.187    22802185.840   121805178.259 7      1929.080          45.437    22802198.140    94737394.690 8      1500.395          48.062    22802197.320    94737413.693 8      1500.395          48.750
R15  22779279.240   121725529.787 7      -386.210          43.500    22779278.260   121725529.791 7      -386.210          42.375    22779295.160    94675494.561 7      -300.385          46.000    22779294.620    94675494.561 7      -300.385          46.250
R02  19735872.880   105314449.230 8      2215.761          51.312    19735872.880   105314449.230 8      2215.761          49.687    19735879.720    81911244.410 8      1723.370          50.812    19735880.000    81911238.412 8      1723.370          51.000
G21  22356997.460   117486784.656 7      1335.679          45.625    22356995.920   117486784.658 5      1335.679          35.875    22356999.320    91548156.105 5      1040.789          35.937
G08  22328892.820   117339122.997 7        -3.514          45.437    22328891.600   117339123.002 7        -3.514          44.562    22328901.060    91433113.687 7        -2.738          44.250    22328901.920    91433116.688 8        -2.738          48.187
G14  22000424.980   115613023.560 7      2527.718          46.062    22000424.400   115613023.570 5      2527.718          35.625    22000429.080    90088073.635 5      1969.650          35.625    22000429.580    90088078.635 8      1969.650          49.562
R01  22684748.680   121262968.114 6     -1007.218          41.062    22684748.480   121262968.118 6     -1007.218          40.250    22684760.540    94315687.168 6      -783.392          38.875    22684760.180    94315684.154 6      -783.392          39.062
G22  23386446.000   122896603.248 7      3874.184          42.750    23386444.800   122896603.258 5      3874.184          30.750    23386448.880    95763581.400 5      3018.845          30.750
R24  22224764.620   118845804.111 7      1066.484          44.687    22224764.200   118845804.115 7      1066.484          44.062    22224778.420    92435667.364 7       829.487          47.625    22224778.260    92435673.368 8       829.487          48.437
R18  21997326.180   117423224.529 7      4839.012          45.312    21997329.320   117423224.530 7      4839.012          44.250    21997333.180    91329209.205 7      3763.676          46.312    21997333.800    91329211.199 7      3763.676          45.437
R17  20358695.320   108943497.957 7      3303.932          47.187    20358695.300   108943497.967 7      3303.932          46.562    20358704.360    84733861.141 8      2569.725          50.125    20358703.820    84733863.139 8      2569.725          50.062
G17  23034990.760   121049700.766 7      5460.098          45.125    23034989.740   121049700.774 5      5460.098          34.750    23034993.360    94324448.755 5      4254.622          34.312    23034993.220    94324457.753 7      4254.622          43.750
G04  22912988.820   120408572.760 7      5608.583          42.187    22912987.740   120408572.771 5      5608.583          31.875    22912999.220    93824899.820 5      4370.325          31.562    22912999.820    93824906.828 8      4370.325          48.125
R03  20571528.000   110120999.718 8      6035.283          48.125    20571529.340   110120999.747 7      6035.283          46.000    20571539.840    85649717.996 8      4694.109          50.750    20571539.680    85649716.995 8      4694.109          51.125
> 2024 05 03 16 22 10.0000000  0 16
G03  19918580.880   104672848.611 8      2696.738          49.812    19918580.220   104672848.613 8      2696.738          51.062    19918584.580    81563258.967 8      2101.354          51.437    19918585.340    81563258.967 8      2101.354          52.062
G02  21745627.720   114274041.439 7      2064.311          46.687    21745626.000   114274041.447 6      2064.311          38.687    21745627.240    89044707.656 6      1608.554          38.250
R16  22801824.760   121803249.334 7      1928.379          47.000    22801824.800   121803249.333 7      1928.379          45.375    22801837.060    94735894.410 7      1499.850          47.937    22801836.600    94735913.415 8      1499.850          48.375
R15  22779351.500   121725916.024 7      -386.544          43.625    22779351.100   121725916.022 7      -386.544          42.375    22779367.480    94675794.942 7      -300.645          46.375    22779367.040    94675794.939 7      -300.645          46.437
R02  19735457.820   105312233.771 8      2214.794          51.125    19735457.620   105312233.774 8      2214.794          49.187    19735464.560    81909521.280 8      1722.618          50.500    19735464.920    81909515.282 8      1722.618          50.625
G21  22356743.380   117485448.863 7      1335.688          45.875    22356741.860   117485448.863 6      1335.688          36.000    22356745.260    91547115.227 6      1040.796          36.250
G08  22328893.580   117339126.625 7        -3.999          44.562    22328892.360   117339126.630 7        -3.999          44.562    22328901.880    91433116.508 7        -3.116          44.250    22328902.520    91433119.512 7        -3.116          47.937
G14  21999944.220   115610496.032 7      2526.985          46.000    21999943.440   115610496.042 6      2526.985          36.000    21999948.040    90086104.131 5      1969.080          35.937    21999948.500    90086109.135 8      1969.080          49.562
R01  22684937.540   121263975.458 6     -1007.783          40.562    22684937.260   121263975.456 6     -1007.783          40.187    22684949.180    94316470.653 6      -783.831          38.687    22684948.700    94316467.637 6      -783.831          38.875
G22  23385708.960   122892729.173 7      3873.650          44.625    23385707.620   122892729.183 5      3873.650          31.125    23385711.580    95760562.640 5      3018.428          30.750
R24  22224565.100   118844737.634 7      1066.213          45.125    22224564.760   118844737.633 7      1066.213          44.250    22224579.140    92434837.876 7       829.277          47.375    22224579.140    92434843.876 7       829.277          47.875
R18  21996419.520   117418385.304 7      4839.141          44.062    21996421.660   117418385.307 7      4839.141          44.562    21996427.620    91325445.363 7      3763.776          46.562    21996427.540    91325447.351 7      3763.776          45.562
R17  20358077.920   108940194.029 8      3303.661          48.062    20358077.940   108940194.044 7      3303.661          46.437    20358086.900    84731291.419 8      2569.514          49.812    20358086.560    84731293.421 8      2569.514          50.187
G17  23033951.480   121044240.640 7      5459.971          44.562    23033950.800   121044240.645 5      5459.971          34.437    23033954.260    94320194.107 5      4254.523          34.625    23033953.960    94320203.093 7      4254.523          43.562
G04  22911921.380   120402964.171 7      5608.372          42.687    22911920.500   120402964.179 5      5608.372          31.875    22911931.880    93820529.495 5      4370.160          31.562    22911932.360    93820536.503 8      4370.160          48.062
R03  20570400.840   110114964.594 7      6034.626          47.437    20570401.760   110114964.630 7      6034.626          47.000    20570412.420    85645024.018 8      4693.598          50.750    20570412.200    85645023.021 8      4693.598          51.562
> 2024 05 03 16 22 11.0000000  0 16
G03  19918067.740   104670152.142 8      2696.161          49.625    19918067.120   104670152.144 8      2696.161          50.125    19918071.420    81561157.745 8      2100.904          51.125    19918072.300    81561157.745 8      2100.904          51.687
G02  21745235.040   114271977.070 7      2064.383          46.312    21745233.180   114271977.074 6      2064.383          38.625    21745234.460    89043099.058 6      1608.610          38.812
R16  22801463.800   121801321.228 7      1927.811          46.687    22801464.000   121801321.221 7      1927.811          45.750    22801476.260    94734394.766 7      1499.409          47.937    22801475.480    94734413.768 8      1499.409          48.875
R15  22779423.780   121726302.541 7      -386.515          43.375    22779423.400   121726302.532 7      -386.515          42.187    22779439.720    94676095.544 7      -300.623          46.312    22779439.460    94676095.545 7      -300.623          46.312
R02  19735042.960   105310019.326 8      2213.980          51.062    19735042.660   105310019.332 8      2213.980          49.562    19735049.600    81907798.936 8      1721.985          50.500    19735049.720    81907792.938 8      1721.985          51.062
G21  22356489.260   117484113.183 7      1335.723          46.562    22356487.480   117484113.185 6      1335.723          36.062    22356491.060    91546074.435 6      1040.823          36.250
G08  22328894.120   117339130.669 7        -4.149          44.500    22328893.060   117339130.671 7        -4.149          44.562    22328902.540    91433119.651 7        -3.233          44.437    22328903.300    91433122.657 7        -3.233          47.937
G14  21999462.960   115607969.214 7      2526.448          45.437    21999462.620   115607969.222 5      2526.448          35.750    21999467.040    90084135.180 5      1968.660          35.625    21999467.820    90084140.180 8      1968.660          49.625
R01  22685126.060   121264983.285 6     -1008.098          40.562    22685125.620   121264983.303 6     -1008.098          40.187    22685137.560    94317254.523 6      -784.076          38.687    22685137.240    94317251.516 6      -784.076          38.875
G22  23384971.820   122888855.705 7      3873.327          43.750    23384970.400   122888855.707 5      3873.327          31.125    23384974.540    95757544.349 5      3018.177          30.750
R24  22224365.460   118843671.489 7      1066.038          44.187    22224365.420   118843671.477 7      1066.038          43.625    22224379.640    92434008.639 7       829.140          47.187    22224379.640    92434014.639 8       829.140          48.062
R18  21995513.000   117413546.113 6      4839.385          41.750    21995512.320   117413546.124 7      4839.385          43.437    21995521.680    91321681.563 7      3763.966          46.500    21995521.000    91321683.548 7      3763.966          46.812
R17  20357460.500   108936890.365 7      3303.546          46.812    20357460.580   108936890.383 7      3303.546          46.250    20357469.520    84728721.903 8      2569.425          50.000    20357469.420    84728723.903 8      2569.425          50.312
G17  23032912.420   121038780.685 7      5459.827          44.687    23032911.900   121038780.692 5      5459.827          34.437    23032915.080    94315939.600 5      4254.410          34.625    23032915.380    94315948.596 7      4254.410          44.250
G04  22910854.000   120397355.769 6      5608.472          41.812    22910853.340   120397355.774 5      5608.472          32.125    22910864.620    93816159.321 5      4370.238          31.812    22910865.080    93816166.340 8      4370.238          48.062
R03  20569273.100   110108930.098 8      6034.360          48.000    20569274.280   110108930.129 7      6034.360          46.375    20569285.080    85640330.524 8      4693.391          50.312    20569284.980    85640329.527 8      4693.391          51.000
> 2024 05 03 16 22 12.0000000  0 16
G03  19917554.680   104667456.141 8      2695.745          49.750    19917554.060   104667456.148 8      2695.745          51.187    19917558.320    81559056.850 8      2100.580          51.687    19917559.140    81559056.850 8      2100.580          51.625
G02  21744842.160   114269912.700 7      2064.464          45.875    21744840.520   114269912.707 6      2064.464          38.875    21744841.580    89041490.454 6      1608.673          38.500
R16  22801102.680   121799393.782 7      1927.107          46.000    22801102.440   121799393.775 7      1927.107          45.312    22801115.100    94732895.641 7      1498.861          47.875    22801114.840    94732914.646 7      1498.861          47.875
R15  22779496.300   121726689.174 7      -386.794          44.437    22779495.760   121726689.172 7      -386.794          42.187    22779512.140    94676396.244 7      -300.840          46.500    22779511.520    94676396.242 7      -300.840          46.125
R02  19734628.220   105307805.767 8      2213.060          50.875    19734627.900   105307805.771 8      2213.060          50.250    19734634.700    81906077.277 8      1721.269          50.437    19734635.160    81906071.281 8      1721.269          50.687
G21  22356235.020   117482777.447 7      1335.837          47.312    22356233.400   117482777.447 6      1335.837          36.062    22356236.800    91545033.600 6      1040.912          36.062
G08  22328895.140   117339134.928 7        -4.470          44.187    22328893.960   117339134.936 7        -4.470          44.375    22328903.460    91433122.966 7        -3.483          44.062    22328904.220    91433125.969 8        -3.483          48.187
G14  21998982.460   115605442.903 7      2526.045          45.312    21998981.760   115605442.913 5      2526.045          35.937    21998986.420    90082166.626 6      1968.347          36.250    21998987.000    90082171.620 8      1968.347          49.687
R01  22685314.340   121265991.498 6     -1008.254          40.562    22685314.040   121265991.526 6     -1008.254          40.187    22685326.220    94318038.693 6      -784.197          38.687    22685325.920    94318035.692 6      -784.197          38.875
G22  23384234.660   122884982.699 7      3872.801          44.562    23384233.320   122884982.704 5      3872.801          31.125    23384237.480    95754526.425 5      3017.767          31.125
R24  22224166.440   118842605.467 7      1065.950          44.312    22224166.040   118842605.452 7      1065.950          44.125    22224180.520    92433179.501 7       829.072          47.937    22224180.140    92433185.503 7       829.072          47.937
R18  21994606.700   117408706.797 6      4839.470          41.750    21994603.820   117408706.829 7      4839.470          43.250    21994615.560    91317917.675 7      3764.032          46.750    21994614.480    91317919.669 7      3764.032          46.875
R17  20356843.360   108933586.825 7      3303.563          47.625    20356843.340   108933586.837 7      3303.563          46.312    20356852.020    84726152.478 8      2569.438          50.062    20356851.940    84726154.478 8      2569.438          49.875
G17  23031873.460   121033320.745 7      5460.009          46.125    23031872.900   121033320.747 5      5460.009          34.437    23031876.040    94311685.099 5      4254.553          34.125    23031876.660    94311694.108 7      4254.553          45.250
G04  22909786.880   120391747.374 7      5608.264          42.562    22909786.040   120391747.382 5      5608.264          32.125    22909797.480    93811789.156 5      4370.076          31.812    22909797.760    93811796.173 7      4370.076          47.937
R03  20568146.000   110102896.012 7      6033.801          47.500    20568146.900   110102896.046 7      6033.801          46.750    20568157.960    85635637.356 8      4692.957          50.562    20568157.840    85635636.359 8      4692.957          50.937
> 2024 05 03 16 22 13.0000000  0 16
G03  19917041.800   104664760.699 8      2695.057          49.437    19917041.120   104664760.704 8      2695.057          50.750    19917045.460    81556956.692 8      2100.044          51.625    19917046.320    81556956.692 8      2100.044          51.312
G02  21744449.140   114267848.346 7      2064.248          47.375    21744447.560   114267848.348 6      2064.248          38.812    21744448.720    89039881.867 6      1608.505          38.687
R16  22800742.040   121797466.961 7      1926.416          46.312    22800741.500   121797466.954 7      1926.416          45.375    22800754.480    94731396.998 7      1498.324          47.625    22800754.040    94731416.005 8      1498.324          48.375
R15  22779568.840   121727076.010 7      -387.143          44.437    22779568.120   121727076.013 7      -387.143          42.500    22779584.680    94676697.104 7      -301.112          46.437    22779583.960    94676697.104 7      -301.112          45.875
R02  19734213.420   105305593.099 8      2212.131          50.375    19734213.140   105305593.100 8      2212.131          49.687    19734220.100    81904356.313 8      1720.546          50.687    19734220.580    81904350.317 8      1720.546          51.000
G21  22355980.940   117481441.693 7      1335.734          46.312    22355979.280   117481441.693 5      1335.734          35.750    22355982.640    91543992.753 5      1040.831          35.625
G08  22328896.120   117339139.553 7        -4.861          44.500    22328894.720   117339139.547 7        -4.861          45.125    22328904.380    91433126.555 7        -3.788          44.750    22328905.260    91433129.558 8        -3.788          48.312
G14  21998501.920   115602917.183 7      2525.273          45.312    21998501.160   115602917.193 6      2525.273          36.250    21998506.100    90080198.531 5      1967.745          35.687    21998506.540    90080203.533 8      1967.745          49.562
R01  22685502.900   121267000.093 6     -1008.788          39.937    22685502.340   121267000.102 6     -1008.788          40.062    22685514.980    94318823.145 6      -784.613          38.000    22685514.380    94318820.140 6      -784.613          38.437
G22  23383497.560   122881110.129 7      3872.259          44.125    23383496.460   122881110.137 5      3872.259          30.937    23383500.480    95751508.840 5      3017.345          31.125
R24  22223966.920   118841539.662 7      1065.631          44.375    22223966.560   118841539.647 7      1065.631          43.937    22223981.200    92432350.537 7       828.824          47.750    22223980.840    92432356.539 8       828.824          48.375
R18  21993699.820   117403867.347 6      4839.508          40.812    21993697.400   117403867.366 7      4839.508          43.250    21993708.800    91314153.663 7      3764.062          46.687    21993708.260    91314155.663 7      3764.062          47.250
R17  20356226.220   108930283.408 7      3303.245          47.187    20356226.220   108930283.420 7      3303.245          46.562    20356234.940    84723583.156 8      2569.190          49.937    20356234.540    84723585.152 8      2569.190          50.187
G17  23030834.580   121027860.813 7      5459.814          46.000    23030834.100   121027860.812 5      5459.814          34.437    23030837.140    94307430.607 5      4254.400          34.562    23030837.980    94307439.624 7      4254.400          44.750
G04  22908719.740   120386139.156 7      5608.015          42.062    22908718.780   120386139.163 5      5608.015          32.250    22908730.300    93807419.126 5      4369.881          32.187    22908730.460    93807426.138 8      4369.881          48.250
R03  20567019.240   110096862.488 7      6033.175          47.937    20567019.820   110096862.516 7      6033.175          46.437    20567030.800    85630944.615 8      4692.470          50.687    20567030.460    85630943.618 8      4692.470          51.187
> 2024 05 03 16 22 14.0000000  0 16
G03  19916529.020   104662065.830 8      2694.634          50.750    19916528.340   104662065.835 8      2694.634          50.875    19916532.660    81554856.944 8      2099.715          51.125    19916533.380    81554856.944 8      2099.715          51.437
G02  21744056.180   114265784.042 7      2064.235          46.125    21744054.780   114265784.044 6      2064.235          38.562    21744055.900    89038273.316 6      1608.495          38.500
R16  22800381.680   121795540.874 7      1925.759          46.000    22800381.200   121795540.864 7      1925.759          44.875    22800393.620    94729898.928 7      1497.813          47.625    22800393.380    94729917.927 7      1497.813          47.812
R15  22779641.300   121727463.083 7      -387.218          44.062    22779640.940   121727463.081 7      -387.218          43.000    22779656.760    94676998.138 7      -301.169          46.000    22779656.140    94676998.136 7      -301.169          46.125
R02  19733799.040   105303381.288 8      2211.434          50.812    19733798.680   105303381.294 8      2211.434          49.375    19733805.500    81902636.022 8      1720.005          50.375    19733805.860    81902630.023 8      1720.005          50.812
G21  22355726.660   117480105.961 7      1335.789          46.250    22355724.980   117480105.960 5      1335.789          35.750    22355728.340    91542951.916 5      1040.874          35.812
G08  22328897.000   117339144.495 7        -4.971          44.625    22328895.620   117339144.500 7        -4.971          44.562    22328905.300    91433130.406 7        -3.874          44.437    22328906.040    91433133.412 8        -3.874          48.125
G14  21998021.400   115600392.055 7      2524.848          45.062    21998020.600   115600392.067 5      2524.848          35.500    21998025.580    90078230.898 5      1967.414          35.562    21998026.020    90078235.900 8      1967.414          49.687
R01  22685691.540   121268009.112 6     -1009.223          39.937    22685691.940   121268009.114 6     -1009.223          40.062    22685704.040    94319607.932 6      -784.951          38.000    22685702.760    94319604.926 6      -784.951          38.437
G22  23382760.920   122877238.067 7      3871.827          44.750    23382759.540   122877238.074 5      3871.827          30.937    23382763.480    95748491.646 5      3017.008          31.125
R24  22223768.080   118840474.089 7      1065.519          44.250    22223767.260   118840474.069 7      1065.519          43.937    22223782.040    92431521.747 7       828.737          47.375    22223781.600    92431527.747 8       828.737          48.062
R18  21992793.260   117399027.863 7      4839.513          42.250    21992792.160   117399027.855 7      4839.513          43.500    21992802.520    91310389.603 7      3764.066          47.500    21992801.820    91310391.609 7      3764.066          47.187
R17  20355608.620   108926980.143 7      3303.159          47.312    20355608.600   108926980.160 7      3303.159          46.562    20355617.720    84721013.952 8      2569.124          49.875    20355617.380    84721015.948 8      2569.124          49.937
G17  23029795.700   121022400.954 7      5459.756          46.125    23029795.120   121022400.946 5      5459.756          34.500    23029798.200    94303176.172 5      4254.355          34.562    23029798.500    94303185.185 7      4254.355          43.937
G04  22907652.380   120380531.066 7      5607.971          42.687    22907651.600   120380531.071 5      5607.971          32.250    22907663.140    93803049.198 5      4369.847          32.187    22907663.340    93803056.208 7      4369.847          47.625
R03  20565891.840   110090829.491 8      6032.774          48.500    20565892.780   110090829.522 7      6032.774          46.750    20565903.760    85626252.292 8      4692.157          50.625    20565903.560    85626251.295 8      4692.157          50.750
> 2024 05 03 16 22 15.0000000  0 16
G03  19916016.240   104659371.532 8      2694.151          49.562    19916015.600   104659371.536 8      2694.151          50.000    19916019.860    81552757.195 8      2099.339          50.312    19916020.720    81552757.195 8      2099.339          51.000
G02  21743663.480   114263719.788 7      2064.414          46.937    21743661.980   114263719.793 6      2064.414          38.437    21743663.060    89036664.806 6      1608.634          38.312
R16  22800021.620   121793615.487 7      1925.270          45.625    22800020.320   121793615.485 7      1925.270          45.250    22800032.840    94728401.405 7      1497.432          46.937    22800032.720    94728420.403 7      1497.432          47.500
R15  22779713.960   121727850.322 7      -387.275          44.125    22779713.480   121727850.323 7      -387.275          43.000    22779729.460    94677299.305 7      -301.214          45.750    22779729.000    94677299.306 7      -301.214          46.125
R02  19733384.740   105301170.341 8      2210.663          50.687    19733384.480   105301170.347 8      2210.663          49.875    19733391.200    81900916.398 8      1719.405          49.937    19733391.540    81900910.400 8      1719.405          49.687
G21  22355472.280   117478770.225 7      1335.970          45.437    22355470.860   117478770.228 6      1335.970          36.000    22355474.260    91541911.086 6      1041.016          36.125
G08  22328897.800   117339149.758 7        -5.267          44.937    22328896.740   117339149.758 7        -5.267          43.937    22328906.280    91433134.497 7        -4.104          43.687    22328906.820    91433137.502 8        -4.104          48.000
G14  21997541.020   115597867.541 7      2524.345          45.125    21997540.160   115597867.551 5      2524.345          35.562    21997544.980    90076263.742 5      1967.022          35.750    21997545.500    90076268.736 8      1967.022          49.437
R01  22685880.500   121269018.536 6     -1009.310          40.812    22685880.960   121269018.539 6     -1009.310          40.000    22685892.360    94320393.037 6      -785.019          38.000    22685891.980    94320390.027 6      -785.019          38.375
G22  23382024.420   122873366.519 7      3871.479          43.125    23382022.940   122873366.532 5      3871.479          30.937    23382026.780    95745474.858 5      3016.737          31.125
R24  22223569.060   118839408.778 7      1065.286          45.312    22223567.540   118839408.758 7      1065.286          43.937    22223582.840    92430693.166 7       828.556          47.187    22223582.380    92430699.166 7       828.556          47.625
R18  21991886.640   117394188.301 7      4839.815          44.062    21991887.680   117394188.294 7      4839.815          43.500    21991895.640    91306625.497 7      3764.300          46.375    21991895.220    91306627.499 7      3764.300          47.125
R17  20354991.420   108923677.049 7      3303.209          47.937    20354991.580   108923677.061 7      3303.209          47.187    20355000.460    84718444.875 8      2569.162          49.312    20355000.040    84718446.871 8      2569.162          49.250
G17  23028756.940   121016941.157 7      5459.987          44.625    23028756.260   121016941.148 5      5459.987          34.562    23028759.100    94298921.786 5      4254.535          34.437    23028759.000    94298930.776 7      4254.535          43.125
G04  22906585.740   120374923.039 7      5607.960          42.187    22906584.600   120374923.050 5      5607.960          32.250    22906595.860    93798679.317 5      4369.839          32.187    22906596.120    93798686.336 7      4369.839          47.812
R03  20564765.040   110084797.016 8      6032.209          48.000    20564765.860   110084797.047 7      6032.209          46.812    20564776.760    85621560.374 8      4691.718          49.687    20564776.640    85621559.375 8      4691.718          49.562
> 2024 05 03 16 22 16.0000000  0 16
G03  19915503.540   104656677.690 8      2693.593          50.500    19915502.980   104656677.697 8      2693.593          50.812    19915507.240    81550657.774 8      2098.904          51.187    19915508.180    81550657.774 8      2098.904          51.375
G02  21743270.720   114261655.486 7      2064.217          47.187    21743269.080   114261655.494 6      2064.217          38.312    21743270.280    89035056.262 6      1608.481          38.125
R16  22799661.140   121791690.700 7      1924.496          45.250    22799660.180   121791690.699 7      1924.496          44.875    22799672.580    94726904.343 7      1496.831          47.187    22799672.420    94726923.345 8      1496.831          48.187
R15  22779786.660   121728237.729 7      -387.431          43.937    22779785.600   121728237.725 7      -387.431          42.375    22779801.780    94677600.599 7      -301.336          46.187    22779801.680    94677600.597 7      -301.336          46.250
R02  19732970.120   105298960.162 8      2209.732          50.937    19732970.060   105298960.166 8      2209.732          49.687    19732977.120    81899197.366 8      1718.681          50.687    19732977.580    81899191.370 8      1718.681          50.562
G21  22355218.400   117477434.432 7      1335.735          45.750    22355216.600   117477434.434 6      1335.735          36.000    22355220.200    91540870.208 5      1040.832          35.500
G08  22328899.000   117339155.284 7        -5.553          45.187    22328897.820   117339155.286 7        -5.553          44.500    22328907.360    91433138.798 7        -4.327          44.375    22328907.960    91433141.800 8        -4.327          48.000
G14  21997060.800   115595343.524 7      2523.685          45.250    21997059.860   115595343.536 5      2523.685          35.812    21997064.780    90074296.974 5      1966.508          35.625    21997065.020    90074301.972 8      1966.508          49.687
R01  22686069.560   121270028.277 6     -1010.026          40.812    22686069.200   121270028.289 6     -1010.026          40.000    22686081.740    94321178.399 6      -785.576          37.812    22686080.960    94321175.379 6      -785.576          38.375
G22  23381287.640   122869495.373 7      3870.886          43.437    23381286.160   122869495.384 5      3870.886          31.062    23381290.040    95742458.379 5      3016.274          30.750
R24  22223369.700   118838343.611 7      1065.032          43.500    22223368.220   118838343.599 7      1065.032          43.937    22223383.640    92429864.701 7       828.358          47.375    22223383.460    92429870.705 7       828.358          47.875
R18  21990980.280   117389348.587 7      4839.682          45.312    21990981.680   117389348.574 7      4839.682          43.437    21990989.120    91302861.267 7      3764.197          47.000    21990988.600    91302863.269 7      3764.197          47.187
R17  20354373.980   108920373.993 7      3302.934          47.625    20354374.240   108920374.013 7      3302.934          46.312    20354383.100    84715875.833 8      2568.949          49.875    20354383.060    84715877.833 8      2568.949          49.812
G17  23027718.120   121011481.322 7      5459.758          43.937    23027717.300   121011481.321 5      5459.758          34.562    23027720.100    94294667.375 5      4254.357          34.437    23027720.220    94294676.353 7      4254.357          43.750
G04  22905518.460   120369315.089 7      5608.082          42.375    22905517.460   120369315.099 5      5608.082          32.250    22905528.760    93794309.498 5      4369.934          32.125    22905528.960    93794316.511 7      4369.934          47.750
R03  20563638.200   110078764.991 7      6031.804          47.062    20563638.900   110078765.022 7      6031.804          46.187    20563649.800    85616868.801 8      4691.403          50.500    20563649.660    85616867.806 8      4691.403          50.750
> 2024 05 03 16 22 17.0000000  0 16
G03  19914991.020   104653984.340 8      2693.054          50.687    19914990.440   104653984.347 8      2693.054          51.125    19914994.800    81548559.091 8      2098.483          51.312    19914995.420    81548559.091 8      2098.483          51.375
G02  21742877.780   114259591.161 7      2064.293          47.062    21742876.340   114259591.169 6      2064.293          38.625    21742877.260    89033447.695 6      1608.540          38.375
R16  22799301.000   121789766.558 7      1923.829          46.250    22799299.840   121789766.559 7      1923.829          44.687    22799312.280    94725407.788 7      1496.311          47.250    22799311.960    94725426.790 7      1496.311          47.937
R15  22779859.060   121728625.235 7      -387.683          43.750    22779858.040   121728625.239 7      -387.683          42.875    22779874.340    94677901.980 7      -301.532          45.812    22779873.920    94677901.981 7      -301.532          45.812
R02  19732556.220   105296750.795 8      2208.795          50.937    19732556.080   105296750.796 8      2208.795          50.250    19732563.080    81897478.970 8      1717.952          50.625    19732563.260    81897472.969 8      1717.952          50.812
G21  22354964.280   117476098.549 7      1335.791          46.875    22354962.340   117476098.554 5      1335.791          35.312    22354965.900    91539829.258 5      1040.876          35.500
G08  22328900.100   117339161.001 7        -5.982          44.375    22328899.020   117339161.003 7        -5.982          44.750    22328908.580    91433143.243 7        -4.661          44.312    22328909.120    91433146.247 8        -4.661          48.250
G14  21996580.740   115592820.016 7      2523.237          45.062    21996579.640   115592820.029 6      2523.237          36.750    21996584.660    90072330.602 6      1966.158          36.062    21996585.180    90072335.604 8      1966.158          49.750
R01  22686258.280   121271038.376 6     -1010.274          40.812    22686258.180   121271038.388 6     -1010.274          40.000    22686271.060    94321964.022 6      -785.769          37.812    22686269.700    94321961.012 6      -785.769          38.375
G22  23380550.900   122865624.667 7      3870.471          42.750    23380549.680   122865624.677 5      3870.471          31.062    23380553.580    95739442.242 5      3015.951          30.750
R24  22223170.900   118837278.571 7      1064.848          44.812    22223168.900   118837278.559 7      1064.848          43.375    22223184.320    92429036.330 7       828.215          47.812    22223184.000    92429042.330 8       828.215          48.312
R18  21990073.220   117384508.748 7      4839.992          45.437    21990074.980   117384508.743 7      4839.992          43.937    21990082.340    91299096.951 7      3764.438          47.000    21990082.200    91299098.958 7      3764.438          46.875
R17  20353756.800   108917071.049 7      3302.867          47.750    20353756.980   108917071.072 7      3302.867          46.812    20353765.880    84713306.879 8      2568.897          49.750    20353765.560    84713308.875 8      2568.897          49.687
G17  23026679.280   121006021.511 7      5459.774          43.312    23026678.340   121006021.513 5      5459.774          34.687    23026681.080    94290412.985 5      4254.370          34.437    23026681.760    94290421.965 7      4254.370          44.562
G04  22904451.280   120363707.107 7      5607.884          42.750    22904450.220   120363707.114 5      5607.884          32.250    22904461.500    93789939.652 5      4369.779          32.125    22904461.980    93789946.663 7      4369.779          47.750
R03  20562511.400   110072733.375 7      6031.222          47.250    20562512.140   110072733.403 7      6031.222          46.812    20562523.080    85612177.548 8      4690.950          50.437    20562523.300    85612176.551 8      4690.950          50.500
> 2024 05 03 16 22 18.0000000  0 16
G03  19914478.680   104651291.549 8      2692.187          50.437    19914478.040   104651291.551 8      2692.187          50.750    19914482.340    81546461.144 8      2097.808          51.125    19914483.280    81546461.144 8      2097.808          51.687
G02  21742485.160   114257526.865 7      2063.890          47.062    21742483.480   114257526.875 6      2063.890          38.250    21742484.540    89031839.152 6      1608.226          38.500
R16  22798940.600   121787843.097 7      1922.779          46.062    22798939.440   121787843.092 7      1922.779          45.125    22798952.040    94723911.754 7      1495.495          47.687    22798951.860    94723930.754 7      1495.495          47.500
R15  22779931.560   121729012.953 7      -388.036          44.250    22779930.720   121729012.964 7      -388.036          43.500    22779947.020    94678203.525 7      -301.805          45.812    22779946.920    94678203.530 7      -301.805          45.937
R02  19732142.440   105294542.319 8      2207.665          51.187    19732142.200   105294542.319 8      2207.665          49.937    19732149.220    81895761.266 8      1717.073          50.437    19732149.460    81895755.265 8      1717.073          50.875
G21  22354709.840   117474762.635 7      1335.663          45.750    22354708.020   117474762.638 5      1335.663          35.562    22354711.600    91538788.286 5      1040.776          35.437
G08  22328901.040   117339167.045 7        -6.476          45.125    22328900.120   117339167.049 7        -6.476          44.875    22328909.780    91433147.948 7        -5.046          44.375    22328910.400    91433150.954 8        -5.046          48.625
G14  21996100.680   115590297.126 7      2522.271          44.750    21996099.680   115590297.134 5      2522.271          35.875    21996104.540    90070364.710 6      1965.406          36.062    21996105.060    90070369.712 8      1965.406          49.687
R01  22686447.580   121272048.831 6     -1010.990          40.750    22686447.500   121272048.851 6     -1010.990          40.000    22686459.220    94322749.938 6      -786.325          37.812    22686458.660    94322746.930 6      -786.325          38.187
G22  23379814.380   122861754.441 7      3869.615          43.250    23379813.120   122861754.451 5      3869.615          31.062    23379817.120    95736426.481 5      3015.285          31.187
R24  22222971.380   118836213.736 7      1064.371          44.812    22222969.960   118836213.729 7      1064.371          43.625    22222985.200    92428208.125 8       827.844          48.000    22222985.120    92428214.123 8       827.844          48.250
R18  21989166.500   117379668.788 7      4839.645          45.000    21989166.720   117379668.797 7      4839.645          44.562    21989175.200    91295332.551 7      3764.169          46.687    21989175.280    91295334.565 7      3764.169          47.000
R17  20353139.660   108913768.260 7      3302.374          46.937    20353139.940   108913768.275 7      3302.374          46.875    20353148.880    84710738.039 8      2568.513          49.500    20353148.380    84710740.035 8      2568.513          50.125
G17  23025640.120   121000561.721 7      5459.384          44.437    23025639.320   121000561.728 5      5459.384          34.687    23025642.200    94286158.605 5      4254.066          34.500    23025643.480    94286167.602 7      4254.066          45.500
G04  22903384.240   120358099.275 7      5607.549          43.750    22903383.020   120358099.287 5      5607.549          32.375    22903394.440    93785569.923 5      4369.519          32.312    22903394.760    93785576.942 8      4369.519          48.000
R03  20561384.700   110066702.340 7      6030.484          47.875    20561385.060   110066702.366 7      6030.484          46.625    20561396.340    85607486.749 8      4690.376          50.437    20561396.320    85607485.752 8      4690.376          50.625
> 2024 05 03 16 22 19.0000000  0 16
G03  19913966.380   104648599.371 8      2691.789          49.875    19913965.740   104648599.378 8      2691.789          50.750    19913970.040    81544363.361 8      2097.498          51.375    19913970.840    81544363.361 8      2097.498          51.312
G02  21742092.400   114255462.711 7      2064.028          47.250    21742090.660   114255462.716 6      2064.028          38.437    21742091.820    89030230.716 6      1608.334          38.375
R16  22798580.560   121785920.426 7      1922.235          44.562    22798579.260   121785920.424 7      1922.235          44.875    22798591.720    94722416.341 7      1495.071          47.312    22798592.240    94722435.346 7      1495.071          47.687
R15  22780004.180   121729400.934 7      -388.153          44.000    22780003.500   121729400.938 7      -388.153          43.500    22780019.380    94678505.264 7      -301.896          45.937    22780019.600    94678505.265 7      -301.896          46.000
R02  19731728.740   105292334.819 8      2207.007          51.562    19731728.480   105292334.820 8      2207.007          49.187    19731735.520    81894044.319 8      1716.561          51.062    19731735.720    81894038.321 8      1716.561          51.250
G21  22354455.540   117473426.837 7      1335.703          47.062    22354453.740   117473426.839 5      1335.703          35.625    22354457.400    91537747.402 5      1040.807          35.562
G08  22328902.160   117339173.458 7        -6.685          43.812    22328901.360   117339173.463 7        -6.685          44.312    22328910.960    91433152.938 7        -5.209          44.312    22328911.860    91433155.935 8        -5.209          48.562
G14  21995620.460   115587774.898 7      2521.795          44.812    21995619.740   115587774.906 6      2521.795          36.375    21995624.520    90068399.333 6      1965.035          36.062    21995625.240    90068404.333 8      1965.035          49.562
R01  22686636.860   121273059.840 6     -1011.242          40.750    22686636.680   121273059.854 6     -1011.242          40.000    22686648.300    94323536.275 6      -786.521          37.562    22686648.060    94323533.255 6      -786.521          38.187
G22  23379078.080   122857884.806 7      3869.270          44.250    23379076.820   122857884.811 5      3869.270          31.000    23379080.700    95733411.184 5      3015.015          31.187
R24  22222772.700   118835149.240 7      1064.257          43.812    22222770.540   118835149.231 7      1064.257          43.562    22222786.020    92427380.172 7       827.756          47.875    22222785.880    92427386.174 8       827.756          48.250
R18  21988259.740   117374828.861 7      4839.857          43.250    21988258.640   117374828.872 7      4839.857          43.812    21988268.100    91291568.167 7      3764.333          47.125    21988268.740    91291570.180 7      3764.333          46.687
R17  20352522.740   108910465.750 7      3302.355          47.062    20352522.640   108910465.762 7      3302.355          46.812    20352531.600    84708169.414 8      2568.498          49.750    20352531.280    84708171.410 8      2568.498          50.312
G17  23024601.300   120995102.112 7      5459.556          44.875    23024600.360   120995102.114 5      5459.556          34.687    23024603.320    94281904.359 5      4254.199          34.500    23024604.520    94281913.367 7      4254.199          45.375
G04  22902317.320   120352491.571 7      5607.568          42.187    22902315.820   120352491.584 5      5607.568          32.375    22902327.320    93781200.294 5      4369.534          32.312    22902327.520    93781207.313 8      4369.534          48.000
R03  20560258.640   110060671.856 7      6030.069          47.125    20560258.640   110060671.890 7      6030.069          46.625    20560269.700    85602796.382 8      4690.054          50.250    20560269.680    85602795.385 8      4690.054          50.500
> 2024 05 03 16 22 20.0000000  0 16
G03  19913454.220   104645907.978 8      2691.290          50.687    19913453.540   104645907.983 8      2691.290          52.062    19913457.900    81542266.152 8      2097.109          51.562    19913458.640    81542266.152 8      2097.109          51.312
G02  21741699.580   114253398.782 8      2063.986          48.062    21741697.820   114253398.785 6      2063.986          38.500    21741699.040    89028622.457 6      1608.301          38.250
R16  22798220.660   121783998.637 7      1921.575          46.687    22798219.720   121783998.632 7      1921.575          45.500    22798232.260    94720921.616 7      1494.559          46.812    22798232.260    94720940.617 7      1494.559          47.750
R15  22780076.380   121729789.360 7      -388.387          44.000    22780076.000   121729789.366 7      -388.387          43.250    22780092.240    94678807.360 7      -302.079          46.187    22780092.340    94678807.361 7      -302.079          46.125
R02  19731315.220   105290128.440 8      2206.029          51.625    19731315.040   105290128.443 8      2206.029          50.375    19731322.060    81892328.251 8      1715.800          51.312    19731322.460    81892322.255 8      1715.800          51.062
G21  22354201.460   117472091.230 7      1335.647          46.250    22354199.660   117472091.232 5      1335.647          35.625    22354203.200    91536706.668 5      1040.764          35.937
G08  22328903.540   117339180.458 7        -7.039          44.625    22328902.680   117339180.463 7        -7.039          45.125    22328912.280    91433158.386 7        -5.485          44.625    22328913.020    91433161.388 8        -5.485          48.187
G14  21995140.740   115585253.459 7      2521.263          45.125    21995139.920   115585253.469 6      2521.263          36.000    21995144.900    90066434.575 6      1964.620          36.125    21995145.140    90066439.575 8      1964.620          49.500
R01  22686826.240   121274071.423 6     -1011.620          40.812    22686825.780   121274071.426 6     -1011.620          40.250    22686838.340    94324323.045 6      -786.815          37.562    22686837.100    94324320.034 6      -786.815          38.187
G22  23378342.020   122854015.841 7      3868.796          45.312    23378340.680   122854015.841 5      3868.796          31.000    23378344.500    95730396.400 5      3014.646          31.187
R24  22222573.520   118834085.202 7      1064.031          44.687    22222571.200   118834085.187 7      1064.031          44.125    22222587.200    92426552.580 7       827.579          47.500    22222587.240    92426558.582 8       827.579          48.250
R18  21987352.980   117369989.008 7      4839.931          43.562    21987351.680   117369989.020 7      4839.931          43.750    21987361.200    91287803.843 7      3764.391          46.437    21987361.740    91287805.850 7      3764.391          46.500
R17  20351905.860   108907163.558 8      3302.134          49.312    20351905.580   108907163.573 8      3302.134          48.000    20351914.560    84705601.044 8      2568.326          49.687    20351914.200    84705603.040 8      2568.326          50.125
G17  23023562.520   120989642.713 7      5459.457          45.500    23023561.440   120989642.713 5      5459.457          34.625    23023564.440    94277650.284 5      4254.122          34.500    23023565.320    94277659.305 7      4254.122          45.250
G04  22901249.960   120346884.285 7      5607.386          42.937    22901248.860   120346884.298 5      5607.386          32.625    22901260.340    93776830.993 5      4369.391          32.312    22901260.700    93776838.011 7      4369.391          47.750
R03  20559131.880   110054642.205 8      6029.495          49.125    20559132.400   110054642.236 7      6029.495          47.562    20559143.340    85598106.653 8      4689.607          50.125    20559143.320    85598105.656 8      4689.607          50.250
> 2024 05 03 16 22 21.0000000  0 16
G03  19912942.280   104643216.835 8      2691.003          50.500    19912941.480   104643216.843 8      2691.003          51.750    19912945.760    81540169.843 8      2096.886          51.625    19912946.620    81540169.843 8      2096.886          51.375
G02  21741306.860   114251334.625 7      2064.326          45.812    21741305.120   114251334.633 6      2064.326          38.937    21741306.360    89027014.023 6      1608.566          38.437
R16  22797860.940   121782077.293 7      1921.067          46.437    22797859.500   121782077.294 7      1921.067          45.562    22797872.800    94719427.238 7      1494.163          47.125    22797872.540    94719446.241 7      1494.163          47.625
R15  22780149.420   121730177.630 7      -388.307          45.312    22780148.900   121730177.626 7      -388.307          44.187    22780164.820    94679109.319 7      -302.017          45.687    22780164.820    94679109.320 7      -302.017          45.937
R02  19730902.240   105287922.613 8      2205.569          51.375    19730901.700   105287922.616 8      2205.569          50.500    19730908.600    81890612.608 8      1715.443          51.187    19730908.960    81890606.609 8      1715.443          51.250
G21  22353947.300   117470755.329 7      1336.026          45.437    22353945.440   117470755.334 5      1336.026          35.812    22353948.840    91535665.702 5      1041.059          35.625
G08  22328904.960   117339187.358 7        -6.905          45.437    22328904.040   117339187.365 7        -6.905          44.625    22328913.580    91433163.754 7        -5.381          44.437    22328914.540    91433166.758 8        -5.381          48.437
G14  21994661.100   115582732.321 7      2520.985          44.125    21994660.060   115582732.334 5      2520.985          35.562    21994665.000    90064470.053 5      1964.404          35.687    21994665.340    90064475.046 8      1964.404          49.250
R01  22687015.700   121275083.150 6     -1011.608          40.812    22687014.920   121275083.156 6     -1011.608          40.250    22687027.520    94325109.953 6      -786.806          37.562    22687026.160    94325106.939 6      -786.806          38.375
G22  23377605.880   122850147.129 7      3868.619          45.750    23377604.540   122850147.126 5      3868.619          31.000    23377608.160    95727381.819 5      3014.509          31.187
R24  22222374.680   118833021.006 7      1064.287          45.500    22222372.260   118833020.981 7      1064.287          44.125    22222388.280    92425724.858 8       827.779          48.125    22222388.040    92425730.858 8       827.779          48.812
R18  21986446.400   117365148.888 7      4840.274          44.250    21986445.280   117365148.897 7      4840.274          44.250    21986454.380    91284039.306 7      3764.658          46.750    21986454.960    91284041.302 7      3764.658          46.625
R17  20351288.480   108903861.248 8      3302.377          49.125    20351288.720   108903861.266 8      3302.377          48.062    20351297.500    84703032.581 8      2568.516          49.750    20351297.060    84703034.577 8      2568.516          49.875
G17  23022523.380   120984183.168 7      5459.612          45.875    23022522.480   120984183.167 5      5459.612          34.875    23022525.400    94273396.090 5      4254.243          34.500    23022525.700    94273405.105 7      4254.243          44.000
G04  22900182.820   120341276.653 7      5607.764          43.125    22900181.860   120341276.663 5      5607.764          32.625    22900193.280    93772461.415 5      4369.686          32.500    22900193.280    93772468.430 7      4369.686          47.812
R03  20558005.760   110048612.658 8      6029.313          48.562    20558005.940   110048612.684 7      6029.313          47.875    20558016.980    85593417.012 8      4689.465          50.625    20558016.960    85593416.017 8      4689.465          50.875
> 2024 05 03 16 22 22.0000000  0 16
G03  19912430.140   104640526.254 8      2690.149          50.062    19912429.480   104640526.257 8      2690.149          51.562    19912433.740    81538072.715 8      2096.220          51.562    19912434.680    81538072.715 8      2096.220          51.375
G02  21740914.220   114249270.471 7      2064.018          46.000    21740912.400   114249270.479 6      2064.018          38.562    21740913.620    89025405.591 6      1608.326          38.687
R16  22797501.300   121780156.521 7      1920.306          46.000    22797500.500   121780156.520 7      1920.306          45.000    22797512.940    94717933.296 7      1493.572          46.562    22797512.780    94717952.301 7      1493.572          47.687
R15  22780221.800   121730566.117 7      -388.669          45.312    22780221.300   121730566.115 7      -388.669          44.687    22780237.660    94679411.463 7      -302.298          45.625    22780237.440    94679411.464 7      -302.298          46.062
R02  19730488.800   105285717.666 8      2204.377          51.187    19730488.420   105285717.662 8      2204.377          50.187    19730495.520    81888897.650 8      1714.515          50.562    19730495.720    81888891.653 8      1714.515          50.750
G21  22353693.000   117469419.394 7      1335.820          45.375    22353691.280   117469419.402 5      1335.820          35.687    22353694.720    91534624.713 5      1040.899          35.687
G08  22328906.360   117339194.733 7        -7.598          45.625    22328905.520   117339194.733 7        -7.598          45.000    22328914.980    91433169.489 7        -5.920          44.375    22328915.780    91433172.491 8        -5.920          48.312
G14  21994181.360   115580211.754 7      2520.215          44.312    21994180.340   115580211.764 6      2520.215          36.000    21994185.300    90062505.972 6      1963.804          36.000    21994185.820    90062510.964 8      1963.804          49.375
R01  22687204.860   121276095.248 6     -1012.394          41.312    22687204.740   121276095.247 6     -1012.394          40.250    22687215.820    94325897.126 6      -787.418          37.250    22687215.420    94325894.110 6      -787.418          38.375
G22  23376869.680   122846278.819 7      3867.862          45.312    23376868.260   122846278.816 5      3867.862          30.875    23376872.080    95724367.551 5      3013.918          31.000
R24  22222175.160   118831957.056 7      1063.826          44.937    22222173.440   118831957.036 7      1063.826          44.187    22222189.320    92424897.335 8       827.420          48.000    22222189.180    92424903.337 8       827.420          48.562
R18  21985539.940   117360308.571 7      4840.260          44.812    21985539.260   117360308.572 7      4840.260          44.375    21985548.100    91280274.611 7      3764.646          46.937    21985547.960    91280276.598 7      3764.646          46.875
R17  20350671.380   108900559.046 8      3301.979          49.187    20350671.640   108900559.053 7      3301.979          47.875    20350680.280    84700464.193 8      2568.206          49.812    20350679.920    84700466.191 8      2568.206          50.250
G17  23021484.520   120978723.541 7      5459.366          44.812    23021483.380   120978723.543 5      5459.366          34.875    23021486.540    94269141.840 5      4254.051          34.500    23021486.440    94269150.840 7      4254.051          43.812
G04  22899115.700   120335669.320 7      5607.276          43.000    22899114.900   120335669.330 5      5607.276          32.500    22899126.100    93768092.075 5      4369.306          32.500    22899126.360    93768099.089 8      4369.306          48.062
R03  20556879.460   110042583.783 7      6028.505          47.062    20556879.540   110042583.809 7      6028.505          47.125    20556890.680    85588727.893 8      4688.837          50.687    20556890.960    85588726.896 8      4688.837          50.375
> 2024 05 03 16 22 23.0000000  0 16
G03  19911918.400   104637836.373 8      2689.520          49.375    19911917.620   104637836.377 8      2689.520          51.000    19911921.880    81535977.225 8      2095.730          51.625    19911922.700    81535977.225 8      2095.730          51.875
G02  21740521.500   114247206.524 7      2063.913          45.125    21740519.680   114247206.532 6      2063.913          38.500    21740520.960    89023797.320 6      1608.244          38.625
R16  22797141.980   121778236.623 7      1919.467          45.562    22797141.300   121778236.630 7      1919.467          44.812    22797153.740    94716440.048 7      1492.919          46.937    22797153.420    94716459.053 7      1492.919          47.562
R15  22780294.500   121730954.951 7      -388.925          44.750    22780294.140   121730954.939 7      -388.925          43.125    22780310.060    94679713.861 7      -302.497          45.750    22780310.240    94679713.865 7      -302.497          46.062
R02  19730075.740   105283513.710 8      2203.463          50.625    19730075.500   105283513.708 8      2203.463          49.875    19730082.560    81887183.463 8      1713.804          51.000    19730082.860    81887177.465 8      1713.804          50.812
G21  22353438.820   117468083.648 7      1335.743          45.625    22353436.920   117468083.653 5      1335.743          35.375    22353440.600    91533583.864 5      1040.839          35.687
G08  22328908.020   117339202.513 7        -7.973          45.125    22328906.940   117339202.513 7        -7.973          45.062    22328916.480    91433175.545 7        -6.213          44.437    22328917.460    91433178.543 8        -6.213          48.375
G14  21993701.960   115577691.933 7      2519.494          44.625    21993700.820   115577691.941 5      2519.494          35.937    21993705.820    90060542.471 6      1963.242          36.000    21993706.220    90060547.467 8      1963.242          49.750
R01  22687394.720   121277107.922 6     -1012.812          41.312    22687394.020   121277107.904 6     -1012.812          40.437    22687405.840    94326684.761 6      -787.743          37.250    22687404.620    94326681.743 6      -787.743          38.375
G22  23376133.460   122842411.178 7      3867.346          45.312    23376132.380   122842411.175 5      3867.346          30.875    23376136.240    95721353.803 5      3013.517          31.000
R24  22221976.880   118830893.523 7      1063.352          43.812    22221974.820   118830893.501 7      1063.352          43.250    22221990.580    92424070.134 8       827.052          48.000    22221990.200    92424076.136 8       827.052          48.250
R18  21984632.800   117355468.393 7      4840.240          44.562    21984633.020   117355468.397 7      4840.240          44.375    21984642.200    91276510.032 7      3764.631          46.687    21984641.580    91276512.021 7      3764.631          47.312
R17  20350054.260   108897257.178 7      3301.697          47.187    20350054.580   108897257.195 7      3301.697          47.062    20350063.160    84697896.082 8      2567.986          50.187    20350063.100    84697898.078 8      2567.986          50.562
G17  23020445.420   120973264.174 7      5459.352          45.500    23020444.660   120973264.178 5      5459.352          34.187    23020447.640    94264887.791 5      4254.041          34.312    23020448.000    94264896.776 7      4254.041          43.875
G04  22898048.860   120330062.171 7      5607.158          43.812    22898047.920   120330062.178 5      5607.158          32.500    22898058.940    93763722.876 5      4369.214          32.625    22898059.120    93763729.888 7      4369.214          47.875
R03  20555753.320   110036555.519 7      6027.954          46.937    20555752.840   110036555.550 7      6027.954          46.125    20555764.500    85584039.253 8      4688.409          50.312    20555764.580    85584038.256 8      4688.409          50.312
> 2024 05 03 16 22 24.0000000  0 16
G03  19911406.500   104635147.071 8      2689.104          49.500    19911405.840   104635147.076 8      2689.104          50.250    19911410.100    81533881.080 8      2095.406          51.187    19911410.820    81533881.080 8      2095.406          51.562
G02  21740128.680   114245142.657 7      2063.927          46.312    21740126.880   114245142.667 6      2063.927          38.250    21740128.020    89022189.114 6      1608.255          38.437
R16  22796782.600   121776317.414 7      1919.018          45.437    22796782.200   121776317.418 7      1919.018          44.625    22796794.440    94714947.315 7      1492.569          46.750    22796794.240    94714966.320 7      1492.569          47.312
R15  22780367.700   121731344.001 7      -389.188          44.125    22780366.820   121731343.992 7      -389.188          43.125    22780383.160    94680016.437 7      -302.702          45.062    22780383.000    94680016.439 7      -302.702          45.875
R02  19729662.640   105281310.685 8      2202.601          50.812    19729662.600   105281310.677 8      2202.601          49.687    19729669.640    81885469.997 8      1713.134          50.312    19729670.000    81885464.001 8      1713.134          50.687
G21  22353184.520   117466747.913 7      1335.847          46.312    22353182.660   117466747.918 5      1335.847          35.750    22353186.420    91532543.033 5      1040.919          35.625
G08  22328909.720   117339210.635 7        -8.232          45.750    22328908.520   117339210.640 7        -8.232          44.875    22328918.160    91433181.868 7        -6.414          44.687    22328919.020    91433184.867 8        -6.414          48.125
G14  21993222.560   115575172.737 7      2518.903          43.812    21993221.240   115575172.753 5      2518.903          35.812    21993226.560    90058579.464 5      1962.782          35.500    21993226.620    90058584.457 8      1962.782          49.750
R01  22687584.320   121278121.055 6     -1013.335          41.312    22687583.420   121278121.051 6     -1013.335          40.437    22687595.780    94327472.755 6      -788.150          37.250    22687594.580    94327469.750 6      -788.150          37.687
G22  23375397.640   122838544.069 7      3866.920          45.187    23375396.400   122838544.068 5      3866.920          30.875    23375400.360    95718340.473 5      3013.184          31.000
R24  22221777.600   118829830.231 7      1063.255          43.750    22221775.560   118829830.209 7      1063.255          43.312    22221791.520    92423243.123 7       826.976          47.500    22221791.420    92423249.123 8       826.976          48.312
R18  21983726.260   117350628.161 7      4840.328          44.625    21983726.980   117350628.157 7      4840.328          44.000    21983736.440    91272745.401 7      3764.699          47.000    21983735.040    91272747.401 7      3764.699          47.687
R17  20349437.480   108893955.507 7      3301.627          47.250    20349437.380   108893955.528 7      3301.627          47.000    20349446.340    84695328.118 8      2567.932          50.000    20349446.060    84695330.114 8      2567.932          49.937
G17  23019406.380   120967804.899 7      5459.324          46.250    23019405.880   120967804.901 5      5459.324          34.875    23019408.780    94260633.813 5      4254.018          34.312    23019409.140    94260642.805 7      4254.018          45.000
G04  22896981.880   120324455.169 7      5606.973          43.500    22896980.860   120324455.179 5      5606.973          32.500    22896992.020    93759353.798 5      4369.070          32.625    22896992.140    93759360.814 7      4369.070          47.687
R03  20554627.140   110030527.811 7      6027.499          47.562    20554627.120   110030527.836 7      6027.499          45.812    20554638.360    85579351.036 8      4688.055          50.250    20554638.720    85579350.039 8      4688.055          50.812
> 2024 05 03 16 22 25.0000000  0 16
G03  19910894.980   104632458.332 8      2688.412          49.687    19910894.180   104632458.335 8      2688.412          49.562    19910898.400    81531786.492 8      2094.867          50.062    19910899.260    81531786.492 8      2094.867          50.625
G02  21739735.920   114243078.826 7      2063.793          46.250    21739734.040   114243078.830 6      2063.793          38.750    21739735.260    89020580.928 6      1608.150          38.812
R16  22796423.280   121774398.942 7      1918.023          45.312    22796422.960   121774398.937 7      1918.023          44.625    22796435.360    94713455.158 7      1491.795          46.812    22796435.200    94713474.160 7      1491.795          47.000
R15  22780440.880   121731733.223 7      -389.383          43.687    22780439.720   121731733.213 7      -389.383          43.375    22780455.920    94680319.144 7      -302.853          44.937    22780455.820    94680319.146 7      -302.853          45.062
R02  19729250.160   105279108.558 8      2201.585          50.750    19729250.020   105279108.554 8      2201.585          49.250    19729256.960    81883757.234 8      1712.344          49.437    19729257.220    81883751.236 8      1712.344          49.625
G21  22352930.540   117465412.180 7      1335.650          46.312    22352928.360   117465412.185 5      1335.650          35.500    22352932.320    91531502.201 5      1040.766          35.562
G08  22328911.140   117339219.038 7        -8.656          44.687    22328910.120   117339219.051 7        -8.656          44.625    22328919.660    91433188.417 7        -6.745          44.250    22328920.380    91433191.421 8        -6.745          48.062
G14  21992742.940   115572654.122 7      2518.221          42.937    21992741.960   115572654.135 6      2518.221          36.000    21992747.320    90056616.904 5      1962.250          35.750    21992747.740    90056621.894 8      1962.250          49.062
R01  22687773.980   121279134.576 6     -1013.778          40.187    22687773.140   121279134.582 6     -1013.778          40.437    22687784.280    94328261.049 6      -788.494          37.250    22687784.620    94328258.044 6      -788.494          37.687
G22  23374661.800   122834677.469 7      3866.193          43.750    23374660.580   122834677.471 5      3866.193          31.000    23374664.740    95715327.538 5      3012.618          31.125
R24  22221579.200   118828767.137 7      1062.914          43.750    22221576.960   118828767.120 7      1062.914          43.312    22221592.700    92422416.278 7       826.711          47.500    22221592.580    92422422.278 7       826.711          47.875
R18  21982819.760   117345787.820 7      4840.323          45.125    21982820.480   117345787.813 7      4840.323          44.187    21982829.820    91268980.693 7      3764.696          46.750    21982828.460    91268982.701 8      3764.696          48.250
R17  20348820.180   108890654.000 7      3301.429          47.187    20348820.600   108890654.015 7      3301.429          46.750    20348829.320    84692760.271 8      2567.778          49.125    20348829.180    84692762.267 8      2567.778          50.000
G17  23018367.460   120962345.702 7      5459.025          45.625    23018367.040   120962345.705 5      5459.025          34.875    23018369.900    94256379.898 5      4253.786          34.687    23018370.960    94256388.905 7      4253.786          45.437
G04  22895914.880   120318848.232 7      5606.841          43.937    22895913.780   120318848.242 5      5606.841          32.937    22895925.140    93754984.767 5      4368.967          32.687    22895925.320    93754991.785 7      4368.967          47.750
R03  20553501.080   110024500.592 7      6026.817          47.500    20553501.040   110024500.623 7      6026.817          46.000    20553512.480    85574663.210 8      4687.524          49.750    20553512.680    85574662.210 8      4687.524          49.375
> 2024 05 03 16 22 26.0000000  0 16
G03  19910383.140   104629770.024 8      2688.001          49.500    19910382.580   104629770.027 8      2688.001          50.500    19910386.880    81529690.592 8      2094.546          51.250    19910387.560    81529690.592 8      2094.546          51.625
G02  21739342.960   114241014.923 7      2063.963          46.562    21739341.380   114241014.931 6      2063.963          39.062    21739342.540    89018972.694 6      1608.282          39.000
R16  22796064.640   121772481.060 7      1917.568          44.687    22796063.920   121772481.061 7      1917.568          44.125    22796076.400    94711963.474 7      1491.441          47.000    22796075.920    94711982.474 7      1491.441          47.500
R15  22780513.700   121732122.511 7      -389.373          44.250    22780512.660   121732122.504 7      -389.373          42.937    22780528.960    94680621.913 7      -302.846          45.312    22780528.780    94680621.916 7      -302.846          45.500
R02  19728837.440   105276907.209 8      2200.899          51.125    19728837.380   105276907.204 8      2200.899          49.437    19728844.460    81882045.073 8      1711.811          50.500    19728845.000    81882039.077 8      1711.811          50.500
G21  22352676.460   117464076.321 7      1335.858          45.812    22352674.200   117464076.323 5      1335.858          35.687    22352678.160    91530461.268 5      1040.928          35.562
G08  22328912.520   117339227.617 7        -8.703          45.187    22328911.900   117339227.619 7        -8.703          44.250    22328921.360    91433195.094 7        -6.782          44.125    22328922.200    91433198.096 7        -6.782          47.812
G14  21992263.740   115570135.993 7      2517.843          43.937    21992262.860   115570136.006 5      2517.843          35.625    21992268.080    90054654.722 5      1961.956          35.812    21992268.400    90054659.720 8      1961.956          49.312
R01  22687963.400   121280148.444 6     -1014.119          40.187    22687962.500   121280148.442 6     -1014.119          39.500    22687974.640    94329049.611 6      -788.759          36.937    22687974.220    94329046.597 6      -788.759          37.687
G22  23373926.020   122830811.239 7      3866.024          43.937    23373924.880   122830811.247 5      3866.024          31.000    23373929.100    95712314.896 5      3012.486          31.125
R24  22221380.200   118827704.120 7      1062.892          43.250    22221378.180   118827704.111 7      1062.892          42.687    22221393.940    92421589.483 7       826.694          47.562    22221393.920    92421595.485 8       826.694          48.250
R18  21981912.520   117340947.335 7      4840.621          44.312    21981913.600   117340947.328 7      4840.621          43.562    21981922.560    91265215.880 7      3764.927          47.625    21981921.860    91265217.894 8      3764.927          48.000
R17  20348203.100   108887352.517 7      3301.459          46.875    20348203.620   108887352.535 7      3301.459          46.625    20348212.340    84690192.453 8      2567.801          49.625    20348212.040    84690194.449 8      2567.801          50.312
G17  23017328.560   120956886.454 7      5459.269          44.687    23017328.060   120956886.453 5      5459.269          34.812    23017331.260    94252125.938 5      4253.976          34.812    23017331.800    94252134.963 7      4253.976          45.750
G04  22894847.920   120313241.265 7      5606.994          43.250    22894846.820   120313241.272 5      5606.994          32.937    22894858.200    93750615.709 5      4369.087          32.687    22894858.160    93750622.722 8      4369.087          48.125
R03  20552375.480   110018473.768 7      6026.481          45.937    20552375.240   110018473.793 7      6026.481          46.000    20552386.840    85569975.681 8      4687.263          50.625    20552387.020    85569974.682 8      4687.263          50.562
> 2024 05 03 16 22 27.0000000  0 16
G03  19909871.600   104627082.239 8      2687.490          49.250    19909871.080   104627082.242 8      2687.490          50.625    19909875.400    81527595.922 8      2094.148          50.875    19909875.980    81527595.922 8      2094.148          51.375
G02  21738950.060   114238951.011 7      2063.856          46.750    21738948.680   114238951.018 6      2063.856          39.125    21738949.800    89017364.447 6      1608.199          38.875
R16  22795705.900   121770563.814 7      1916.908          44.437    22795704.880   121770563.812 7      1916.908          44.250    22795717.360    94710472.281 7      1490.928          47.000    22795717.040    94710491.281 7      1490.928          47.687
R15  22780586.740   121732512.000 7      -389.565          44.125    22780585.720   121732511.993 7      -389.565          43.625    22780601.800    94680924.828 7      -302.995          45.062    22780601.660    94680924.833 7      -302.995          45.562
R02  19728425.300   105274706.681 8      2200.082          50.437    19728424.900   105274706.679 8      2200.082          49.812    19728431.960    81880333.554 8      1711.175          50.250    19728432.340    81880327.557 8      1711.175          51.437
G21  22352422.140   117462740.415 7      1335.885          45.812    22352419.900   117462740.417 5      1335.885          35.687    22352423.960    91529420.302 5      1040.950          35.562
G08  22328914.480   117339236.558 7        -9.187          44.937    22328913.620   117339236.568 7        -9.187          44.125    22328923.120    91433202.055 7        -7.159          44.187    22328923.740    91433205.053 8        -7.159          48.125
G14  21991784.560   115567618.408 7      2517.242          43.687    21991783.780   115567618.419 6      2517.242          36.187    21991789.040    90052692.967 5      1961.487          35.812    21991789.260    90052697.965 8      1961.487          49.500
R01  22688153.300   121281162.603 6     -1014.376          40.187    22688151.640   121281162.596 6     -1014.376          39.500    22688164.640    94329838.400 6      -788.959          36.937    22688164.020    94329835.390 6      -788.959          37.375
G22  23373190.620   122826945.451 7      3865.554          43.875    23373189.300   122826945.461 5      3865.554          31.000    23373193.380    95709302.593 5      3012.120          31.125
R24  22221181.800   118826641.339 7      1062.674          43.875    22221179.440   118826641.324 7      1062.674          43.062    22221195.420    92420762.869 8       826.524          48.125    22221194.900    92420768.869 8       826.524          48.750
R18  21981006.060   117336106.706 7      4840.604          43.687    21981006.100   117336106.704 7      4840.604          43.562    21981015.040    91261450.954 7      3764.914          47.000    21981015.000    91261452.971 7      3764.914          47.750
R17  20347586.080   108884051.107 7      3301.320          47.437    20347586.660   108884051.124 7      3301.320          46.062    20347595.520    84687624.685 8      2567.694          50.375    20347595.120    84687626.681 8      2567.694          50.312
G17  23016289.920   120951427.176 7      5459.272          44.687    23016289.160   120951427.181 5      5459.272          34.812    23016292.440    94247871.961 5      4253.978          34.812    23016292.420    94247880.985 7      4253.978          44.937
G04  22893780.840   120307634.454 7      5606.733          43.625    22893780.060   120307634.462 5      5606.733          32.812    22893791.380    93746246.776 5      4368.883          32.687    22893791.460    93746253.795 8      4368.883          48.250
R03  20551249.720   110012447.521 7      6025.863          46.625    20551249.420   110012447.547 7      6025.863          45.500    20551261.040    85565288.605 8      4686.783          50.812    20551261.320    85565287.608 8      4686.783          50.750
> 2024 05 03 16 22 28.0000000  0 16
G03  19909360.380   104624395.027 8      2686.934          49.875    19909359.700   104624395.032 8      2686.934          50.812    19909364.000    81525502.561 8      2093.715          51.125    19909364.820    81525502.561 8      2093.715          51.375
G02  21738557.640   114236887.156 7      2063.930          47.062    21738555.900   114236887.164 6      2063.930          39.187    21738557.120    89015756.244 6      1608.257          38.812
R16  22795347.160   121768647.265 7      1916.245          44.875    22795346.400   121768647.271 7      1916.245          44.687    22795358.820    94708981.633 7      1490.413          47.375    22795358.360    94709000.632 7      1490.413          47.625
R15  22780659.900   121732901.668 7      -389.781          44.625    22780658.300   121732901.669 7      -389.781          43.812    22780674.720    94681227.895 7      -303.163          45.812    22780674.640    94681227.899 7      -303.163          45.875
R02  19728013.100   105272507.012 8      2199.273          51.062    19728012.760   105272507.007 8      2199.273          49.562    19728019.780    81878622.700 8      1710.546          50.500    19728020.240    81878616.704 8      1710.546          50.812
G21  22352167.900   117461404.535 7      1335.932          45.312    22352165.740   117461404.540 5      1335.932          35.625    22352169.640    91528379.354 5      1040.986          35.625
G08  22328916.540   117339245.770 7        -9.255          45.437    22328915.400   117339245.772 7        -9.255          44.875    22328924.760    91433209.227 7        -7.212          44.250    22328925.780    91433212.223 7        -7.212          47.937
G14  21991305.780   115565101.436 7      2516.743          44.750    21991304.880   115565101.440 6      2516.743          36.250    21991310.020    90050731.684 5      1961.098          35.687    21991310.160    90050736.678 8      1961.098          49.625
R01  22688342.480   121282177.225 6     -1014.893          39.937    22688342.200   121282177.234 6     -1014.893          39.500    22688353.740    94330627.552 6      -789.361          36.937    22688353.580    94330624.545 6      -789.361          37.375
G22  23372455.000   122823080.196 7      3865.013          43.875    23372453.760   122823080.207 5      3865.013          30.812    23372458.020    95706290.711 5      3011.699          30.937
R24  22220982.980   118825578.795 7      1062.464          43.687    22220980.680   118825578.778 7      1062.464          43.062    22220996.660    92419936.440 8       826.361          48.000    22220996.320    92419942.438 8       826.361          48.625
R18  21980098.980   117331266.028 7      4840.852          44.187    21980098.400   117331266.032 7      4840.852          44.062    21980107.420    91257685.987 7      3765.107          46.625    21980108.200    91257688.008 7      3765.107          47.312
R17  20346969.400   108880749.878 7      3301.232          47.187    20346969.680   108880749.890 7      3301.232          46.625    20346978.340    84685057.065 8      2567.625          50.062    20346978.300    84685059.060 8      2567.625          50.875
G17  23015251.140   120945968.037 7      5459.102          45.187    23015250.300   120945968.045 5      5459.102          34.812    23015253.460    94243618.087 5      4253.846          34.875    23015253.320    94243627.094 7      4253.846          44.062
G04  22892714.020   120302027.697 7      5606.848          43.500    22892713.220   120302027.704 5      5606.848          32.812    22892724.460    93741877.887 5      4368.972          32.687    22892724.540    93741884.905 8      4368.972          48.000
R03  20550124.360   110006421.764 7      6025.491          46.500    20550123.420   110006421.793 7      6025.491          46.000    20550135.580    85560601.915 8      4686.493          50.375    20550135.320    85560600.916 8      4686.493          50.687
> 2024 05 03 16 22 29.0000000  0 16
G03  19908849.120   104621708.256 8      2686.581          50.000    19908848.480   104621708.261 8      2686.581          51.125    19908852.740    81523409.037 8      2093.440          51.312    19908853.540    81523409.037 8      2093.440          51.687
G02  21738164.620   114234823.254 7      2063.943          47.562    21738163.120   114234823.259 6      2063.943          38.062    21738164.360    89014148.009 6      1608.267          38.687
R16  22794988.180   121766731.279 7      1915.721          44.812    22794987.980   121766731.288 7      1915.721          44.437    22795000.180    94707491.422 7      1490.005          47.750    22794999.780    94707510.425 7      1490.005          47.750
R15  22780732.780   121733291.437 7      -389.728          44.937    22780731.640   121733291.427 7      -389.728          43.812    22780747.780    94681531.019 7      -303.122          45.375    22780747.580    94681531.024 7      -303.122          45.687
R02  19727601.220   105270308.087 8      2198.534          50.625    19727600.460   105270308.083 8      2198.534          49.500    19727607.680    81876912.427 8      1709.971          50.437    19727608.220    81876906.429 8      1709.971          51.062
G21  22351913.800   117460068.545 7      1336.081          45.750    22351911.560   117460068.555 5      1336.081          35.375    22351915.400    91527338.321 5      1041.102          35.562
G08  22328918.180   117339255.224 7        -9.409          45.750    22328917.320   117339255.229 7        -9.409          44.312    22328926.500    91433216.590 7        -7.332          44.375    22328927.640    91433219.590 7        -7.332          47.937
G14  21990826.920   115562584.944 7      2516.269          44.687    21990826.040   115562584.954 6      2516.269          36.125    21990831.080    90048770.781 5      1960.729          35.875    21990831.320    90048775.779 8      1960.729          49.625
R01  22688531.900   121283192.079 6     -1014.954          39.937    22688531.740   121283192.099 6     -1014.954          39.375    22688544.360    94331416.890 6      -789.408          36.625    22688543.660    94331413.882 6      -789.408          37.375
G22  23371719.640   122819215.325 7      3864.648          44.062    23371718.240   122819215.336 5      3864.648          30.812    23371722.760    95703279.123 5      3011.414          30.937
R24  22220784.160   118824516.364 7      1062.533          44.437    22220781.760   118824516.352 7      1062.533          42.812    22220798.020    92419110.098 8       826.415          48.312    22220797.600    92419116.101 8       826.415          48.125
R18  21979192.280   117326425.164 7      4840.919          42.625    21979191.880   117326425.167 7      4840.919          43.312    21979199.660    91253920.872 7      3765.159          46.812    21979200.900    91253922.893 7      3765.159          46.625
R17  20346352.300   108877448.711 7      3301.136          47.625    20346352.480   108877448.734 7      3301.136          46.500    20346361.540    84682489.494 8      2567.550          50.312    20346361.200    84682491.490 8      2567.550          51.125
G17  23014212.240   120940508.812 7      5459.222          45.750    23014211.540   120940508.817 5      5459.222          34.937    23014214.620    94239364.148 5      4253.939          34.875    23014214.160    94239373.124 7      4253.939          43.187
G04  22891647.180   120296421.000 7      5606.833          43.312    22891646.320   120296421.007 5      5606.833          32.875    22891657.560    93737509.042 5      4368.961          32.687    22891657.420    93737516.057 7      4368.961          47.500
R03  20548998.440   110000396.441 7      6025.235          46.312    20548998.020   110000396.469 7      6025.235          45.687    20549010.040    85555915.557 8      4686.294          50.625    20549009.840    85555914.560 8      4686.294          50.812
> 2024 05 03 16 22 30.0000000  0 16
G03  19908337.860   104619022.069 8      2686.067          50.250    19908337.280   104619022.071 8      2686.067          50.500    19908341.600    81521315.513 8      2093.039          50.750    19908342.300    81521315.513 8      2093.039          51.437
G02  21737772.000   114232759.426 7      2063.909          47.187    21737770.420   114232759.433 6      2063.909          38.812    21737771.580    89012539.835 6      1608.241          38.750
R16  22794629.500   121764816.028 7      1915.075          44.937    22794629.580   121764816.035 7      1915.075          44.875    22794641.980    94706001.783 7      1489.503          46.937    22794641.220    94706020.783 8      1489.503          48.250
R15  22780805.540   121733681.425 7      -390.035          44.937    22780804.220   121733681.418 7      -390.035          43.437    22780820.760    94681834.329 7      -303.360          45.687    22780820.460    94681834.332 7      -303.360          45.625
R02  19727189.520   105268110.094 8      2197.672          50.500    19727188.620   105268110.092 8      2197.672          49.437    19727195.940    81875202.881 8      1709.300          50.562    19727196.120    81875196.881 8      1709.300          51.062
G21  22351659.380   117458732.596 7      1336.080          45.125    22351657.260   117458732.604 5      1336.080          35.750    22351661.140    91526297.318 5      1041.101          35.625
G08  22328920.080   117339264.985 7        -9.889          44.312    22328919.180   117339264.990 7        -9.889          44.437    22328928.380    91433224.194 7        -7.706          44.000    22328929.280    91433227.196 7        -7.706          47.812
G14  21990348.200   115560069.080 7      2515.686          44.875    21990347.320   115560069.092 5      2515.686          35.937    21990352.400    90046810.367 5      1960.275          35.562    21990352.760    90046815.365 8      1960.275          49.187
R01  22688722.120   121284207.466 6     -1015.438          39.937    22688721.600   121284207.478 6     -1015.438          39.375    22688734.200    94332206.626 6      -789.785          36.625    22688733.140    94332203.621 6      -789.785          37.375
G22  23370984.400   122815351.001 7      3864.154          44.187    23370983.020   122815351.011 5      3864.154          30.812    23370987.360    95700267.955 5      3011.029          30.937
R24  22220585.800   118823454.216 7      1062.146          44.437    22220583.320   118823454.196 7      1062.146          43.250    22220599.340    92418283.975 8       826.114          48.250    22220598.900    92418289.973 8       826.114          48.625
R18  21978285.140   117321584.281 7      4841.074          42.687    21978285.760   117321584.284 7      4841.074          43.750    21978291.860    91250155.737 7      3765.279          46.375    21978293.560    91250157.747 7      3765.279          45.625
R17  20345735.460   108874147.763 7      3301.058          46.750    20345735.820   108874147.783 7      3301.058          46.750    20345744.660    84679922.090 8      2567.490          49.875    20345744.340    84679924.086 8      2567.490          50.375
G17  23013173.340   120935049.732 7      5459.170          45.687    23013172.580   120935049.729 5      5459.170          34.937    23013175.620    94235110.319 5      4253.899          34.562    23013175.880    94235119.291 7      4253.899          43.625
G04  22890580.320   120290814.360 7      5606.702          43.625    22890579.560   120290814.368 5      5606.702          32.875    22890590.600    93733140.242 5      4368.858          32.687    22890590.700    93733147.261 7      4368.858          47.875
R03  20547873.100   109994371.613 7      6024.694          46.125    20547872.320   109994371.644 7      6024.694          45.937    20547884.340    85551229.594 8      4685.873          50.312    20547884.200    85551228.597 8      4685.873          50.875
> 2024 05 03 16 22 31.0000000  0 16
G03  19907826.820   104616336.504 8      2685.264          49.812    19907826.180   104616336.506 8      2685.264          49.375    19907830.500    81519222.889 8      2092.413          50.750    19907831.040    81519222.889 8      2092.413          50.062
G02  21737379.400   114230695.673 7      2063.743          46.187    21737377.860   114230695.678 6      2063.743          39.000    21737378.860    89010931.712 6      1608.111          39.062
R16  22794271.320   121762901.466 7      1914.221          45.812    22794270.860   121762901.470 7      1914.221          44.312    22794283.460    94704512.677 7      1488.838          46.500    22794282.940    94704531.682 8      1488.838          48.187
R15  22780878.740   121734071.681 7      -390.316          45.187    22780877.500   121734071.677 7      -390.316          44.187    22780893.860    94682137.842 7      -303.579          45.562    22780893.700    94682137.841 7      -303.579          44.687
R02  19726777.560   105265913.106 8      2196.536          50.937    19726776.920   105265913.102 8      2196.536          49.500    19726784.120    81873494.109 8      1708.417          50.437    19726784.380    81873488.115 8      1708.417          49.750
G21  22351405.320   117457396.685 7      1335.943          45.062    22351403.140   117457396.692 5      1335.943          35.312    22351406.900    91525256.346 5      1040.994          35.500
G08  22328921.820   117339275.156 7       -10.319          44.625    22328921.180   117339275.156 7       -10.319          44.312    22328930.300    91433232.101 7        -8.041          43.937    22328930.920    91433235.101 7        -8.041          47.625
G14  21989869.660   115557553.854 7      2514.847          45.562    21989868.640   115557553.870 5      2514.847          35.812    21989873.740    90044850.455 5      1959.621          35.625    21989873.980    90044855.451 8      1959.621          48.187
R01  22688912.280   121285223.223 6     -1015.934          39.937    22688912.040   121285223.233 6     -1015.934          39.375    22688924.260    94332996.660 6      -790.171          36.625    22688922.860    94332993.642 6      -790.171          37.312
G22  23370248.920   122811487.186 7      3863.517          44.250    23370247.760   122811487.188 5      3863.517          31.187    23370251.980    95697257.190 5      3010.533          31.250
R24  22220387.140   118822392.346 7      1061.784          42.812    22220384.480   118822392.332 7      1061.784          43.250    22220400.840    92417458.060 7       825.832          47.375    22220400.580    92417464.060 7       825.832          47.750
R18  21977378.420   117316743.358 7      4840.870          44.062    21977379.560   117316743.356 7      4840.870          44.000    21977385.020    91246390.566 7      3765.121          45.875    21977386.700    91246392.566 7      3765.121          45.250
R17  20345118.740   108870847.032 7      3300.604          46.812    20345119.160   108870847.055 7      3300.604          46.625    20345127.960    84677354.857 8      2567.137          48.875    20345127.480    84677356.853 8      2567.137          48.875
G17  23012134.540   120929590.688 7      5458.965          45.312    23012133.680   120929590.687 5      5458.965          34.562    23012136.760    94230856.522 5      4253.739          34.625    23012137.780    94230865.515 7      4253.739          45.562
G04  22889513.240   120285207.955 7      5606.466          43.000    22889512.620   120285207.965 5      5606.466          33.125    22889523.680    93728771.627 5      4368.675          32.687    22889524.000    93728778.633 7      4368.675          47.750
R03  20546747.860   109988347.443 7      6023.940          46.000    20546747.060   109988347.461 7      6023.940          45.500    20546759.020    85546544.123 8      4685.287          50.687    20546759.040    85546543.124 8      4685.287          49.625
> 2024 05 03 16 22 32.0000000  0 16
G03  19907315.860   104613651.593 8      2684.522          49.687    19907315.340   104613651.595 8      2684.522          50.812    19907319.540    81517130.594 8      2091.835          50.875    19907320.260    81517130.594 8      2091.835          51.500
G02  21736986.720   114228632.079 7      2063.556          47.187    21736985.080   114228632.081 6      2063.556          38.812    21736986.100    89009323.712 6      1607.966          38.812
R16  22793913.160   121760987.738 7      1913.342          45.437    22793912.640   121760987.736 7      1913.342          44.750    22793925.080    94703024.209 7      1488.155          47.500    22793924.820    94703043.213 8      1488.155          48.000
R15  22780951.900   121734462.212 7      -390.656          45.750    22780950.860   121734462.210 7      -390.656          44.312    22780967.000    94682441.572 7      -303.844          45.312    22780966.860    94682441.577 7      -303.844          45.500
R02  19726366.140   105263717.138 8      2195.453          50.562    19726365.580   105263717.134 8      2195.453          49.750    19726372.540    81871786.130 8      1707.575          50.625    19726372.940    81871780.133 8      1707.575          51.062
G21  22351151.240   117456060.897 7      1335.716          45.375    22351149.140   117456060.904 5      1335.716          35.312    22351152.580    91524215.470 5      1040.818          35.500
G08  22328923.700   117339285.695 7       -10.762          45.250    22328923.160   117339285.700 7       -10.762          45.125    22328932.260    91433240.309 7        -8.386          44.750    22328932.940    91433243.309 7        -8.386          47.562
G14  21989391.260   115555039.288 7      2514.313          45.250    21989390.280   115555039.304 6      2514.313          36.062    21989395.120    90042891.049 6      1959.205          36.062    21989395.460    90042896.051 8      1959.205          49.250
R01  22689102.400   121286239.545 6     -1016.545          39.937    22689102.100   121286239.552 6     -1016.545          39.500    22689113.840    94333787.122 6      -790.646          36.625    22689113.160    94333784.108 6      -790.646          37.312
G22  23369513.920   122807623.971 7      3862.940          44.687    23369512.640   122807623.978 5      3862.940          31.187    23369516.840    95694246.892 5      3010.083          31.250
R24  22220188.520   118821330.789 7      1061.423          42.812    22220185.620   118821330.769 7      1061.423          42.625    22220202.480    92416632.394 8       825.551          48.312    22220202.000    92416638.396 8       825.551          48.625
R18  21976471.880   117311902.462 7      4840.975          44.875    21976472.720   117311902.460 7      4840.975          44.062    21976478.200    91242625.414 7      3765.203          46.812    21976479.480    91242627.396 7      3765.203          45.875
R17  20344501.900   108867546.555 7      3300.363          47.000    20344502.620   108867546.572 7      3300.363          46.937    20344511.080    84674787.813 8      2566.949          50.250    20344510.840    84674789.807 8      2566.949          50.812
G17  23011095.740   120924131.849 7      5458.760          44.562    23011094.700   120924131.854 5      5458.760          34.562    23011098.060    94226602.886 5      4253.579          34.625    23011098.960    94226611.897 7      4253.579          46.250
G04  22888446.700   120279601.709 7      5606.161          42.312    22888445.700   120279601.717 5      5606.161          33.125    22888456.620    93724403.134 5      4368.437          33.125    22888457.160    93724410.147 7      4368.437          47.625
R03  20545622.500   109982323.857 7      6023.187          45.750    20545621.760   109982323.872 7      6023.187          45.437    20545633.900    85541859.115 8      4684.701          50.812    20545633.560    85541858.118 8      4684.701          50.750
> 2024 05 03 16 22 33.0000000  0 16
G03  19906805.180   104610967.174 8      2684.127          49.437    19906804.460   104610967.176 8      2684.127          50.375    19906808.740    81515039.444 8      2091.527          51.000    19906809.560    81515039.444 8      2091.527          51.000
G02  21736594.060   114226568.445 7      2063.617          46.625    21736592.360   114226568.452 6      2063.617          38.500    21736593.440    89007715.688 6      1608.013          38.687
R16  22793555.240   121759074.621 7      1912.744          45.812    22793554.180   121759074.627 7      1912.744          44.687    22793566.800    94701536.227 7      1487.690          47.125    22793566.560    94701555.232 7      1487.690          47.687
R15  22781024.980   121734852.913 7      -390.800          45.625    22781024.300   121734852.906 7      -390.800          44.312    22781040.300    94682745.430 7      -303.956          45.750    22781039.940    94682745.431 7      -303.956          45.312
R02  19725954.660   105261521.973 8      2194.678          50.187    19725954.080   105261521.971 8      2194.678          49.437    19725961.180    81870078.785 8      1706.972          51.062    19725961.440    81870072.787 8      1706.972          51.250
G21  22350896.860   117454725.017 7      1335.897          45.562    22350894.920   117454725.022 5      1335.897          35.187    22350898.360    91523174.525 5      1040.959          35.437
G08  22328925.980   117339296.555 7       -11.104          45.625    22328925.200   117339296.557 7       -11.104          45.000    22328934.440    91433248.761 7        -8.652          44.812    22328934.860    91433251.759 7        -8.652          47.812
G14  21988912.780   115552525.313 7      2513.669          44.687    21988911.800   115552525.329 5      2513.669          35.937    21988916.820    90040932.108 5      1958.703          35.812    21988917.240    90040937.110 8      1958.703          49.375
R01  22689293.000   121287256.161 6     -1016.845          40.250    22689292.400   121287256.165 6     -1016.845          39.500    22689304.400    94334577.813 6      -790.879          36.437    22689303.280    94334574.799 6      -790.879          37.312
G22  23368778.780   122803761.202 7      3862.550          45.312    23368777.480   122803761.204 5      3862.550          31.187    23368781.780    95691236.940 5      3009.779          31.250
R24  22219989.820   118820269.390 7      1061.250          42.812    22219987.080   118820269.378 7      1061.250          42.437    22220003.820    92415806.861 8       825.417          48.500    22220003.720    92415812.863 8       825.417          48.750
R18  21975564.900   117307061.408 7      4841.065          44.375    21975564.880   117307061.411 7      4841.065          44.062    21975572.680    91238860.155 7      3765.273          46.562    21975572.620    91238862.130 7      3765.273          46.125
R17  20343885.480   108864246.123 7      3300.367          46.187    20343885.380   108864246.138 7      3300.367          47.062    20343894.320    84672220.809 8      2566.952          50.000    20343894.100    84672222.805 8      2566.952          50.750
G17  23010057.000   120918673.000 7      5458.835          43.812    23010055.780   120918673.002 5      5458.835          34.562    23010059.140    94222349.233 5      4253.638          34.625    23010060.560    94222358.266 7      4253.638          46.187
G04  22887380.080   120273995.564 7      5606.054          42.500    22887378.980   120273995.574 5      5606.054          33.250    22887389.860    93720034.717 5      4368.354          33.125    22887390.140    93720041.736 7      4368.354          47.625
R03  20544496.940   109976300.793 7      6022.737          47.187    20544496.540   109976300.808 7      6022.737          45.312    20544508.720    85537174.516 8      4684.351          50.875    20544508.700    85537173.517 8      4684.351          50.500
> 2024 05 03 16 22 34.0000000  0 16
G03  19906294.400   104608283.362 8      2683.713          50.000    19906293.780   104608283.364 8      2683.713          50.937    19906297.980    81512947.886 8      2091.205          50.625    19906298.820    81512947.886 8      2091.205          51.312
G02  21736201.240   114224504.911 7      2063.669          47.750    21736199.780   114224504.918 6      2063.669          38.875    21736200.780    89006107.741 6      1608.054          38.687
R16  22793196.760   121757162.281 7      1912.062          45.062    22793196.300   121757162.288 7      1912.062          44.812    22793208.760    94700048.850 7      1487.159          47.312    22793208.440    94700067.852 7      1487.159          47.250
R15  22781098.420   121735243.813 7      -390.818          45.562    22781097.180   121735243.808 7      -390.818          44.875    22781113.380    94683049.447 7      -303.969          45.250    22781113.060    94683049.447 7      -303.969          45.187
R02  19725543.420   105259327.694 8      2194.054          50.812    19725542.880   105259327.689 8      2194.054          49.750    19725549.960    81868372.119 8      1706.487          50.812    19725550.220    81868366.123 8      1706.487          50.500
G21  22350642.780   117453389.187 7      1336.096          45.937    22350640.660   117453389.197 5      1336.096          35.125    22350644.100    91522133.618 5      1041.114          35.250
G08  22328928.380   117339307.738 7       -11.153          46.437    22328927.380   117339307.742 7       -11.153          44.812    22328936.500    91433257.471 7        -8.691          44.625    22328937.460    91433260.470 7        -8.691          47.812
G14  21988434.480   115550011.959 7      2513.244          45.437    21988433.640   115550011.971 5      2513.244          35.812    21988438.380    90038973.646 5      1958.372          35.812    21988438.620    90038978.643 8      1958.372          49.062
R01  22689483.240   121288273.258 6     -1017.142          40.250    22689482.580   121288273.259 6     -1017.142          39.500    22689494.720    94335368.890 6      -791.110          36.437    22689493.580    94335365.876 6      -791.110          37.000
G22  23368044.180   122799898.971 7      3862.122          45.937    23368042.620   122799898.968 5      3862.122          31.312    23368046.820    95688227.410 5      3009.446          31.312
R24  22219791.680   118819208.261 7      1061.155          42.375    22219788.720   118819208.249 7      1061.155          42.437    22219805.420    92414981.532 8       825.343          48.125    22219805.020    92414987.532 8       825.343          48.937
R18  21974658.260   117302220.311 7      4841.240          43.375    21974657.040   117302220.326 7      4841.240          43.562    21974667.360    91235094.868 7      3765.409          47.000    21974666.020    91235096.847 7      3765.409          47.812
R17  20343268.840   108860945.895 8      3300.293          48.375    20343268.820   108860945.913 7      3300.293          46.687    20343277.520    84669653.965 8      2566.895          49.875    20343277.260    84669655.961 8      2566.895          50.437
G17  23009018.380   120913214.263 7      5458.880          45.125    23009017.000   120913214.260 5      5458.880          34.187    23009020.380    94218095.676 5      4253.673          34.625    23009021.440    94218104.703 7      4253.673          45.500
G04  22886313.160   120268389.576 7      5606.135          43.625    22886312.240   120268389.586 5      5606.135          33.250    22886323.060    93715666.423 5      4368.417          32.812    22886323.300    93715673.440 7      4368.417          47.937
R03  20543371.820   109970278.275 7      6022.488          47.312    20543371.460   109970278.292 7      6022.488          45.250    20543383.640    85532490.346 8      4684.157          50.687    20543383.440    85532489.349 8      4684.157          50.937
> 2024 05 03 16 22 35.0000000  0 16
G03  19905783.740   104605600.075 8      2683.039          49.812    19905783.160   104605600.077 8      2683.039          49.937    19905787.400    81510856.818 8      2090.680          49.875    19905788.180    81510856.818 8      2090.680          50.250
G02  21735808.740   114222441.387 7      2063.534          46.812    21735807.020   114222441.392 6      2063.534          38.750    21735808.100    89004499.798 6      1607.949          38.187
R16  22792838.960   121755250.572 7      1911.394          44.750    22792838.640   121755250.578 7      1911.394          44.125    22792850.600    94698561.956 7      1486.640          46.500    22792850.620    94698580.955 7      1486.640          46.625
R15  22781171.240   121735634.856 7      -391.065          45.562    22781170.360   121735634.852 7      -391.065          44.625    22781186.780    94683353.569 7      -304.162          44.687    22781186.240    94683353.576 7      -304.162          45.750
R02  19725132.020   105257134.217 8      2193.131          50.500    19725131.700   105257134.215 8      2193.131          49.250    19725139.100    81866666.086 8      1705.769          49.812    19725139.220    81866660.092 8      1705.769          50.187
G21  22350388.600   117452053.349 7      1335.925          44.750    22350386.240   117452053.359 5      1335.925          35.312    22350389.900    91521092.702 5      1040.981          35.562
G08  22328930.600   117339319.222 7       -11.601          45.687    22328929.720   117339319.230 7       -11.601          44.875    22328938.660    91433266.414 7        -9.040          44.750    22328939.220    91433269.415 7        -9.040          47.437
G14  21987956.320   115547499.143 7      2512.560          45.500    21987955.420   115547499.155 5      2512.560          35.250    21987960.140    90037015.603 5      1957.839          35.500    21987960.520    90037020.603 8      1957.839          48.687
R01  22689673.220   121289290.745 6     -1017.796          40.250    22689672.960   121289290.743 6     -1017.796          39.562    22689685.340    94336160.269 6      -791.619          36.437    22689683.740    94336157.257 6      -791.619          37.000
G22  23367309.300   122796037.180 7      3861.579          45.062    23367307.620   122796037.179 5      3861.579          31.312    23367312.040    95685218.220 5      3009.023          31.312
R24  22219593.340   118818147.298 7      1060.965          43.000    22219590.240   118818147.286 7      1060.965          42.187    22219607.000    92414156.328 7       825.195          47.687    22219606.680    92414162.330 8       825.195          48.000
R18  21973751.160   117297379.156 7      4841.148          42.937    21973750.060   117297379.155 7      4841.148          43.562    21973761.860    91231329.518 7      3765.337          46.812    21973759.700    91231331.510 7      3765.337          47.437
R17  20342651.940   108857645.806 7      3300.018          47.750    20342652.020   108857645.819 7      3300.018          46.375    20342660.840    84667087.227 8      2566.681          49.375    20342660.620    84667089.225 8      2566.681          48.687
G17  23007979.680   120907755.543 7      5458.676          44.000    23007978.300   120907755.540 5      5458.676          34.187    23007981.900    94213842.127 5      4253.513          34.312    23007981.700    94213851.136 7      4253.513          44.062
G04  22885246.280   120262783.628 7      5606.098          43.312    22885245.460   120262783.641 5      5606.098          33.000    22885256.240    93711298.164 5      4368.388          32.812    22885256.520    93711305.189 7      4368.388          47.625
R03  20542247.060   109964256.260 7      6021.872          46.375    20542246.620   109964256.280 7      6021.872          45.375    20542258.760    85527806.565 8      4683.678          49.625    20542258.520    85527805.566 8      4683.678          50.375
> 2024 05 03 16 22 36.0000000  0 16
G03  19905273.220   104602917.285 8      2682.324          50.375    19905272.720   104602917.289 8      2682.324          51.187    19905276.980    81508766.324 8      2090.123          51.312    19905277.680    81508766.324 8      2090.123          51.125
G02  21735416.180   114220377.847 7      2063.340          47.625    21735414.300   114220377.855 6      2063.340          38.687    21735415.380    89002891.843 6      1607.798          38.500
R16  22792481.100   121753339.522 7      1910.586          45.250    22792480.760   121753339.531 7      1910.586          44.625    22792492.580    94697075.578 7      1486.012          46.812    22792492.600    94697094.581 7      1486.012          47.125
R15  22781244.560   121736026.068 7      -391.567          46.187    22781243.800   121736026.064 7      -391.567          45.312    22781259.760    94683657.828 7      -304.552          45.125    22781259.660    94683657.833 7      -304.552          45.187
R02  19724721.200   105254941.574 8      2192.078          51.250    19724720.940   105254941.572 8      2192.078          49.750    19724728.020    81864960.697 8      1704.949          50.375    19724728.300    81864954.702 8      1704.949          50.500
G21  22350134.180   117450717.456 7      1335.733          45.187    22350132.160   117450717.463 5      1335.733          35.437    22350135.620    91520051.742 5      1040.831          35.562
G08  22328932.720   117339330.954 7       -12.078          45.062    22328931.980   117339330.959 7       -12.078          45.187    22328940.860    91433275.549 7        -9.411          44.750    22328941.440    91433278.549 8        -9.411          48.125
G14  21987478.360   115544986.881 7      2511.715          46.187    21987477.340   115544986.896 5      2511.715          35.875    21987482.100    90035057.994 5      1957.180          35.375    21987482.500    90035062.990 8      1957.180          49.500
R01  22689863.820   121290308.547 6     -1018.068          39.437    22689863.340   121290308.549 6     -1018.068          39.562    22689875.600    94336951.889 6      -791.831          36.437    22689874.180    94336948.882 6      -791.831          37.000
G22  23366574.540   122792175.832 7      3861.025          44.750    23366572.740   122792175.834 5      3861.025          31.187    23366577.300    95682209.373 5      3008.591          31.312
R24  22219395.000   118817086.532 7      1060.446          43.000    22219391.740   118817086.528 7      1060.446          42.187    22219408.660    92413331.286 8       824.792          48.187    22219408.260    92413337.290 8       824.792          49.000
R18  21972844.100   117292537.857 7      4841.153          43.812    21972843.180   117292537.858 7      4841.153          43.500    21972855.600    91227564.072 7      3765.341          47.000    21972853.220    91227566.078 8      3765.341          48.312
R17  20342035.320   108854345.827 8      3299.765          48.062    20342035.500   108854345.847 7      3299.765          46.937    20342044.220    84664520.579 8      2566.484          49.875    20342043.740    84664522.577 8      2566.484          50.312
G17  23006940.900   120902296.835 7      5458.489          44.187    23006939.540   120902296.835 5      5458.489          34.187    23006943.120    94209588.593 5      4253.368          33.937    23006942.760    94209597.575 7      4253.368          43.062
G04  22884179.500   120257177.758 7      5605.725          43.375    22884178.700   120257177.774 5      5605.725          33.000    22884189.480    93706929.969 5      4368.097          32.812    22884189.760    93706936.985 8      4368.097          48.062
R03  20541122.500   109958234.726 7      6021.086          46.875    20541121.480   109958234.747 7      6021.086          45.625    20541133.840    85523123.156 8      4683.067          50.250    20541133.600    85523122.161 8      4683.067          51.187
> 2024 05 03 16 22 37.0000000  0 16
G03  19904762.880   104600235.109 8      2681.734          50.187    19904762.300   104600235.117 8      2681.734          50.687    19904766.440    81506676.567 8      2089.663          51.437    19904767.200    81506676.567 8      2089.663          51.375
G02  21735023.460   114218314.408 7      2063.216          47.375    21735021.720   114218314.410 6      2063.216          38.500    21735022.800    89001283.966 6      1607.701          38.375
R16  22792123.460   121751429.207 7      1909.726          45.062    22792123.520   121751429.232 7      1909.726          44.687    22792134.900    94695589.786 7      1485.342          46.562    22792135.040    94695608.784 7      1485.342          47.187
R15  22781317.820   121736417.497 7      -391.797          46.000    22781317.400   121736417.493 7      -391.797          44.812    22781333.020    94683962.256 7      -304.731          45.250    22781332.980    94683962.255 7      -304.731          44.812
R02  19724310.720   105252749.906 8      2191.008          50.625    19724310.180   105252749.904 8      2191.008          49.875    19724317.300    81863256.067 8      1704.117          50.375    19724317.520    81863250.070 8      1704.117          51.125
G21  22349879.840   117449381.605 7      1335.651          45.437    22349877.880   117449381.607 5      1335.651          35.437    22349881.500    91519010.817 5      1040.767          35.437
G08  22328934.980   117339343.067 7       -12.483          45.625    22328934.300   117339343.072 7       -12.483          44.937    22328943.260    91433284.980 7        -9.727          44.875    22328943.860    91433287.979 7        -9.727          47.750
G14  21987000.540   115542475.250 7      2511.079          45.750    21986999.380   115542475.265 5      2511.079          35.562    21987004.340    90033100.879 5      1956.685          35.687    21987004.600    90033105.875 8      1956.685          50.000
R01  22690054.000   121291326.847 6     -1018.674          39.437    22690053.900   121291326.862 6     -1018.674          39.562    22690066.360    94337743.906 6      -792.302          36.437    22690064.200    94337740.909 6      -792.302          37.000
G22  23365839.920   122788315.057 7      3860.318          44.375    23365838.180   122788315.060 5      3860.318          31.187    23365842.440    95679200.986 5      3008.040          31.375
R24  22219196.740   118816026.042 7      1060.170          42.937    22219193.540   118816026.035 7      1060.170          42.062    22219210.320    92412506.450 8       824.577          48.312    22219209.960    92412512.454 8       824.577          48.937
R18  21971937.240   117287696.542 7      4841.076          43.687    21971936.340   117287696.545 7      4841.076          43.625    21971947.900    91223798.613 7      3765.281          47.687    21971946.180    91223800.631 8      3765.281          48.500
R17  20341418.680   108851046.124 8      3299.384          48.312    20341418.920   108851046.136 7      3299.384          46.562    20341427.500    84661954.134 8      2566.187          50.312    20341427.260    84661956.134 8      2566.187          50.312
G17  23005902.140   120896838.254 7      5458.375          44.375    23005900.740   120896838.256 5      5458.375          34.312    23005904.380    94205335.155 5      4253.279          33.937    23005904.800    94205344.131 7      4253.279          43.687
G04  22883112.720   120251572.065 7      5605.390          42.187    22883111.980   120251572.078 5      5605.390          33.437    22883122.700    93702561.904 5      4367.836          33.312    22883122.980    93702568.923 8      4367.836          48.000
R03  20539997.560   109952213.787 7      6020.411          47.250    20539996.780   109952213.808 7      6020.411          45.812    20540008.940    85518440.214 8      4682.542          50.687    20540009.000    85518439.217 8      4682.542          51.187
> 2024 05 03 16 22 38.0000000  0 16
G03  19904252.600   104597553.551 8      2681.307          49.562    19904251.940   104597553.556 8      2681.307          50.500    19904256.160    81504587.056 8      2089.330          50.937    19904256.980    81504587.056 8      2089.330          51.625
G02  21734630.720   114216251.050 7      2063.310          47.000    21734629.060   114216251.057 6      2063.310          38.812    21734630.220    88999676.155 6      1607.774          38.500
R16  22791765.780   121749519.608 7      1909.234          44.375    22791766.440   121749519.622 7      1909.234          44.687    22791777.460    94694104.536 7      1484.960          46.187    22791777.800    94694123.534 7      1484.960          47.500
R15  22781391.120   121736809.238 7      -391.819          46.187    22781390.640   121736809.215 7      -391.819          45.562    22781406.380    94684266.912 7      -304.748          45.187    22781406.360    94684266.911 7      -304.748          45.062
R02  19723900.080   105250559.199 8      2190.250          50.125    19723899.780   105250559.198 8      2190.250          50.062    19723906.900    81861552.190 8      1703.528          50.500    19723907.400    81861546.191 8      1703.528          51.375
G21  22349625.700   117448045.804 7      1335.791          46.125    22349623.620   117448045.809 5      1335.791          35.125    22349627.260    91517969.937 5      1040.876          35.250
G08  22328937.460   117339355.590 7       -12.616          45.375    22328936.560   117339355.592 7       -12.616          45.062    22328945.600    91433294.729 7        -9.831          45.062    22328946.260    91433297.729 7        -9.831          47.812
G14  21986522.600   115539964.273 7      2510.711          45.000    21986521.520   115539964.288 5      2510.711          35.687    21986526.460    90031144.274 5      1956.398          35.687    21986526.700    90031149.270 8      1956.398          49.812
R01  22690244.300   121292345.604 6     -1019.122          39.875    22690244.120   121292345.618 6     -1019.122          39.437    22690256.420    94338536.272 6      -792.651          36.062    22690255.240    94338533.265 6      -792.651          36.687
G22  23365105.000   122784454.808 7      3859.957          44.125    23365103.580   122784454.816 5      3859.957          31.187    23365107.820    95676192.997 5      3007.759          31.375
R24  22218998.520   118814965.854 7      1060.155          42.937    22218995.540   118814965.823 7      1060.155          42.062    22219012.100    92411681.841 8       824.565          48.125    22219012.120    92411687.841 8       824.565          49.000
R18  21971030.320   117282855.149 7      4841.296          43.687    21971029.880   117282855.153 7      4841.296          43.562    21971039.760    91220033.091 7      3765.453          47.250    21971039.240    91220035.118 8      3765.453          48.562
R17  20340802.160   108847746.559 7      3299.490          47.625    20340802.620   108847746.571 7      3299.490          46.125    20340810.900    84659387.810 8      2566.270          50.000    20340810.760    84659389.808 8      2566.270          50.500
G17  23004863.360   120891379.756 7      5458.414          44.437    23004862.160   120891379.759 5      5458.414          34.312    23004865.660    94201081.787 5      4253.310          34.000    23004866.680    94201090.777 7      4253.310          45.562
G04  22882045.980   120245966.582 7      5605.502          42.687    22882045.300   120245966.597 5      5605.502          33.437    22882055.960    93698194.007 5      4367.923          33.312    22882056.340    93698201.016 7      4367.923          47.937
R03  20538872.800   109946193.496 7      6020.089          47.187    20538872.340   109946193.508 7      6020.089          45.687    20538884.420    85513757.765 8      4682.291          51.125    20538884.400    85513756.768 8      4682.291          51.062
> 2024 05 03 16 22 39.0000000  0 16
G03  19903742.260   104594872.401 8      2681.021          49.625    19903741.780   104594872.408 8      2681.021          50.750    19903746.000    81502497.299 8      2089.108          51.250    19903746.720    81502497.299 8      2089.108          51.562
G02  21734238.080   114214187.594 7      2063.585          47.250    21734236.500   114214187.602 6      2063.585          38.750    21734237.380    88998068.268 6      1607.988          38.687
R16  22791408.460   121747610.569 7      1908.769          45.250    22791409.180   121747610.576 7      1908.769          44.750    22791419.780    94692619.720 7      1484.598          46.437    22791420.100    94692638.716 7      1484.598          46.562
R15  22781464.380   121737200.984 7      -391.733          46.000    22781463.880   121737200.972 7      -391.733          45.375    22781479.660    94684571.591 7      -304.681          44.875    22781479.220    94684571.594 7      -304.681          45.000
R02  19723489.740   105248369.256 8      2189.631          51.187    19723489.360   105248369.249 8      2189.631          49.562    19723496.520    81859848.892 8      1703.047          51.000    19723496.640    81859842.891 8      1703.047          51.187
G21  22349371.480   117446709.874 7      1336.097          45.562    22349369.420   117446709.876 5      1336.097          35.250    22349373.060    91516928.947 5      1041.115          35.312
G08  22328939.660   117339368.244 7       -12.751          46.062    22328939.000   117339368.241 7       -12.751          44.937    22328947.980    91433304.578 7        -9.936          44.562    22328948.340    91433307.579 7        -9.936          47.687
G14  21986044.880   115537453.748 7      2510.432          45.062    21986043.800   115537453.758 6      2510.432          36.000    21986048.860    90029188.015 5      1956.181          35.375    21986049.140    90029193.006 8      1956.181          49.500
R01  22690435.260   121293364.606 6     -1019.039          39.875    22690435.100   121293364.615 6     -1019.039          39.437    22690447.360    94339328.828 6      -792.586          36.062    22690446.020    94339325.818 6      -792.586          36.687
G22  23364370.540   122780594.956 7      3859.706          43.625    23364369.120   122780594.963 5      3859.706          31.187    23364373.080    95673185.320 5      3007.563          31.375
R24  22218800.380   118813905.760 7      1060.055          42.812    22218797.080   118813905.745 7      1060.055          42.062    22218813.940    92410857.323 8       824.487          48.437    22218813.560    92410863.323 8       824.487          48.750
R18  21970123.340   117278013.556 7      4841.921          43.562    21970122.320   117278013.557 7      4841.921          43.562    21970131.460    91216267.404 7      3765.939          47.500    21970132.140    91216269.431 7      3765.939          46.625
R17  20340185.200   108844447.059 8      3299.590          48.187    20340185.760   108844447.071 7      3299.590          46.687    20340194.300    84656821.528 8      2566.347          50.125    20340194.160    84656823.524 8      2566.347          49.812
G17  23003824.740   120885921.217 7      5458.625          44.875    23003823.460   120885921.217 5      5458.625          34.000    23003827.080    94196828.376 5      4253.474          34.000    23003828.180    94196837.386 7      4253.474          46.125
G04  22880979.520   120240360.998 7      5605.617          43.812    22880978.460   120240361.011 5      5605.617          33.250    22880989.240    93693826.027 5      4368.013          33.125    22880989.640    93693833.041 8      4368.013          48.000
R03  20537748.060   109940173.539 7      6019.715          46.187    20537747.820   109940173.549 7      6019.715          46.250    20537759.700    85509075.581 8      4682.001          50.812    20537759.600    85509074.584 8      4682.001          50.812
> 2024 05 03 16 22 40.0000000  0 16
G03  19903232.280   104592191.938 8      2680.145          49.812    19903231.660   104592191.943 8      2680.145          50.625    19903235.960    81500409.016 8      2088.425          50.937    19903236.680    81500409.016 8      2088.425          51.375
G02  21733845.360   114212124.304 7      2063.138          47.562    21733843.800   114212124.312 6      2063.138          38.750    21733844.640    88996460.507 6      1607.640          38.500
R16  22791051.160   121745702.377 7      1907.754          45.312    22791051.700   121745702.379 7      1907.754          44.750    22791062.520    94691135.564 7      1483.809          46.500    22791062.880    94691154.563 7      1483.809          47.187
R15  22781537.920   121737593.100 7      -392.277          46.750    22781537.280   121737593.103 7      -392.277          45.500    22781552.800    94684876.566 7      -305.105          45.062    22781552.640    94684876.566 7      -305.105          44.937
R02  19723079.420   105246180.297 8      2188.414          50.500    19723079.120   105246180.292 8      2188.414          50.062    19723086.260    81858146.370 8      1702.100          50.812    19723086.620    81858140.376 8      1702.100          51.125
G21  22349117.100   117445374.062 7      1335.606          46.187    22349115.220   117445374.070 5      1335.606          35.250    22349118.860    91515888.050 5      1040.732          35.312
G08  22328942.180   117339381.332 7       -13.307          45.500    22328941.440   117339381.337 7       -13.307          44.312    22328950.460    91433314.776 7       -10.369          44.500    22328951.020    91433317.773 7       -10.369          47.812
G14  21985567.100   115534943.962 7      2509.436          46.187    21985566.220   115534943.977 5      2509.436          35.937    21985571.220    90027232.335 6      1955.405          36.187    21985571.620    90027237.335 8      1955.405          49.562
R01  22690626.220   121294384.138 6     -1019.992          39.875    22690625.620   121294384.145 6     -1019.992          39.437    22690637.780    94340121.805 6      -793.327          36.062    22690636.800    94340118.787 6      -793.327          36.687
G22  23363636.000   122776735.705 7      3858.910          43.625    23363634.660   122776735.710 5      3858.910          31.187    23363638.600    95670178.110 5      3006.943          31.312
R24  22218602.220   118812846.013 7      1059.574          42.375    22218599.140   118812846.003 6      1059.574          41.937    22218615.740    92410033.073 8       824.113          48.250    22218615.360    92410039.071 8       824.113          48.562
R18  21969216.140   117273172.059 7      4841.445          43.437    21969215.360   117273172.052 7      4841.445          43.375    21969223.300    91212501.791 7      3765.568          47.062    21969224.820    91212503.801 7      3765.568          46.375
R17  20339568.600   108841147.821 7      3299.077          47.750    20339569.240   108841147.835 7      3299.077          45.750    20339577.800    84654255.454 8      2565.949          50.125    20339577.580    84654257.452 8      2565.949          50.562
G17  23002785.860   120880462.851 7      5458.184          44.437    23002784.800   120880462.851 5      5458.184          34.000    23002788.240    94192575.103 5      4253.131          33.875    23002789.480    94192584.139 7      4253.131          46.187
G04  22879912.620   120234755.683 7      5605.249          43.500    22879911.900   120234755.693 5      5605.249          33.250    22879922.660    93689458.259 5      4367.726          33.125    22879923.160    93689465.267 8      4367.726          48.250
R03  20536623.660   109934154.222 7      6019.027          46.750    20536623.100   109934154.243 7      6019.027          46.000    20536635.100    85504393.904 8      4681.465          50.687    20536635.280    85504392.909 8      4681.465          50.750
> 2024 05 03 16 22 41.0000000  0 16
G03  19902722.140   104589512.130 8      2679.587          50.312    19902721.780   104589512.133 8      2679.587          50.187    19902726.020    81498320.078 8      2087.990          51.187    19902726.760    81498320.078 8      2087.990          51.000
G02  21733452.940   114210061.151 7      2063.218          47.937    21733451.240   114210061.159 6      2063.218          38.500    21733452.180    88994852.855 6      1607.702          38.937
R16  22790694.320   121743794.984 7      1907.111          44.562    22790694.840   121743794.985 7      1907.111          44.250    22790705.260    94689652.036 7      1483.308          46.750    22790705.580    94689671.039 7      1483.308          46.687
R15  22781611.220   121737985.468 7      -392.475          46.750    22781610.880   121737985.464 7      -392.475          45.187    22781626.260    94685181.715 7      -305.259          44.812    22781626.100    94685181.719 7      -305.259          44.750
R02  19722669.400   105243992.271 8      2187.675          50.500    19722668.940   105243992.272 8      2187.675          49.937    19722676.220    81856444.577 8      1701.525          50.875    19722676.580    81856438.583 8      1701.525          50.937
G21  22348863.040   117444038.335 7      1335.793          45.437    22348861.080   117444038.340 5      1335.793          35.312    22348864.680    91514847.222 5      1040.878          35.187
G08  22328944.800   117339394.835 7       -13.735          45.687    22328944.160   117339394.839 7       -13.735          44.687    22328953.060    91433325.291 7       -10.702          44.687    22328953.740    91433328.295 8       -10.702          48.125
G14  21985089.460   115532434.842 7      2508.859          45.437    21985088.760   115532434.858 5      2508.859          35.875    21985093.700    90025277.175 5      1954.955          35.750    21985093.960    90025282.171 8      1954.955          49.500
R01  22690817.140   121295404.204 6     -1020.201          39.812    22690817.020   121295404.203 6     -1020.201          39.125    22690828.800    94340915.172 6      -793.490          36.062    22690827.520    94340912.162 6      -793.490          36.687
G22  23362901.700   122772877.048 7      3858.522          44.375    23362900.420   122772877.050 5      3858.522          31.187    23362904.320    95667171.364 5      3006.641          31.312
R24  22218404.040   118811786.595 7      1059.494          42.375    22218400.940   118811786.577 6      1059.494          41.937    22218417.600    92409209.065 8       824.051          48.562    22218417.420    92409215.065 8       824.051          48.875
R18  21968309.140   117268330.560 7      4841.610          43.062    21968307.760   117268330.558 7      4841.610          43.375    21968316.380    91208736.188 7      3765.697          47.000    21968317.380    91208738.182 7      3765.697          46.125
R17  20338952.360   108837848.831 7      3299.019          46.687    20338952.840   108837848.849 7      3299.019          46.750    20338961.240    84651689.575 8      2565.904          50.125    20338961.060    84651691.571 8      2565.904          50.687
G17  23001747.320   120875004.643 7      5458.257          43.312    23001746.140   120875004.648 5      5458.257          34.187    23001749.540    94188321.954 5      4253.187          33.875    23001749.980    94188331.000 7      4253.187          45.562
G04  22878846.020   120229150.576 7      5604.908          43.375    22878845.040   120229150.586 5      5604.908          33.125    22878855.980    93685090.649 5      4367.460          33.062    22878856.460    93685097.659 8      4367.460          48.250
R03  20535499.320   109928135.553 7      6018.311          46.687    20535499.100   109928135.573 7      6018.311          45.687    20535510.940    85499712.725 8      4680.908          50.812    20535510.940    85499711.728 8      4680.908          50.562
> 2024 05 03 16 22 42.0000000  0 16
G03  19902212.340   104586832.964 8      2678.770          50.125    19902211.880   104586832.966 8      2678.770          50.812    19902216.160    81496232.532 8      2087.353          51.187    19902216.940    81496232.532 8      2087.353          51.437
G02  21733060.420   114207998.132 7      2062.843          47.312    21733058.740   114207998.140 6      2062.843          38.937    21733059.680    88993245.304 6      1607.410          39.187
R16  22790337.160   121741888.342 7      1906.081          45.562    22790337.720   121741888.343 7      1906.081          44.750    22790348.400    94688169.092 7      1482.507          46.437    22790348.540    94688188.094 7      1482.507          46.875
R15  22781684.600   121738378.110 7      -392.861          46.812    22781684.260   121738378.111 7      -392.861          45.625    22781699.540    94685487.086 7      -305.559          44.562    22781699.640    94685487.093 7      -305.559          44.625
R02  19722259.560   105241805.228 8      2186.416          50.687    19722259.140   105241805.226 8      2186.416          49.812    19722266.380    81854743.545 8      1700.546          50.875    19722266.800    81854737.547 8      1700.546          50.937
G21  22348609.120   117442702.710 7      1335.509          45.437    22348606.980   117442702.715 5      1335.509          35.312    22348610.480    91513806.473 5      1040.657          35.312
G08  22328947.380   117339408.776 7       -14.158          45.562    22328946.820   117339408.784 7       -14.158          45.062    22328955.700    91433336.153 7       -11.033          44.750    22328956.360    91433339.152 7       -11.033          47.937
G14  21984611.940   115529926.404 7      2507.963          46.125    21984611.520   115529926.422 6      2507.963          36.062    21984616.360    90023322.547 5      1954.257          35.937    21984616.660    90023327.539 8      1954.257          49.250
R01  22691007.540   121296424.738 6     -1020.922          39.812    22691007.380   121296424.740 6     -1020.922          39.125    22691019.920    94341708.926 6      -794.051          36.000    22691019.100    94341705.909 6      -794.051          36.687
G22  23362167.600   122769018.959 7      3857.705          44.875    23362166.200   122769018.958 5      3857.705          31.000    23362170.280    95664165.054 5      3006.004          31.062
R24  22218206.540   118810727.506 7      1058.797          43.125    22218202.880   118810727.488 6      1058.797          41.812    22218219.580    92408385.323 8       823.509          48.000    22218219.040    92408391.323 8       823.509          48.875
R18  21967401.880   117263489.079 7      4841.314          42.812    21967401.400   117263489.085 7      4841.314          43.312    21967409.820    91204970.596 7      3765.466          46.562    21967410.720    91204972.584 7      3765.466          46.187
R17  20338336.120   108834550.091 7      3298.382          47.312    20338336.300   108834550.103 7      3298.382          46.750    20338344.840    84649123.884 8      2565.408          50.187    20338344.460    84649125.880 8      2565.408          49.937
G17  23000708.720   120869546.561 7      5457.856          44.187    23000707.760   120869546.571 5      5457.856          34.250    23000710.800    94184068.907 5      4252.875          34.375    23000710.240    94184077.924 7      4252.875          43.875
G04  22877779.520   120223545.692 7      5604.749          44.187    22877778.500   120223545.696 5      5604.749          33.125    22877789.320    93680723.213 5      4367.337          33.062    22877789.760    93680730.223 7      4367.337          47.875
R03  20534374.780   109922117.526 7      6017.665          47.375    20534374.740   109922117.546 7      6017.665          46.000    20534386.580    85495032.044 8      4680.406          51.250    20534386.940    85495031.045 8      4680.406          50.687
> 2024 05 03 16 22 43.0000000  0 16
G03  19901702.620   104584154.367 8      2678.298          50.062    19901702.180   104584154.372 8      2678.298          50.875    19901706.500    81494145.314 8      2086.985          51.187    19901707.360    81494145.314 8      2086.985          51.062
G02  21732667.860   114205935.160 7      2062.984          47.500    21732666.120   114205935.165 6      2062.984          39.000    21732667.060    88991637.793 6      1607.520          38.937
R16  22789980.580   121739982.383 7      1905.654          44.187    22789980.920   121739982.379 7      1905.654          44.562    22789991.200    94686686.677 7      1482.175          46.000    22789991.900    94686705.682 7      1482.175          46.500
R15  22781758.280   121738770.957 7      -392.931          47.375    22781758.120   121738770.956 7      -392.931          45.875    22781773.660    94685792.609 7      -305.613          44.500    22781773.400    94685792.613 7      -305.613          44.687
R02  19721849.840   105239619.057 8      2185.720          50.625    19721849.480   105239619.052 8      2185.720          49.437    19721856.740    81853043.186 8      1700.005          51.187    19721856.900    81853037.192 8      1700.005          50.750
G21  22348355.020   117441367.116 7      1335.498          46.000    22348352.820   117441367.124 5      1335.498          35.187    22348356.340    91512765.750 5      1040.648          35.437
G08  22328950.140   117339423.041 7       -14.353          45.500    22328949.460   117339423.041 7       -14.353          44.937    22328958.360    91433347.254 7       -11.184          44.500    22328959.320    91433350.256 7       -11.184          47.875
G14  21984135.100   115527418.546 7      2507.620          45.750    21984134.260   115527418.561 6      2507.620          36.312    21984139.200    90021368.368 6      1953.989          36.125    21984139.060    90021373.362 8      1953.989          49.812
R01  22691198.180   121297445.711 6     -1021.172          39.812    22691198.600   121297445.712 6     -1021.172          39.125    22691210.660    94342503.012 6      -794.245          36.000    22691209.580    94342499.996 6      -794.245          36.687
G22  23361433.560   122765161.374 7      3857.308          44.062    23361432.120   122765161.373 5      3857.308          31.000    23361436.280    95661159.146 5      3005.694          31.062
R24  22218007.960   118809668.558 7      1058.860          42.687    22218004.520   118809668.562 6      1058.860          41.812    22218021.480    92407561.710 8       823.558          48.625    22218021.560    92407567.710 8       823.558          48.875
R18  21966494.840   117258647.542 7      4841.614          43.375    21966495.400   117258647.538 7      4841.614          43.562    21966503.740    91201204.950 7      3765.699          47.250    21966503.740    91201206.936 7      3765.699          47.125
R17  20337719.480   108831251.487 8      3298.592          48.250    20337719.880   108831251.499 7      3298.592          46.562    20337728.460    84646558.306 8      2565.571          50.187    20337728.260    84646560.304 8      2565.571          50.500
G17  22999670.160   120864088.589 7      5457.923          44.875    22999669.140   120864088.596 5      5457.923          34.250    22999672.120    94179815.946 5      4252.927          34.187    22999671.440    94179824.918 7      4252.927          42.375
G04  22876712.700   120217940.891 7      5604.855          43.625    22876712.020   120217940.896 5      5604.855          33.250    22876722.820    93676355.848 5      4367.420          33.312    22876723.360    93676362.859 8      4367.420          48.187
R03  20533250.620   109916100.026 7      6017.232          47.375    20533250.900   109916100.044 7      6017.232          46.062    20533262.440    85490351.768 8      4680.069          50.625    20533262.660    85490350.771 8      4680.069          50.375
> 2024 05 03 16 22 44.0000000  0 16
G03  19901193.240   104581476.309 8      2677.599          49.250    19901192.580   104581476.316 8      2677.599          50.250    19901196.800    81492059.488 8      2086.441          50.812    19901197.560    81492059.488 8      2086.441          50.750
G02  21732275.200   114203872.230 7      2062.741          47.125    21732273.540   114203872.240 6      2062.741          38.937    21732274.600    88990030.318 6      1607.331          38.875
R16  22789623.920   121738077.145 7      1904.647          45.562    22789624.780   121738077.146 7      1904.647          44.250    22789634.420    94685204.826 7      1481.392          45.750    22789634.820    94685223.832 7      1481.392          46.000
R15  22781831.280   121739163.999 7      -393.334          45.937    22781831.500   121739163.998 7      -393.334          45.125    22781846.900    94686098.298 7      -305.927          44.187    22781846.640    94686098.301 7      -305.927          44.250
R02  19721440.440   105237433.796 8      2184.611          50.812    19721439.880   105237433.791 8      2184.611          49.562    19721447.200    81851343.540 8      1699.142          50.812    19721447.420    81851337.544 8      1699.142          51.062
G21  22348100.740   117440031.483 7      1335.423          45.312    22348098.700   117440031.485 5      1335.423          35.750    22348102.200    91511724.991 5      1040.589          35.437
G08  22328952.980   117339437.566 7       -14.922          44.812    22328952.280   117339437.571 7       -14.922          44.812    22328961.060    91433358.568 7       -11.628          44.687    22328961.940    91433361.570 8       -11.628          48.000
G14  21983657.820   115524911.311 7      2506.794          45.062    21983657.220   115524911.326 5      2506.794          35.812    21983661.920    90019414.676 5      1953.346          35.937    21983662.360    90019419.672 8      1953.346          49.437
R01  22691389.500   121298467.081 6     -1021.761          39.687    22691389.240   121298467.104 6     -1021.761          39.312    22691401.520    94343297.426 6      -794.703          36.000    22691399.820    94343294.412 6      -794.703          36.687
G22  23360699.420   122761304.304 7      3856.579          44.437    23360698.180   122761304.309 5      3856.579          31.000    23360702.220    95658153.641 5      3005.127          31.062
R24  22217810.200   118808609.894 7      1058.345          42.687    22217807.020   118808609.885 6      1058.345          41.437    22217823.600    92406738.283 8       823.158          48.312    22217823.240    92406744.283 8       823.158          48.562
R18  21965588.300   117253805.947 7      4841.459          43.937    21965588.920   117253805.934 7      4841.459          43.687    21965597.760    91197439.261 7      3765.579          47.312    21965596.640    91197441.253 7      3765.579          47.687
R17  20337103.060   108827953.065 7      3298.148          47.500    20337103.300   108827953.090 7      3298.148          46.750    20337112.060    84643992.872 8      2565.226          50.000    20337111.660    84643994.868 8      2565.226          49.750
G17  22998631.160   120858630.691 7      5457.715          44.625    22998630.400   120858630.688 5      5457.715          34.000    22998633.360    94175563.032 5      4252.765          34.187    22998633.280    94175571.994 7      4252.765          42.937
G04  22875646.180   120212336.175 7      5604.520          43.250    22875645.340   120212336.180 5      5604.520          33.250    22875656.260    93671988.545 5      4367.158          33.312    22875656.900    93671995.556 7      4367.158          47.687
R03  20532126.460   109910083.003 7      6016.528          47.250    20532127.040   109910083.031 7      6016.528          46.187    20532138.300    85485671.876 8      4679.521          50.625    20532138.360    85485670.875 8      4679.521          50.625
> 2024 05 03 16 22 45.0000000  0 16
G03  19900683.600   104578798.918 8      2677.221          49.062    19900683.060   104578798.923 8      2677.221          49.500    19900687.300    81489972.598 8      2086.146          49.687    19900687.820    81489972.598 8      2086.146          51.000
G02  21731882.380   114201809.445 7      2062.868          46.875    21731880.940   114201809.452 6      2062.868          38.437    21731882.100    88988422.950 6      1607.429          38.375
R16  22789267.460   121736172.652 7      1904.249          45.312    22789268.440   121736172.648 7      1904.249          44.625    22789277.500    94683723.552 7      1481.082          45.375    22789278.180    94683742.558 7      1481.082          45.875
R15  22781904.880   121739557.392 7      -393.370          46.187    22781905.260   121739557.388 7      -393.370          46.062    22781920.320    94686404.247 7      -305.955          43.875    22781920.320    94686404.249 7      -305.955          44.312
R02  19721030.960   105235249.586 8      2183.866          50.250    19721030.580   105235249.584 8      2183.866          49.250    19721037.860    81849644.714 8      1698.562          49.562    19721038.260    81849638.718 8      1698.562          49.562
G21  22347846.820   117438695.974 7      1335.581          45.312    22347844.560   117438695.981 5      1335.581          35.375    22347847.940    91510684.335 5      1040.712          35.562
G08  22328955.660   117339452.582 7       -15.074          44.812    22328955.060   117339452.584 7       -15.074          44.875    22328963.960    91433370.261 7       -11.746          44.625    22328964.880    91433373.262 7       -11.746          47.500
G14  21983180.920   115522404.751 7      2506.337          45.562    21983180.120   115522404.766 5      2506.337          35.812    21983184.920    90017461.513 5      1952.990          35.812    21983185.360    90017466.505 8      1952.990          48.562
R01  22691580.140   121299488.954 6     -1021.905          39.687    22691580.280   121299488.969 6     -1021.905          39.312    22691592.880    94344092.206 6      -794.815          36.000    22691591.040    94344089.179 6      -794.815          36.687
G22  23359965.620   122757447.804 7      3856.350          43.812    23359964.340   122757447.809 5      3856.350          31.062    23359968.220    95655148.576 5      3004.948          31.062
R24  22217612.500   118807551.586 7      1058.275          42.500    22217608.700   118807551.579 6      1058.275          41.562    22217625.640    92405915.148 7       823.103          47.500    22217625.340    92405921.148 8       823.103          48.375
R18  21964681.240   117248964.316 7      4841.732          44.125    21964682.200   117248964.301 7      4841.732          43.875    21964691.140    91193673.546 7      3765.792          47.187    21964689.580    91193675.544 7      3765.792          47.937
R17  20336486.900   108824654.900 7      3298.216          46.812    20336487.040   108824654.920 7      3298.216          46.125    20336495.720    84641427.629 8      2565.279          48.937    20336495.320    84641429.627 8      2565.279          49.437
G17  22997592.640   120853172.903 7      5457.806          45.250    22997591.780   120853172.897 5      5457.806          34.000    22997594.800    94171310.206 5      4252.836          33.750    22997595.620    94171319.191 7      4252.836          44.750
G04  22874579.840   120206731.733 7      5604.660          43.562    22874578.860   120206731.740 5      5604.660          33.187    22874589.860    93667621.455 5      4367.268          32.875    22874590.200    93667628.470 7      4367.268          47.312
R03  20531002.740   109904066.670 7      6016.322          47.312    20531003.200   109904066.699 7      6016.322          45.625    20531014.520    85480992.510 8      4679.362          49.312    20531014.660    85480991.513 8      4679.362          49.437
> 2024 05 03 16 22 46.0000000  0 16
G03  19900174.200   104576122.132 8      2676.479          48.625    19900173.720   104576122.137 8      2676.479          51.000    19900177.960    81487886.690 8      2085.568          51.312    19900178.780    81487886.690 8      2085.568          51.500
G02  21731489.900   114199746.752 7      2062.654          46.812    21731488.280   114199746.756 6      2062.654          38.562    21731489.320    88986815.655 6      1607.263          38.625
R16  22788910.900   121734268.961 7      1903.223          45.312    22788912.160   121734268.965 7      1903.223          44.187    22788921.260    94682242.905 7      1480.284          45.875    22788921.760    94682261.910 7      1480.284          45.812
R15  22781978.680   121739951.000 7      -393.742          47.562    22781978.720   121739950.994 7      -393.742          46.000    22781994.320    94686710.370 7      -306.243          43.562    22781993.920    94686710.371 7      -306.243          44.000
R02  19720621.980   105233066.291 8      2182.862          50.875    19720621.480   105233066.289 8      2182.862          49.437    19720628.800    81847946.596 8      1697.782          50.500    19720629.180    81847940.600 8      1697.782          50.750
G21  22347592.580   117437360.506 7      1335.433          45.562    22347590.220   117437360.509 5      1335.433          35.250    22347593.760    91509643.711 5      1040.597          35.562
G08  22328958.680   117339467.901 7       -15.548          45.250    22328957.960   117339467.905 7       -15.548          45.062    22328966.860    91433382.193 7       -12.116          45.062    22328967.580    91433385.195 7       -12.116          47.750
G14  21982704.200   115519898.829 7      2505.622          45.687    21982703.340   115519898.845 5      2505.622          35.687    21982707.940    90015508.843 5      1952.433          35.625    21982708.200    90015513.839 8      1952.433          48.937
R01  22691772.480   121300511.359 6     -1022.894          39.687    22691771.860   121300511.353 6     -1022.894          39.312    22691783.640    94344887.389 6      -795.584          36.000    22691782.560    94344884.373 6      -795.584          36.312
G22  23359231.920   122753591.890 7      3855.568          44.000    23359230.600   122753591.895 5      3855.568          31.062    23359234.480    95652143.964 5      3004.339          30.937
R24  22217414.660   118806493.532 7      1057.882          42.500    22217411.240   118806493.525 6      1057.882          41.562    22217427.880    92405092.213 7       822.797          47.937    22217427.720    92405098.213 8       822.797          48.687
R18  21963774.620   117244122.721 7      4841.587          44.187    21963774.620   117244122.719 7      4841.587          43.875    21963783.940    91189907.869 7      3765.679          47.187    21963782.940    91189909.880 8      3765.679          48.562
R17  20335870.540   108821356.957 7      3297.887          47.250    20335870.620   108821356.971 7      3297.887          47.062    20335879.380    84638862.558 8      2565.023          49.375    20335879.040    84638864.556 8      2565.023          50.125
G17  22996554.020   120847715.241 7      5457.565          44.312    22996553.260   120847715.241 5      5457.565          33.937    22996556.200    94167057.491 5      4252.648          33.750    22996557.480    94167066.506 7      4252.648          45.625
G04  22873513.200   120201127.416 7      5604.289          44.125    22873512.420   120201127.429 5      5604.289          33.187    22873523.280    93663254.469 5      4366.979          32.875    22873523.520    93663261.484 7      4366.979          47.625
R03  20529879.240   109898050.908 7      6015.451          47.437    20529879.620   109898050.933 7      6015.451          46.250    20529890.700    85476313.590 8      4678.684          50.687    20529890.560    85476312.591 8      4678.684          50.187
> 2024 05 03 16 22 47.0000000  0 16
G03  19899665.040   104573445.958 8      2675.778          49.437    19899664.460   104573445.963 8      2675.778          50.437    19899668.740    81485801.765 8      2085.022          51.375    19899669.900    81485801.765 8      2085.022          51.375
G02  21731097.360   114197684.148 7      2062.518          47.125    21731095.920   114197684.155 6      2062.518          38.687    21731096.800    88985208.429 6      1607.157          38.437
R16  22788554.740   121732366.023 7      1902.393          45.125    22788556.000   121732366.019 7      1902.393          44.750    22788564.840    94680762.838 7      1479.639          45.875    22788565.420    94680781.840 7      1479.639          45.812
R15  22782052.340   121740344.858 7      -394.153          46.562    22782052.560   121740344.859 7      -394.153          45.750    22782067.820    94687016.691 7      -306.563          43.375    22782067.600    94687016.690 7      -306.563          44.312
R02  19720212.820   105230883.887 8      2181.879          51.125    19720212.420   105230883.888 8      2181.879          49.500    19720219.740    81846249.177 8      1697.017          50.875    19720220.220    81846243.179 8      1697.017          51.312
G21  22347338.560   117436025.091 7      1335.295          45.625    22347336.080   117436025.096 5      1335.295          35.250    22347339.760    91508603.128 5      1040.489          35.250
G08  22328961.860   117339483.608 7       -16.000          45.500    22328961.040   117339483.610 7       -16.000          45.312    22328969.820    91433394.422 7       -12.467          44.937    22328970.760    91433397.424 7       -12.467          47.875
G14  21982227.460   115517393.570 7      2504.845          44.875    21982226.620   115517393.583 5      2504.845          35.625    21982231.220    90013556.688 5      1951.827          35.625    21982231.520    90013561.686 8      1951.827          49.125
R01  22691963.840   121301534.115 6     -1023.077          39.125    22691963.180   121301534.105 6     -1023.077          38.875    22691974.440    94345682.859 5      -795.726          35.625    22691973.700    94345679.849 6      -795.726          36.312
G22  23358498.160   122749736.507 7      3855.012          43.375    23358496.860   122749736.510 5      3855.012          31.062    23358500.760    95649139.772 5      3003.906          30.937
R24  22217216.700   118805435.739 7      1057.629          42.187    22217212.780   118805435.735 6      1057.629          41.500    22217229.960    92404269.477 7       822.601          47.875    22217229.820    92404275.477 8       822.601          48.937
R18  21962867.180   117239281.114 7      4841.521          43.750    21962867.100   117239281.118 7      4841.521          43.750    21962876.700    91186142.186 7      3765.627          47.687    21962876.080    91186144.200 8      3765.627          48.000
R17  20335254.160   108818059.222 7      3297.633          47.125    20335254.520   108818059.237 7      3297.633          46.312    20335263.220    84636297.651 8      2564.826          50.125    20335262.780    84636299.645 8      2564.826          50.187
G17  22995515.800   120842257.705 7      5457.472          44.125    22995514.680   120842257.713 5      5457.472          33.937    22995517.540    94162804.872 5      4252.576          33.875    22995519.160    94162813.899 7      4252.576          45.625
G04  22872446.940   120195523.281 7      5603.913          43.812    22872446.120   120195523.293 5      5603.913          33.000    22872456.840    93658887.623 5      4366.685          33.062    22872456.820    93658894.631 7      4366.685          47.562
R03  20528755.120   109892035.726 7      6014.801          47.125    20528756.340   109892035.754 7      6014.801          46.312    20528766.920    85471635.119 8      4678.179          50.750    20528767.060    85471634.122 8      4678.179          51.250
> 2024 05 03 16 22 48.0000000  0 16
G03  19899155.960   104570770.293 8      2675.486          49.250    19899155.280   104570770.301 8      2675.486          50.562    19899159.580    81483717.167 8      2084.794          51.312    19899160.480    81483717.167 8      2084.794          51.562
G02  21730704.940   114195621.549 7      2062.724          47.375    21730703.380   114195621.556 6      2062.724          38.125    21730704.340    88983601.209 6      1607.318          38.375
R16  22788198.520   121730463.707 7      1902.104          45.000    22788199.280   121730463.703 7      1902.104          44.187    22788208.700    94679283.255 7      1479.414          45.125    22788209.280    94679302.261 7      1479.414          45.625
R15  22782125.940   121740738.856 7      -393.941          46.750    22782126.440   121740738.855 7      -393.941          45.562    22782141.440    94687323.112 7      -306.399          43.312    22782141.200    94687323.110 7      -306.399          44.125
R02  19719803.840   105228702.279 8      2181.370          50.437    19719803.680   105228702.279 8      2181.370          49.437    19719810.920    81844552.369 8      1696.621          51.437    19719811.260    81844546.372 8      1696.621          51.062
G21  22347084.420   117434689.624 7      1335.630          45.312    22347081.960   117434689.629 5      1335.630          35.187    22347085.600    91507562.500 5      1040.751          35.250
G08  22328965.060   117339499.557 7       -15.870          46.125    22328964.020   117339499.562 7       -15.870          44.875    22328972.920    91433406.846 7       -12.366          44.875    22328973.680    91433409.850 7       -12.366          47.812
G14  21981750.840   115514888.833 7      2504.657          45.187    21981749.880   115514888.849 5      2504.657          35.625    21981754.700    90011604.948 5      1951.681          35.687    21981755.020    90011609.944 8      1951.681          49.125
R01  22692154.800   121302557.279 6     -1023.370          39.125    22692154.360   121302557.285 6     -1023.370          38.875    22692166.920    94346478.672 5      -795.954          35.625    22692165.060    94346475.662 6      -795.954          36.312
G22  23357764.660   122745881.576 7      3854.770          43.437    23357763.420   122745881.581 5      3854.770          30.875    23357767.300    95646135.931 5      3003.717          30.937
R24  22217018.800   118804378.123 7      1057.711          42.000    22217015.740   118804378.127 6      1057.711          41.500    22217032.380    92403446.885 8       822.664          48.187    22217032.080    92403452.889 8       822.664          48.687
R18  21961959.980   117234439.359 7      4841.989          43.187    21961959.440   117234439.370 7      4841.989          43.500    21961968.840    91182376.382 7      3765.991          47.562    21961968.920    91182378.403 7      3765.991          46.562
R17  20334637.800   108814761.613 7      3297.649          46.437    20334637.680   108814761.628 7      3297.649          46.625    20334646.980    84633732.846 8      2564.838          50.312    20334646.500    84633734.844 8      2564.838          50.125
G17  22994477.580   120836800.204 7      5457.654          44.500    22994476.180   120836800.209 5      5457.654          34.000    22994479.140    94158552.274 5      4252.718          33.875    22994479.820    94158561.303 7      4252.718          44.875
G04  22871380.220   120189919.190 7      5604.173          43.500    22871379.700   120189919.203 5      5604.173          33.000    22871390.320    93654520.807 5      4366.888          33.062    22871390.660    93654527.818 7      4366.888          47.812
R03  20527631.380   109886021.042 7      6014.575          47.875    20527632.760   109886021.067 7      6014.575          45.937    20527643.420    85466957.036 8      4678.003          50.750    20527643.280    85466956.039 8      4678.003          51.062
> 2024 05 03 16 22 49.0000000  0 16
G03  19898646.940   104568095.223 8      2674.909          48.812    19898646.160   104568095.225 8      2674.909          50.375    19898650.500    81481632.815 8      2084.345          51.250    19898651.400    81481632.815 8      2084.345          51.812
G02  21730312.520   114193559.042 7      2062.499          46.312    21730310.880   114193559.044 6      2062.499          38.625    21730311.920    88981994.057 6      1607.142          38.312
R16  22787842.600   121728562.107 7      1901.306          44.187    22787843.060   121728562.111 7      1901.306          44.250    22787852.580    94677804.237 7      1478.793          45.062    22787853.300    94677823.239 7      1478.793          45.312
R15  22782199.900   121741133.157 7      -394.432          47.312    22782199.860   121741133.156 7      -394.432          45.062    22782214.860    94687629.773 7      -306.781          43.062    22782215.020    94687629.778 7      -306.781          43.500
R02  19719395.500   105226521.609 8      2180.246          50.562    19719395.020   105226521.605 8      2180.246          49.312    19719402.440    81842856.290 8      1695.747          50.937    19719402.840    81842850.294 8      1695.747          51.125
G21  22346830.300   117433354.225 7      1335.405          45.437    22346827.760   117433354.230 5      1335.405          35.375    22346831.440    91506521.931 5      1040.576          35.125
G08  22328968.000   117339515.945 7       -16.455          45.562    22328967.120   117339515.947 7       -16.455          44.750    22328975.980    91433419.610 7       -12.822          44.625    22328976.820    91433422.611 8       -12.822          48.187
G14  21981274.480   115512384.749 7      2503.861          45.062    21981273.420   115512384.764 5      2503.861          35.812    21981278.240    90009653.713 5      1951.060          35.562    21981278.700    90009658.707 8      1951.060          49.062
R01  22692346.720   121303580.857 6     -1023.685          39.125    22692346.520   121303580.858 6     -1023.685          38.875    22692358.300    94347274.776 5      -796.200          35.625    22692356.820    94347271.766 6      -796.200          36.312
G22  23357031.160   122742027.173 7      3854.166          43.250    23357029.920   122742027.183 5      3854.166          30.875    23357033.860    95643132.500 5      3003.246          30.937
R24  22216820.820   118803320.855 7      1057.170          42.000    22216818.180   118803320.862 6      1057.170          41.687    22216834.560    92402624.563 8       822.243          48.375    22216834.280    92402630.563 8       822.243          48.500
R18  21961053.080   117229597.563 7      4841.877          42.750    21961052.340   117229597.567 7      4841.877          42.812    21961061.240    91178610.539 7      3765.904          46.937    21961062.080    91178612.551 7      3765.904          46.625
R17  20334021.680   108811464.157 7      3297.455          47.437    20334021.840   108811464.175 7      3297.455          46.062    20334030.680    84631168.160 8      2564.687          50.062    20334030.320    84631170.154 8      2564.687          50.187
G17  22993439.020   120831342.771 7      5457.503          45.875    22993437.560   120831342.773 5      5457.503          34.000    22993440.720    94154299.726 5      4252.600          33.937    22993440.860    94154308.741 7      4252.600          43.562
G04  22870313.900   120184315.328 7      5603.798          43.312    22870313.140   120184315.338 5      5603.798          33.562    22870323.960    93650154.165 5      4366.596          33.375    22870324.160    93650161.174 8      4366.596          48.000
R03  20526508.160   109880006.984 7      6013.862          46.937    20526509.220   109880007.004 7      6013.862          46.312    20526519.880    85462279.436 8      4677.448          50.750    20526519.820    85462278.439 8      4677.448          51.000
> 2024 05 03 16 22 50.0000000  0 16
G03  19898138.060   104565420.878 8      2673.923          49.562    19898137.360   104565420.882 8      2673.923          50.625    19898141.580    81479549.037 8      2083.576          51.125    19898142.380    81479549.037 8      2083.576          51.625
G02  21729920.080   114191496.730 7      2062.143          46.125    21729918.520   114191496.734 6      2062.143          39.000    21729919.500    88980387.060 6      1606.865          37.937
R16  22787486.900   121726661.354 7      1900.284          44.875    22787487.140   121726661.355 7      1900.284          44.125    22787496.780    94676325.867 7      1477.999          45.000    22787497.560    94676344.874 7      1477.999          45.687
R15  22782273.940   121741527.762 7      -394.887          46.750    22782273.660   121741527.758 7      -394.887          45.937    22782289.140    94687936.670 7      -307.134          42.750    22782288.860    94687936.671 7      -307.134          43.375
R02  19718987.200   105224341.983 8      2179.045          50.687    19718986.440   105224341.979 8      2179.045          49.625    19718993.920    81841161.028 8      1694.813          51.062    19718994.140    81841155.029 8      1694.813          51.562
G21  22346576.160   117432018.965 7      1335.169          45.500    22346573.780   117432018.970 5      1335.169          35.062    22346577.260    91505481.465 5      1040.391          35.125
G08  22328971.280   117339532.761 7       -17.086          45.750    22328970.220   117339532.766 7       -17.086          45.125    22328979.200    91433432.703 7       -13.314          44.312    22328979.600    91433435.703 7       -13.314          47.625
G14  21980798.180   115509881.399 7      2502.939          44.875    21980797.100   115509881.415 5      2502.939          35.812    21980801.820    90007703.043 5      1950.342          35.562    21980802.100    90007708.043 8      1950.342          49.250
R01  22692537.640   121304605.042 6     -1024.577          39.937    22692537.700   121304605.057 6     -1024.577          38.875    22692549.540    94348071.372 5      -796.894          35.625    22692548.600    94348068.365 6      -796.894          36.187
G22  23356298.140   122738173.419 7      3853.401          44.125    23356296.500   122738173.429 5      3853.401          30.875    23356300.460    95640129.575 5      3002.650          30.937
R24  22216623.640   118802263.961 7      1056.686          42.000    22216620.680   118802263.960 6      1056.686          41.687    22216636.940    92401802.520 8       821.867          48.312    22216636.580    92401808.520 8       821.867          48.937
R18  21960146.000   117224755.850 7      4841.720          43.625    21960145.760   117224755.848 7      4841.720          44.000    21960153.560    91174844.756 7      3765.782          47.000    21960154.620    91174846.760 7      3765.782          46.437
R17  20333405.460   108808167.060 7      3296.820          46.437    20333405.720   108808167.077 7      3296.820          46.250    20333414.660    84628603.747 8      2564.193          50.687    20333414.300    84628605.743 8      2564.193          49.750
G17  22992400.380   120825885.564 7      5457.156          44.375    22992399.120   120825885.563 5      5457.156          33.687    22992402.140    94150047.357 5      4252.329          33.937    22992402.080    94150056.345 7      4252.329          42.875
G04  22869247.260   120178711.679 7      5603.415          44.187    22869246.760   120178711.689 5      5603.415          33.562    22869257.740    93645787.696 5      4366.297          33.375    22869257.880    93645794.698 8      4366.297          48.125
R03  20525384.800   109873993.553 7      6012.952          47.500    20525386.000   109873993.576 7      6012.952          46.500    20525396.560    85457602.331 8      4676.740          50.812    20525396.600    85457601.336 8      4676.740          51.125
