     3.05           OBSERVATION DATA    MIXED               RINEX VERSION / TYPE
TPS2RIN 1.0.29.3920 TPS-USER            20240511 182143 UTC PGM / RUN BY / DATE
Win64 build Feb 23, 2024 (c) Topcon Positioning Systems     COMMENT
SRC: 20240503_FA07.tps                                      COMMENT
OPT: -S -v 3.05                                             COMMENT
Observer            Agency                                  OBSERVER / AGENCY
O0M3X53SBGM         TPS HIPER_SR        4.8 HSR Jul,08,2022 REC # / TYPE / VERS
FW: 4.8 HSR Jul,08,2022 p3                                  COMMENT
SN: HiPer SR 1212-12575                                     COMMENT
000                 TPSHIPER_SR     NONE                    ANT # / TYPE
        1.8000        0.0000        0.0000                  ANTENNA: DELTA H/E/N
DELTA H stands for **SLANT** height here!                   COMMENT
FA07                                                        MARKER NAME
  5390973.6591 -1598516.2856  3005064.5083                  APPROX POSITION XYZ
  2024     5     3    16    36   17.0000000     GPS         TIME OF FIRST OBS
  2024     5     3    16    41   35.0000000     GPS         TIME OF LAST OBS
     1.000                                                  INTERVAL
   319 EPOCHS                                               COMMENT
G   16 C1C L1C D1C S1C C1W L1W D1W S1W C2W L2W D2W S2W C2X  SYS / # / OBS TYPES
       L2X D2X S2X                                          SYS / # / OBS TYPES
R   16 C1C L1C D1C S1C C1P L1P D1P S1P C2P L2P D2P S2P C2C  SYS / # / OBS TYPES
       L2C D2C S2C                                          SYS / # / OBS TYPES
    18                                                      # OF SATELLITES
   G02   319   319   319   319   319   319   319   319   319PRN / # OF OBS
         319   319   319     0     0     0     0            PRN / # OF OBS
   G03   319   319   319   319   319   319   319   319   319PRN / # OF OBS
         319   319   319   319   319   319   319            PRN / # OF OBS
   G04   319   319   319   319   319   319   319   319   319PRN / # OF OBS
         319   319   319   319   319   319   319            PRN / # OF OBS
   G08   319   319   319   319   319   319   319   319   319PRN / # OF OBS
         319   319   319   319   319   319   319            PRN / # OF OBS
   G09   319   319   319   319   319   319   319   319   319PRN / # OF OBS
         319   319   319   319   319   319   319            PRN / # OF OBS
   G14   319   319   319   319   319   319   319   319   319PRN / # OF OBS
         319   319   319   319   319   319   319            PRN / # OF OBS
   G17   319   319   319   319   319   319   319   319   319PRN / # OF OBS
         319   319   319   319   319   319   319            PRN / # OF OBS
   G21   319   319   319   319   319   319   319   319   319PRN / # OF OBS
         319   319   319     0     0     0     0            PRN / # OF OBS
   G22   319   319   319   319   319   319   319   319   319PRN / # OF OBS
         319   319   319     0     0     0     0            PRN / # OF OBS
   R01   305   305   305   305   300   300   300   300   300PRN / # OF OBS
         300   300   300   299   299   299   299            PRN / # OF OBS
   R02   319   319   319   319   319   319   319   319   319PRN / # OF OBS
         319   319   319   319   319   319   319            PRN / # OF OBS
   R03   319   319   319   319   319   319   319   319   319PRN / # OF OBS
         319   319   319   319   319   319   319            PRN / # OF OBS
   R04   134   134   134   134   130   130   130   130   130PRN / # OF OBS
         130   130   130   129   129   129   129            PRN / # OF OBS
   R15   298   298   298   298   292   292   292   292   292PRN / # OF OBS
         292   292   292   291   291   291   291            PRN / # OF OBS
   R16   319   319   319   319   319   319   319   319   319PRN / # OF OBS
         319   319   319   319   319   319   319            PRN / # OF OBS
   R17   319   319   319   319   319   319   319   319   319PRN / # OF OBS
         319   319   319   319   319   319   319            PRN / # OF OBS
   R18   319   319   319   319   319   319   319   319   319PRN / # OF OBS
         319   319   319   319   319   319   319            PRN / # OF OBS
   R24   319   319   319   319   319   319   319   319   319PRN / # OF OBS
         319   319   319   319   319   319   319            PRN / # OF OBS
G L1C                                                       SYS / PHASE SHIFT
G L1W -0.25000                                              SYS / PHASE SHIFT
G L2W  0.00000                                              SYS / PHASE SHIFT
G L2X  0.00000  01 G03                                      SYS / PHASE SHIFT
G L2X  0.25000  05 G04 G08 G09 G14 G17                      SYS / PHASE SHIFT
R L1C                                                       SYS / PHASE SHIFT
R L1P -0.25000                                              SYS / PHASE SHIFT
R L2P -0.25000                                              SYS / PHASE SHIFT
R L2C                                                       SYS / PHASE SHIFT
  9 R01  1 R02 -4 R03  5 R04  6 R15  0 R16 -1 R17  4 R18 -3 GLONASS SLOT / FRQ #
    R24  2                                                  GLONASS SLOT / FRQ #
                                                            GLONASS COD/PHS/BIS
    18    18  1929     7GPS                                 LEAP SECONDS
                                                            END OF HEADER
> 2024 05 03 16 36 17.0000000  0 16
G03  20119253.040   105727390.925 8      2252.387          48.875    20119252.400   105727390.930 8      2252.387          51.062    20119256.400    82384977.917 8      1755.107          51.812    20119257.340    82384977.917 8      1755.107          51.250
G02  22014146.460   115685114.065 7      2035.217          45.250    22014144.920   115685114.072 6      2035.217          37.937    22014146.020    90144245.324 6      1585.883          37.687
G09  24938910.560   131054858.261 6      6094.816          41.250    24938909.480   131054858.268 4      6094.816          29.125    24938931.800   102120714.692 5      4749.207          31.500    24938932.740   102120757.686 7      4749.207          42.437
G04  22615695.120   118846282.485 7      5487.661          44.250    22615694.840   118846282.498 5      5487.661          34.500    22615703.460    92607522.113 5      4276.099          34.625    22615703.680    92607525.119 8      4276.099          48.187
R02  20040632.080   106940703.202 8      1494.192          50.687    20040631.380   106940703.200 8      1494.192          49.437    20040638.340    83176089.457 8      1162.149          50.125    20040638.880    83176092.457 8      1162.149          50.437
G21  22739891.200   119498896.653 7      1341.912          45.687    22739889.440   119498896.653 5      1341.912          35.500    22739892.860    93116033.570 5      1045.645          35.562
G08  22948491.120   120595109.512 7      -244.701          44.875    22948490.080   120595109.511 7      -244.701          43.437    22948500.280    93970239.204 7      -190.676          43.312    22948501.000    93970242.203 7      -190.676          46.375
G14  22230445.700   116821784.188 7      2050.966          44.937    22230445.000   116821784.201 5      2050.966          35.562    22230449.760    91029962.847 5      1598.156          35.312    22230450.260    91029967.845 8      1598.156          49.562
R18  21822194.840   116488358.583 7      4903.141          43.437    21822194.820   116488358.584 7      4903.141          43.937    21822203.560    90602095.393 7      3813.554          47.812    21822203.080    90602097.403 8      3813.554          48.375
R17  20445034.440   109405502.450 8      3158.577          48.062    20445034.420   109405502.457 7      3158.577          46.125    20445043.040    85093209.683 8      2456.671          50.312    20445042.680    85093207.681 8      2456.671          50.562
R24  22669653.520   121224797.796 6       874.101          40.937    22669651.220   121224797.791 6       874.101          41.000    22669667.520    94285989.632 7       679.857          47.250    22669667.680    94285995.632 8       679.857          48.375
G22  23393713.620   122934791.533 7      3457.441          44.500    23393712.240   122934791.538 5      3457.441          32.375    23393715.740    95793349.447 5      2694.110          33.000
R16  23138894.640   123603818.805 7      1387.461          44.937    23138893.560   123603818.809 7      1387.461          44.687    23138904.160    96136335.624 8      1079.136          48.000    23138904.300    96136338.625 8      1079.136          48.187
R03  20251695.880   108408915.461 7      5549.241          47.750    20251696.860   108408915.498 7      5549.241          47.375    20251706.280    84318089.844 8      4316.077          50.312    20251706.640    84318087.845 8      4316.077          50.687
G17  22757444.520   119591177.105 7      5395.309          45.500    22757443.320   119591177.112 6      5395.309          36.625    22757446.180    93187939.832 6      4204.137          36.312    22757446.060    93187943.833 7      4204.137          46.375
R15  23448981.760   125304255.921 6      -484.713          39.125    23448981.120   125304255.915 6      -484.713          36.375    23449004.140    97458945.981 8      -376.999          49.312    23449003.900    97458944.980 8      -376.999          49.375
> 2024 05 03 16 36 18.0000000  0 16
G03  20118824.640   105725138.958 8      2251.629          49.375    20118823.900   105725138.958 8      2251.629          49.750    20118827.920    82383223.690 8      1754.516          51.000    20118829.160    82383223.690 8      1754.516          52.187
G02  22013759.280   115683079.031 7      2034.976          46.062    22013757.620   115683079.036 6      2034.976          38.375    22013758.780    90142659.581 6      1585.695          38.125
G09  24937750.700   131048763.492 6      6094.882          41.437    24937749.640   131048763.499 5      6094.882          32.562    24937771.960   102115965.517 5      4749.259          31.500    24937772.860   102116008.509 7      4749.259          42.375
G04  22614650.960   118840795.072 7      5487.223          44.437    22614650.540   118840795.082 5      5487.223          34.500    22614659.220    92603246.217 5      4275.759          34.375    22614659.160    92603249.223 7      4275.759          47.750
R02  20040351.920   106939209.487 8      1493.240          51.062    20040351.420   106939209.491 8      1493.240          49.625    20040358.300    83174927.681 8      1161.409          49.812    20040359.000    83174930.681 8      1161.409          50.437
G21  22739635.760   119497554.964 7      1341.667          46.000    22739634.180   119497554.963 5      1341.667          35.375    22739637.560    93114988.100 5      1045.455          35.750
G08  22948537.840   120595354.562 7      -245.255          44.062    22948536.660   120595354.561 7      -245.255          43.750    22948546.800    93970430.144 7      -191.108          43.625    22948547.820    93970433.143 7      -191.108          46.125
G14  22230055.620   116819733.673 7      2050.255          44.375    22230054.700   116819733.689 5      2050.255          35.562    22230059.680    91028365.040 5      1597.602          35.250    22230060.160    91028370.035 8      1597.602          49.875
R18  21821276.220   116483455.471 7      4903.100          44.062    21821276.560   116483455.480 7      4903.100          44.250    21821284.780    90598281.872 7      3813.523          47.750    21821284.760    90598283.878 7      3813.523          47.562
R17  20444443.980   109402344.077 8      3158.216          48.250    20444444.080   109402344.092 7      3158.216          46.062    20444452.780    85090753.177 8      2456.390          50.125    20444452.540    85090751.173 8      2456.390          49.812
R24  22669490.480   121223924.092 6       873.479          40.937    22669488.160   121223924.090 6       873.479          40.437    22669504.380    94285310.078 7       679.373          47.625    22669504.280    94285316.078 7       679.373          47.687
G22  23393055.640   122931334.463 7      3456.848          44.062    23393054.360   122931334.468 5      3456.848          32.375    23393057.880    95790655.626 5      2693.648          32.312
R16  23138634.860   123602431.796 7      1386.637          45.125    23138634.160   123602431.800 7      1386.637          44.687    23138644.540    96135256.833 7      1078.496          47.437    23138644.420    96135259.840 8      1078.496          48.500
R03  20250659.220   108403366.616 7      5548.424          46.625    20250660.260   108403366.649 7      5548.424          47.125    20250669.840    84313774.079 8      4315.441          50.812    20250669.720    84313772.076 8      4315.441          50.375
G17  22756417.860   119585782.109 7      5394.969          44.187    22756416.660   119585782.111 6      5394.969          36.937    22756419.740    93183735.938 6      4203.872          36.625    22756419.640    93183739.916 7      4203.872          46.625
R15  23449072.420   125304740.755 6      -485.139          37.062    23449072.260   125304740.737 6      -485.139          36.375    23449094.920    97459323.026 8      -377.331          49.000    23449094.600    97459322.027 8      -377.331          49.437
> 2024 05 03 16 36 19.0000000  0 16
G03  20118396.160   105722887.375 8      2251.294          50.062    20118395.440   105722887.378 8      2251.294          50.375    20118399.480    82381469.136 8      1754.255          51.375    20118400.520    82381469.136 8      1754.255          51.312
G02  22013372.140   115681043.930 7      2035.008          46.187    22013370.380   115681043.934 6      2035.008          38.000    22013371.600    90141073.784 6      1585.721          37.812
G09  24936590.680   131042668.502 6      6095.079          41.500    24936589.900   131042668.507 5      6095.079          32.562    24936612.160   102111216.166 5      4749.413          32.812    24936613.240   102111259.158 7      4749.413          42.437
G04  22613606.580   118835307.772 7      5487.090          44.250    22613606.360   118835307.779 5      5487.090          34.375    22613615.080    92598970.405 5      4275.654          34.375    22613615.320    92598973.411 7      4275.654          47.812
R02  20040072.300   106937716.533 8      1492.494          50.687    20040071.760   106937716.531 8      1492.494          49.937    20040078.640    83173766.490 8      1160.828          50.125    20040079.100    83173769.492 8      1160.828          50.312
G21  22739380.540   119496213.162 7      1341.779          45.500    22739378.680   119496213.164 5      1341.779          35.875    22739382.160    93113942.536 5      1045.542          35.687
G08  22948584.540   120595599.759 7      -245.312          44.937    22948583.340   120595599.761 7      -245.312          42.937    22948593.620    93970621.194 7      -191.152          43.000    22948594.440    93970624.200 7      -191.152          46.312
G14  22229665.780   116817683.613 7      2049.781          45.125    22229664.620   116817683.620 5      2049.781          35.625    22229669.420    91026767.584 5      1597.232          35.250    22229669.940    91026772.582 8      1597.232          49.437
R18  21820357.740   116478552.202 7      4903.297          43.500    21820358.100   116478552.211 7      4903.297          43.875    21820366.460    90594468.220 7      3813.676          47.562    21820366.140    90594470.220 7      3813.676          47.625
R17  20443853.660   109399185.841 8      3158.137          48.187    20443853.860   109399185.853 7      3158.137          47.062    20443862.700    85088296.764 8      2456.328          50.687    20443862.200    85088294.762 8      2456.328          50.562
R24  22669326.860   121223050.490 6       873.360          41.812    22669324.820   121223050.491 6       873.360          40.437    22669340.840    94284630.602 7       679.280          47.562    22669340.660    94284636.602 7       679.280          47.937
G22  23392397.820   122927877.814 7      3456.499          45.312    23392396.560   122927877.819 5      3456.499          32.375    23392400.200    95787962.133 5      2693.376          32.312
R16  23138375.340   123601045.260 7      1386.240          45.375    23138374.340   123601045.269 7      1386.240          44.750    23138384.800    96134178.416 7      1078.186          47.875    23138384.880    96134181.419 8      1078.186          48.250
R03  20249623.140   108397818.329 8      5547.917          48.062    20249623.660   108397818.358 7      5547.917          46.687    20249633.380    84309458.745 8      4315.047          50.875    20249633.580    84309456.745 8      4315.047          50.812
G17  22755391.040   119580387.100 7      5395.015          44.937    22755389.960   119580387.103 6      5395.015          36.937    22755392.900    93179532.037 6      4203.908          37.000    22755393.280    93179536.023 7      4203.908          46.625
R15  23449163.740   125305225.479 6      -484.719          37.062    23449162.600   125305225.454 6      -484.719          36.375    23449185.500    97459699.981 8      -377.004          49.375    23449185.380    97459698.982 8      -377.004          49.250
> 2024 05 03 16 36 20.0000000  0 16
G03  20117967.760   105720636.231 8      2250.936          49.812    20117967.020   105720636.231 8      2250.936          50.437    20117971.080    82379714.910 8      1753.976          50.625    20117972.100    82379714.910 8      1753.976          51.312
G02  22012984.820   115679008.809 7      2035.151          47.500    22012983.020   115679008.814 6      2035.151          38.562    22012984.220    90139487.976 6      1585.832          38.062
G09  24935431.100   131036573.268 6      6095.444          41.250    24935430.000   131036573.270 5      6095.444          32.625    24935452.260   102106466.625 5      4749.697          32.812    24935453.040   102106509.611 7      4749.697          42.437
G04  22612562.620   118829820.558 7      5487.179          44.875    22612562.160   118829820.568 5      5487.179          34.750    22612570.960    92594694.664 5      4275.724          34.625    22612571.120    92594697.670 7      4275.724          47.687
R02  20039792.480   106936224.342 8      1491.849          51.312    20039792.180   106936224.345 8      1491.849          49.687    20039798.960    83172605.899 8      1160.327          50.187    20039799.540    83172608.901 8      1160.327          50.312
G21  22739124.820   119494871.328 7      1341.863          45.562    22739123.440   119494871.330 6      1341.863          36.375    22739126.740    93112896.951 6      1045.608          36.562
G08  22948631.300   120595845.164 7      -245.403          45.187    22948629.980   120595845.161 7      -245.403          43.437    22948640.220    93970812.411 7      -191.223          43.312    22948641.080    93970815.412 7      -191.223          46.187
G14  22229275.620   116815634.002 7      2049.443          45.125    22229274.700   116815634.009 5      2049.443          35.312    22229279.280    91025170.484 5      1596.969          35.000    22229280.080    91025175.478 8      1596.969          49.437
R18  21819439.140   116473648.784 7      4903.509          44.312    21819439.140   116473648.790 7      4903.509          43.875    21819447.460    90590654.446 7      3813.840          47.875    21819447.560    90590656.446 7      3813.840          47.500
R17  20443263.700   109396027.770 7      3158.053          47.875    20443263.820   109396027.782 7      3158.053          46.937    20443272.560    85085840.489 8      2456.263          50.250    20443272.180    85085838.487 8      2456.263          50.562
R24  22669163.580   121222177.043 6       873.403          41.812    22669161.160   121222177.044 6       873.403          41.375    22669177.660    94283951.241 7       679.314          47.312    22669177.460    94283957.239 8       679.314          48.062
G22  23391740.100   122924421.582 7      3456.063          44.562    23391738.780   122924421.595 5      3456.063          32.250    23391742.480    95785268.966 5      2693.036          32.312
R16  23138115.740   123599659.247 7      1385.746          45.687    23138115.100   123599659.259 7      1385.746          45.187    23138125.240    96133100.402 7      1077.802          47.625    23138125.520    96133103.407 7      1077.802          47.937
R03  20248586.900   108392270.608 8      5547.519          48.125    20248587.200   108392270.639 7      5547.519          47.187    20248596.980    84305143.853 8      4314.737          50.437    20248597.020    84305141.852 8      4314.737          50.125
G17  22754364.420   119574992.131 7      5395.001          45.125    22754363.300   119574992.134 6      5395.001          36.812    22754366.200    93175328.165 6      4203.897          36.750    22754367.220    93175332.166 7      4203.897          47.250
R15  23449254.100   125305710.166 6      -484.848          37.062    23449253.360   125305710.162 6      -484.848          36.375    23449276.200    97460076.937 8      -377.104          48.875    23449275.920    97460075.938 8      -377.104          48.875
> 2024 05 03 16 36 21.0000000  0 16
G03  20117539.580   105718385.607 8      2250.454          49.187    20117538.740   105718385.609 8      2250.454          49.750    20117542.760    82377961.584 8      1753.600          50.125    20117543.720    82377961.584 8      1753.600          51.062
G02  22012597.460   115676973.729 7      2035.199          47.937    22012595.860   115676973.733 6      2035.199          38.125    22012597.140    90137902.198 6      1585.869          38.250
G09  24934271.240   131030477.897 6      6095.434          41.187    24934269.960   131030477.904 5      6095.434          32.625    24934292.420   102101716.979 5      4749.689          32.937    24934293.460   102101759.967 7      4749.689          42.375
G04  22611518.380   118824333.563 7      5486.966          44.625    22611518.000   118824333.576 5      5486.966          34.750    22611526.760    92590419.090 5      4275.558          34.625    22611526.880    92590422.096 8      4275.558          48.125
R02  20039513.180   106934732.996 8      1491.021          50.437    20039512.740   106934733.000 8      1491.021          48.937    20039519.460    83171445.966 8      1159.683          49.937    20039519.920    83171448.966 8      1159.683          49.875
G21  22738869.680   119493529.488 7      1342.006          45.875    22738868.180   119493529.491 5      1342.006          35.875    22738871.480    93111851.360 6      1045.719          36.000
G08  22948677.880   120596090.829 7      -245.793          45.062    22948676.660   120596090.837 7      -245.793          42.937    22948686.840    93971003.838 7      -191.527          43.312    22948687.720    93971006.842 7      -191.527          45.875
G14  22228885.640   116813584.974 7      2048.768          45.437    22228884.800   116813584.984 5      2048.768          35.250    22228889.480    91023573.835 5      1596.443          34.875    22228890.120    91023578.833 8      1596.443          49.812
R18  21818520.560   116468745.326 7      4903.588          43.125    21818520.440   116468745.324 7      4903.588          44.125    21818529.020    90586840.645 7      3813.902          47.125    21818529.080    90586842.651 7      3813.902          47.562
R17  20442673.820   109392869.870 7      3158.017          47.500    20442673.800   109392869.883 7      3158.017          46.687    20442682.400    85083384.345 8      2456.236          49.625    20442681.960    85083382.343 8      2456.236          49.437
R24  22668999.980   121221303.839 6       873.169          41.312    22668998.200   121221303.840 6       873.169          41.375    22669014.380    94283272.081 7       679.132          46.687    22669014.360    94283278.081 7       679.132          47.625
G22  23391082.640   122920965.895 7      3455.460          45.812    23391081.100   122920965.910 5      3455.460          32.250    23391085.020    95782576.222 5      2692.566          32.437
R16  23137856.240   123598273.843 7      1385.142          44.937    23137855.860   123598273.847 7      1385.142          44.937    23137865.820    96132022.860 7      1077.333          47.250    23137866.160    96132025.862 7      1077.333          47.312
R03  20247550.800   108386723.550 8      5546.818          48.875    20247551.060   108386723.576 7      5546.818          46.375    20247560.720    84300829.474 8      4314.192          48.937    20247560.840    84300827.474 8      4314.192          49.375
G17  22753337.780   119569597.299 7      5394.907          45.687    22753336.560   119569597.298 6      5394.907          36.500    22753339.660    93171124.399 6      4203.823          36.562    22753340.580    93171128.414 7      4203.823          47.375
R15  23449344.880   125306194.898 6      -484.823          37.062    23449345.540   125306194.902 6      -484.823          36.375    23449367.020    97460453.920 8      -377.085          48.250    23449366.860    97460452.923 8      -377.085          48.625
> 2024 05 03 16 36 22.0000000  0 16
G03  20117111.320   105716135.601 8      2249.926          49.937    20117110.600   105716135.606 8      2249.926          50.937    20117114.620    82376207.931 8      1753.189          51.312    20117115.720    82376207.931 8      1753.189          51.375
G02  22012210.260   115674938.842 7      2034.952          47.625    22012208.760   115674938.850 6      2034.952          38.187    22012209.880    90136316.569 6      1585.677          37.937
G09  24933111.340   131024382.539 6      6095.609          41.187    24933110.200   131024382.547 5      6095.609          32.750    24933132.500   102096967.340 5      4749.825          32.937    24933133.040   102097010.331 7      4749.825          42.187
G04  22610474.640   118818846.935 7      5486.634          44.125    22610473.840   118818846.946 5      5486.634          34.312    22610482.620    92586143.802 5      4275.299          34.500    22610482.840    92586146.806 7      4275.299          47.750
R02  20039233.600   106933242.614 8      1490.068          51.250    20039233.480   106933242.615 8      1490.068          49.812    20039240.160    83170286.780 8      1158.942          50.437    20039240.560    83170289.784 8      1158.942          50.437
G21  22738614.240   119492187.807 7      1341.816          46.500    22738612.980   119492187.809 5      1341.816          35.687    22738616.160    93110805.894 5      1045.571          35.937
G08  22948724.540   120596336.928 7      -246.062          45.000    22948723.480   120596336.935 7      -246.062          43.437    22948733.740    93971195.593 7      -191.737          42.812    22948734.500    93971198.599 7      -191.737          46.187
G14  22228495.660   116811536.585 7      2048.287          45.125    22228495.220   116811536.593 5      2048.287          35.250    22228499.660    91021977.682 5      1596.068          35.000    22228500.300    91021982.684 8      1596.068          49.750
R18  21817602.140   116463841.945 7      4903.506          43.875    21817602.140   116463841.935 7      4903.506          44.125    21817610.440    90583026.898 7      3813.838          47.562    21817610.440    90583028.911 8      3813.838          48.187
R17  20442083.520   109389712.356 7      3157.502          47.437    20442083.740   109389712.366 7      3157.502          46.750    20442092.400    85080928.496 8      2455.835          50.000    20442092.060    85080926.495 8      2455.835          50.687
R24  22668836.600   121220431.084 6       872.787          41.312    22668835.020   121220431.096 6       872.787          41.687    22668851.000    94282593.270 7       678.834          47.437    22668851.060    94282599.268 7       678.834          47.625
G22  23390425.160   122917510.793 7      3455.028          44.687    23390423.560   122917510.803 5      3455.028          32.437    23390427.420    95779883.931 5      2692.230          32.437
R16  23137597.080   123596889.118 7      1384.507          45.312    23137595.920   123596889.127 7      1384.507          45.062    23137606.680    96130945.853 7      1076.839          47.812    23137606.780    96130948.851 8      1076.839          48.125
R03  20246514.480   108381177.260 8      5546.120          48.250    20246514.720   108381177.283 7      5546.120          46.937    20246524.720    84296515.695 8      4313.649          50.750    20246524.660    84296513.695 8      4313.649          50.687
G17  22752311.220   119564202.671 7      5394.747          45.500    22752309.960   119564202.668 6      5394.747          37.125    22752313.320    93166920.795 6      4203.699          36.437    22752313.740    93166924.814 7      4203.699          46.750
R15  23449436.400   125306679.838 6      -484.804          37.500    23449435.980   125306679.829 6      -484.804          36.187    23449457.720    97460831.050 8      -377.070          48.312    23449457.460    97460830.053 8      -377.070          48.937
> 2024 05 03 16 36 23.0000000  0 16
G03  20116683.160   105713886.091 8      2249.453          49.812    20116682.540   105713886.096 8      2249.453          50.875    20116686.600    82374454.688 8      1752.821          51.437    20116687.520    82374454.688 8      1752.821          52.062
G02  22011822.940   115672903.966 7      2035.014          46.937    22011821.440   115672903.974 6      2035.014          38.500    22011822.660    90134730.953 6      1585.725          38.125
G09  24931951.820   131018286.979 6      6095.721          41.500    24931950.220   131018286.987 5      6095.721          32.750    24931972.560   102092217.542 5      4749.913          32.937    24931973.320   102092260.532 7      4749.913          42.687
G04  22609430.540   118813360.395 7      5486.646          43.812    22609429.700   118813360.405 5      5486.646          34.875    22609438.560    92581868.581 5      4275.308          34.500    22609438.680    92581871.595 8      4275.308          48.250
R02  20038954.820   106931753.013 8      1489.363          51.375    20038954.160   106931753.014 8      1489.363          49.937    20038960.880    83169128.197 8      1158.393          50.062    20038961.340    83169131.203 8      1158.393          50.812
G21  22738358.960   119490846.091 7      1341.895          45.937    22738357.460   119490846.091 5      1341.895          35.687    22738360.760    93109760.395 5      1045.632          35.937
G08  22948771.640   120596583.221 7      -246.244          44.625    22948770.320   120596583.223 7      -246.244          43.000    22948780.640    93971387.499 7      -191.878          43.000    22948781.460    93971390.507 7      -191.878          46.000
G14  22228106.120   116809488.756 7      2047.624          45.562    22228105.440   116809488.766 5      2047.624          35.687    22228110.040    91020381.970 5      1595.551          35.437    22228110.700    91020386.966 8      1595.551          49.812
R18  21816683.620   116458938.505 7      4903.623          44.375    21816683.760   116458938.495 7      4903.623          43.937    21816691.720    90579213.112 7      3813.929          47.812    21816692.180    90579215.120 7      3813.929          47.687
R17  20441493.720   109386555.005 8      3157.386          48.062    20441493.580   109386555.023 7      3157.386          47.125    20441502.220    85078472.785 8      2455.745          50.062    20441502.140    85078470.786 8      2455.745          50.437
R24  22668673.260   121219558.538 6       872.537          41.937    22668672.260   121219558.545 6       872.537          41.687    22668687.960    94281914.608 7       678.640          47.187    22668688.000    94281920.606 7       678.640          47.812
G22  23389767.840   122914056.209 7      3454.423          45.187    23389766.280   122914056.214 5      3454.423          32.437    23389770.180    95777192.045 5      2691.759          32.500
R16  23137338.120   123595504.999 7      1383.899          45.500    23137336.940   123595505.005 7      1383.899          45.250    23137347.540    96129869.310 8      1076.366          48.187    23137347.940    96129872.310 8      1076.366          48.000
R03  20245478.620   108375631.535 8      5545.542          48.937    20245478.480   108375631.564 7      5545.542          47.375    20245488.580    84292202.364 8      4313.199          50.562    20245488.840    84292200.358 8      4313.199          50.437
G17  22751284.600   119558808.175 7      5394.509          45.187    22751283.640   119558808.175 6      5394.509          37.375    22751286.740    93162717.294 6      4203.514          37.062    22751286.500    93162721.299 7      4203.514          46.062
R15  23449527.260   125307164.814 6      -485.084          37.500    23449527.200   125307164.804 6      -485.084          36.187    23449548.480    97461208.220 8      -377.288          48.875    23449548.340    97461207.223 8      -377.288          48.562
> 2024 05 03 16 36 24.0000000  0 16
G03  20116255.220   105711637.240 8      2248.473          49.437    20116254.600   105711637.243 8      2248.473          51.312    20116258.640    82372702.345 8      1752.057          51.500    20116259.420    82372702.345 8      1752.057          51.500
G02  22011435.620   115670869.290 7      2034.484          46.062    22011434.340   115670869.295 6      2034.484          38.687    22011435.500    90133145.487 6      1585.312          38.250
G09  24930791.500   131012191.435 6      6095.462          41.625    24930790.140   131012191.440 5      6095.462          32.687    24930812.700   102087467.755 5      4749.710          32.875    24930813.060   102087510.751 7      4749.710          42.687
G04  22608386.360   118807874.261 7      5485.989          43.812    22608385.740   118807874.271 5      5485.989          34.875    22608394.440    92577593.684 5      4274.796          34.812    22608394.680    92577596.684 8      4274.796          48.000
R02  20038675.840   106930264.405 8      1488.021          51.187    20038675.360   106930264.406 8      1488.021          50.125    20038682.020    83167970.395 8      1157.349          50.125    20038682.340    83167973.399 8      1157.349          50.625
G21  22738103.780   119489504.531 7      1341.382          45.750    22738102.200   119489504.533 6      1341.382          36.125    22738105.400    93108715.023 5      1045.233          35.875
G08  22948818.520   120596829.976 7      -247.009          45.062    22948817.280   120596829.978 7      -247.009          43.250    22948827.560    93971579.768 7      -192.474          43.125    22948828.340    93971582.774 7      -192.474          45.875
G14  22227716.540   116807441.578 7      2046.794          45.750    22227715.840   116807441.585 5      2046.794          35.250    22227720.520    91018786.763 5      1594.905          35.125    22227721.140    91018791.757 8      1594.905          49.062
R18  21815765.020   116454035.137 7      4903.251          45.000    21815765.340   116454035.130 7      4903.251          44.062    21815773.160    90575399.381 7      3813.639          47.812    21815773.420    90575401.383 7      3813.639          47.187
R17  20440903.440   109383398.015 7      3156.819          45.937    20440903.680   109383398.030 7      3156.819          46.875    20440912.320    85076017.347 8      2455.304          50.375    20440911.900    85076015.345 8      2455.304          50.062
R24  22668510.080   121218686.393 6       871.877          41.937    22668509.360   121218686.411 6       871.877          41.312    22668524.900    94281236.269 7       678.127          47.375    22668524.780    94281242.269 8       678.127          48.312
G22  23389110.600   122910602.221 7      3453.721          46.062    23389108.960   122910602.223 5      3453.721          32.375    23389112.820    95774500.622 5      2691.211          32.500
R16  23137079.360   123594121.612 7      1382.919          44.500    23137077.840   123594121.610 7      1382.919          45.000    23137088.540    96128793.332 7      1075.604          47.875    23137088.780    96128796.332 8      1075.604          48.187
R03  20244442.700   108370086.635 8      5544.393          48.250    20244442.860   108370086.663 7      5544.393          47.062    20244452.860    84287889.666 8      4312.305          50.500    20244452.840    84287887.666 8      4312.305          51.000
G17  22750258.200   119553413.902 7      5394.009          44.875    22750257.240   119553413.904 6      5394.009          37.375    22750260.180    93158513.968 6      4203.124          37.125    22750260.080    93158517.953 7      4203.124          45.687
R15  23449617.880   125307649.973 6      -485.429          37.500    23449618.280   125307649.964 6      -485.429          36.187    23449639.160    97461585.531 8      -377.556          48.562    23449638.960    97461584.532 8      -377.556          49.312
> 2024 05 03 16 36 25.0000000  0 16
G03  20115827.480   105709389.031 8      2247.896          49.000    20115826.740   105709389.033 8      2247.896          50.375    20115830.840    82370950.821 8      1751.608          51.500    20115831.700    82370950.821 8      1751.608          51.625
G02  22011048.380   115668834.806 7      2034.402          45.812    22011047.200   115668834.811 6      2034.402          38.437    22011048.480    90131560.174 6      1585.248          38.312
G09  24929631.360   131006095.885 6      6095.505          41.437    24929630.160   131006095.888 5      6095.505          32.687    24929652.720   102082717.972 5      4749.744          32.875    24929653.100   102082760.972 7      4749.744          42.437
G04  22607342.600   118802388.453 7      5485.647          44.375    22607341.700   118802388.466 5      5485.647          34.750    22607350.740    92573319.035 5      4274.530          34.625    22607350.740    92573322.045 8      4274.530          48.000
R02  20038397.080   106928776.745 8      1487.217          51.562    20038396.560   106928776.743 8      1487.217          49.812    20038403.220    83166813.324 8      1156.724          50.312    20038403.680    83166816.330 8      1156.724          50.375
G21  22737848.440   119488163.122 7      1341.354          44.812    22737846.880   119488163.122 5      1341.354          35.750    22737850.380    93107669.770 5      1045.211          35.812
G08  22948865.560   120597077.120 7      -247.338          44.812    22948864.400   120597077.125 7      -247.338          42.625    22948874.720    93971772.344 7      -192.731          43.062    22948875.540    93971775.348 7      -192.731          46.312
G14  22227327.100   116805395.096 7      2046.065          45.312    22227326.340   116805395.106 5      2046.065          35.437    22227331.080    91017192.102 5      1594.337          35.125    22227331.300    91017197.106 8      1594.337          49.562
R18  21814846.300   116449131.860 7      4903.181          44.562    21814846.760   116449131.856 7      4903.181          43.500    21814854.500    90571585.732 7      3813.586          47.687    21814854.660    90571587.726 7      3813.586          47.250
R17  20440313.940   109380241.371 7      3156.592          47.250    20440313.700   109380241.383 7      3156.592          46.812    20440322.460    85073562.181 8      2455.127          50.437    20440321.940    85073560.179 8      2455.127          50.625
R24  22668347.300   121217814.676 6       871.416          41.812    22668346.460   121217814.678 6       871.416          41.312    22668362.000    94280558.248 7       677.768          47.125    22668361.640    94280564.248 8       677.768          48.062
G22  23388453.280   122907148.909 7      3452.984          45.187    23388451.920   122907148.911 5      3452.984          32.375    23388455.500    95771809.731 5      2690.637          32.437
R16  23136819.720   123592738.975 7      1382.270          45.437    23136818.860   123592738.976 7      1382.270          44.812    23136829.920    96127717.949 7      1075.099          47.375    23136830.100    96127720.952 8      1075.099          48.687
R03  20243407.040   108364542.505 8      5543.731          48.250    20243407.040   108364542.536 7      5543.731          46.562    20243417.120    84283577.574 8      4311.791          50.437    20243417.180    84283575.575 8      4311.791          50.812
G17  22749232.000   119548019.873 7      5394.015          44.937    22749230.740   119548019.873 6      5394.015          37.000    22749233.720    93154310.831 6      4203.129          36.687    22749233.960    93154314.810 7      4203.129          47.000
R15  23449709.060   125308135.325 6      -485.521          39.750    23449709.120   125308135.329 6      -485.521          38.125    23449730.060    97461963.008 8      -377.628          48.500    23449729.860    97461962.011 8      -377.628          48.500
> 2024 05 03 16 36 26.0000000  0 16
G03  20115399.700   105707141.219 8      2247.625          49.312    20115399.000   105707141.223 8      2247.625          50.750    20115403.080    82369199.133 8      1751.396          51.812    20115404.000    82369199.133 8      1751.396          51.625
G02  22010661.460   115666800.250 7      2034.674          46.250    22010660.020   115666800.253 6      2034.674          38.812    22010661.160    90129974.803 6      1585.460          38.625
G09  24928471.060   131000000.039 6      6096.074          41.312    24928470.340   131000000.044 5      6096.074          32.750    24928492.680   102077967.954 5      4750.188          32.875    24928492.780   102078010.950 7      4750.188          42.250
G04  22606298.680   118796902.711 7      5485.811          44.375    22606297.800   118796902.721 5      5485.811          34.125    22606306.780    92569044.437 5      4274.658          34.625    22606307.320    92569047.439 7      4274.658          47.750
R02  20038118.340   106927289.799 8      1486.676          51.375    20038118.040   106927289.800 8      1486.676          49.750    20038124.660    83165656.808 8      1156.304          50.312    20038124.920    83165659.814 8      1156.304          50.375
G21  22737593.280   119486821.599 7      1341.598          46.062    22737591.620   119486821.598 5      1341.598          35.750    22737595.200    93106624.427 5      1045.401          35.562
G08  22948912.460   120597324.412 7      -247.247          44.750    22948911.480   120597324.414 7      -247.247          42.812    22948921.740    93971965.026 7      -192.660          43.187    22948922.600    93971968.032 7      -192.660          46.000
G14  22226937.660   116803349.056 7      2045.814          45.500    22226936.960   116803349.069 5      2045.814          35.187    22226941.840    91015597.785 5      1594.141          35.187    22226942.100    91015602.779 8      1594.141          49.562
R18  21813927.840   116444228.410 7      4903.565          43.437    21813928.080   116444228.403 7      4903.565          43.937    21813936.100    90567771.929 8      3813.884          48.062    21813935.900    90567773.920 7      3813.884          47.625
R17  20439723.840   109377084.790 7      3156.611          47.625    20439723.820   109377084.803 7      3156.611          46.812    20439732.680    85071107.060 8      2455.142          50.312    20439732.420    85071105.059 8      2455.142          50.687
R24  22668184.260   121216943.021 6       871.583          41.875    22668182.940   121216943.030 7       871.583          42.062    22668198.880    94279880.290 7       677.898          47.687    22668198.860    94279886.294 7       677.898          47.875
G22  23387796.340   122903695.980 7      3452.764          44.250    23387794.860   122903695.987 5      3452.764          32.312    23387798.540    95769119.143 5      2690.465          32.437
R16  23136561.320   123591356.894 7      1381.936          45.687    23136560.580   123591356.889 7      1381.936          44.812    23136571.320    96126642.987 8      1074.839          48.000    23136571.400    96126645.990 7      1074.839          47.875
R03  20242371.300   108358998.892 7      5543.425          47.312    20242371.180   108358998.918 7      5543.425          46.937    20242381.440    84279265.872 8      4311.553          50.562    20242381.560    84279263.874 8      4311.553          50.312
G17  22748205.440   119542625.895 7      5394.038          44.437    22748204.280   119542625.895 6      5394.038          37.375    22748207.180    93150107.733 6      4203.147          36.875    22748208.360    93150111.724 8      4203.147          48.437
R15  23449800.620   125308620.640 6      -485.238          39.750    23449799.740   125308620.627 6      -485.238          38.125    23449820.820    97462340.431 7      -377.407          47.750    23449820.680    97462339.434 8      -377.407          48.687
> 2024 05 03 16 36 27.0000000  0 16
G03  20114972.200   105704893.937 8      2246.933          49.312    20114971.380   105704893.939 8      2246.933          51.062    20114975.480    82367448.592 8      1750.857          51.750    20114976.320    82367448.592 8      1750.857          51.562
G02  22010274.380   115664765.774 7      2034.317          46.687    22010272.840   115664765.779 6      2034.317          38.500    22010273.900    90128389.496 6      1585.182          38.125
G09  24927311.120   130993904.090 6      6095.971          41.562    24927310.360   130993904.100 5      6095.971          32.750    24927332.660   102073217.862 5      4750.107          32.875    24927332.940   102073260.864 7      4750.107          42.250
G04  22605254.700   118791417.182 7      5485.321          44.312    22605253.860   118791417.197 5      5485.321          34.125    22605262.860    92564770.009 5      4274.276          34.000    22605263.240    92564773.015 8      4274.276          48.250
R02  20037839.660   106925803.744 8      1485.505          51.062    20037839.540   106925803.745 8      1485.505          49.875    20037846.160    83164500.992 8      1155.393          50.125    20037846.580    83164503.994 8      1155.393          50.312
G21  22737337.820   119485480.093 7      1341.428          46.437    22737336.200   119485480.093 5      1341.428          35.437    22737339.900    93105579.092 5      1045.269          35.812
G08  22948959.620   120597571.977 7      -247.789          44.937    22948958.580   120597571.987 7      -247.789          43.187    22948968.820    93972157.930 7      -193.083          43.062    22948969.600    93972160.934 7      -193.083          46.062
G14  22226548.500   116801303.589 7      2045.161          46.250    22226547.960   116801303.601 5      2045.161          35.187    22226552.440    91014003.912 5      1593.632          34.875    22226552.840    91014008.908 8      1593.632          49.750
R18  21813009.440   116439324.909 7      4903.503          44.000    21813008.860   116439324.912 7      4903.503          43.937    21813017.780    90563958.105 8      3813.835          48.000    21813017.540    90563960.101 8      3813.835          48.187
R17  20439134.140   109373928.437 7      3156.062          47.375    20439133.820   109373928.455 7      3156.062          46.437    20439142.740    85068652.119 8      2454.715          50.375    20439142.300    85068650.120 8      2454.715          50.687
R24  22668021.400   121216071.640 6       871.169          41.875    22668020.200   121216071.652 7       871.169          42.062    22668035.960    94279202.543 7       677.576          47.500    22668035.780    94279208.545 7       677.576          47.937
G22  23387139.300   122900243.605 7      3452.087          44.062    23387138.000   122900243.613 5      3452.087          32.312    23387141.660    95766428.977 5      2689.938          32.437
R16  23136303.080   123589975.459 7      1381.041          45.437    23136302.020   123589975.462 7      1381.041          44.375    23136312.860    96125568.542 7      1074.143          47.625    23136312.920    96125571.542 8      1074.143          48.375
R03  20241335.660   108353455.943 8      5542.508          48.125    20241335.740   108353455.976 7      5542.508          46.625    20241346.140    84274954.702 8      4310.840          50.437    20241346.060    84274952.702 8      4310.840          51.250
G17  22747179.000   119537232.050 7      5393.638          44.500    22747177.840   119537232.055 6      5393.638          37.000    22747180.900    93145904.741 6      4202.834          37.187    22747182.020    93145908.752 8      4202.834          48.187
R15  23449891.800   125309105.992 6      -485.380          41.125    23449891.040   125309105.974 6      -485.380          38.125    23449911.760    97462717.896 7      -377.518          47.812    23449911.580    97462716.897 8      -377.518          48.375
> 2024 05 03 16 36 28.0000000  0 16
G03  20114544.600   105702647.286 8      2246.280          49.687    20114543.900   105702647.288 8      2246.280          50.625    20114547.940    82365697.642 8      1750.348          51.437    20114548.900    82365697.642 8      1750.348          51.437
G02  22009887.320   115662731.450 7      2034.158          47.000    22009885.800   115662731.457 6      2034.158          38.687    22009886.820    90126804.311 6      1585.058          38.500
G09  24926151.220   130987808.149 6      6095.851          41.687    24926150.260   130987808.154 5      6095.851          32.750    24926172.540   102068467.766 5      4750.014          32.875    24926172.840   102068510.758 7      4750.014          42.625
G04  22604210.820   118785931.981 7      5484.976          44.875    22604210.060   118785931.991 5      5484.976          34.062    22604218.960    92560495.833 5      4274.007          34.000    22604219.340    92560498.837 8      4274.007          48.187
R02  20037561.540   106924318.653 8      1484.533          51.187    20037561.180   106924318.651 8      1484.533          49.750    20037567.840    83163345.917 8      1154.637          50.187    20037568.160    83163348.923 8      1154.637          50.250
G21  22737082.300   119484138.727 7      1341.166          46.562    22737081.080   119484138.727 5      1341.166          35.500    22737084.600    93104533.871 5      1045.065          35.812
G08  22949006.780   120597819.972 7      -248.370          45.500    22949005.900   120597819.975 7      -248.370          43.250    22949016.020    93972351.161 7      -193.535          43.125    22949016.820    93972354.163 7      -193.535          46.062
G14  22226159.360   116799258.802 7      2044.420          45.125    22226158.840   116799258.812 5      2044.420          35.500    22226163.260    91012410.568 5      1593.054          35.187    22226163.980    91012415.568 8      1593.054          49.937
R18  21812090.660   116434421.520 7      4903.358          42.812    21812090.700   116434421.520 7      4903.358          44.437    21812099.100    90560144.358 7      3813.723          47.750    21812099.060    90560146.356 8      3813.723          48.187
R17  20438544.100   109370772.416 8      3155.831          48.250    20438543.860   109370772.431 7      3155.831          46.687    20438552.980    85066197.436 8      2454.535          50.875    20438552.600    85066195.434 8      2454.535          50.625
R24  22667858.240   121215200.645 7       870.758          42.250    22667857.460   121215200.649 6       870.758          41.812    22667873.180    94278525.088 7       677.256          47.000    22667872.900    94278531.088 8       677.256          48.250
G22  23386482.460   122896791.843 7      3451.361          45.125    23386481.200   122896791.853 5      3451.361          32.312    23386484.860    95763739.297 5      2689.373          32.500
R16  23136044.760   123588594.708 7      1380.284          45.187    23136043.820   123588594.714 7      1380.284          45.000    23136054.560    96124494.624 7      1073.554          47.937    23136054.600    96124497.627 8      1073.554          48.125
R03  20240300.180   108347913.759 8      5541.667          48.000    20240300.400   108347913.787 7      5541.667          46.812    20240310.820    84270644.117 8      4310.185          50.500    20240310.640    84270642.116 8      4310.185          50.750
G17  22746152.640   119531838.426 7      5393.493          44.562    22746151.480   119531838.429 6      5393.493          36.875    22746154.500    93141701.915 6      4202.722          36.750    22746155.380    93141705.937 7      4202.722          47.312
R15  23449982.820   125309591.493 6      -485.653          41.125    23449981.980   125309591.489 6      -485.653          40.125    23450002.540    97463095.490 8      -377.730          48.187    23450002.480    97463094.489 8      -377.730          48.437
> 2024 05 03 16 36 29.0000000  0 16
G03  20114117.020   105700401.010 8      2245.979          49.625    20114116.440   105700401.012 8      2245.979          50.812    20114120.460    82363946.773 8      1750.113          51.062    20114121.500    82363946.773 8      1750.113          51.250
G02  22009500.260   115660697.081 7      2034.211          47.687    22009498.640   115660697.089 6      2034.211          38.187    22009499.800    90125219.086 6      1585.099          37.875
G09  24924991.260   130981711.956 6      6096.257          41.125    24924990.180   130981711.958 5      6096.257          32.875    24925012.420   102063717.475 5      4750.330          33.187    24925012.700   102063760.471 7      4750.330          42.500
G04  22603167.020   118780446.899 7      5484.956          43.812    22603166.120   118780446.909 5      5484.956          34.062    22603175.320    92556221.751 5      4273.992          33.937    22603175.620    92556224.767 7      4273.992          47.937
R02  20037283.480   106922834.271 8      1483.908          50.937    20037283.000   106922834.269 8      1483.908          49.875    20037289.620    83162191.402 8      1154.151          50.625    20037290.000    83162194.403 8      1154.151          50.437
G21  22736827.040   119482797.248 7      1341.374          45.750    22736825.860   119482797.247 5      1341.374          35.937    22736829.500    93103488.561 5      1045.226          35.812
G08  22949054.260   120598068.133 7      -248.317          44.437    22949053.100   120598068.136 7      -248.317          42.937    22949063.360    93972544.527 7      -193.494          42.937    22949064.220    93972547.533 7      -193.494          46.062
G14  22225770.460   116797214.419 7      2044.006          44.812    22225769.900   116797214.430 5      2044.006          35.312    22225774.400    91010817.540 5      1592.732          35.062    22225775.100    91010822.543 8      1592.732          49.562
R18  21811172.480   116429517.922 7      4903.553          43.375    21811172.180   116429517.926 7      4903.553          44.500    21811180.700    90556330.455 8      3813.875          48.437    21811180.340    90556332.459 8      3813.875          48.437
R17  20437954.560   109367616.529 7      3155.735          47.375    20437954.440   109367616.541 7      3155.735          47.375    20437963.260    85063742.857 8      2454.460          50.562    20437962.980    85063740.855 8      2454.460          50.875
R24  22667695.540   121214329.826 7       870.610          42.062    22667694.440   121214329.844 6       870.610          41.812    22667710.480    94277847.791 7       677.141          47.250    22667709.960    94277853.789 8       677.141          48.125
G22  23385825.720   122893340.441 7      3450.911          44.562    23385824.420   122893340.451 5      3450.911          32.500    23385827.980    95761049.895 5      2689.021          32.500
R16  23135786.020   123587214.354 7      1380.007          45.437    23135784.980   123587214.361 7      1380.007          45.000    23135796.000    96123421.016 8      1073.339          48.187    23135796.220    96123424.017 8      1073.339          48.812
R03  20239265.280   108342372.105 8      5541.220          48.000    20239265.280   108342372.131 7      5541.220          47.500    20239275.680    84266333.946 8      4309.838          50.750    20239275.620    84266331.945 8      4309.838          50.937
G17  22745126.080   119526444.784 7      5393.535          44.937    22745125.080   119526444.784 6      5393.535          37.500    22745128.080    93137499.079 6      4202.754          37.062    22745128.420    93137503.093 7      4202.754          47.250
R15  23450073.320   125310076.944 7      -485.536          42.312    23450073.440   125310076.937 6      -485.536          40.125    23450093.200    97463473.031 7      -377.639          47.750    23450093.340    97463472.034 7      -377.639          47.812
> 2024 05 03 16 36 30.0000000  0 16
G03  20113689.880   105698155.313 8      2245.406          49.812    20113689.100   105698155.315 8      2245.406          50.812    20113693.120    82362197.706 8      1749.667          51.375    20113694.140    82362197.706 8      1749.667          51.437
G02  22009113.040   115658662.786 7      2034.225          47.500    22009111.480   115658662.794 6      2034.225          38.625    22009112.720    90123633.923 6      1585.111          38.625
G09  24923831.400   130975615.652 7      6096.441          42.125    24923830.120   130975615.657 5      6096.441          32.875    24923852.400   102058967.103 5      4750.474          33.187    24923852.900   102059010.103 7      4750.474          42.500
G04  22602123.180   118774962.053 7      5484.741          44.500    22602122.380   118774962.058 5      5484.741          34.312    22602131.660    92551947.851 5      4273.824          33.937    22602131.980    92551950.863 8      4273.824          48.187
R02  20037004.980   106921350.740 8      1483.076          51.000    20037004.900   106921350.738 8      1483.076          49.375    20037011.760    83161037.543 8      1153.504          49.875    20037012.180    83161040.544 8      1153.504          50.437
G21  22736571.780   119481455.792 7      1341.535          46.062    22736570.420   119481455.794 5      1341.535          35.562    22736574.140    93102443.273 5      1045.352          35.812
G08  22949101.660   120598316.573 7      -248.492          44.500    22949100.440   120598316.581 7      -248.492          43.562    22949110.580    93972738.110 7      -193.630          43.312    22949111.540    93972741.116 7      -193.630          46.437
G14  22225381.500   116795170.657 7      2043.425          45.000    22225380.840   116795170.667 5      2043.425          35.187    22225385.460    91009224.994 5      1592.279          34.875    22225386.060    91009229.999 8      1592.279          49.562
R18  21810253.480   116424614.349 7      4903.656          43.437    21810253.500   116424614.337 7      4903.656          44.187    21810262.180    90552516.557 7      3813.954          47.812    21810262.160    90552518.563 8      3813.954          48.125
R17  20437364.260   109364460.879 7      3155.616          47.875    20437364.620   109364460.892 7      3155.616          46.562    20437373.540    85061288.463 8      2454.368          50.062    20437372.920    85061286.461 8      2454.368          50.187
R24  22667533.040   121213459.256 7       870.491          42.062    22667532.340   121213459.263 6       870.491          41.500    22667547.420    94277170.658 7       677.049          47.187    22667547.500    94277176.656 7       677.049          47.937
G22  23385168.920   122889889.620 7      3450.464          44.500    23385167.940   122889889.630 5      3450.464          32.500    23385171.200    95758360.941 5      2688.674          32.875
R16  23135528.000   123585834.688 7      1379.300          45.250    23135527.040   123585834.702 7      1379.300          45.000    23135537.780    96122347.940 7      1072.789          47.750    23135538.080    96122350.941 8      1072.789          48.562
R03  20238230.220   108336831.104 7      5540.701          47.937    20238230.180   108336831.130 7      5540.701          46.687    20238240.560    84262024.283 8      4309.434          50.687    20238240.140    84262022.280 8      4309.434          50.812
G17  22744099.480   119521051.336 7      5393.435          45.687    22744098.720   119521051.331 6      5393.435          37.250    22744101.820    93133296.391 6      4202.677          37.312    22744102.140    93133300.377 7      4202.677          46.187
R15  23450163.920   125310562.531 7      -485.709          42.312    23450164.100   125310562.529 6      -485.709          41.375    23450184.140    97463850.685 7      -377.774          47.437    23450184.740    97463849.688 7      -377.774          47.125
> 2024 05 03 16 36 31.0000000  0 17
G03  20113262.500   105695910.233 8      2244.889          49.125    20113261.860   105695910.235 8      2244.889          49.937    20113265.940    82360447.657 8      1749.264          50.250    20113266.740    82360447.657 8      1749.264          51.375
G02  22008726.060   115656628.656 7      2034.099          47.000    22008724.440   115656628.664 6      2034.099          38.187    22008725.500    90122048.887 6      1585.012          38.187
G09  24922670.960   130969519.338 7      6096.541          42.187    24922670.100   130969519.343 5      6096.541          32.375    24922692.420   102054216.724 5      4750.551          32.625    24922692.500   102054259.724 7      4750.551          42.562
G04  22601079.320   118769477.511 7      5484.516          44.375    22601078.580   118769477.514 5      5484.516          34.125    22601087.840    92547674.190 5      4273.649          33.937    22601088.000    92547677.196 7      4273.649          47.375
R02  20036727.560   106919868.133 8      1482.208          50.562    20036726.920   106919868.128 8      1482.208          49.562    20036733.980    83159884.399 8      1152.828          48.937    20036734.440    83159887.401 8      1152.828          49.062
G21  22736316.560   119480114.471 7      1341.440          45.750    22736315.140   119480114.470 5      1341.440          35.625    22736319.060    93101398.087 5      1045.278          35.687
G08  22949148.920   120598565.415 7      -248.835          45.375    22949147.860   120598565.417 7      -248.835          43.312    22949157.920    93972932.005 7      -193.898          43.062    22949159.000    93972935.002 7      -193.898          45.937
G14  22224992.500   116793127.578 7      2042.821          45.500    22224992.160   116793127.589 5      2042.821          35.250    22224996.900    91007632.981 5      1591.808          34.875    22224997.140    91007637.989 8      1591.808          49.312
R18  21809335.180   116419710.821 7      4903.704          44.125    21809334.580   116419710.817 7      4903.704          44.187    21809343.460    90548702.708 7      3813.992          47.312    21809343.500    90548704.718 7      3813.992          47.312
R17  20436775.020   109361305.551 7      3155.314          47.812    20436775.100   109361305.566 7      3155.314          46.875    20436784.060    85058834.321 8      2454.133          49.062    20436783.740    85058832.323 8      2454.133          49.812
R24  22667370.020   121212589.044 6       870.168          41.937    22667369.160   121212589.054 7       870.168          42.000    22667384.800    94276493.822 7       676.798          46.812    22667384.640    94276499.822 7       676.798          47.375
G22  23384512.240   122886439.426 7      3450.087          44.375    23384511.260   122886439.434 5      3450.087          32.625    23384514.740    95755672.476 5      2688.380          32.875
R16  23135269.380   123584455.724 7      1378.813          45.687    23135268.920   123584455.738 7      1378.813          45.000    23135279.700    96121275.408 7      1072.410          47.375    23135279.440    96121278.409 7      1072.410          47.875
R03  20237195.120   108331290.885 7      5539.959          47.437    20237194.920   108331290.905 7      5539.959          46.562    20237205.680    84257715.225 8      4308.857          49.687    20237205.220    84257713.225 8      4308.857          49.625
R01  23470756.720   125464647.310 6     -1293.054          40.187
G17  22743073.120   119515658.128 7      5393.160          44.625    22743072.420   119515658.130 6      5393.160          37.375    22743075.540    93129093.894 6      4202.462          36.625    22743075.920    93129097.885 7      4202.462          47.250
R15  23450254.520   125311048.316 7      -485.718          42.625    23450255.080   125311048.317 7      -485.718          42.062    23450275.080    97464228.497 7      -377.781          47.250    23450275.240    97464227.494 7      -377.781          46.562
> 2024 05 03 16 36 32.0000000  0 17
G03  20112835.360   105693665.455 8      2244.607          49.687    20112834.660   105693665.457 8      2244.607          51.375    20112838.720    82358698.590 8      1749.044          51.562    20112839.660    82358698.590 8      1749.044          51.312
G02  22008338.920   115654594.377 7      2034.246          47.375    22008337.260   115654594.387 6      2034.246          38.437    22008338.440    90120463.734 6      1585.127          38.500
G09  24921510.820   130963422.659 7      6096.719          42.437    24921509.820   130963422.661 5      6096.719          32.375    24921532.140   102049466.056 5      4750.690          32.625    24921532.480   102049509.061 6      4750.690          41.687
G04  22600035.640   118763992.957 7      5484.369          43.812    22600035.000   118763992.962 5      5484.369          34.125    22600044.000    92543400.522 5      4273.535          33.937    22600044.440    92543403.532 8      4273.535          48.000
R02  20036449.940   106918386.147 8      1481.621          50.812    20036449.360   106918386.142 8      1481.621          49.562    20036456.020    83158731.744 8      1152.372          50.375    20036456.560    83158734.741 8      1152.372          50.625
G21  22736061.220   119478772.960 7      1341.554          45.812    22736059.880   119478772.962 5      1341.554          35.625    22736063.680    93100352.752 5      1045.367          35.625
G08  22949196.240   120598814.320 7      -249.059          45.000    22949195.280   120598814.324 7      -249.059          43.250    22949205.580    93973125.948 7      -194.072          43.312    22949206.280    93973128.954 7      -194.072          46.500
G14  22224603.920   116791084.833 7      2042.313          45.937    22224603.480   116791084.846 5      2042.313          35.375    22224608.200    91006041.231 5      1591.413          34.750    22224608.680    91006046.229 8      1591.413          49.625
R18  21808416.560   116414807.061 7      4903.791          42.812    21808415.840   116414807.070 7      4903.791          44.437    21808424.680    90544888.687 8      3814.060          48.062    21808424.540    90544890.693 8      3814.060          48.000
R17  20436185.180   109358150.252 8      3155.222          48.250    20436185.380   109358150.267 7      3155.222          46.875    20436194.240    85056380.198 8      2454.062          49.937    20436193.820    85056378.196 8      2454.062          51.125
R24  22667207.260   121211718.886 6       870.075          41.937    22667206.420   121211718.901 7       870.075          42.000    22667222.220    94275817.026 7       676.725          47.125    22667221.840    94275823.024 7       676.725          47.937
G22  23383855.540   122882989.522 7      3449.602          45.250    23383854.820   122882989.534 5      3449.602          32.625    23383858.180    95752984.241 5      2688.002          32.437
R16  23135011.500   123583077.176 7      1378.186          45.187    23135010.900   123583077.182 7      1378.186          44.812    23135021.480    96120203.198 8      1071.922          48.312    23135021.500    96120206.199 8      1071.922          49.000
R03  20236160.480   108325751.081 7      5539.435          47.500    20236160.040   108325751.109 7      5539.435          46.750    20236170.700    84253406.501 8      4308.450          50.312    20236170.800    84253404.503 8      4308.450          49.812
R01  23470998.600   125465940.372 6     -1293.152          40.187
G17  22742047.080   119510264.803 7      5393.289          45.250    22742046.100   119510264.805 6      5393.289          37.125    22742049.260    93124891.308 6      4202.563          37.000    22742049.760    93124895.303 7      4202.563          47.687
R15  23450345.660   125311533.906 7      -485.692          43.500    23450346.200   125311533.901 7      -485.692          42.062    23450365.980    97464606.149 7      -377.761          47.500    23450365.920    97464605.150 7      -377.761          47.062
> 2024 05 03 16 36 33.0000000  0 17
G03  20112408.380   105691421.287 8      2243.828          50.125    20112407.660   105691421.289 8      2243.828          50.437    20112411.680    82356950.178 8      1748.437          51.312    20112412.540    82356950.178 8      1748.437          51.375
G02  22007951.800   115652560.226 7      2034.015          46.750    22007950.180   115652560.229 6      2034.015          38.250    22007951.360    90118878.676 6      1584.946          38.312
G09  24920350.760   130957325.898 6      6096.768          41.625    24920349.600   130957325.898 5      6096.768          32.500    24920371.900   102044715.328 5      4750.729          32.812    24920372.280   102044758.326 6      4750.729          41.687
G04  22598992.120   118758508.623 7      5484.215          44.250    22598991.120   118758508.631 5      5484.215          33.625    22599000.340    92539127.021 5      4273.414          33.687    22599000.760    92539130.035 7      4273.414          47.812
R02  20036172.160   106916905.103 8      1480.496          51.000    20036171.680   106916905.101 8      1480.496          49.500    20036178.680    83157579.823 8      1151.497          50.500    20036179.080    83157582.822 8      1151.497          50.562
G21  22735806.020   119477431.531 7      1341.287          45.312    22735804.400   119477431.536 5      1341.287          35.625    22735808.620    93099307.478 5      1045.159          35.750
G08  22949244.000   120599063.516 7      -249.397          44.375    22949242.720   120599063.518 7      -249.397          43.500    22949252.980    93973320.121 7      -194.335          43.375    22949253.760    93973323.125 7      -194.335          46.312
G14  22224215.440   116789042.697 7      2041.765          45.937    22224214.700   116789042.713 5      2041.765          35.500    22224219.420    91004449.957 5      1590.986          35.312    22224220.000    91004454.957 8      1590.986          49.687
R18  21807498.220   116409903.379 7      4903.486          43.062    21807497.580   116409903.385 7      4903.486          44.812    21807505.760    90541074.707 8      3813.822          48.375    21807505.800    90541076.711 7      3813.822          47.875
R17  20435595.820   109354995.221 8      3154.760          48.250    20435595.740   109354995.233 7      3154.760          46.937    20435604.660    85053926.282 8      2453.702          50.375    20435604.120    85053924.283 8      2453.702          50.812
R24  22667044.660   121210849.041 7       869.667          42.312    22667043.860   121210849.039 7       869.667          42.000    22667059.420    94275140.459 7       676.408          47.250    22667059.420    94275146.459 7       676.408          47.687
G22  23383199.480   122879540.258 7      3448.795          44.937    23383198.380   122879540.268 5      3448.795          32.437    23383201.900    95750296.501 5      2687.373          32.437
R16  23134753.700   123581699.336 7      1377.380          44.687    23134752.860   123581699.340 7      1377.380          44.750    23134763.500    96119131.539 8      1071.296          48.312    23134763.780    96119134.537 8      1071.296          49.187
R03  20235125.560   108320211.994 8      5538.656          48.562    20235125.220   108320212.022 7      5538.656          46.687    20235136.040    84249098.326 8      4307.843          50.625    20235136.080    84249096.326 8      4307.843          50.875
R01  23471240.300   125467233.822 6     -1293.684          40.187
G17  22741020.820   119504871.718 7      5392.963          45.125    22741019.960   119504871.720 6      5392.963          37.375    22741023.120    93120688.904 6      4202.309          36.937    22741023.660    93120692.909 7      4202.309          47.687
R15  23450436.260   125312019.594 7      -485.920          44.312    23450437.140   125312019.598 7      -485.920          42.937    23450456.920    97464983.884 7      -377.938          46.687    23450456.820    97464982.885 7      -377.938          47.000
> 2024 05 03 16 36 34.0000000  0 17
G03  20111981.320   105689177.731 8      2243.308          50.000    20111980.720   105689177.733 8      2243.308          51.125    20111984.720    82355201.439 8      1748.032          51.250    20111985.520    82355201.439 8      1748.032          51.562
G02  22007564.620   115650526.257 7      2033.930          47.000    22007563.180   115650526.257 6      2033.930          38.500    22007564.360    90117293.765 6      1584.881          38.187
G09  24919190.380   130951229.150 6      6096.861          41.500    24919189.480   130951229.147 6      6096.861          37.062    24919211.780   102039964.605 6      4750.801          37.000    24919211.880   102040007.587 6      4750.801          41.687
G04  22597948.480   118753024.689 7      5483.811          44.000    22597947.500   118753024.702 5      5483.811          33.625    22597956.820    92534853.836 5      4273.099          33.687    22597956.880    92534856.854 7      4273.099          47.437
R02  20035894.600   106915425.054 8      1479.562          51.062    20035894.220   106915425.058 8      1479.562          49.937    20035901.260    83156428.678 8      1150.770          50.125    20035901.740    83156431.675 8      1150.770          50.500
G21  22735550.800   119476090.233 7      1341.280          45.187    22735549.160   119476090.235 5      1341.280          35.750    22735553.180    93098262.307 5      1045.153          35.750
G08  22949291.320   120599313.183 7      -249.852          45.812    22949290.220   120599313.188 7      -249.852          43.437    22949300.600    93973514.658 7      -194.690          43.500    22949301.180    93973517.664 7      -194.690          46.437
G14  22223827.060   116787001.245 7      2041.234          46.062    22223826.220   116787001.258 5      2041.234          35.312    22223831.080    91002859.210 5      1590.572          34.875    22223831.560    91002864.202 8      1590.572          49.812
R18  21806579.600   116404999.693 7      4903.733          44.062    21806579.460   116404999.692 7      4903.733          44.500    21806587.060    90537260.724 7      3814.014          47.687    21806587.060    90537262.726 7      3814.014          47.812
R17  20435006.080   109351840.498 8      3154.680          48.375    20435006.180   109351840.504 7      3154.680          46.750    20435015.120    85051472.604 8      2453.640          50.375    20435014.840    85051470.603 8      2453.640          50.625
R24  22666882.060   121209979.601 7       869.347          43.187    22666881.020   121209979.600 7       869.347          42.000    22666897.040    94274464.222 7       676.159          47.187    22666896.920    94274470.218 7       676.159          47.875
G22  23382543.260   122876091.562 7      3448.386          45.000    23382542.000   122876091.567 5      3448.386          32.437    23382545.680    95747609.204 5      2687.054          32.437
R16  23134496.120   123580322.201 7      1376.881          45.250    23134495.100   123580322.200 7      1376.881          44.875    23134505.520    96118060.428 8      1070.907          48.375    23134506.020    96118063.426 8      1070.907          48.625
R03  20234090.780   108314673.683 7      5538.077          47.687    20234090.800   108314673.711 7      5538.077          46.812    20234101.500    84244790.753 8      4307.393          50.500    20234101.140    84244788.757 8      4307.393          51.375
R01  23471481.900   125468527.643 6     -1293.916          40.500
G17  22739994.440   119499478.840 7      5392.858          45.375    22739993.840   119499478.840 6      5392.858          37.187    22739996.720    93116486.666 6      4202.227          36.687    22739997.440    93116490.671 7      4202.227          47.375
R15  23450527.540   125312505.432 7      -485.787          44.437    23450528.540   125312505.431 7      -485.787          43.187    23450547.680    97465361.725 7      -377.835          46.687    23450547.720    97465360.726 7      -377.835          47.062
> 2024 05 03 16 36 35.0000000  0 17
G03  20111554.520   105686934.585 8      2242.723          50.375    20111553.860   105686934.587 8      2242.723          50.937    20111557.940    82353453.764 8      1747.577          51.437    20111558.840    82353453.764 8      1747.577          51.312
G02  22007177.520   115648492.227 7      2033.841          47.062    22007176.120   115648492.229 6      2033.841          39.062    22007177.320    90115708.806 6      1584.811          38.937
G09  24918030.300   130945132.124 6      6097.003          41.125    24918029.260   130945132.124 6      6097.003          37.000    24918051.600   102035213.671 6      4750.912          37.125    24918051.320   102035256.675 6      4750.912          40.562
G04  22596905.040   118747540.823 7      5483.708          43.750    22596904.000   118747540.833 5      5483.708          33.687    22596913.440    92530580.704 5      4273.019          33.875    22596913.460    92530583.712 8      4273.019          48.125
R02  20035617.380   106913945.731 8      1478.765          51.000    20035616.980   106913945.729 8      1478.765          49.562    20035624.040    83155278.089 8      1150.150          50.625    20035624.460    83155281.087 8      1150.150          50.437
G21  22735295.800   119474748.838 7      1341.255          45.875    22735293.860   119474748.843 5      1341.255          35.750    22735297.920    93097217.070 6      1045.134          36.000
G08  22949338.580   120599562.978 7      -250.009          45.375    22949337.860   120599562.983 7      -250.009          43.625    22949348.080    93973709.298 7      -194.812          43.875    22949348.740    93973712.304 7      -194.812          46.562
G14  22223438.420   116784960.218 7      2040.646          46.187    22223437.860   116784960.228 5      2040.646          35.312    22223442.560    91001268.794 5      1590.114          35.187    22223443.260    91001273.792 8      1590.114          50.187
R18  21805660.660   116400095.875 7      4903.640          45.250    21805660.700   116400095.857 7      4903.640          44.687    21805668.220    90533446.634 7      3813.942          47.375    21805668.480    90533448.636 7      3813.942          47.875
R17  20434416.600   109348685.897 8      3154.366          48.375    20434416.300   109348685.915 7      3154.366          47.375    20434425.480    85049019.034 8      2453.396          50.250    20434425.260    85049017.035 8      2453.396          50.687
R24  22666719.460   121209110.317 7       869.017          43.187    22666719.020   121209110.319 7       869.017          42.000    22666734.360    94273788.102 7       675.902          46.750    22666734.340    94273794.100 7       675.902          47.437
G22  23381887.040   122872643.276 7      3447.849          46.250    23381885.720   122872643.281 5      3447.849          32.875    23381889.380    95744922.225 5      2686.636          32.625
R16  23134238.320   123578945.580 7      1376.134          44.875    23134236.880   123578945.583 7      1376.134          44.375    23134247.900    96116989.722 8      1070.326          48.250    23134248.240    96116992.725 8      1070.326          48.562
R03  20233056.520   108309135.894 8      5537.388          48.250    20233056.460   108309135.920 7      5537.388          46.562    20233067.060    84240483.590 8      4306.857          50.687    20233066.820    84240481.592 8      4306.857          50.375
R01  23471724.020   125469821.673 6     -1294.440          40.500
G17  22738968.360   119494085.970 7      5392.620          46.437    22738967.640   119494085.967 6      5392.620          37.312    22738970.440    93112284.425 6      4202.042          36.875    22738970.880    93112288.430 7      4202.042          46.687
R15  23450618.140   125312991.247 7      -485.968          44.562    23450619.240   125312991.248 7      -485.968          43.187    23450638.500    97465739.559 7      -377.975          46.375    23450638.640    97465738.567 7      -377.975          47.187
> 2024 05 03 16 36 36.0000000  0 17
G03  20111127.720   105684692.054 8      2242.327          50.062    20111127.060   105684692.059 8      2242.327          50.687    20111131.140    82351706.090 8      1747.267          51.187    20111132.080    82351706.090 8      1747.267          51.625
G02  22006790.700   115646458.352 7      2033.931          46.937    22006789.080   115646458.360 6      2033.931          38.250    22006790.180    90114123.971 6      1584.882          38.250
G09  24916870.340   130939035.059 6      6097.185          41.062    24916869.020   130939035.064 6      6097.185          37.125    24916891.480   102030462.705 6      4751.053          36.875    24916891.800   102030505.705 6      4751.053          40.562
G04  22595861.380   118742057.230 7      5483.637          43.875    22595860.640   118742057.238 5      5483.637          33.687    22595869.820    92526307.781 5      4272.964          33.875    22595869.980    92526310.786 7      4272.964          47.437
R02  20035340.400   106912467.339 8      1478.109          50.812    20035340.000   106912467.340 8      1478.109          49.875    20035346.900    83154128.231 8      1149.640          49.875    20035347.440    83154131.230 8      1149.640          50.437
G21  22735040.480   119473407.558 7      1341.304          45.500    22735038.620   119473407.558 5      1341.304          35.750    22735042.820    93096171.911 5      1045.172          35.625
G08  22949386.320   120599813.126 7      -250.213          45.312    22949385.440   120599813.125 7      -250.213          43.875    22949395.740    93973904.208 7      -194.971          43.437    22949396.660    93973907.208 7      -194.971          46.500
G14  22223050.440   116782919.901 7      2040.109          45.062    22223049.580   116782919.908 5      2040.109          35.187    22223054.340    90999678.932 5      1589.695          35.187    22223054.980    90999683.930 8      1589.695          50.062
R18  21804742.040   116395192.133 7      4903.815          44.812    21804742.000   116395192.121 7      4903.815          44.437    21804749.740    90529632.617 7      3814.079          47.187    21804749.840    90529634.615 7      3814.079          47.500
R17  20433827.360   109345531.661 7      3154.236          47.500    20433827.060   109345531.675 7      3154.236          46.625    20433836.160    85046565.737 8      2453.294          50.375    20433835.880    85046563.736 8      2453.294          50.125
R24  22666556.720   121208241.368 7       868.800          42.375    22666556.180   121208241.369 7       868.800          42.000    22666571.900    94273112.248 7       675.733          47.250    22666571.840    94273118.246 7       675.733          47.750
G22  23381231.000   122869195.645 7      3447.486          45.437    23381229.660   122869195.650 5      3447.486          32.875    23381233.300    95742235.759 5      2686.353          32.625
R16  23133980.580   123577569.706 7      1375.637          45.250    23133979.320   123577569.712 7      1375.637          44.687    23133990.100    96115919.598 8      1069.940          48.250    23133990.800    96115922.598 8      1069.940          48.250
R03  20232022.240   108303598.814 7      5536.868          47.687    20232022.240   108303598.840 7      5536.868          46.000    20232032.620    84236176.979 8      4306.453          50.125    20232032.640    84236174.981 8      4306.453          50.437
R01  23471965.780   125471116.092 6     -1294.447          41.062    23471965.000   125471116.110 6     -1294.447          40.375    23471977.320    97588687.906 6     -1006.792          38.937
G17  22737942.240   119488693.342 7      5392.774          45.000    22737941.280   119488693.345 6      5392.774          37.437    22737944.280    93108082.384 6      4202.161          37.062    22737944.640    93108086.385 7      4202.161          47.250
R15  23450709.520   125313477.272 7      -486.040          44.500    23450710.200   125313477.273 7      -486.040          43.125    23450729.360    97466117.556 7      -378.031          46.312    23450729.540    97466116.559 7      -378.031          46.187
> 2024 05 03 16 36 37.0000000  0 17
G03  20110701.060   105682449.835 8      2241.757          50.250    20110700.420   105682449.838 8      2241.757          50.750    20110704.440    82349958.988 8      1746.823          51.500    20110705.280    82349958.988 8      1746.823          51.625
G02  22006403.440   115644424.344 7      2033.816          47.250    22006402.000   115644424.354 6      2033.816          38.125    22006403.040    90112539.029 6      1584.792          38.187
G09  24915709.820   130932937.657 6      6097.261          41.437    24915708.820   130932937.659 6      6097.261          37.375    24915731.220   102025711.479 6      4751.112          37.187    24915731.580   102025754.475 6      4751.112          40.437
G04  22594817.880   118736573.672 7      5483.294          44.437    22594817.100   118736573.682 5      5483.294          33.812    22594826.140    92522034.882 5      4272.696          33.812    22594826.440    92522037.892 7      4272.696          47.312
R02  20035063.400   106910989.564 8      1477.206          50.812    20035063.100   106910989.567 8      1477.206          49.750    20035070.060    83152978.852 8      1148.938          50.250    20035070.560    83152981.853 8      1148.938          50.375
G21  22734785.200   119472066.082 7      1341.290          45.500    22734783.300   119472066.081 5      1341.290          35.500    22734787.360    93095126.603 5      1045.161          35.375
G08  22949434.000   120600063.363 7      -250.580          45.500    22949433.180   120600063.365 7      -250.580          44.062    22949443.440    93974099.192 7      -195.257          43.500    22949444.100    93974102.198 7      -195.257          46.375
G14  22222662.220   116780879.885 7      2039.468          45.000    22222661.440   116780879.893 5      2039.468          35.187    22222666.140    90998089.309 5      1589.196          34.812    22222666.720    90998094.303 8      1589.196          49.375
R18  21803823.080   116390288.101 7      4903.960          44.500    21803823.520   116390288.096 7      4903.960          44.437    21803831.080    90525818.376 7      3814.191          47.875    21803831.280    90525820.376 7      3814.191          47.750
R17  20433238.000   109342377.411 7      3154.002          47.375    20433237.660   109342377.425 7      3154.002          46.875    20433246.600    85044112.432 8      2453.113          50.437    20433246.620    85044110.432 8      2453.113          51.000
R24  22666394.880   121207372.466 7       868.684          42.562    22666393.740   121207372.470 6       868.684          41.812    22666409.360    94272436.429 7       675.643          47.125    22666409.260    94272442.427 8       675.643          48.250
G22  23380575.020   122865748.289 7      3446.907          46.000    23380573.820   122865748.291 5      3446.907          32.312    23380577.180    95739549.506 5      2685.901          32.375
R16  23133723.040   123576194.149 7      1375.076          45.562    23133722.080   123576194.158 7      1375.076          44.625    23133732.700    96114849.721 7      1069.503          47.687    23133733.100    96114852.717 8      1069.503          48.062
R03  20230987.580   108298062.184 7      5536.115          47.062    20230987.780   108298062.213 7      5536.115          46.562    20230998.340    84231870.715 8      4305.868          51.062    20230998.060    84231868.719 8      4305.868          50.750
R01  23472207.960   125472410.600 6     -1294.789          41.062    23472206.820   125472410.615 6     -1294.789          40.375    23472219.220    97589694.750 6     -1007.058          38.937    23472218.260    97589688.745 6     -1007.058          37.562
G17  22736915.920   119483300.633 7      5392.445          45.625    22736915.000   119483300.643 6      5392.445          37.375    22736918.180    93103880.281 6      4201.905          36.437    22736918.560    93103884.279 7      4201.905          47.625
R15  23450800.400   125313963.142 7      -486.177          45.437    23450801.120   125313963.133 7      -486.177          43.625    23450820.600    97466495.424 7      -378.137          46.062    23450820.300    97466494.427 7      -378.137          46.000
> 2024 05 03 16 36 38.0000000  0 17
G03  20110274.400   105680208.455 8      2240.981          50.500    20110273.960   105680208.452 8      2240.981          51.125    20110277.920    82348211.887 8      1746.219          51.500    20110278.680    82348211.887 8      1746.219          51.562
G02  22006016.620   115642390.716 7      2033.539          47.562    22006014.940   115642390.723 6      2033.539          38.562    22006016.040    90110954.382 6      1584.576          38.562
G09  24914549.780   130926840.489 6      6097.063          41.250    24914548.640   130926840.494 6      6097.063          37.000    24914571.060   102020960.432 6      4750.958          37.250    24914571.680   102021003.428 6      4750.958          40.437
G04  22593774.560   118731090.670 7      5482.752          44.187    22593773.800   118731090.675 5      5482.752          33.250    22593782.500    92517762.423 5      4272.274          33.812    22593782.940    92517765.433 7      4272.274          47.375
R02  20034786.800   106909512.954 8      1476.011          50.687    20034786.320   106909512.952 8      1476.011          49.562    20034793.420    83151830.373 8      1148.009          50.750    20034793.840    83151833.377 8      1148.009          50.375
G21  22734530.000   119470724.965 7      1340.907          45.187    22734528.180   119470724.965 5      1340.907          35.250    22734532.400    93094081.573 5      1044.863          35.375
G08  22949481.760   120600314.246 7      -251.189          45.750    22949481.040   120600314.248 7      -251.189          43.562    22949491.180    93974294.677 7      -195.732          43.500    22949492.020    93974297.679 7      -195.732          46.687
G14  22222273.760   116778840.742 7      2038.740          44.812    22222273.380   116778840.750 5      2038.740          35.437    22222278.180    90996500.367 5      1588.628          34.812    22222278.780    90996505.367 8      1588.628          50.125
R18  21802904.200   116385384.368 7      4903.660          43.312    21802904.940   116385384.363 7      4903.660          44.625    21802912.440    90522004.363 7      3813.958          47.937    21802912.820    90522006.367 8      3813.958          48.125
R17  20432648.520   109339223.709 8      3153.460          48.375    20432648.480   109339223.724 7      3153.460          47.250    20432657.420    85041659.553 8      2452.691          50.375    20432657.260    85041657.551 8      2452.691          50.812
R24  22666232.280   121206504.198 7       868.027          42.562    22666231.020   121206504.197 6       868.027          41.812    22666246.960    94271761.093 7       675.132          47.000    22666247.000    94271767.093 7       675.132          47.562
G22  23379919.180   122862301.763 7      3446.129          45.875    23379917.800   122862301.768 5      3446.129          32.312    23379921.500    95736863.902 5      2685.295          32.375
R16  23133465.680   123574819.515 7      1374.143          45.250    23133464.600   123574819.529 7      1374.143          44.625    23133475.440    96113780.560 8      1068.778          48.187    23133475.940    96113783.559 8      1068.778          48.312
R03  20229954.020   108292526.601 7      5535.070          47.812    20229953.720   108292526.621 7      5535.070          46.875    20229964.240    84227565.264 8      4305.054          51.125    20229964.300    84227563.265 8      4305.054          51.062
R01  23472450.140   125473705.718 6     -1295.468          40.937    23472449.140   125473705.732 6     -1295.468          40.562    23472462.020    97590702.063 6     -1007.586          38.562    23472460.780    97590696.058 6     -1007.586          37.562
G17  22735890.040   119477908.365 7      5392.071          45.312    22735888.800   119477908.370 6      5392.071          36.875    22735892.040    93099678.509 6      4201.613          37.187    22735892.460    93099682.510 7      4201.613          47.437
R15  23450891.240   125314449.394 7      -486.366          45.375    23450891.940   125314449.390 7      -486.366          43.812    23450911.400    97466873.608 7      -378.285          46.000    23450911.360    97466872.607 7      -378.285          45.812
> 2024 05 03 16 36 39.0000000  0 17
G03  20109848.080   105677967.766 8      2240.477          50.687    20109847.560   105677967.771 8      2240.477          51.437    20109851.600    82346466.178 8      1745.826          51.500    20109852.500    82346466.178 8      1745.826          51.312
G02  22005629.680   115640357.332 8      2033.347          48.000    22005628.040   115640357.340 6      2033.347          38.875    22005629.160    90109369.925 6      1584.426          38.562
G09  24913389.840   130920743.305 6      6097.329          41.812    24913388.400   130920743.307 6      6097.329          37.000    24913410.820   102016209.374 6      4751.166          37.125    24913411.260   102016252.372 6      4751.166          40.500
G04  22592731.120   118725608.016 7      5482.556          44.500    22592730.380   118725608.020 5      5482.556          33.250    22592739.320    92513490.233 5      4272.121          33.312    22592739.540    92513493.243 7      4272.121          47.312
R02  20034510.380   106908037.337 8      1475.194          51.500    20034509.760   106908037.335 8      1475.194          50.187    20034516.780    83150682.671 8      1147.373          49.937    20034517.100    83150685.673 8      1147.373          50.625
G21  22734274.800   119469384.009 7      1340.996          46.687    22734272.900   119469384.008 5      1340.996          35.250    22734277.220    93093036.670 5      1044.932          35.250
G08  22949529.480   120600565.550 7      -251.528          45.437    22949528.900   120600565.549 7      -251.528          43.937    22949539.100    93974490.488 7      -195.996          43.937    22949539.760    93974493.492 7      -195.996          46.687
G14  22221886.080   116776802.361 7      2038.152          45.187    22221885.280   116776802.369 5      2038.152          35.312    22221890.340    90994912.014 5      1588.170          35.062    22221890.880    90994917.012 8      1588.170          49.500
R18  21801985.980   116380480.794 7      4903.641          47.125    21801986.520   116380480.787 7      4903.641          44.750    21801993.900    90518190.471 7      3813.943          47.812    21801994.340    90518192.481 8      3813.943          48.250
R17  20432059.200   109336070.409 8      3153.212          48.750    20432059.100   109336070.416 7      3153.212          47.375    20432068.000    85039206.982 8      2452.498          50.375    20432067.880    85039204.980 8      2452.498          50.875
R24  22666070.140   121205636.288 7       867.893          43.062    22666068.960   121205636.292 6       867.893          41.812    22666084.760    94271086.048 7       675.028          46.937    22666084.680    94271092.046 8       675.028          48.062
G22  23379263.520   122858855.955 7      3445.618          45.875    23379262.120   122858855.960 5      3445.618          32.437    23379265.840    95734178.858 5      2684.897          32.437
R16  23133208.720   123573445.689 7      1373.557          45.812    23133208.080   123573445.693 7      1373.557          45.375    23133218.440    96112712.017 7      1068.322          47.875    23133218.780    96112715.018 8      1068.322          48.750
R03  20228919.820   108286991.815 8      5534.470          49.625    20228919.760   108286991.838 7      5534.470          47.687    20228930.300    84223260.437 8      4304.588          51.250    20228930.060    84223258.438 8      4304.588          51.062
R01  23472692.600   125475001.279 6     -1295.681          40.937    23472691.680   125475001.288 6     -1295.681          40.562    23472704.420    97591709.707 6     -1007.752          38.562    23472703.020    97591703.702 6     -1007.752          37.562
G17  22734863.740   119472516.399 7      5391.965          46.375    22734862.700   119472516.398 6      5391.965          37.187    22734866.040    93095476.979 6      4201.531          36.750    22734866.760    93095480.984 7      4201.531          47.937
R15  23450982.500   125314935.887 7      -486.517          46.125    23450983.120   125314935.888 7      -486.517          44.812    23451002.160    97467251.970 7      -378.402          45.312    23451002.100    97467250.971 7      -378.402          46.062
> 2024 05 03 16 36 40.0000000  0 17
G03  20109421.800   105675727.447 8      2240.142          50.375    20109421.220   105675727.446 8      2240.142          51.500    20109425.280    82344720.632 8      1745.566          51.375    20109426.200    82344720.632 8      1745.566          51.125
G02  22005242.520   115638323.833 8      2033.447          48.625    22005241.220   115638323.838 6      2033.447          38.312    22005242.340    90107785.376 6      1584.504          38.312
G09  24912229.040   130914645.929 6      6097.460          40.937    24912228.100   130914645.934 6      6097.460          37.000    24912250.440   102011458.164 6      4751.268          37.062    24912250.600   102011501.152 6      4751.268          40.500
G04  22591687.840   118720125.458 7      5482.445          43.687    22591686.940   118720125.463 5      5482.445          33.250    22591695.880    92509218.119 5      4272.035          33.312    22591696.040    92509221.129 7      4272.035          47.500
R02  20034233.960   106906562.435 8      1474.455          50.875    20034233.400   106906562.438 8      1474.455          50.500    20034240.540    83149535.532 8      1146.799          50.250    20034240.640    83149538.533 8      1146.799          50.562
G21  22734019.580   119468042.924 7      1341.107          46.500    22734017.660   119468042.926 5      1341.107          35.437    22734022.100    93091991.667 5      1045.019          35.500
G08  22949577.520   120600816.993 7      -251.665          45.250    22949576.620   120600816.997 7      -251.665          44.062    22949586.820    93974686.415 7      -196.102          43.687    22949587.620    93974689.419 7      -196.102          46.812
G14  22221498.420   116774764.382 7      2037.743          45.562    22221497.560   116774764.390 5      2037.743          35.250    22221502.520    90993323.976 5      1587.852          34.875    22221502.980    90993328.972 8      1587.852          49.937
R18  21801067.480   116375576.994 7      4903.919          46.875    21801067.820   116375576.993 7      4903.919          45.125    21801075.120    90514376.406 7      3814.159          47.437    21801075.660    90514378.423 8      3814.159          48.062
R17  20431469.880   109332917.168 8      3153.113          49.500    20431469.680   109332917.180 8      3153.113          48.000    20431478.720    85036754.463 8      2452.421          50.437    20431478.500    85036752.461 8      2452.421          50.437
R24  22665907.720   121204768.501 7       867.605          43.062    22665906.680   121204768.511 7       867.605          43.125    22665922.460    94270411.101 7       674.804          46.937    22665922.420    94270417.101 7       674.804          47.250
G22  23378607.720   122855410.486 7      3445.307          45.187    23378606.500   122855410.493 5      3445.307          32.437    23378610.160    95731494.077 5      2684.655          32.437
R16  23132951.360   123572072.329 7      1373.107          46.750    23132950.940   123572072.327 7      1373.107          45.562    23132961.280    96111643.841 8      1067.972          48.000    23132961.540    96111646.842 8      1067.972          48.250
R03  20227886.120   108281457.580 8      5533.921          49.875    20227886.220   108281457.598 8      5533.921          48.312    20227896.460    84218956.032 8      4304.160          50.937    20227896.440    84218954.036 8      4304.160          50.812
R01  23472934.720   125476296.960 7     -1295.890          42.312    23472933.920   125476296.964 6     -1295.890          41.250    23472946.680    97592717.457 6     -1007.915          38.562    23472945.600    97592711.446 6     -1007.915          38.750
G17  22733837.640   119467124.388 7      5392.011          45.250    22733836.740   119467124.390 6      5392.011          37.812    22733839.820    93091275.415 6      4201.567          37.187    22733840.540    93091279.430 7      4201.567          47.000
R15  23451073.480   125315422.279 7      -486.428          46.375    23451074.280   125315422.280 7      -486.428          45.625    23451093.300    97467630.252 7      -378.333          45.500    23451093.220    97467629.253 7      -378.333          45.562
> 2024 05 03 16 36 41.0000000  0 17
G03  20108995.540   105673487.732 8      2239.326          50.062    20108995.000   105673487.732 8      2239.326          50.875    20108999.100    82342975.169 8      1744.929          50.875    20108999.940    82342975.169 8      1744.929          51.062
G02  22004855.560   115636290.489 7      2033.279          47.375    22004854.100   115636290.494 6      2033.279          38.187    22004855.440    90106200.955 6      1584.373          38.312
G09  24911068.780   130908548.415 6      6097.450          41.875    24911067.760   130908548.425 6      6097.450          36.687    24911090.080   102006706.848 6      4751.260          37.062    24911090.420   102006749.850 6      4751.260          40.500
G04  22590644.620   118714643.190 7      5481.979          43.812    22590643.680   118714643.194 5      5481.979          33.250    22590652.660    92504946.229 5      4271.672          32.937    22590652.940    92504949.239 7      4271.672          46.875
R02  20033958.000   106905088.517 8      1473.392          51.062    20033957.240   106905088.518 8      1473.392          50.187    20033964.220    83148389.145 8      1145.971          50.312    20033964.620    83148392.147 8      1145.971          49.625
G21  22733764.280   119466701.967 7      1340.929          45.500    22733762.440   119466701.970 5      1340.929          35.250    22733767.040    93090946.761 5      1044.880          35.437
G08  22949625.560   120601068.793 7      -251.963          45.750    22949624.540   120601068.798 7      -251.963          44.062    22949634.900    93974882.615 7      -196.335          43.500    22949635.740    93974885.613 7      -196.335          46.437
G14  22221110.700   116772727.005 7      2036.960          45.000    22221109.800   116772727.013 5      2036.960          35.250    22221114.800    90991736.408 5      1587.242          34.875    22221115.140    90991741.408 8      1587.242          49.375
R18  21800148.860   116370673.248 7      4903.637          45.875    21800149.160   116370673.243 7      4903.637          45.687    21800156.440    90510562.379 7      3813.940          47.500    21800156.940    90510564.396 7      3813.940          47.125
R17  20430880.920   109329764.229 8      3152.696          49.625    20430880.300   109329764.249 8      3152.696          48.187    20430889.660    85034302.181 8      2452.097          49.250    20430889.440    85034300.180 8      2452.097          50.000
R24  22665745.740   121203901.084 7       867.140          43.937    22665744.580   121203901.088 7       867.140          43.125    22665760.300    94269736.426 7       674.442          46.812    22665760.300    94269742.424 7       674.442          47.125
G22  23377952.120   122851965.624 7      3444.365          46.062    23377950.880   122851965.631 5      3444.365          32.375    23377954.500    95728809.765 5      2683.921          32.437
R16  23132694.260   123570699.665 7      1372.054          46.062    23132693.600   123570699.663 7      1372.054          45.500    23132704.380    96110576.208 7      1067.153          47.250    23132704.460    96110579.211 7      1067.153          47.687
R03  20226852.000   108275924.042 8      5533.081          49.812    20226852.540   108275924.062 7      5533.081          47.875    20226862.700    84214652.175 8      4303.508          49.562    20226862.460    84214650.177 8      4303.508          49.437
R01  23473177.180   125477593.016 7     -1296.298          42.312    23473176.940   125477593.023 6     -1296.298          41.250    23473189.260    97593725.499 6     -1008.232          38.125    23473188.380    97593719.489 6     -1008.232          38.750
G17  22732811.820   119461732.590 7      5391.513          45.250    22732810.660   119461732.598 6      5391.513          37.250    22732813.780    93087074.022 6      4201.179          37.125    22732814.200    93087078.027 7      4201.179          47.187
R15  23451164.320   125315908.771 7      -486.762          46.500    23451165.460   125315908.767 7      -486.762          45.312    23451184.480    97468008.604 7      -378.593          44.187    23451184.000    97468007.609 7      -378.593          44.687
> 2024 05 03 16 36 42.0000000  0 17
G03  20108569.460   105671248.591 8      2238.892          49.750    20108568.900   105671248.595 8      2238.892          51.000    20108572.980    82341230.442 8      1744.591          51.562    20108573.660    82341230.442 8      1744.591          51.250
G02  22004468.600   115634257.269 7      2033.167          47.562    22004467.280   115634257.271 6      2033.167          38.375    22004468.520    90104616.625 6      1584.286          38.187
G09  24909908.200   130902450.844 6      6097.613          41.375    24909907.440   130902450.852 6      6097.613          37.000    24909929.640   102001955.490 6      4751.387          36.937    24909930.360   102001998.484 6      4751.387          40.500
G04  22589601.600   118709161.116 7      5481.988          43.937    22589600.300   118709161.120 5      5481.988          33.000    22589609.500    92500674.494 5      4271.679          32.937    22589609.700    92500677.506 7      4271.679          47.250
R02  20033681.960   106903615.483 8      1472.584          50.750    20033681.200   106903615.481 8      1472.584          49.375    20033688.240    83147243.448 8      1145.343          50.250    20033688.580    83147246.451 8      1145.343          50.750
G21  22733509.320   119465361.066 7      1340.794          45.125    22733507.260   119465361.066 5      1340.794          35.187    22733511.920    93089901.901 5      1044.774          35.500
G08  22949673.120   120601320.906 7      -252.282          45.812    22949672.620   120601320.911 7      -252.282          44.125    22949682.840    93975079.059 7      -196.584          43.812    22949683.480    93975082.064 7      -196.584          46.562
G14  22220723.000   116770690.301 7      2036.417          45.125    22220722.220   116770690.311 5      2036.417          35.375    22220727.340    90990149.361 5      1586.818          34.937    22220727.760    90990154.365 8      1586.818          49.937
R18  21799229.880   116365769.544 7      4903.664          45.875    21799229.920   116365769.555 7      4903.664          44.812    21799237.840    90506748.404 8      3813.961          48.125    21799237.900    90506750.401 7      3813.961          47.062
R17  20430291.520   109326611.544 8      3152.599          48.250    20430291.100   109326611.564 7      3152.599          46.812    20430300.240    85031850.093 8      2452.022          50.375    20430300.160    85031848.092 8      2452.022          50.875
R24  22665583.800   121203033.944 7       867.016          42.937    22665582.160   121203033.945 7       867.016          42.937    22665598.040    94269061.975 7       674.346          46.625    22665598.040    94269067.973 7       674.346          47.625
G22  23377296.880   122848521.347 7      3444.035          45.875    23377295.560   122848521.357 5      3444.035          32.375    23377299.140    95726125.915 5      2683.663          32.687
R16  23132437.760   123569327.707 7      1371.625          45.875    23132436.940   123569327.710 7      1371.625          45.312    23132447.660    96109509.133 7      1066.819          47.812    23132447.780    96109512.136 8      1066.819          48.750
R03  20225818.660   108270391.196 8      5532.494          48.250    20225819.040   108270391.214 7      5532.494          47.750    20225829.100    84210348.853 8      4303.051          50.812    20225829.100    84210346.854 8      4303.051          50.750
R01  23473419.660   125478889.416 7     -1296.588          42.062    23473418.940   125478889.412 6     -1296.588          41.562    23473431.380    97594733.802 6     -1008.457          38.125    23473430.620    97594727.790 6     -1008.457          38.187
G17  22731785.820   119456341.016 7      5391.517          44.812    22731784.700   119456341.021 6      5391.517          37.187    22731787.880    93082872.795 6      4201.182          36.687    22731788.300    93082876.790 7      4201.182          46.875
R15  23451255.760   125316395.425 7      -486.749          46.312    23451256.600   125316395.426 7      -486.749          44.937    23451275.260    97468387.097 7      -378.583          44.750    23451275.280    97468386.103 7      -378.583          45.250
> 2024 05 03 16 36 43.0000000  0 17
G03  20108143.460   105669009.825 8      2238.798          49.625    20108142.860   105669009.830 8      2238.798          50.500    20108146.940    82339486.044 8      1744.518          51.250    20108147.560    82339486.044 8      1744.518          51.250
G02  22004081.920   115632223.956 7      2033.512          46.750    22004080.480   115632223.959 6      2033.512          38.312    22004081.520    90103032.223 6      1584.555          38.375
G09  24908747.600   130896353.020 7      6098.132          42.250    24908747.100   130896353.030 6      6098.132          37.125    24908769.280   101997203.932 6      4751.791          37.125    24908769.940   101997246.928 6      4751.791          40.500
G04  22588558.340   118703679.165 7      5482.132          43.875    22588557.140   118703679.178 5      5482.132          33.000    22588566.100    92496402.852 5      4271.791          33.125    22588566.560    92496405.866 7      4271.791          47.437
R02  20033405.780   106902143.124 8      1472.200          51.312    20033405.160   106902143.119 8      1472.200          49.437    20033412.360    83146098.277 8      1145.045          50.812    20033412.700    83146101.281 8      1145.045          50.812
G21  22733253.880   119464020.029 7      1341.281          45.375    22733252.020   119464020.028 5      1341.281          35.937    22733256.600    93088856.937 5      1045.154          35.625
G08  22949721.280   120601573.184 7      -252.199          45.875    22949720.600   120601573.184 7      -252.199          43.875    22949731.000    93975275.629 7      -196.519          43.562    22949731.740    93975278.633 7      -196.519          46.812
G14  22220335.480   116768653.956 7      2036.442          44.437    22220334.660   116768653.971 5      2036.442          35.375    22220339.740    90988562.599 5      1586.838          34.875    22220340.280    90988567.599 8      1586.838          49.875
R18  21798311.460   116360865.621 7      4904.223          45.187    21798311.240   116360865.619 7      4904.223          44.687    21798319.360    90502934.231 7      3814.396          47.812    21798318.980    90502936.218 7      3814.396          46.375
R17  20429702.480   109323458.964 7      3152.830          47.062    20429702.200   109323458.981 7      3152.830          47.312    20429711.160    85029398.084 8      2452.201          50.812    20429711.120    85029396.085 8      2452.201          50.062
R24  22665421.060   121202166.986 7       866.935          42.937    22665419.940   121202166.998 6       866.935          41.875    22665435.860    94268387.673 7       674.283          46.687    22665435.940    94268393.671 7       674.283          47.187
G22  23376641.560   122845077.428 7      3443.991          45.187    23376640.240   122845077.436 5      3443.991          32.375    23376643.660    95723442.344 5      2683.629          32.687
R16  23132180.900   123567956.183 7      1371.428          45.000    23132180.200   123567956.185 7      1371.428          44.312    23132190.800    96108442.389 8      1066.666          48.437    23132191.020    96108445.392 8      1066.666          48.250
R03  20224785.260   108264858.884 8      5532.245          48.562    20224785.380   108264858.909 7      5532.245          46.937    20224795.580    84206045.951 8      4302.857          50.625    20224795.700    84206043.953 8      4302.857          51.312
R01  23473662.160   125480185.937 7     -1296.492          42.062    23473661.660   125480185.954 6     -1296.492          41.562    23473673.760    97595742.225 6     -1008.382          38.125    23473673.540    97595736.218 6     -1008.382          38.187
G17  22730759.800   119450949.405 7      5391.836          45.937    22730758.680   119450949.404 6      5391.836          37.062    22730761.920    93078671.538 6      4201.430          37.062    22730762.600    93078675.532 7      4201.430          47.312
R15  23451346.580   125316881.976 7      -486.223          45.625    23451347.500   125316881.977 7      -486.223          44.187    23451366.280    97468765.506 7      -378.173          44.625    23451366.320    97468764.507 7      -378.173          44.812
> 2024 05 03 16 36 44.0000000  0 17
G03  20107717.460   105666771.571 8      2237.801          50.125    20107716.980   105666771.576 8      2237.801          50.687    20107721.060    82337741.645 8      1743.741          51.250    20107721.720    82337741.645 8      1743.741          51.625
G02  22003695.040   115630190.681 7      2033.131          47.312    22003693.460   115630190.680 6      2033.131          38.750    22003694.580    90101447.853 6      1584.258          38.312
G09  24907587.120   130890255.042 6      6097.839          41.500    24907586.700   130890255.050 6      6097.839          36.812    24907608.860   101992452.255 6      4751.563          37.250    24907609.620   101992495.245 6      4751.563          40.500
G04  22587515.220   118698197.433 7      5481.390          43.562    22587514.140   118698197.443 5      5481.390          33.312    22587523.040    92492131.378 5      4271.213          33.125    22587523.580    92492134.386 7      4271.213          47.062
R02  20033130.100   106900671.541 8      1471.024          50.750    20033129.380   106900671.539 8      1471.024          49.500    20033136.560    83144953.717 8      1144.130          50.562    20033136.940    83144956.718 8      1144.130          50.437
G21  22732998.780   119462679.007 7      1340.805          45.437    22732996.740   119462679.006 5      1340.805          35.500    22733001.440    93087811.985 5      1044.783          35.625
G08  22949769.380   120601825.718 7      -252.854          45.062    22949768.660   120601825.723 7      -252.854          43.750    22949779.100    93975472.402 7      -197.029          43.687    22949779.700    93975475.408 7      -197.029          46.250
G14  22219948.300   116766618.216 7      2035.249          44.562    22219947.200   116766618.223 5      2035.249          35.312    22219952.340    90986976.310 5      1585.908          34.875    22219952.620    90986981.302 8      1585.908          50.125
R18  21797392.320   116355961.623 7      4903.839          44.562    21797392.540   116355961.629 7      4903.839          44.687    21797400.800    90499120.019 7      3814.097          47.812    21797400.460    90499122.009 8      3814.097          48.250
R17  20429113.420   109320306.619 7      3152.081          47.750    20429113.160   109320306.628 7      3152.081          47.187    20429122.160    85026946.256 8      2451.618          50.625    20429122.040    85026944.257 8      2451.618          50.750
R24  22665259.120   121201300.204 7       866.477          42.312    22665258.480   121201300.219 6       866.477          41.875    22665273.940    94267713.501 7       673.927          46.875    22665273.560    94267719.501 7       673.927          47.125
G22  23375986.400   122841634.029 7      3442.890          44.937    23375985.000   122841634.034 5      3442.890          32.500    23375988.500    95720759.174 5      2682.771          32.437
R16  23131924.400   123566585.275 7      1370.356          45.625    23131923.560   123566585.273 7      1370.356          44.375    23131934.020    96107376.120 8      1065.832          48.062    23131934.140    96107379.123 8      1065.832          48.250
R03  20223751.940   108259327.219 8      5531.108          48.750    20223752.180   108259327.247 7      5531.108          47.750    20223762.220    84201743.551 8      4301.973          50.437    20223762.360    84201741.555 8      4301.973          50.750
R01  23473904.580   125481482.733 6     -1297.111          41.687    23473904.680   125481482.729 6     -1297.111          41.562    23473916.100    97596750.842 6     -1008.864          37.312    23473915.820    97596744.831 6     -1008.864          38.187
G17  22729733.660   119445557.928 7      5391.235          46.375    22729732.640   119445557.922 6      5391.235          37.500    22729735.860    93074470.385 6      4200.962          37.062    22729736.560    93074474.381 7      4200.962          47.625
R15  23451437.620   125317368.592 7      -486.846          45.687    23451438.560   125317368.590 7      -486.846          44.625    23451457.440    97469143.966 7      -378.658          44.750    23451457.160    97469142.971 7      -378.658          44.812
> 2024 05 03 16 36 45.0000000  0 17
G03  20107291.680   105664533.869 8      2237.481          50.250    20107291.120   105664533.874 8      2237.481          50.687    20107295.240    82335998.147 8      1743.492          51.562    20107295.980    82335998.147 8      1743.492          51.437
G02  22003308.060   115628157.518 7      2033.204          47.375    22003306.480   115628157.520 6      2033.204          38.625    22003307.620    90099863.574 6      1584.314          38.437
G09  24906426.760   130884157.002 6      6098.035          41.437    24906426.360   130884157.009 6      6098.035          37.187    24906448.440   101987700.530 6      4751.716          36.875    24906448.980   101987743.528 6      4751.716          40.500
G04  22586472.360   118692715.918 7      5481.373          44.187    22586470.880   118692715.931 5      5481.373          33.312    22586479.900    92487860.077 5      4271.200          33.125    22586480.420    92487863.091 7      4271.200          47.250
R02  20032854.620   106899200.833 8      1470.376          51.000    20032853.680   106899200.831 8      1470.376          49.312    20032860.940    83143809.833 8      1143.626          50.687    20032861.460    83143812.833 8      1143.626          50.250
G21  22732743.660   119461338.045 7      1340.932          45.125    22732741.600   119461338.045 5      1340.932          35.437    22732746.140    93086767.075 5      1044.882          35.562
G08  22949817.580   120602078.582 7      -253.035          45.000    22949816.760   120602078.584 7      -253.035          43.437    22949827.160    93975669.429 7      -197.170          43.250    22949828.260    93975672.435 7      -197.170          46.937
G14  22219560.720   116764583.061 7      2034.871          44.437    22219559.800   116764583.071 5      2034.871          35.312    22219565.080    90985390.469 5      1585.613          34.812    22219565.220    90985395.461 8      1585.613          49.500
R18  21796473.520   116351057.642 7      4904.163          43.625    21796474.040   116351057.645 7      4904.163          44.625    21796482.500    90495305.813 8      3814.349          48.312    21796482.140    90495307.815 8      3814.349          49.125
R17  20428524.400   109317154.523 7      3152.045          47.500    20428524.120   109317154.529 7      3152.045          46.437    20428533.160    85024494.626 8      2451.591          50.312    20428532.940    85024492.624 8      2451.591          50.750
R24  22665097.160   121200433.752 7       866.360          42.812    22665096.280   121200433.756 7       866.360          42.250    22665111.780    94267039.575 7       673.835          46.437    22665111.640    94267045.573 7       673.835          47.125
G22  23375331.220   122838191.167 7      3442.681          45.500    23375329.800   122838191.169 5      3442.681          32.500    23375333.260    95718076.424 5      2682.609          32.437
R16  23131667.360   123565215.007 7      1369.990          45.250    23131667.100   123565215.013 7      1369.990          44.562    23131677.600    96106310.357 7      1065.548          47.875    23131677.740    96106313.357 8      1065.548          48.312
R03  20222718.420   108253796.244 8      5530.627          49.000    20222719.200   108253796.267 7      5530.627          47.625    20222728.920    84197441.682 8      4301.598          50.625    20222728.860    84197439.686 8      4301.598          50.812
R01  23474147.500   125482779.842 6     -1297.301          41.687    23474146.860   125482779.845 6     -1297.301          41.250    23474159.180    97597759.705 6     -1009.012          37.312    23474158.360    97597753.697 6     -1009.012          38.187
G17  22728707.720   119440166.595 7      5391.417          46.000    22728706.660   119440166.592 6      5391.417          37.000    22728709.900    93070269.350 6      4201.104          36.812    22728711.060    93070273.361 7      4201.104          47.937
R15  23451528.640   125317855.306 7      -486.666          45.562    23451529.680   125317855.308 7      -486.666          44.437    23451548.240    97469522.499 7      -378.518          44.187    23451548.320    97469521.504 7      -378.518          44.312
> 2024 05 03 16 36 46.0000000  0 17
G03  20106866.040   105662296.785 8      2236.963          50.312    20106865.380   105662296.784 8      2236.963          50.937    20106869.460    82334255.222 8      1743.088          51.687    20106870.180    82334255.222 8      1743.088          51.250
G02  22002921.160   115626124.505 7      2033.141          46.687    22002919.540   115626124.507 6      2033.141          38.437    22002920.800    90098279.404 6      1584.266          38.250
G09  24905266.620   130878058.880 7      6098.318          42.312    24905265.860   130878058.885 6      6098.318          36.875    24905288.040   101982948.740 6      4751.936          36.687    24905289.320   101982991.738 6      4751.936          40.437
G04  22585429.140   118687234.717 7      5481.248          43.937    22585427.940   118687234.721 5      5481.248          33.000    22585437.040    92483589.019 5      4271.102          33.187    22585437.300    92483592.024 7      4271.102          47.250
R02  20032579.040   106897731.105 8      1469.429          51.125    20032578.360   106897731.100 8      1469.429          49.437    20032585.560    83142666.709 8      1142.889          50.375    20032585.900    83142669.708 8      1142.889          50.750
G21  22732488.700   119459997.186 7      1340.966          44.750    22732486.500   119459997.186 5      1340.966          35.437    22732490.980    93085722.248 5      1044.909          35.500
G08  22949865.920   120602331.788 7      -253.199          45.687    22949864.960   120602331.796 7      -253.199          44.187    22949875.340    93975866.730 7      -197.298          44.250    22949876.360    93975869.734 7      -197.298          46.687
G14  22219173.640   116762548.548 7      2034.300          44.562    22219172.620   116762548.558 5      2034.300          35.250    22219178.000    90983805.128 5      1585.169          34.812    22219178.380    90983810.132 8      1585.169          49.562
R18  21795555.220   116346153.753 7      4904.089          43.875    21795555.500   116346153.754 7      4904.089          44.375    21795564.080    90491491.682 8      3814.292          48.250    21795563.760    90491493.694 8      3814.292          48.687
R17  20427935.360   109314002.740 7      3151.750          47.875    20427935.160   109314002.754 7      3151.750          46.562    20427944.260    85022043.243 8      2451.361          50.125    20427943.800    85022041.246 8      2451.361          50.500
R24  22664935.400   121199567.666 7       866.032          42.812    22664933.820   121199567.664 7       866.032          42.250    22664949.760    94266365.944 7       673.581          46.375    22664949.680    94266371.942 7       673.581          47.312
G22  23374676.000   122834748.940 7      3442.083          45.000    23374674.760   122834748.945 5      3442.083          32.562    23374678.080    95715394.171 5      2682.143          32.437
R16  23131411.180   123563845.439 7      1369.508          45.750    23131410.740   123563845.443 7      1369.508          44.687    23131421.120    96105245.133 8      1065.173          48.312    23131421.580    96105248.131 8      1065.173          48.000
R03  20221685.480   108248265.974 8      5530.053          48.187    20221686.320   108248265.999 7      5530.053          47.562    20221695.660    84193140.365 8      4301.152          50.312    20221695.920    84193138.369 8      4301.152          50.937
R01  23474390.200   125484077.335 7     -1297.525          42.000    23474388.840   125484077.323 6     -1297.525          41.250    23474401.680    97598768.852 6     -1009.186          37.312    23474401.180    97598762.844 6     -1009.186          37.562
G17  22727682.020   119434775.509 7      5391.202          45.125    22727680.880   119434775.511 6      5391.202          37.375    22727683.880    93066068.512 6      4200.936          37.250    22727684.580    93066072.524 7      4200.936          47.437
R15  23451619.180   125318342.157 7      -486.663          45.250    23451621.080   125318342.161 7      -486.663          44.437    23451639.360    97469901.148 7      -378.515          44.187    23451639.520    97469900.147 7      -378.515          44.125
> 2024 05 03 16 36 47.0000000  0 17
G03  20106440.360   105660060.152 8      2236.646          51.000    20106439.800   105660060.157 8      2236.646          50.687    20106443.920    82332512.134 8      1742.841          51.250    20106444.660    82332512.134 8      1742.841          50.812
G02  22002534.200   115624091.513 7      2033.212          47.375    22002532.780   115624091.518 6      2033.212          38.250    22002533.920    90096695.255 6      1584.321          38.437
G09  24904106.340   130871960.577 6      6098.576          41.687    24904105.440   130871960.582 6      6098.576          36.687    24904127.660   101978196.807 6      4752.137          36.625    24904128.720   101978239.801 6      4752.137          40.437
G04  22584386.000   118681753.665 7      5481.123          44.062    22584385.000   118681753.670 5      5481.123          33.000    22584393.820    92479318.077 5      4271.005          33.187    22584394.260    92479321.093 7      4271.005          47.562
R02  20032303.780   106896262.192 8      1468.684          50.750    20032303.160   106896262.193 8      1468.684          50.062    20032310.320    83141524.226 8      1142.310          50.062    20032310.520    83141527.225 8      1142.310          50.812
G21  22732233.300   119458656.303 7      1341.113          46.500    22732231.240   119458656.305 5      1341.113          35.187    22732235.800    93084677.402 5      1045.023          35.375
G08  22949914.080   120602585.244 7      -253.353          46.437    22949913.160   120602585.249 7      -253.353          44.000    22949923.720    93976064.218 7      -197.418          43.875    22949924.340    93976067.224 7      -197.418          47.062
G14  22218786.760   116760514.510 7      2034.051          44.875    22218785.500   116760514.518 5      2034.051          35.062    22218790.860    90982220.166 5      1584.975          34.937    22218791.340    90982225.164 8      1584.975          49.687
R18  21794636.760   116341249.764 7      4904.350          44.562    21794636.780   116341249.754 7      4904.350          44.187    21794645.440    90487677.460 8      3814.494          48.000    21794645.000    90487679.474 8      3814.494          48.375
R17  20427346.260   109310851.106 7      3151.813          47.812    20427346.040   109310851.119 7      3151.813          47.000    20427355.120    85019591.971 8      2451.410          50.125    20427354.680    85019589.969 8      2451.410          50.125
R24  22664773.240   121198701.793 7       865.975          42.812    22664772.100   121198701.808 7       865.975          42.375    22664787.880    94265692.490 7       673.536          46.937    22664787.880    94265698.488 7       673.536          46.625
G22  23374020.980   122831307.159 7      3441.695          44.937    23374020.000   122831307.167 5      3441.695          32.562    23374023.240    95712712.264 5      2681.841          32.437
R16  23131154.640   123562476.426 7      1369.085          44.875    23131154.360   123562476.430 7      1369.085          44.500    23131164.780    96104180.341 7      1064.844          47.687    23131165.120    96104183.342 8      1064.844          48.250
R03  20220652.320   108242736.297 8      5529.500          48.812    20220653.500   108242736.323 7      5529.500          47.937    20220662.620    84188839.508 8      4300.722          50.625    20220662.820    84188837.511 8      4300.722          50.562
R01  23474633.220   125485375.053 7     -1297.614          42.000    23474631.600   125485375.057 6     -1297.614          40.625    23474644.960    97599778.196 6     -1009.255          37.312    23474643.680    97599772.187 6     -1009.255          37.562
G17  22726656.440   119429384.510 7      5391.167          44.875    22726654.980   119429384.515 6      5391.167          37.250    22726658.100    93061867.734 6      4200.909          36.687    22726658.300    93061871.735 7      4200.909          47.000
R15  23451710.340   125318829.035 7      -486.646          45.812    23451712.180   125318829.036 7      -486.646          44.375    23451730.560    97470279.804 7      -378.503          43.812    23451730.480    97470278.805 7      -378.503          43.875
> 2024 05 03 16 36 48.0000000  0 17
G03  20106014.720   105657823.930 8      2236.145          50.125    20106014.220   105657823.932 8      2236.145          50.687    20106018.340    82330769.209 8      1742.451          51.687    20106018.940    82330769.209 8      1742.451          51.125
G02  22002147.440   115622058.455 7      2033.134          47.500    22002145.880   115622058.455 6      2033.134          38.562    22002147.080    90095111.052 6      1584.260          38.562
G09  24902945.960   130865862.022 6      6098.783          41.312    24902944.800   130865862.029 6      6098.783          37.187    24902967.220   101973444.680 6      4752.298          36.937    24902967.840   101973487.674 6      4752.298          40.500
G04  22583343.100   118676272.710 7      5480.907          44.000    22583341.940   118676272.717 5      5480.907          33.250    22583350.880    92475047.212 5      4270.837          33.437    22583351.400    92475050.217 7      4270.837          47.312
R02  20032028.460   106894793.987 8      1467.939          50.437    20032028.180   106894793.993 8      1467.939          49.437    20032035.180    83140382.290 8      1141.730          50.562    20032035.560    83140385.290 8      1141.730          50.500
G21  22731978.200   119457315.297 7      1341.177          45.375    22731976.180   119457315.299 5      1341.177          35.625    22731980.740    93083632.458 5      1045.073          35.312
G08  22949962.260   120602838.846 7      -253.536          45.375    22949961.460   120602838.846 7      -253.536          43.937    22949971.900    93976261.818 7      -197.561          43.875    22949972.740    93976264.822 7      -197.561          47.437
G14  22218399.660   116758480.946 7      2033.506          44.750    22218398.440   116758480.953 5      2033.506          35.062    22218403.800    90980635.564 5      1584.550          34.687    22218404.300    90980640.558 8      1584.550          49.750
R18  21793717.840   116336345.587 7      4904.397          45.250    21793718.100   116336345.575 7      4904.397          44.562    21793726.480    90483863.100 7      3814.531          47.875    21793726.180    90483865.113 8      3814.531          48.000
R17  20426757.500   109307699.591 7      3151.495          47.500    20426757.140   109307699.603 7      3151.495          47.062    20426766.240    85017140.790 8      2451.163          50.500    20426765.960    85017138.788 8      2451.163          50.625
R24  22664610.800   121197836.057 7       865.689          43.437    22664610.320   121197836.064 7       865.689          42.500    22664625.780    94265019.121 7       673.314          46.375    22664625.860    94265025.116 7       673.314          46.875
G22  23373366.080   122827865.781 7      3441.279          44.812    23373365.080   122827865.789 5      3441.279          32.250    23373368.200    95710030.669 5      2681.516          32.437
R16  23130898.680   123561107.921 7      1368.426          44.625    23130898.080   123561107.931 7      1368.426          44.062    23130908.580    96103115.948 8      1064.332          48.375    23130908.880    96103118.953 8      1064.332          48.250
R03  20219619.540   108237207.159 8      5528.891          48.937    20219620.480   108237207.182 7      5528.891          47.562    20219629.700    84184539.071 8      4300.249          50.500    20219630.120    84184537.070 8      4300.249          50.625
R01  23474876.100   125486672.945 6     -1297.910          41.000    23474875.380   125486672.949 6     -1297.910          40.625    23474887.580    97600787.657 6     -1009.485          36.875    23474886.500    97600781.656 6     -1009.485          37.562
G17  22725630.200   119423993.511 7      5391.094          45.250    22725629.060   119423993.508 6      5391.094          37.062    22725632.540    93057666.951 6      4200.852          36.875    22725632.720    93057670.944 7      4200.852          47.062
R15  23451801.540   125319315.862 7      -486.697          45.375    23451803.060   125319315.868 7      -486.697          44.500    23451821.700    97470658.422 7      -378.542          43.500    23451821.840    97470657.429 7      -378.542          43.750
> 2024 05 03 16 36 49.0000000  0 17
G03  20105589.440   105655588.222 8      2235.436          49.812    20105588.800   105655588.227 8      2235.436          50.812    20105592.900    82329027.759 8      1741.898          51.312    20105593.540    82329027.759 8      1741.898          51.312
G02  22001760.440   115620025.416 7      2033.014          46.562    22001759.020   115620025.418 6      2033.014          38.625    22001760.180    90093526.863 6      1584.167          38.437
G09  24901785.300   130859763.377 6      6098.767          40.500    24901784.220   130859763.387 6      6098.767          37.125    24901806.620   101968692.485 6      4752.286          37.125    24901807.440   101968735.486 6      4752.286          40.500
G04  22582300.180   118670791.955 7      5480.653          44.500    22582299.060   118670791.962 5      5480.653          33.250    22582307.860    92470776.502 5      4270.638          33.437    22582308.420    92470779.507 7      4270.638          47.312
R02  20031753.540   106893326.585 8      1466.979          50.500    20031753.240   106893326.589 8      1466.979          49.000    20031760.100    83139240.976 8      1140.984          50.437    20031760.460    83139243.975 8      1140.984          50.562
G21  22731722.960   119455974.312 7      1340.933          45.625    22731721.060   119455974.317 5      1340.933          35.125    22731725.560    93082587.537 5      1044.883          35.312
G08  22950010.480   120603092.717 7      -253.965          45.750    22950009.760   120603092.727 7      -253.965          44.000    22950020.240    93976459.638 7      -197.895          43.625    22950021.000    93976462.650 7      -197.895          47.000
G14  22218012.760   116756447.948 7      2032.703          44.562    22218011.460   116756447.956 5      2032.703          35.125    22218016.800    90979051.406 5      1583.924          34.875    22218017.480    90979056.398 8      1583.924          49.812
R18  21792799.120   116331441.331 7      4904.295          44.187    21792799.160   116331441.324 7      4904.295          44.562    21792807.600    90480048.687 8      3814.451          48.062    21792807.500    90480050.691 7      3814.451          47.812
R17  20426168.660   109304548.268 8      3151.223          48.000    20426168.500   109304548.269 7      3151.223          46.937    20426177.460    85014689.755 8      2450.952          50.437    20426176.700    85014687.757 8      2450.952          50.750
R24  22664449.620   121196970.551 7       865.427          43.437    22664448.020   121196970.555 7       865.427          42.500    22664464.060    94264345.945 7       673.110          46.500    22664464.060    94264351.943 7       673.110          47.000
G22  23372711.100   122824424.892 7      3440.806          44.500    23372710.260   122824424.899 5      3440.806          32.250    23372713.460    95707349.456 5      2681.148          32.375
R16  23130642.480   123559740.009 7      1367.709          44.937    23130641.940   123559740.027 7      1367.709          44.312    23130652.400    96102052.023 8      1063.774          48.125    23130652.740    96102055.026 8      1063.774          48.187
R03  20218586.820   108231678.674 8      5528.183          49.375    20218587.860   108231678.702 7      5528.183          47.062    20218597.020    84180239.144 8      4299.698          50.312    20218597.260    84180237.148 8      4299.698          50.437
R01  23475119.120   125487971.064 6     -1298.134          41.000    23475118.400   125487971.073 6     -1298.134          40.937    23475129.400    97601797.314 6     -1009.660          36.875    23475128.960    97601791.304 6     -1009.660          37.312
G17  22724604.600   119418602.602 7      5390.946          44.812    22724603.140   119418602.599 6      5390.946          36.875    22724606.660    93053466.247 6      4200.737          36.562    22724606.740    93053470.239 7      4200.737          47.437
R15  23451893.040   125319802.758 7      -486.844          45.312    23451894.520   125319802.759 7      -486.844          44.062    23451912.780    97471037.096 7      -378.657          43.562    23451912.780    97471036.101 7      -378.657          43.562
> 2024 05 03 16 36 50.0000000  0 17
G03  20105164.040   105653352.998 8      2234.748          50.062    20105163.460   105653353.003 8      2234.748          51.062    20105167.600    82327285.817 8      1741.362          51.312    20105168.280    82327285.817 8      1741.362          51.687
G02  22001373.580   115617992.443 7      2032.720          47.250    22001372.240   115617992.448 6      2032.720          38.500    22001373.300    90091942.730 6      1583.938          38.562
G09  24900624.720   130853664.582 6      6098.717          41.250    24900623.620   130853664.587 6      6098.717          37.125    24900646.000   101963940.170 6      4752.247          37.250    24900646.660   101963983.162 6      4752.247          40.437
G04  22581257.260   118665311.410 7      5480.201          44.562    22581256.040   118665311.420 5      5480.201          33.000    22581265.060    92466505.957 5      4270.286          32.937    22581265.660    92466508.971 7      4270.286          47.062
R02  20031478.660   106891859.973 8      1465.970          50.687    20031478.240   106891859.977 8      1465.970          49.562    20031485.300    83138100.277 8      1140.199          50.500    20031485.460    83138103.279 8      1140.199          50.250
G21  22731467.980   119454633.319 7      1340.805          46.625    22731465.720   119454633.324 5      1340.805          35.250    22731470.380    93081542.601 5      1044.783          35.250
G08  22950058.980   120603346.893 7      -254.555          45.500    22950058.140   120603346.895 7      -254.555          44.125    22950068.680    93976657.692 7      -198.354          43.750    22950069.480    93976660.694 7      -198.354          46.562
G14  22217625.840   116754415.437 7      2031.993          43.875    22217624.800   116754415.445 5      2031.993          35.437    22217630.140    90977467.629 5      1583.371          35.312    22217630.820    90977472.627 8      1583.371          49.437
R18  21791880.440   116326537.018 7      4904.123          44.500    21791880.740   116326537.019 7      4904.123          44.812    21791888.740    90476234.226 7      3814.318          47.750    21791888.640    90476236.230 7      3814.318          47.750
R17  20425579.660   109301397.140 7      3150.800          46.000    20425579.380   109301397.150 7      3150.800          46.625    20425588.580    85012238.884 8      2450.622          50.312    20425588.080    85012236.885 8      2450.622          50.062
R24  22664287.640   121196105.326 7       864.938          42.062    22664286.640   121196105.335 7       864.938          42.000    22664302.020    94263672.990 7       672.729          46.375    22664302.040    94263678.986 7       672.729          47.062
G22  23372056.500   122820984.499 7      3439.957          44.812    23372055.480   122820984.509 5      3439.957          32.187    23372058.780    95704668.631 5      2680.486          32.375
R16  23130386.520   123558372.680 7      1366.715          45.187    23130385.980   123558372.691 7      1366.715          44.625    23130396.740    96100988.536 8      1063.000          48.312    23130396.800    96100991.537 8      1063.000          48.562
R03  20217554.040   108226150.847 8      5527.354          49.000    20217555.140   108226150.875 7      5527.354          47.812    20217564.240    84175939.723 8      4299.053          50.187    20217564.520    84175937.725 8      4299.053          50.500
R01  23475362.120   125489269.485 6     -1298.780          41.187    23475361.540   125489269.494 6     -1298.780          40.937    23475371.960    97602807.205 6     -1010.162          36.875    23475371.720    97602801.200 6     -1010.162          37.312
G17  22723578.740   119413211.802 7      5390.377          43.937    22723577.560   119413211.810 6      5390.377          37.125    22723580.840    93049265.634 6      4200.294          37.000    22723581.320    93049269.639 7      4200.294          47.312
R15  23451984.000   125320289.702 7      -487.199          46.312    23451985.680   125320289.709 7      -487.199          44.562    23452003.960    97471415.814 7      -378.933          43.812    23452004.120    97471414.821 7      -378.933          43.500
> 2024 05 03 16 36 51.0000000  0 17
G03  20104738.860   105651118.407 8      2234.398          49.187    20104738.220   105651118.412 8      2234.398          50.500    20104742.340    82325544.776 8      1741.089          51.062    20104743.060    82325544.776 8      1741.089          50.187
G02  22000986.740   115615959.645 7      2032.795          46.875    22000985.320   115615959.650 6      2032.795          38.250    22000986.560    90090358.724 6      1583.996          37.937
G09  24899464.560   130847565.709 6      6098.989          41.750    24899463.180   130847565.714 6      6098.989          36.437    24899485.460   101959187.797 6      4752.459          36.375    24899485.600   101959230.787 6      4752.459          40.437
G04  22580214.140   118659831.136 7      5480.145          44.312    22580213.160   118659831.143 5      5480.145          33.000    22580222.140    92462235.622 5      4270.243          32.937    22580222.680    92462238.632 7      4270.243          47.000
R02  20031204.220   106890394.316 8      1465.328          50.437    20031203.680   106890394.309 8      1465.328          49.187    20031210.560    83136960.318 8      1139.700          49.562    20031210.780    83136963.317 8      1139.700          49.250
G21  22731213.000   119453292.439 7      1341.051          46.062    22731210.500   119453292.443 5      1341.051          35.375    22731215.140    93080497.755 5      1044.974          35.500
G08  22950107.180   120603601.384 7      -254.651          45.312    22950106.540   120603601.383 7      -254.651          43.562    22950117.080    93976855.983 7      -198.429          43.375    22950117.860    93976858.982 7      -198.429          46.562
G14  22217239.280   116752383.633 7      2031.638          44.437    22217238.120   116752383.641 5      2031.638          35.437    22217243.540    90975884.401 5      1583.095          35.312    22217244.080    90975889.397 8      1583.095          49.500
R18  21790961.960   116321632.863 7      4904.378          44.687    21790962.160   116321632.859 7      4904.378          45.187    21790969.960    90472419.881 7      3814.516          46.812    21790970.020    90472421.887 7      3814.516          46.937
R17  20424990.880   109298246.363 7      3150.741          46.312    20424990.460   109298246.373 7      3150.741          46.562    20424999.560    85009788.276 8      2450.576          49.562    20424999.380    85009786.276 8      2450.576          49.375
R24  22664125.780   121195240.392 7       865.009          42.125    22664124.800   121195240.404 7       865.009          42.000    22664140.260    94263000.253 7       672.784          45.812    22664140.240    94263006.249 7       672.784          45.937
G22  23371401.920   122817544.784 7      3439.589          44.750    23371401.000   122817544.794 5      3439.589          32.187    23371404.340    95701988.331 5      2680.199          32.250
R16  23130130.740   123557006.079 7      1366.366          45.562    23130130.360   123557006.085 7      1366.366          44.000    23130140.860    96099925.616 7      1062.729          47.250    23130140.880    96099928.619 8      1062.729          48.312
R03  20216521.600   108220623.745 8      5526.802          48.187    20216522.600   108220623.776 7      5526.802          46.687    20216531.680    84171640.875 8      4298.624          50.125    20216532.040    84171638.876 8      4298.624          49.750
R01  23475604.840   125490568.293 7     -1298.767          42.562    23475604.540   125490568.308 6     -1298.767          41.312    23475615.100    97603817.404 6     -1010.152          36.875    23475614.820    97603811.403 6     -1010.152          37.312
G17  22722553.060   119407821.292 7      5390.505          44.000    22722551.680   119407821.299 6      5390.505          37.125    22722555.060    93045065.239 6      4200.394          37.000    22722555.780    93045069.246 7      4200.394          47.250
R15  23452075.100   125320776.788 7      -487.079          44.875    23452076.800   125320776.792 7      -487.079          43.812    23452094.860    97471794.636 7      -378.840          43.125    23452095.420    97471793.635 7      -378.840          43.312
> 2024 05 03 16 36 52.0000000  0 17
G03  20104313.580   105648884.381 8      2233.628          49.375    20104313.080   105648884.389 8      2233.628          50.125    20104317.220    82323803.325 8      1740.489          50.750    20104317.680    82323803.325 8      1740.489          51.250
G02  22000599.860   115613926.927 7      2032.566          47.000    22000598.380   115613926.931 6      2032.566          38.250    22000599.700    90088774.792 6      1583.818          38.000
G09  24898303.660   130841466.770 6      6098.951          41.250    24898302.600   130841466.772 6      6098.951          36.750    24898325.000   101954435.367 6      4752.429          36.750    24898324.260   101954478.357 6      4752.429          40.250
G04  22579171.260   118654351.119 7      5479.889          44.062    22579170.380   118654351.124 5      5479.889          33.000    22579179.260    92457965.487 5      4270.043          33.250    22579179.940    92457968.489 7      4270.043          47.437
R02  20030929.760   106888929.563 8      1464.211          51.062    20030929.160   106888929.564 8      1464.211          49.562    20030936.100    83135821.070 8      1138.831          50.562    20030936.300    83135824.069 8      1138.831          50.187
G21  22730957.720   119451951.635 7      1340.737          45.812    22730955.440   119451951.640 5      1340.737          35.875    22730960.040    93079452.975 6      1044.730          36.000
G08  22950155.840   120603856.216 7      -255.114          45.437    22950155.040   120603856.216 7      -255.114          43.687    22950165.720    93977054.545 7      -198.790          43.687    22950166.140    93977057.547 7      -198.790          47.187
G14  22216852.840   116750352.425 7      2030.904          44.562    22216851.700   116750352.435 5      2030.904          35.437    22216857.140    90974301.637 5      1582.522          34.937    22216857.480    90974306.637 8      1582.522          49.875
R18  21790043.280   116316728.687 7      4904.157          45.000    21790043.460   116316728.685 7      4904.157          44.562    21790051.200    90468605.528 7      3814.344          47.750    21790051.400    90468607.536 7      3814.344          47.687
R17  20424401.660   109295095.822 7      3150.306          46.937    20424401.640   109295095.834 7      3150.306          46.125    20424411.000    85007337.859 8      2450.238          50.187    20424410.640    85007335.863 8      2450.238          50.312
R24  22663964.420   121194375.808 7       864.253          42.125    22663963.860   121194375.823 6       864.253          41.625    22663978.460    94262327.789 7       672.197          45.937    22663978.620    94262333.789 7       672.197          46.875
G22  23370747.560   122814105.613 7      3438.959          45.812    23370746.540   122814105.626 5      3438.959          32.187    23370749.840    95699308.458 5      2679.708          32.250
R16  23129875.100   123555640.114 7      1365.653          44.687    23129874.600   123555640.121 7      1365.653          44.312    23129885.440    96098863.197 8      1062.174          48.000    23129885.340    96098866.195 8      1062.174          48.375
R03  20215488.980   108215097.369 8      5525.966          48.500    20215490.360   108215097.403 7      5525.966          46.750    20215499.300    84167342.590 8      4297.974          50.375    20215499.380    84167340.594 8      4297.974          50.437
R01  23475847.660   125491867.444 7     -1299.423          42.562    23475846.780   125491867.461 6     -1299.423          41.312    23475857.720    97604827.865 6     -1010.662          36.000    23475857.460    97604821.866 6     -1010.662          37.312
G17  22721527.200   119402430.942 7      5390.191          46.687    22721525.920   119402430.942 6      5390.191          36.687    22721529.340    93040864.960 6      4200.149          36.437    22721529.880    93040868.967 7      4200.149          47.250
R15  23452166.120   125321263.930 7      -487.059          44.812    23452167.880   125321263.932 7      -487.059          43.312    23452186.200    97472173.505 7      -378.824          43.312    23452186.480    97472172.511 7      -378.824          42.750
> 2024 05 03 16 36 53.0000000  0 17
G03  20103888.700   105646650.978 8      2232.849          49.500    20103888.040   105646650.981 8      2232.849          50.875    20103892.200    82322063.513 8      1739.882          51.375    20103892.820    82322063.513 8      1739.882          51.312
G02  22000213.160   115611894.371 7      2032.304          47.312    22000211.700   115611894.376 6      2032.304          38.687    22000212.900    90087190.980 6      1583.614          38.312
G09  24897143.460   130835367.815 6      6098.765          41.750    24897141.980   130835367.818 6      6098.765          36.812    24897164.280   101949682.924 6      4752.284          37.000    24897163.500   101949725.922 6      4752.284          40.250
G04  22578128.580   118648871.463 7      5479.265          44.000    22578127.680   118648871.470 5      5479.265          33.250    22578136.460    92453695.631 5      4269.558          33.250    22578137.260    92453698.639 7      4269.558          47.000
R02  20030655.360   106887465.779 8      1463.132          50.562    20030654.960   106887465.780 8      1463.132          49.687    20030661.780    83134682.573 8      1137.992          50.312    20030661.980    83134685.575 8      1137.992          50.375
G21  22730702.580   119450610.949 7      1340.461          45.937    22730700.360   119450610.954 5      1340.461          35.875    22730704.960    93078408.281 6      1044.515          36.000
G08  22950204.580   120604111.440 7      -255.602          45.687    22950203.600   120604111.442 7      -255.602          44.500    22950214.320    93977253.411 7      -199.170          44.062    22950214.940    93977256.417 7      -199.170          47.000
G14  22216466.280   116748321.861 7      2029.960          44.500    22216465.400   116748321.874 5      2029.960          35.375    22216470.600    90972719.378 5      1581.787          35.187    22216471.080    90972724.384 8      1581.787          49.625
R18  21789124.760   116311824.527 7      4903.921          45.312    21789125.120   116311824.522 7      4903.921          44.187    21789132.580    90464791.174 7      3814.161          47.500    21789132.340    90464793.178 7      3814.161          47.562
R17  20423813.060   109291945.599 7      3149.878          47.750    20423813.140   109291945.616 7      3149.878          47.062    20423822.220    85004887.689 8      2449.905          50.437    20423821.800    85004885.692 8      2449.905          50.875
R24  22663802.760   121193511.578 7       863.925          42.375    22663802.260   121193511.592 7       863.925          42.750    22663816.780    94261655.601 7       671.942          46.062    22663816.620    94261661.601 7       671.942          46.187
G22  23370093.200   122810667.049 7      3437.968          44.625    23370092.200   122810667.059 5      3437.968          32.375    23370095.600    95696629.053 5      2678.936          32.250
R16  23129619.780   123554274.868 7      1364.599          44.687    23129618.840   123554274.874 7      1364.599          44.500    23129629.920    96097801.341 7      1061.355          47.687    23129629.800    96097804.343 8      1061.355          48.687
R03  20214456.840   108209571.785 7      5524.979          47.625    20214458.100   108209571.811 7      5524.979          47.375    20214467.120    84163044.912 8      4297.206          50.625    20214467.120    84163042.914 8      4297.206          50.312
R01  23476090.720   125493166.945 7     -1299.852          42.812    23476089.460   125493166.943 6     -1299.852          41.625    23476102.100    97605838.579 6     -1010.996          36.000    23476100.440    97605832.585 6     -1010.996          37.312
G17  22720501.200   119397040.779 7      5389.842          45.687    22720500.260   119397040.770 6      5389.842          37.000    22720503.480    93036664.826 6      4199.877          36.687    22720504.120    93036668.829 7      4199.877          47.062
R15  23452257.180   125321751.276 7      -487.719          44.375    23452259.500   125321751.279 7      -487.719          43.312    23452277.140    97472552.529 7      -379.337          43.687    23452277.700    97472551.536 7      -379.337          43.250
> 2024 05 03 16 36 54.0000000  0 17
G03  20103463.780   105644418.077 8      2232.578          49.562    20103463.140   105644418.082 8      2232.578          51.000    20103467.300    82320323.536 8      1739.671          51.375    20103468.160    82320323.536 8      1739.671          51.375
G02  21999826.340   115609861.897 7      2032.323          46.687    21999824.920   115609861.904 6      2032.323          38.375    21999826.160    90085607.236 6      1583.629          38.125
G09  24895982.440   130829268.700 6      6099.186          41.625    24895981.320   130829268.708 6      6099.186          37.562    24896003.500   101944930.363 6      4752.612          37.250    24896003.060   101944973.371 6      4752.612          40.937
G04  22577085.800   118643391.987 7      5479.368          44.000    22577085.140   118643391.995 5      5479.368          33.250    22577093.880    92449425.916 5      4269.637          33.250    22577094.300    92449428.922 7      4269.637          47.250
R02  20030381.280   106886002.881 8      1462.408          50.812    20030380.980   106886002.877 8      1462.408          49.812    20030387.660    83133544.753 8      1137.428          50.687    20030387.880    83133547.755 8      1137.428          50.687
G21  22730447.660   119449270.290 7      1340.577          45.687    22730445.340   119449270.292 5      1340.577          35.187    22730449.820    93077363.609 5      1044.605          35.312
G08  22950252.980   120604366.945 7      -255.686          44.375    22950252.220   120604366.945 7      -255.686          44.312    22950262.920    93977452.497 7      -199.236          44.125    22950263.940    93977455.501 7      -199.236          47.250
G14  22216080.020   116746291.846 7      2029.661          43.937    22216079.000   116746291.862 5      2029.661          35.250    22216084.360    90971137.550 5      1581.554          34.750    22216084.840    90971142.548 8      1581.554          49.187
R18  21788206.040   116306920.318 7      4904.174          45.687    21788206.160   116306920.327 7      4904.174          44.625    21788213.620    90460976.798 7      3814.358          47.812    21788213.980    90460978.805 8      3814.358          48.062
R17  20423224.480   109288795.635 8      3149.765          48.250    20423224.520   109288795.650 7      3149.765          47.000    20423233.680    85002437.715 8      2449.817          50.562    20423233.220    85002435.716 8      2449.817          50.750
R24  22663641.180   121192647.652 7       863.868          43.375    22663640.700   121192647.656 7       863.868          42.750    22663655.340    94260983.644 7       671.897          45.937    22663655.260    94260989.640 7       671.897          46.500
G22  23369439.020   122807228.989 7      3437.743          45.312    23369437.960   122807228.994 5      3437.743          32.375    23369441.240    95693950.041 5      2678.761          32.562
R16  23129364.400   123552910.220 7      1364.305          45.062    23129363.000   123552910.218 7      1364.305          43.500    23129374.420    96096739.937 8      1061.126          48.000    23129374.360    96096742.938 8      1061.126          48.625
R03  20213425.040   108204046.836 7      5524.538          47.812    20213425.880   108204046.861 7      5524.538          47.125    20213434.920    84158747.731 8      4296.863          50.375    20213435.100    84158745.737 8      4296.863          50.062
R01  23476334.160   125494466.718 7     -1299.856          42.812    23476332.180   125494466.722 6     -1299.856          41.625    23476345.640    97606849.516 6     -1010.999          36.000    23476344.360    97606843.517 6     -1010.999          36.250
G17  22719475.480   119391650.736 7      5389.990          43.875    22719474.560   119391650.730 6      5389.990          37.000    22719477.640    93032464.797 6      4199.992          36.812    22719477.740    93032468.798 7      4199.992          46.812
R15  23452348.360   125322238.650 7      -487.567          44.375    23452350.540   125322238.649 7      -487.567          43.125    23452368.380    97472931.575 7      -379.218          42.937    23452368.860    97472930.576 7      -379.218          43.562
> 2024 05 03 16 36 55.0000000  0 17
G03  20103038.900   105642185.578 8      2232.224          49.437    20103038.300   105642185.580 8      2232.224          50.937    20103042.440    82318583.724 8      1739.395          51.375    20103043.280    82318583.724 8      1739.395          51.500
G02  21999439.740   115607829.338 7      2032.470          47.062    21999438.060   115607829.343 6      2032.470          38.875    21999439.520    90084023.424 6      1583.743          38.625
G09  24894821.740   130823169.354 6      6099.454          41.750    24894820.740   130823169.359 6      6099.454          37.687    24894842.940   101940177.615 6      4752.821          37.750    24894843.340   101940220.622 6      4752.821          40.937
G04  22576043.300   118637912.593 7      5479.414          44.312    22576042.460   118637912.601 5      5479.414          33.125    22576051.200    92445156.267 5      4269.674          32.812    22576051.800    92445159.275 7      4269.674          47.812
R02  20030107.020   106884540.655 8      1461.749          51.000    20030106.780   106884540.656 8      1461.749          49.437    20030113.620    83132407.474 8      1136.916          50.375    20030113.660    83132410.478 8      1136.916          50.437
G21  22730192.280   119447929.496 7      1340.752          45.187    22730190.180   119447929.504 5      1340.752          35.500    22730194.720    93076318.833 5      1044.742          35.250
G08  22950301.540   120604622.592 7      -255.770          45.062    22950300.920   120604622.592 7      -255.770          44.687    22950311.640    93977651.695 7      -199.301          44.187    22950312.420    93977654.694 7      -199.301          46.937
G14  22215693.860   116744262.278 7      2029.385          43.062    22215693.020   116744262.291 5      2029.385          35.500    22215698.120    90969556.060 5      1581.339          34.937    22215698.400    90969561.060 8      1581.339          49.375
R18  21787287.560   116302015.971 7      4904.398          44.937    21787287.260   116302015.977 7      4904.398          45.187    21787294.860    90457162.308 8      3814.532          48.062    21787295.040    90457164.314 7      3814.532          47.937
R17  20422635.760   109285645.770 7      3149.747          47.250    20422635.920   109285645.791 7      3149.747          47.375    20422645.120    84999987.825 8      2449.803          50.687    20422644.700    84999985.825 8      2449.803          51.000
R24  22663479.900   121191783.851 7       863.595          43.375    22663479.200   121191783.850 7       863.595          43.000    22663493.840    94260311.781 7       671.685          46.000    22663493.460    94260317.783 7       671.685          46.875
G22  23368785.280   122803791.316 7      3437.502          45.687    23368783.680   122803791.323 5      3437.502          32.500    23368786.900    95691271.339 5      2678.573          32.562
R16  23129108.880   123551546.057 7      1363.896          45.062    23129107.980   123551546.056 7      1363.896          44.125    23129119.120    96095678.920 7      1060.808          47.687    23129118.840    96095681.921 8      1060.808          48.500
R03  20212393.160   108198522.395 8      5524.097          48.937    20212393.400   108198522.423 7      5524.097          47.562    20212402.860    84154450.950 8      4296.520          50.062    20212403.060    84154448.954 8      4296.520          50.375
R01  23476576.800   125495766.666 7     -1300.138          42.125    23476576.280   125495766.667 6     -1300.138          41.062    23476589.120    97607860.574 6     -1011.218          36.000    23476587.420    97607854.571 6     -1011.218          36.250
G17  22718450.020   119386260.706 7      5390.030          44.187    22718448.820   119386260.714 6      5390.030          36.625    22718452.060    93028264.788 6      4200.023          36.500    22718452.300    93028268.787 7      4200.023          47.687
R15  23452439.440   125322725.971 7      -487.244          44.500    23452441.760   125322725.975 7      -487.244          43.125    23452459.940    97473310.580 7      -378.968          43.625    23452460.040    97473309.581 7      -378.968          43.000
> 2024 05 03 16 36 56.0000000  0 17
G03  20102614.320   105639953.593 8      2231.704          49.937    20102613.560   105639953.595 8      2231.704          50.750    20102617.740    82316845.140 8      1738.990          51.375    20102618.760    82316845.140 8      1738.990          51.312
G02  21999053.080   115605796.859 7      2032.445          47.375    21999051.320   115605796.863 6      2032.445          38.500    21999052.660    90082439.674 6      1583.724          38.500
G09  24893660.920   130817069.874 7      6099.534          42.250    24893660.120   130817069.884 6      6099.534          37.125    24893682.340   101935424.770 6      4752.884          37.375    24893682.700   101935467.778 6      4752.884          40.750
G04  22575000.840   118632433.433 7      5479.088          44.437    22574999.720   118632433.438 5      5479.088          33.125    22575008.420    92440886.800 5      4269.419          32.812    22575009.080    92440889.808 7      4269.419          47.375
R02  20029832.840   106883079.280 8      1460.996          51.250    20029832.820   106883079.273 8      1460.996          50.000    20029839.640    83131270.843 8      1136.330          50.375    20029840.160    83131273.847 8      1136.330          50.250
G21  22729937.420   119446588.750 7      1340.785          46.187    22729935.020   119446588.758 5      1340.785          35.750    22729939.500    93075274.096 5      1044.768          35.812
G08  22950350.320   120604878.528 7      -256.032          45.062    22950349.380   120604878.530 7      -256.032          43.875    22950360.240    93977851.117 7      -199.505          43.562    22950360.980    93977854.123 7      -199.505          46.875
G14  22215307.840   116742233.267 7      2028.719          42.812    22215306.800   116742233.277 5      2028.719          35.125    22215311.920    90967975.008 5      1580.820          34.937    22215312.400    90967980.008 8      1580.820          49.937
R18  21786368.800   116297111.584 7      4904.437          44.812    21786368.260   116297111.590 7      4904.437          44.687    21786376.040    90453347.787 7      3814.562          47.250    21786375.860    90453349.797 8      3814.562          48.062
R17  20422047.080   109282496.157 7      3149.558          47.375    20422047.360   109282496.172 7      3149.558          47.000    20422056.520    84997538.121 8      2449.656          50.625    20422055.860    84997536.122 8      2449.656          50.750
R24  22663318.640   121190920.268 7       863.450          42.875    22663317.760   121190920.280 7       863.450          42.812    22663332.020    94259640.107 7       671.572          46.125    22663332.280    94259646.105 7       671.572          46.687
G22  23368130.880   122800354.183 7      3436.844          45.500    23368129.660   122800354.188 5      3436.844          32.500    23368133.060    95688593.056 5      2678.060          32.437
R16  23128853.400   123550182.504 7      1363.288          44.812    23128852.780   123550182.497 7      1363.288          44.000    23128863.720    96094618.375 7      1060.335          47.625    23128864.000    96094621.375 8      1060.335          48.187
R03  20211361.380   108192998.604 8      5523.470          48.062    20211361.540   108192998.638 7      5523.470          47.187    20211370.840    84150154.675 8      4296.033          50.187    20211371.540    84150152.678 8      4296.033          51.187
R01  23476820.860   125497066.872 7     -1300.329          42.312    23476819.660   125497066.873 6     -1300.329          41.062    23476832.300    97608871.846 6     -1011.367          36.312    23476830.640    97608865.834 6     -1011.367          36.250
G17  22717424.200   119380870.837 7      5389.863          45.625    22717423.020   119380870.840 6      5389.863          36.750    22717426.340    93024064.890 6      4199.893          36.500    22717427.320    93024068.887 7      4199.893          47.750
R15  23452530.500   125323213.397 7      -487.445          44.125    23452533.120   125323213.398 7      -487.445          42.125    23452551.240    97473689.657 7      -379.124          43.500    23452551.300    97473688.662 7      -379.124          43.312
> 2024 05 03 16 36 57.0000000  0 17
G03  20102189.420   105637722.234 8      2231.227          49.562    20102188.980   105637722.234 8      2231.227          50.625    20102193.120    82315105.245 8      1738.619          51.500    20102193.720    82315105.245 8      1738.619          51.125
G02  21998666.300   115603764.545 7      2032.441          47.250    21998664.600   115603764.552 6      2032.441          38.500    21998665.940    90080856.050 6      1583.720          38.625
G09  24892500.080   130810970.325 6      6099.765          41.937    24892499.440   130810970.333 6      6099.765          37.375    24892521.620   101930671.870 6      4753.063          37.500    24892521.860   101930714.866 6      4753.063          40.750
G04  22573957.820   118626954.554 7      5478.949          44.062    22573957.220   118626954.556 5      5478.949          33.312    22573965.880    92436617.549 5      4269.311          33.375    22573966.400    92436620.559 7      4269.311          47.437
R02  20029559.660   106881618.861 8      1460.165          51.125    20029559.220   106881618.859 8      1460.165          49.375    20029565.900    83130134.961 8      1135.684          50.687    20029566.300    83130137.965 8      1135.684          50.562
G21  22729682.040   119445248.130 7      1340.757          45.937    22729679.900   119445248.135 5      1340.757          35.312    22729684.300    93074229.453 5      1044.746          35.500
G08  22950398.960   120605134.840 7      -256.364          45.812    22950398.200   120605134.842 7      -256.364          43.875    22950409.060    93978050.834 7      -199.764          43.937    22950409.800    93978053.834 7      -199.764          47.125
G14  22214922.100   116740204.904 7      2028.199          43.937    22214920.700   116740204.917 5      2028.199          35.312    22214925.960    90966394.464 5      1580.414          34.687    22214926.360    90966399.464 8      1580.414          49.687
R18  21785449.900   116292207.285 7      4904.481          45.312    21785449.420   116292207.285 7      4904.481          44.937    21785457.400    90449533.330 7      3814.597          47.750    21785457.760    90449535.336 7      3814.597          47.562
R17  20421459.080   109279346.868 7      3149.356          47.750    20421458.780   109279346.883 7      3149.356          47.062    20421467.940    84995088.672 8      2449.499          50.625    20421467.940    84995086.677 8      2449.499          51.125
R24  22663157.060   121190057.056 7       863.290          42.750    22663156.200   121190057.060 7       863.290          42.812    22663170.440    94258968.707 7       671.448          45.750    22663170.360    94258974.709 7       671.448          46.187
G22  23367477.240   122796917.674 7      3436.269          45.500    23367475.700   122796917.676 5      3436.269          32.500    23367479.160    95685915.254 5      2677.612          32.437
R16  23128598.660   123548819.675 7      1362.701          45.125    23128598.120   123548819.673 7      1362.701          44.000    23128608.480    96093558.396 7      1059.879          47.500    23128608.900    96093561.393 8      1059.879          48.812
R03  20210329.480   108187475.547 8      5522.789          48.187    20210329.960   108187475.580 7      5522.789          46.875    20210339.240    84145858.974 8      4295.503          50.312    20210339.640    84145856.973 8      4295.503          50.125
R01  23477064.040   125498367.477 7     -1300.465          42.312    23477063.460   125498367.489 6     -1300.465          41.375    23477075.640    97609883.423 6     -1011.473          36.312    23477074.500    97609877.414 6     -1011.473          36.875
G17  22716398.660   119375481.210 7      5389.713          45.562    22716397.340   119375481.209 6      5389.713          36.812    22716400.760    93019865.175 6      4199.776          36.375    22716401.660    93019869.184 7      4199.776          47.437
R15  23452621.420   125323700.929 7      -487.385          43.625    23452624.080   125323700.935 7      -487.385          42.125    23452642.420    97474068.828 7      -379.077          43.625    23452643.160    97474067.831 7      -379.077          43.375
> 2024 05 03 16 36 58.0000000  0 17
G03  20101765.120   105635491.493 8      2230.631          50.625    20101764.420   105635491.495 8      2230.631          51.062    20101768.640    82313367.808 8      1738.154          51.687    20101769.420    82313367.808 8      1738.154          51.375
G02  21998279.600   115601732.391 7      2032.238          46.312    21998277.880   115601732.398 6      2032.238          38.687    21998279.420    90079272.552 6      1583.562          38.562
G09  24891339.540   130804870.795 6      6099.836          41.937    24891338.640   130804870.800 6      6099.836          37.937    24891360.940   101925918.984 6      4753.119          37.812    24891361.000   101925961.988 6      4753.119          40.812
G04  22572915.400   118621476.046 7      5478.530          43.750    22572914.920   118621476.045 5      5478.530          33.625    22572923.400    92432348.588 5      4268.984          33.375    22572923.660    92432351.590 7      4268.984          47.687
R02  20029286.120   106880159.356 8      1459.249          51.062    20029285.660   106880159.357 8      1459.249          49.750    20029292.600    83128999.798 8      1134.971          50.500    20029292.760    83129002.799 8      1134.971          50.500
G21  22729426.840   119443907.610 7      1340.598          45.812    22729424.860   119443907.618 5      1340.598          35.375    22729429.220    93073184.890 5      1044.622          35.500
G08  22950448.080   120605391.559 7      -256.775          45.125    22950447.220   120605391.558 7      -256.775          44.000    22950458.040    93978250.863 7      -200.084          43.812    22950458.600    93978253.865 7      -200.084          47.625
G14  22214536.280   116738177.212 7      2027.546          44.187    22214534.880   116738177.225 5      2027.546          35.312    22214540.260    90964814.442 5      1579.906          35.312    22214540.700    90964819.444 8      1579.906          49.625
R18  21784530.760   116287303.009 7      4904.457          45.187    21784530.700   116287303.008 7      4904.457          44.500    21784538.680    90445718.891 8      3814.578          48.000    21784538.580    90445720.889 7      3814.578          47.562
R17  20420870.620   109276197.878 7      3149.075          47.875    20420870.580   109276197.893 7      3149.075          46.750    20420879.580    84992639.458 8      2449.281          50.500    20420879.100    84992637.460 8      2449.281          50.625
R24  22662995.560   121189194.231 7       862.894          43.812    22662995.000   121189194.238 7       862.894          42.812    22663009.320    94258297.615 7       671.140          45.687    22663009.060    94258303.615 7       671.140          46.250
G22  23366823.440   122793481.748 7      3435.816          45.562    23366821.900   122793481.753 5      3435.816          32.500    23366825.240    95683237.909 5      2677.259          32.625
R16  23128343.460   123547457.546 7      1362.068          44.937    23128343.120   123547457.544 7      1362.068          44.125    23128353.460    96092498.956 7      1059.386          47.875    23128353.560    96092501.961 7      1059.386          47.750
R03  20209297.480   108181953.263 8      5522.084          48.375    20209298.020   108181953.294 7      5522.084          47.000    20209307.580    84141563.860 8      4294.954          50.437    20209307.940    84141561.862 8      4294.954          50.375
R01  23477306.960   125499668.437 6     -1300.952          41.687    23477307.020   125499668.454 6     -1300.952          41.562    23477318.580    97610895.293 6     -1011.852          36.312    23477317.500    97610889.288 6     -1011.852          36.875
G17  22715373.120   119370091.769 7      5389.558          45.000    22715371.920   119370091.763 6      5389.558          37.000    22715375.360    93015665.612 6      4199.656          36.375    22715375.560    93015669.623 7      4199.656          46.875
R15  23452713.240   125324188.645 7      -487.554          43.812    23452715.140   125324188.652 7      -487.554          42.500    23452733.820    97474448.138 7      -379.209          43.562    23452734.120    97474447.143 7      -379.209          43.625
> 2024 05 03 16 36 59.0000000  0 17
G03  20101340.540   105633261.248 8      2230.037          49.375    20101340.040   105633261.250 8      2230.037          50.562    20101344.180    82311629.224 8      1737.691          51.687    20101344.940    82311629.224 8      1737.691          51.687
G02  21997892.800   115599700.271 7      2032.147          46.375    21997891.200   115599700.281 6      2032.147          38.687    21997892.620    90077689.082 6      1583.491          38.437
G09  24890178.680   130798771.099 6      6099.753          41.312    24890177.860   130798771.109 6      6099.753          37.562    24890200.120   101921165.970 6      4753.054          38.062    24890200.740   101921208.968 6      4753.054          40.812
G04  22571872.760   118615997.676 7      5478.267          44.750    22571872.360   118615997.679 5      5478.267          33.625    22571881.000    92428079.737 5      4268.780          33.312    22571881.440    92428082.749 7      4268.780          47.000
R02  20029012.440   106878700.666 8      1458.349          50.625    20029012.400   106878700.667 8      1458.349          49.625    20029019.100    83127865.262 8      1134.272          50.250    20029019.620    83127868.266 8      1134.272          50.812
G21  22729171.720   119442567.087 7      1340.627          45.562    22729169.780   119442567.095 5      1340.627          35.375    22729173.980    93072140.326 5      1044.644          35.375
G08  22950496.860   120605648.477 7      -256.948          45.812    22950496.060   120605648.482 7      -256.948          43.812    22950506.780    93978451.053 7      -200.219          43.812    22950507.680    93978454.059 7      -200.219          47.062
G14  22214150.400   116736150.027 7      2026.979          44.062    22214148.900   116736150.042 5      2026.979          35.187    22214154.540    90963234.817 5      1579.464          34.750    22214155.100    90963239.823 8      1579.464          49.750
R18  21783612.100   116282398.665 7      4904.414          44.375    21783611.980   116282398.671 7      4904.414          44.312    21783620.080    90441904.405 7      3814.544          47.687    21783619.920    90441906.405 7      3814.544          47.500
R17  20420282.040   109273049.097 7      3148.794          47.750    20420281.940   109273049.115 7      3148.794          47.375    20420291.140    84990190.408 8      2449.062          50.750    20420290.840    84990188.411 8      2449.062          51.500
R24  22662833.860   121188331.642 7       862.563          43.687    22662833.660   121188331.662 7       862.563          42.750    22662848.300    94257626.721 7       670.882          45.875    22662847.900    94257632.717 7       670.882          46.187
G22  23366169.740   122790046.329 7      3435.218          45.625    23366168.060   122790046.334 5      3435.218          32.625    23366171.500    95680560.953 5      2676.793          32.625
R16  23128089.040   123546095.974 7      1361.364          45.000    23128088.080   123546095.981 7      1361.364          44.000    23128098.460    96091439.963 7      1058.838          47.625    23128098.800    96091442.967 8      1058.838          48.250
R03  20208265.880   108176431.576 8      5521.471          48.125    20208266.480   108176431.602 7      5521.471          47.187    20208276.060    84137269.219 8      4294.477          50.437    20208276.240    84137267.220 8      4294.477          50.687
R01  23477549.960   125500969.691 6     -1301.342          41.687    23477549.900   125500969.703 6     -1301.342          41.562    23477560.800    97611907.405 6     -1012.155          36.312    23477560.580    97611901.391 6     -1012.155          36.875
G17  22714347.600   119364702.433 7      5389.311          44.125    22714346.500   119364702.441 6      5389.311          36.875    22714349.720    93011466.142 6      4199.463          36.687    22714349.800    93011470.155 7      4199.463          46.750
R15  23452804.320   125324676.359 7      -487.758          43.812    23452806.440   125324676.363 7      -487.758          42.500    23452825.320    97474827.436 7      -379.367          43.750    23452825.200    97474826.437 7      -379.367          43.437
> 2024 05 03 16 37  0.0000000  0 17
G03  20100916.380   105631031.610 8      2229.412          49.250    20100915.760   105631031.612 8      2229.412          50.625    20100919.920    82309892.359 8      1737.204          51.250    20100920.680    82309892.359 8      1737.204          51.125
G02  21997506.300   115597668.299 7      2032.113          47.687    21997504.540   115597668.301 6      2032.113          38.875    21997505.980    90076105.721 6      1583.464          38.625
G09  24889017.940   130792671.385 6      6099.784          41.687    24889017.120   130792671.390 6      6099.784          37.562    24889039.400   101916412.938 6      4753.078          37.500    24889039.460   101916455.936 6      4753.078          40.812
G04  22570830.440   118610519.651 7      5478.002          44.187    22570830.080   118610519.654 5      5478.002          33.312    22570838.560    92423811.152 5      4268.573          33.312    22570839.140    92423814.156 7      4268.573          47.250
R02  20028739.600   106877242.906 8      1457.455          51.250    20028739.140   106877242.904 8      1457.455          49.750    20028745.980    83126731.445 8      1133.576          50.375    20028746.380    83126734.445 8      1133.576          50.562
G21  22728916.940   119441226.699 7      1340.429          44.687    22728914.800   119441226.709 5      1340.429          35.562    22728918.920    93071095.864 5      1044.490          35.250
G08  22950545.960   120605905.838 7      -257.366          44.812    22950544.940   120605905.837 7      -257.366          44.312    22950555.740    93978651.577 7      -200.545          44.062    22950556.480    93978654.583 7      -200.545          46.812
G14  22213764.580   116734123.496 7      2026.411          44.937    22213763.280   116734123.509 5      2026.411          34.875    22213768.980    90961655.706 5      1579.022          34.750    22213769.220    90961660.706 8      1579.022          50.000
R18  21782693.300   116277494.355 7      4904.621          44.375    21782693.100   116277494.361 7      4904.621          44.812    21782701.320    90438089.944 7      3814.706          47.875    21782700.860    90438091.948 7      3814.706          47.687
R17  20419693.900   109269900.600 7      3148.449          47.812    20419693.840   109269900.617 7      3148.449          47.000    20419702.880    84987741.577 8      2448.794          50.062    20419702.280    84987739.577 8      2448.794          51.187
R24  22662673.100   121187469.460 7       862.073          43.562    22662672.300   121187469.485 7       862.073          43.250    22662686.840    94256956.126 7       670.502          45.375    22662686.320    94256962.126 7       670.502          46.000
G22  23365515.920   122786611.493 7      3434.704          46.625    23365514.560   122786611.501 5      3434.704          32.625    23365517.940    95677884.452 5      2676.393          32.625
R16  23127834.260   123544735.081 7      1360.751          44.625    23127833.240   123544735.085 7      1360.751          43.937    23127843.620    96090381.486 8      1058.362          48.062    23127843.760    96090384.487 8      1058.362          48.000
R03  20207234.500   108170910.671 7      5520.673          46.875    20207234.780   108170910.699 7      5520.673          46.812    20207244.600    84132975.188 8      4293.856          50.250    20207244.780    84132973.187 8      4293.856          50.375
R01  23477793.620   125502271.319 7     -1301.709          42.625    23477792.760   125502271.323 6     -1301.709          41.375    23477803.920    97612919.782 6     -1012.440          36.312    23477804.440    97612913.758 6     -1012.440          36.875
G17  22713321.940   119359313.323 7      5389.213          45.750    22713320.920   119359313.331 6      5389.213          36.875    22713324.200    93007266.836 6      4199.387          36.812    22713324.400    93007270.828 7      4199.387          46.625
R15  23452895.680   125325164.212 7      -487.840          42.375    23452897.740   125325164.229 6      -487.840          41.375    23452916.680    97475206.858 7      -379.431          44.312    23452916.900    97475205.865 7      -379.431          43.812
> 2024 05 03 16 37  1.0000000  0 17
G03  20100492.080   105628802.390 8      2228.835          48.875    20100491.580   105628802.392 8      2228.835          50.437    20100495.760    82308154.922 8      1736.754          50.625    20100496.480    82308154.922 8      1736.754          50.187
G02  21997119.420   115595636.292 7      2031.910          47.437    21997117.800   115595636.297 6      2031.910          38.375    21997119.300    90074522.339 6      1583.307          38.312
G09  24887857.200   130786571.479 6      6099.803          41.812    24887856.360   130786571.484 6      6099.803          37.187    24887878.680   101911659.756 6      4753.093          37.187    24887878.840   101911702.758 6      4753.093          40.812
G04  22569788.140   118605041.760 7      5477.673          44.312    22569787.700   118605041.765 5      5477.673          33.312    22569796.200    92419542.674 5      4268.317          33.187    22569796.480    92419545.684 7      4268.317          47.187
R02  20028466.340   106875785.915 8      1456.445          50.500    20028466.280   106875785.919 8      1456.445          49.625    20028472.900    83125598.236 8      1132.790          49.000    20028473.340    83125601.238 8      1132.790          49.312
G21  22728661.820   119439886.215 7      1340.376          45.125    22728659.720   119439886.223 5      1340.376          35.250    22728663.820    93070051.329 5      1044.449          35.250
G08  22950595.060   120606163.382 7      -257.725          44.750    22950594.040   120606163.381 7      -257.725          43.875    22950604.840    93978852.255 7      -200.825          43.937    22950605.780    93978855.258 7      -200.825          46.812
G14  22213379.260   116732097.425 7      2025.745          45.000    22213377.800   116732097.435 5      2025.745          35.250    22213383.320    90960076.948 5      1578.502          34.875    22213383.540    90960081.948 8      1578.502          49.312
R18  21781774.460   116272589.954 7      4904.316          42.875    21781774.580   116272589.955 7      4904.316          44.500    21781782.460    90434275.410 7      3814.468          46.812    21781782.280    90434277.413 7      3814.468          47.250
R17  20419105.480   109266752.207 7      3148.168          46.937    20419105.540   109266752.219 7      3148.168          47.125    20419114.460    84985292.820 8      2448.575          49.500    20419114.060    84985290.823 8      2448.575          49.750
R24  22662511.960   121186607.448 7       861.825          43.562    22662511.640   121186607.471 7       861.825          43.187    22662525.580    94256285.660 7       670.308          44.937    22662525.220    94256291.662 7       670.308          45.375
G22  23364862.240   122783177.059 7      3434.231          45.625    23364861.160   122783177.067 5      3434.231          32.625    23364864.280    95675208.272 5      2676.024          32.687
R16  23127579.180   123543374.688 7      1360.035          44.937    23127578.420   123543374.686 7      1360.035          44.875    23127588.920    96089323.396 7      1057.805          47.062    23127589.360    96089326.397 7      1057.805          47.937
R03  20206203.360   108165390.343 7      5519.820          47.750    20206203.400   108165390.375 7      5519.820          46.937    20206213.440    84128681.604 8      4293.194          49.437    20206213.640    84128679.604 8      4293.194          49.500
R01  23478037.760   125503573.132 7     -1302.060          42.312    23478036.540   125503573.117 6     -1302.060          41.375    23478048.700    97613932.301 5     -1012.713          35.812    23478047.780    97613926.300 6     -1012.713          36.875
G17  22712296.400   119353924.253 7      5388.837          45.625    22712295.400   119353924.253 6      5388.837          37.437    22712298.700    93003067.560 6      4199.094          36.937    22712298.940    93003071.545 7      4199.094          46.937
R15  23452986.920   125325652.065 7      -487.981          42.437    23452988.240   125325652.079 6      -487.981          41.375    23453008.180    97475586.276 7      -379.541          43.812    23453008.100    97475585.282 7      -379.541          43.875
> 2024 05 03 16 37  2.0000000  0 17
G03  20100068.060   105626573.661 8      2228.333          49.687    20100067.420   105626573.663 8      2228.333          50.687    20100071.660    82306418.631 8      1736.364          51.250    20100072.460    82306418.631 8      1736.364          51.375
G02  21996732.920   115593604.299 7      2031.846          47.375    21996731.160   115593604.304 6      2031.846          38.750    21996732.540    90072938.967 6      1583.257          38.437
G09  24886696.500   130780471.342 7      6100.098          42.625    24886695.580   130780471.342 6      6100.098          37.187    24886717.940   101906906.396 6      4753.323          37.187    24886718.440   101906949.396 6      4753.323          40.812
G04  22568745.720   118599563.975 7      5477.579          44.312    22568745.360   118599563.985 5      5477.579          33.437    22568753.720    92415274.284 5      4268.244          33.187    22568754.200    92415277.289 7      4268.244          47.562
R02  20028193.260   106874329.727 8      1455.586          51.062    20028193.120   106874329.731 8      1455.586          49.687    20028200.060    83124465.646 8      1132.122          50.000    20028200.360    83124468.645 8      1132.122          49.625
G21  22728406.440   119438545.677 7      1340.452          45.875    22728404.720   119438545.684 5      1340.452          35.125    22728408.860    93069006.754 5      1044.508          35.250
G08  22950644.020   120606421.104 7      -257.953          45.500    22950643.060   120606421.101 7      -257.953          43.562    22950653.920    93979053.069 7      -201.003          43.375    22950654.360    93979056.075 7      -201.003          46.937
G14  22212993.760   116730071.943 7      2025.031          44.437    22212992.500   116730071.958 5      2025.031          34.937    22212998.020    90958498.650 5      1577.946          34.937    22212998.140    90958503.643 8      1577.946          49.812
R18  21780855.660   116267685.492 7      4904.287          44.875    21780855.720   116267685.493 7      4904.287          44.625    21780863.920    90430460.833 7      3814.445          47.750    21780863.600    90430462.835 7      3814.445          47.562
R17  20418517.060   109263604.014 8      3147.929          48.312    20418517.000   109263604.026 7      3147.929          46.875    20418526.120    84982844.228 8      2448.389          50.312    20418525.820    84982842.229 8      2448.389          50.625
R24  22662350.800   121185745.589 7       861.600          43.625    22662350.260   121185745.598 7       861.600          43.187    22662364.300    94255615.311 7       670.133          45.625    22662364.080    94255621.309 7       670.133          45.437
G22  23364208.860   122779743.199 7      3433.476          45.375    23364207.720   122779743.209 5      3433.476          32.437    23364211.120    95672532.536 5      2675.436          32.687
R16  23127324.840   123542014.949 7      1359.347          44.562    23127323.660   123542014.947 7      1359.347          44.375    23127334.500    96088265.813 7      1057.270          47.750    23127334.620    96088268.816 8      1057.270          48.125
R03  20205172.360   108159870.608 7      5519.265          47.937    20205172.040   108159870.631 7      5519.265          47.000    20205182.420    84124388.474 8      4292.762          49.937    20205182.480    84124386.476 8      4292.762          50.125
R01  23478281.400   125504875.159 7     -1302.299          42.312    23478280.300   125504875.149 6     -1302.299          41.312    23478293.460    97614944.982 5     -1012.899          35.812    23478291.420    97614938.977 6     -1012.899          36.000
G17  22711270.980   119348535.296 7      5388.715          45.187    22711269.880   119348535.290 6      5388.715          36.812    22711273.240    92998868.366 6      4198.998          36.500    22711273.660    92998872.369 7      4198.998          47.312
R15  23453077.960   125326140.024 7      -488.204          42.437    23453080.280   125326140.028 6      -488.204          40.625    23453099.720    97475965.759 7      -379.714          43.750    23453099.620    97475964.760 7      -379.714          43.812
> 2024 05 03 16 37  3.0000000  0 17
G03  20099644.120   105624345.460 8      2228.116          49.625    20099643.460   105624345.462 8      2228.116          50.687    20099647.660    82304682.667 8      1736.194          51.312    20099648.220    82304682.667 8      1736.194          51.562
G02  21996346.260   115591572.395 7      2031.956          46.937    21996344.360   115591572.399 6      2031.956          39.250    21996345.780    90071355.663 6      1583.343          38.937
G09  24885535.640   130774371.108 6      6100.423          41.250    24885534.820   130774371.107 6      6100.423          38.000    24885557.100   101902152.963 6      4753.577          37.750    24885557.140   101902195.965 6      4753.577          40.812
G04  22567703.340   118594086.457 7      5477.451          45.125    22567703.000   118594086.469 5      5477.451          33.437    22567711.260    92411006.096 5      4268.143          33.687    22567712.000    92411009.102 7      4268.143          47.250
R02  20027920.640   106872874.436 8      1455.017          50.875    20027920.500   106872874.434 8      1455.017          49.937    20027927.200    83123333.748 8      1131.680          50.000    20027927.660    83123336.750 8      1131.680          50.375
G21  22728151.420   119437205.193 7      1340.620          46.250    22728149.640   119437205.198 5      1340.620          35.250    22728153.600    93067962.215 5      1044.639          35.125
G08  22950693.060   120606679.142 7      -258.047          45.312    22950692.200   120606679.142 7      -258.047          43.375    22950702.960    93979254.134 7      -201.076          43.125    22950703.500    93979257.133 7      -201.076          47.062
G14  22212608.420   116728046.970 7      2024.889          45.125    22212607.240   116728046.985 5      2024.889          35.375    22212612.680    90956920.743 5      1577.836          35.125    22212612.900    90956925.745 8      1577.836          49.687
R18  21779936.840   116262780.950 7      4904.773          43.625    21779936.560   116262780.957 7      4904.773          44.125    21779945.100    90426646.195 7      3814.824          47.875    21779945.060    90426648.198 7      3814.824          47.937
R17  20417928.620   109260456.071 8      3148.007          48.000    20417928.780   109260456.088 7      3148.007          47.125    20417937.820    84980395.830 8      2448.450          51.000    20417937.660    84980393.832 8      2448.450          51.500
R24  22662189.920   121184884.024 7       861.600          44.187    22662188.800   121184884.028 7       861.600          43.500    22662203.320    94254945.192 7       670.134          45.562    22662202.980    94254951.192 7       670.134          45.937
G22  23363555.340   122776309.819 7      3433.347          46.125    23363554.320   122776309.826 5      3433.347          32.437    23363557.840    95669857.171 5      2675.335          32.500
R16  23127070.320   123540655.776 7      1359.062          44.750    23127069.580   123540655.780 7      1359.062          44.312    23127079.900    96087208.687 7      1057.048          47.937    23127080.220    96087211.685 8      1057.048          48.125
R03  20204141.380   108154351.557 7      5518.890          47.625    20204141.100   108154351.578 7      5518.890          47.187    20204151.420    84120095.881 8      4292.470          50.187    20204151.340    84120093.883 8      4292.470          50.437
R01  23478525.740   125506177.517 6     -1302.501          41.937    23478524.160   125506177.523 6     -1302.501          41.312    23478537.020    97615957.938 5     -1013.057          35.812    23478535.280    97615951.926 6     -1013.057          36.000
G17  22710245.520   119343146.430 7      5389.047          44.875    22710244.340   119343146.432 6      5389.047          36.875    22710247.800    92994669.257 6      4199.257          36.687    22710248.120    92994673.270 7      4199.257          47.562
R15  23453169.220   125326627.947 6      -487.704          41.562    23453171.160   125326627.956 6      -487.704          40.625    23453190.920    97476345.229 7      -379.325          43.687    23453190.760    97476344.230 7      -379.325          44.000
> 2024 05 03 16 37  4.0000000  0 17
G03  20099220.260   105622117.816 8      2227.317          50.312    20099219.540   105622117.821 8      2227.317          50.812    20099223.740    82302947.031 8      1735.572          51.625    20099224.300    82302947.031 8      1735.572          51.562
G02  21995959.600   115589540.580 7      2031.716          47.375    21995957.820   115589540.585 6      2031.716          39.062    21995959.320    90069772.431 6      1583.155          38.875
G09  24884374.960   130768270.792 7      6100.371          42.062    24884373.920   130768270.799 6      6100.371          37.687    24884396.220   101897399.468 6      4753.536          37.687    24884396.380   101897442.464 6      4753.536          40.812
G04  22566661.160   118588609.191 7      5477.138          44.625    22566660.660   118588609.196 5      5477.138          33.750    22566669.100    92406738.101 5      4267.900          33.687    22566669.660    92406741.101 7      4267.900          47.312
R02  20027648.160   106871420.027 8      1453.893          51.187    20027647.860   106871420.028 8      1453.893          49.750    20027654.660    83122202.542 8      1130.806          49.875    20027654.680    83122205.543 8      1130.806          50.062
G21  22727896.220   119435864.768 7      1340.377          46.125    22727894.640   119435864.770 5      1340.377          35.625    22727898.380    93066917.725 5      1044.450          35.437
G08  22950742.260   120606937.509 7      -258.522          44.625    22950741.360   120606937.511 7      -258.522          43.187    22950752.100    93979455.448 7      -201.446          43.375    22950752.640    93979458.456 7      -201.446          46.500
G14  22212222.980   116726022.620 7      2024.009          45.187    22212221.900   116726022.630 5      2024.009          35.375    22212227.320    90955343.323 5      1577.150          34.750    22212227.720    90955348.321 8      1577.150          50.000
R18  21779017.820   116257876.446 7      4904.417          44.812    21779017.600   116257876.446 7      4904.417          44.687    21779026.320    90422831.574 7      3814.547          47.562    21779025.980    90422833.577 7      3814.547          47.937
R17  20417340.180   109257308.411 8      3147.501          48.187    20417340.440   109257308.431 7      3147.501          46.250    20417349.600    84977947.654 8      2448.057          50.687    20417349.220    84977945.652 8      2448.057          50.625
R24  22662029.160   121184022.796 7       860.924          44.250    22662028.080   121184022.805 7       860.924          43.187    22662042.280    94254275.348 7       669.608          45.562    22662041.760    94254281.346 7       669.608          45.750
G22  23362902.340   122772877.003 7      3432.489          45.687    23362901.080   122772877.011 5      3432.489          32.875    23362904.560    95667182.250 5      2674.667          32.500
R16  23126815.620   123539297.260 7      1358.166          44.687    23126815.420   123539297.259 7      1358.166          44.500    23126825.780    96086152.057 7      1056.351          47.375    23126826.180    96086155.056 8      1056.351          48.250
R03  20203110.780   108148833.232 8      5517.914          48.125    20203110.220   108148833.253 7      5517.914          46.937    20203120.520    84115803.857 8      4291.711          50.500    20203120.680    84115801.854 8      4291.711          50.937
R01  23478769.000   125507480.185 6     -1302.956          41.937    23478768.400   125507480.183 6     -1302.956          41.125    23478781.480    97616971.114 6     -1013.410          36.375    23478778.940    97616965.100 6     -1013.410          36.000
G17  22709219.960   119337757.772 7      5388.432          43.875    22709218.880   119337757.780 6      5388.432          37.062    22709222.320    92990470.313 6      4198.779          36.625    22709222.480    92990474.328 7      4198.779          47.687
R15  23453260.520   125327116.021 6      -488.148          41.562    23453262.520   125327116.030 6      -488.148          40.625    23453282.420    97476724.803 7      -379.671          43.937    23453282.240    97476723.806 7      -379.671          44.500
> 2024 05 03 16 37  5.0000000  0 17
G03  20098796.560   105619890.737 8      2226.854          49.625    20098795.760   105619890.742 8      2226.854          51.750    20098799.880    82301212.051 8      1735.211          51.625    20098800.700    82301212.051 8      1735.211          51.625
G02  21995572.960   115587508.886 7      2031.713          47.125    21995571.280   115587508.891 6      2031.713          39.062    21995572.560    90068189.291 6      1583.153          39.187
G09  24883214.040   130762170.382 7      6100.532          43.125    24883212.980   130762170.384 6      6100.532          37.937    24883235.380   101892645.891 6      4753.661          38.125    24883235.620   101892688.889 6      4753.661          40.812
G04  22565618.840   118583132.157 7      5477.002          44.875    22565618.400   118583132.159 5      5477.002          33.750    22565626.840    92402470.290 5      4267.794          33.687    22565627.320    92402473.292 7      4267.794          47.562
R02  20027375.660   106869966.454 8      1453.184          50.937    20027375.600   106869966.452 8      1453.184          50.187    20027382.340    83121071.985 8      1130.254          50.000    20027382.440    83121074.986 8      1130.254          50.500
G21  22727641.140   119434524.397 7      1340.434          45.625    22727639.560   119434524.402 5      1340.434          35.625    22727643.340    93065873.283 5      1044.494          35.312
G08  22950791.660   120607196.177 7      -258.733          45.500    22950790.580   120607196.180 7      -258.733          43.687    22950801.380    93979657.002 7      -201.610          43.125    22950802.100    93979660.004 7      -201.610          47.125
G14  22211838.080   116723998.859 7      2023.492          44.500    22211836.780   116723998.871 5      2023.492          35.000    22211842.140    90953766.362 5      1576.747          34.750    22211842.680    90953771.360 8      1576.747          49.625
R18  21778099.040   116252971.962 7      4904.524          44.812    21778098.940   116252971.960 7      4904.524          44.625    21778107.720    90419016.978 7      3814.630          47.437    21778107.280    90419018.980 7      3814.630          47.937
R17  20416752.200   109254161.013 7      3147.355          47.500    20416752.460   109254161.028 7      3147.355          47.062    20416761.400    84975499.672 8      2447.943          51.125    20416761.220    84975497.674 8      2447.943          50.500
R24  22661867.840   121183161.811 7       860.834          43.812    22661866.980   121183161.815 7       860.834          43.500    22661881.120    94253605.681 7       669.537          45.250    22661881.060    94253611.681 7       669.537          45.375
G22  23362249.280   122769444.758 7      3432.049          45.125    23362247.940   122769444.769 5      3432.049          32.875    23362251.300    95664507.775 5      2674.324          32.937
R16  23126561.460   123537939.394 7      1357.683          44.812    23126561.320   123537939.387 7      1357.683          44.812    23126571.640    96085095.928 7      1055.975          47.812    23126571.840    96085098.927 8      1055.975          48.562
R03  20202079.900   108143315.541 8      5517.451          48.437    20202079.260   108143315.564 7      5517.451          47.375    20202089.880    84111512.326 8      4291.351          50.625    20202089.980    84111510.325 8      4291.351          50.562
R01  23479012.240   125508783.176 7     -1303.037          42.000    23479012.260   125508783.183 6     -1303.037          41.125    23479025.400    97617984.550 6     -1013.474          36.375    23479022.620    97617978.538 6     -1013.474          37.625
G17  22708194.680   119332369.283 7      5388.543          44.562    22708193.420   119332369.282 6      5388.543          36.687    22708196.760    92986271.487 6      4198.865          36.500    22708197.040    92986275.492 7      4198.865          46.875
R15  23453351.840   125327604.179 6      -488.170          41.562    23453353.980   125327604.182 6      -488.170          39.937    23453373.980    97477104.448 7      -379.687          44.000    23453373.760    97477103.449 7      -379.687          44.125
> 2024 05 03 16 37  6.0000000  0 17
G03  20098372.940   105617664.166 8      2226.390          49.625    20098372.080   105617664.171 8      2226.390          51.125    20098376.140    82299477.398 8      1734.849          51.375    20098377.140    82299477.398 8      1734.849          50.812
G02  21995186.180   115585477.200 7      2031.773          47.437    21995184.660   115585477.205 6      2031.773          39.000    21995186.040    90066606.161 6      1583.200          38.625
G09  24882053.040   130756069.827 6      6100.664          41.500    24882052.020   130756069.829 6      6100.664          37.937    24882074.680   101887892.208 6      4753.764          38.062    24882074.740   101887935.210 6      4753.764          40.812
G04  22564576.780   118577655.319 7      5476.766          45.437    22564576.320   118577655.321 5      5476.766          33.750    22564584.620    92398202.631 5      4267.610          33.687    22564584.960    92398205.635 7      4267.610          47.250
R02  20027103.220   106868513.652 8      1452.388          51.125    20027103.420   106868513.658 8      1452.388          49.562    20027110.080    83119942.031 8      1129.635          49.312    20027110.420    83119945.033 8      1129.635          50.125
G21  22727386.220   119433183.993 7      1340.497          45.687    22727384.580   119433183.998 5      1340.497          35.687    22727388.320    93064828.810 5      1044.543          35.312
G08  22950841.000   120607455.098 7      -259.070          45.625    22950839.780   120607455.100 7      -259.070          43.750    22950850.600    93979858.752 7      -201.873          43.750    22950851.000    93979861.756 7      -201.873          46.937
G14  22211452.960   116721975.699 7      2022.972          44.812    22211451.900   116721975.709 5      2022.972          35.312    22211457.200    90952189.870 5      1576.342          35.062    22211457.560    90952194.866 8      1576.342          49.625
R18  21777180.480   116248067.423 7      4904.690          45.250    21777180.080   116248067.424 7      4904.690          44.125    21777188.740    90415202.341 7      3814.759          47.625    21777188.580    90415204.351 7      3814.759          47.875
R17  20416163.920   109251013.794 7      3147.226          47.187    20416164.080   109251013.815 7      3147.226          47.187    20416173.400    84973051.841 8      2447.843          51.125    20416173.000    84973049.842 8      2447.843          50.750
R24  22661707.060   121182301.030 7       860.674          43.875    22661705.900   121182301.036 7       860.674          43.500    22661720.080    94252936.174 7       669.413          45.250    22661719.660    94252942.174 7       669.413          45.625
G22  23361596.080   122766013.057 7      3431.626          45.250    23361594.880   122766013.065 5      3431.626          32.875    23361598.380    95661833.723 5      2673.994          32.937
R16  23126307.120   123536582.176 7      1357.122          45.750    23126307.500   123536582.180 7      1357.122          44.250    23126317.680    96084040.323 8      1055.539          48.187    23126317.640    96084043.321 8      1055.539          48.062
R03  20201049.180   108137798.509 8      5516.751          48.312    20201048.540   108137798.537 7      5516.751          46.875    20201059.260    84107221.309 8      4290.806          50.000    20201059.180    84107219.309 8      4290.806          50.687
R01  23479255.900   125510086.392 7     -1303.278          42.000    23479255.760   125510086.401 6     -1303.278          41.437    23479268.080    97618998.162 6     -1013.661          36.375    23479266.920    97618992.146 6     -1013.661          37.625
G17  22707169.160   119326980.943 7      5388.405          46.312    22707168.100   119326980.940 6      5388.405          36.750    22707171.460    92982072.783 6      4198.757          36.687    22707171.380    92982076.784 7      4198.757          46.937
R15  23453443.080   125328092.435 6      -488.278          40.625    23453445.260   125328092.444 6      -488.278          39.937    23453465.480    97477484.174 7      -379.772          44.375    23453465.080    97477483.179 7      -379.772          44.437
> 2024 05 03 16 37  7.0000000  0 17
G03  20097949.220   105615438.193 8      2225.658          50.000    20097948.460   105615438.195 8      2225.658          50.937    20097952.620    82297742.335 8      1734.279          51.250    20097953.440    82297742.335 8      1734.279          51.750
G02  21994799.700   115583445.719 7      2031.319          47.687    21994798.040   115583445.726 6      2031.319          38.500    21994799.340    90065023.189 6      1582.846          38.375
G09  24880892.140   130749969.261 6      6100.661          41.750    24880891.260   130749969.269 6      6100.661          37.625    24880913.740   101883138.521 6      4753.762          37.812    24880914.100   101883181.531 6      4753.762          40.875
G04  22563534.840   118572178.834 7      5476.394          44.500    22563534.360   118572178.839 5      5476.394          33.750    22563542.560    92393935.248 5      4267.320          34.000    22563542.880    92393938.256 7      4267.320          47.687
R02  20026831.140   106867061.826 8      1451.310          51.187    20026831.080   106867061.832 8      1451.310          49.187    20026838.000    83118812.834 8      1128.797          50.125    20026838.340    83118815.835 8      1128.797          50.250
G21  22727131.300   119431843.759 7      1340.215          45.375    22727129.420   119431843.767 5      1340.215          35.312    22727133.280    93063784.470 5      1044.323          35.500
G08  22950890.160   120607714.437 7      -259.378          44.937    22950889.220   120607714.434 7      -259.378          43.562    22950899.900    93980060.822 7      -202.113          43.500    22950900.260    93980063.822 7      -202.113          46.750
G14  22211067.960   116719953.104 7      2022.146          45.187    22211067.020   116719953.114 5      2022.146          34.750    22211072.360    90950613.820 5      1575.698          34.625    22211072.860    90950618.824 8      1575.698          49.250
R18  21776261.780   116243162.886 7      4904.435          44.375    21776261.680   116243162.879 7      4904.435          44.375    21776269.980    90411387.697 7      3814.560          47.750    21776269.700    90411389.707 7      3814.560          47.750
R17  20415576.220   109247866.924 7      3146.672          47.687    20415576.160   109247866.947 7      3146.672          46.625    20415585.300    84970604.275 8      2447.412          50.625    20415585.080    84970602.274 8      2447.412          51.000
R24  22661545.880   121181440.708 7       860.209          43.875    22661544.760   121181440.725 7       860.209          43.187    22661559.320    94252267.039 7       669.051          45.000    22661558.980    94252273.035 7       669.051          45.312
G22  23360943.180   122762581.877 7      3430.837          45.437    23360941.940   122762581.887 5      3430.837          32.875    23360945.320    95659160.075 5      2673.380          32.875
R16  23126053.260   123535225.618 7      1356.085          45.062    23126053.040   123535225.622 7      1356.085          44.562    23126063.860    96082985.218 7      1054.733          47.937    23126063.960    96082988.223 8      1054.733          48.250
R03  20200018.640   108132282.242 8      5515.965          48.000    20200018.480   108132282.257 7      5515.965          46.437    20200028.860    84102930.873 8      4290.195          50.437    20200028.780    84102928.873 8      4290.195          51.000
R01  23479499.440   125511390.004 6     -1303.812          41.937    23479499.580   125511390.010 6     -1303.812          41.437    23479511.200    97620012.086 6     -1014.076          36.375    23479510.620    97620006.071 6     -1014.076          37.625
G17  22706143.820   119321592.763 7      5387.991          45.000    22706142.520   119321592.760 6      5387.991          36.500    22706145.960    92977874.199 6      4198.435          36.625    22706146.300    92977878.202 7      4198.435          47.250
R15  23453535.060   125328580.774 6      -488.430          40.625    23453536.200   125328580.778 6      -488.430          39.937    23453556.940    97477863.951 7      -379.890          44.687    23453556.800    97477862.955 7      -379.890          44.562
> 2024 05 03 16 37  8.0000000  0 17
G03  20097525.600   105613212.641 8      2225.230          50.250    20097524.960   105613212.646 8      2225.230          51.687    20097529.140    82296007.682 8      1733.946          51.500    20097529.860    82296007.682 8      1733.946          51.750
G02  21994413.200   115581414.185 7      2031.387          47.750    21994411.480   115581414.190 6      2031.387          38.187    21994412.880    90063440.171 6      1582.899          38.250
G09  24879731.560   130743868.423 6      6100.824          41.937    24879730.220   130743868.430 6      6100.824          37.437    24879752.600   101878384.618 6      4753.889          37.562    24879753.220   101878427.623 6      4753.889          40.875
G04  22562492.680   118566702.425 7      5476.126          45.000    22562492.260   118566702.432 5      5476.126          34.062    22562500.440    92389667.922 5      4267.111          34.000    22562501.020    92389670.932 7      4267.111          47.750
R02  20026559.240   106865610.782 8      1450.495          51.375    20026559.360   106865610.783 8      1450.495          49.875    20026566.080    83117684.240 8      1128.163          50.250    20026566.360    83117687.242 8      1128.163          50.312
G21  22726876.160   119430503.436 7      1340.196          45.062    22726874.300   119430503.444 5      1340.196          35.375    22726878.340    93062740.062 5      1044.308          35.312
G08  22950939.620   120607973.920 7      -259.680          44.937    22950938.520   120607973.917 7      -259.680          43.250    22950949.260    93980263.008 7      -202.348          43.250    22950949.820    93980266.010 7      -202.348          46.687
G14  22210683.180   116717930.985 7      2021.850          44.562    22210682.160   116717930.995 5      2021.850          35.125    22210687.620    90949038.138 5      1575.468          34.812    22210688.200    90949043.136 8      1575.468          49.375
R18  21775342.780   116238258.243 7      4904.514          44.187    21775342.820   116238258.244 7      4904.514          44.812    21775350.780    90407572.978 7      3814.622          47.500    21775350.980    90407574.987 7      3814.622          47.375
R17  20414988.360   109244720.173 8      3146.579          48.187    20414988.380   109244720.186 7      3146.579          46.500    20414997.140    84968156.797 8      2447.339          50.812    20414996.660    84968154.797 8      2447.339          51.125
R24  22661385.040   121180580.520 7       859.947          43.875    22661384.240   121180580.535 7       859.947          43.125    22661398.460    94251597.991 7       668.848          44.937    22661397.840    94251603.987 7       668.848          45.125
G22  23360290.620   122759151.150 7      3430.464          45.937    23360289.100   122759151.166 5      3430.464          32.687    23360292.440    95656486.782 5      2673.089          32.875
R16  23125799.340   123533869.589 7      1355.674          45.000    23125799.040   123533869.598 7      1355.674          44.250    23125809.880    96081930.529 7      1054.413          47.375    23125810.180    96081933.531 8      1054.413          48.562
R03  20198988.520   108126766.497 8      5515.258          49.250    20198988.280   108126766.509 7      5515.258          46.750    20198998.500    84098640.853 8      4289.645          50.625    20198998.640    84098638.855 8      4289.645          50.812
R01  23479743.360   125512693.810 6     -1304.019          41.937    23479742.720   125512693.806 6     -1304.019          41.062    23479754.440    97621026.143 6     -1014.237          36.937    23479754.200    97621020.149 6     -1014.237          37.187
G17  22705118.520   119316204.638 7      5387.999          44.875    22705117.200   119316204.643 6      5387.999          36.687    22705120.760    92973675.671 6      4198.441          36.437    22705120.960    92973679.678 7      4198.441          47.062
R15  23453626.360   125329069.065 6      -488.509          40.000    23453628.000   125329069.074 6      -488.509          38.812    23453648.420    97478243.702 7      -379.951          44.687    23453648.180    97478242.705 7      -379.951          44.437
> 2024 05 03 16 37  9.0000000  0 17
G03  20097102.240   105610987.543 8      2224.833          50.187    20097101.560   105610987.546 8      2224.833          50.562    20097105.740    82294274.094 8      1733.636          51.125    20097106.280    82294274.094 8      1733.636          51.125
G02  21994026.520   115579382.633 7      2031.534          47.625    21994024.800   115579382.638 6      2031.534          38.562    21994026.280    90061857.146 6      1583.013          38.250
G09  24878570.600   130737767.439 7      6101.101          42.062    24878569.360   130737767.447 6      6101.101          37.875    24878591.620   101873630.603 6      4754.105          38.000    24878591.520   101873673.606 6      4754.105          40.812
G04  22561450.580   118561226.186 7      5476.110          45.000    22561450.060   118561226.197 5      5476.110          34.000    22561458.380    92385400.734 5      4267.098          34.187    22561458.680    92385403.744 7      4267.098          47.625
R02  20026287.520   106864160.520 8      1449.906          50.625    20026287.540   106864160.524 8      1449.906          49.562    20026294.200    83116556.260 8      1127.705          50.000    20026294.660    83116559.264 8      1127.705          50.875
G21  22726621.080   119429163.060 7      1340.370          45.937    22726619.400   119429163.065 5      1340.370          35.187    22726623.100    93061695.610 5      1044.444          35.250
G08  22950988.880   120608233.655 7      -259.829          44.812    22950987.840   120608233.652 7      -259.829          43.687    22950998.700    93980465.392 7      -202.464          43.625    22950999.420    93980468.397 7      -202.464          46.500
G14  22210298.560   116715909.357 7      2021.318          44.812    22210297.400   116715909.372 5      2021.318          34.750    22210302.700    90947462.846 5      1575.053          34.812    22210303.220    90947467.842 8      1575.053          49.437
R18  21774423.680   116233353.455 7      4904.765          43.875    21774423.780   116233353.467 7      4904.765          44.500    21774431.800    90403758.152 7      3814.818          47.062    21774432.000    90403760.154 7      3814.818          47.250
R17  20414399.940   109241573.554 7      3146.478          46.187    20414400.180   109241573.572 7      3146.478          46.750    20414409.100    84965709.428 8      2447.260          50.687    20414408.960    84965707.429 8      2447.260          51.062
R24  22661223.980   121179720.482 7       860.021          44.625    22661223.420   121179720.483 7       860.021          43.125    22661237.560    94250929.054 7       668.906          44.812    22661237.140    94250935.054 7       668.906          45.187
G22  23359637.900   122755720.873 7      3429.932          45.500    23359636.280   122755720.886 5      3429.932          32.687    23359639.720    95653813.843 5      2672.674          32.875
R16  23125545.700   123532514.083 7      1355.152          44.687    23125545.200   123532514.082 7      1355.152          43.937    23125555.960    96080876.236 7      1054.007          47.250    23125556.240    96080879.239 8      1054.007          48.375
R03  20197958.100   108121251.370 8      5514.821          48.062    20197957.720   108121251.391 7      5514.821          46.937    20197968.260    84094351.319 8      4289.306          50.312    20197968.200    84094349.318 8      4289.306          50.375
R01  23479986.980   125513997.809 6     -1304.150          41.437    23479986.540   125513997.805 6     -1304.150          41.062    23479997.920    97622040.384 6     -1014.339          36.937    23479998.200    97622034.372 6     -1014.339          37.187
G17  22704093.200   119310816.566 7      5387.971          45.375    22704091.860   119310816.574 6      5387.971          36.437    22704095.440    92969477.178 6      4198.419          36.250    22704095.720    92969481.185 7      4198.419          46.812
R15  23453717.800   125329557.361 6      -488.287          40.000    23453718.780   125329557.360 6      -488.287          38.812    23453740.000    97478623.449 7      -379.779          44.625    23453739.340    97478622.450 7      -379.779          44.687
> 2024 05 03 16 37 10.0000000  0 17
G03  20096679.020   105608763.045 8      2224.113          50.125    20096678.240   105608763.047 8      2224.113          50.937    20096682.380    82292541.078 8      1733.075          51.500    20096683.140    82292541.078 8      1733.075          51.375
G02  21993640.120   115577351.231 7      2031.246          47.437    21993638.180   115577351.236 6      2031.246          38.375    21993639.740    90060274.235 6      1582.789          38.375
G09  24877409.620   130731666.375 7      6100.972          42.312    24877408.320   130731666.372 6      6100.972          38.062    24877430.660   101868876.515 6      4754.004          38.125    24877430.680   101868919.513 6      4754.004          40.812
G04  22560408.540   118555750.177 7      5475.834          45.125    22560407.940   118555750.187 5      5475.834          34.000    22560416.320    92381133.721 5      4266.884          33.750    22560416.700    92381136.725 7      4266.884          47.937
R02  20026016.040   106862711.144 8      1448.902          50.625    20026015.700   106862711.142 8      1448.902          49.562    20026022.660    83115428.963 8      1126.924          49.875    20026022.800    83115431.967 8      1126.924          50.312
G21  22726366.180   119427822.756 7      1340.231          45.500    22726364.300   119427822.761 5      1340.231          35.125    22726367.980    93060651.216 5      1044.336          35.312
G08  22951038.360   120608493.682 7      -260.364          44.312    22951037.420   120608493.682 7      -260.364          43.562    22951048.100    93980668.008 7      -202.881          43.687    22951048.620    93980671.010 7      -202.881          46.500
G14  22209913.960   116713888.409 7      2020.547          44.812    22209912.860   116713888.427 5      2020.547          34.750    22209918.060    90945888.080 5      1574.452          34.250    22209918.520    90945893.073 8      1574.452          49.375
R18  21773504.960   116228448.785 7      4904.687          43.937    21773505.020   116228448.788 7      4904.687          44.187    21773513.000    90399943.404 7      3814.756          47.375    21773513.040    90399945.404 7      3814.756          47.312
R17  20413812.000   109238427.229 7      3146.204          47.375    20413812.280   109238427.242 7      3146.204          47.187    20413821.280    84963262.283 8      2447.047          50.625    20413820.700    84963260.283 8      2447.047          50.625
R24  22661063.700   121178860.735 7       859.561          43.500    22661062.720   121178860.741 7       859.561          43.125    22661076.720    94250260.360 7       668.548          45.187    22661076.300    94250266.355 7       668.548          45.187
G22  23358985.240   122752291.230 7      3429.312          45.812    23358983.820   122752291.240 5      3429.312          32.812    23358987.200    95651141.389 5      2672.191          32.875
R16  23125291.920   123531159.293 7      1354.373          44.187    23125291.620   123531159.300 7      1354.373          43.625    23125302.180    96079822.515 7      1053.401          47.250    23125302.400    96079825.517 7      1053.401          47.687
R03  20196927.640   108115736.977 8      5513.935          48.062    20196927.800   108115736.997 7      5513.935          47.500    20196938.120    84090062.348 8      4288.616          50.687    20196938.000    84090060.352 8      4288.616          50.812
R01  23480231.140   125515302.196 6     -1304.643          41.437    23480230.500   125515302.192 6     -1304.643          41.062    23480242.380    97623054.898 6     -1014.722          36.937    23480242.320    97623048.899 6     -1014.722          37.187
G17  22703067.860   119305428.760 7      5387.655          45.875    22703066.540   119305428.759 6      5387.655          36.500    22703070.200    92965278.885 6      4198.173          36.375    22703070.340    92965282.883 7      4198.173          46.625
R15  23453809.440   125330045.885 6      -488.785          40.000    23453809.980   125330045.875 6      -488.785          38.812    23453831.280    97479003.368 7      -380.166          44.500    23453830.840    97479002.369 7      -380.166          45.000
> 2024 05 03 16 37 11.0000000  0 17
G03  20096255.900   105606539.127 8      2223.640          49.500    20096255.000   105606539.132 8      2223.640          50.250    20096259.160    82290808.473 8      1732.707          50.312    20096259.980    82290808.473 8      1732.707          50.437
G02  21993253.300   115575319.939 7      2031.252          47.312    21993251.780   115575319.946 6      2031.252          38.500    21993253.200    90058691.408 6      1582.794          38.312
G09  24876248.460   130725565.276 7      6101.094          42.250    24876247.340   130725565.273 6      6101.094          37.875    24876269.560   101864122.406 6      4754.099          38.125    24876270.120   101864165.412 6      4754.099          40.812
G04  22559366.500   118550274.511 7      5475.604          45.437    22559365.960   118550274.519 5      5475.604          33.687    22559374.260    92376866.975 5      4266.705          33.750    22559374.700    92376869.979 7      4266.705          46.937
R02  20025744.560   106861262.621 8      1448.125          50.625    20025744.280   106861262.614 8      1448.125          49.687    20025751.060    83114302.333 8      1126.319          49.812    20025751.540    83114305.336 8      1126.319          49.937
G21  22726111.240   119426482.559 7      1340.119          45.375    22726109.320   119426482.564 5      1340.119          35.125    22726113.000    93059606.901 5      1044.249          35.312
G08  22951087.940   120608754.077 7      -260.519          44.437    22951086.920   120608754.074 7      -260.519          43.437    22951097.700    93980870.903 7      -203.002          43.187    22951098.140    93980873.907 7      -203.002          46.437
G14  22209529.800   116711868.056 7      2020.109          44.625    22209528.360   116711868.071 5      2020.109          34.875    22209533.660    90944313.774 5      1574.111          34.687    22209534.200    90944318.766 8      1574.111          48.937
R18  21772586.240   116223544.115 7      4904.625          44.875    21772586.240   116223544.110 7      4904.625          44.687    21772594.280    90396128.655 7      3814.708          47.187    21772594.500    90396130.657 7      3814.708          47.187
R17  20413224.340   109235281.218 7      3145.903          46.187    20413224.200   109235281.235 7      3145.903          46.687    20413233.420    84960815.389 8      2446.813          50.125    20413233.160    84960813.389 8      2446.813          50.000
R24  22660902.420   121178001.408 7       859.181          44.437    22660901.960   121178001.412 7       859.181          43.562    22660916.100    94249591.984 7       668.252          44.562    22660915.800    94249597.982 7       668.252          45.062
G22  23358332.540   122748862.151 7      3428.706          46.125    23358331.320   122748862.161 5      3428.706          32.812    23358334.740    95648469.378 5      2671.719          32.875
R16  23125038.620   123529805.142 7      1353.889          44.937    23125038.440   123529805.146 7      1353.889          44.000    23125048.660    96078769.282 7      1053.025          47.562    23125049.220    96078772.282 7      1053.025          47.562
R03  20195897.760   108110223.325 8      5513.350          48.250    20195898.040   108110223.351 7      5513.350          46.812    20195908.200    84085773.960 8      4288.161          49.562    20195908.100    84085771.962 8      4288.161          50.062
R01  23480475.200   125516606.895 6     -1304.977          41.125    23480475.160   125516606.899 6     -1304.977          40.250    23480487.440    97624069.677 6     -1014.982          36.937    23480486.660    97624063.672 6     -1014.982          37.187
G17  22702042.560   119300041.093 7      5387.592          44.000    22702041.460   119300041.095 6      5387.592          36.437    22702044.900    92961080.706 6      4198.124          36.187    22702044.980    92961084.701 7      4198.124          46.687
R15  23453900.700   125330534.467 6      -488.609          39.625    23453901.740   125330534.468 6      -488.609          38.812    23453922.820    97479383.347 7      -380.029          44.312    23453922.540    97479382.350 7      -380.029          44.500
> 2024 05 03 16 37 12.0000000  0 17
G03  20095832.820   105604315.782 8      2223.208          49.875    20095831.920   105604315.784 8      2223.208          51.375    20095836.040    82289076.031 8      1732.370          51.625    20095836.840    82289076.031 8      1732.370          51.375
G02  21992866.780   115573288.762 7      2031.231          47.250    21992865.200   115573288.765 6      2031.231          38.375    21992866.600    90057108.673 6      1582.778          38.250
G09  24875087.440   130719464.027 7      6101.476          42.250    24875086.380   130719464.030 6      6101.476          38.125    24875108.580   101859368.182 6      4754.397          37.937    24875109.420   101859411.184 6      4754.397          40.812
G04  22558324.520   118544799.048 7      5475.512          45.062    22558323.900   118544799.061 5      5475.512          33.687    22558332.420    92372600.389 5      4266.633          34.000    22558332.860    92372603.401 7      4266.633          47.937
R02  20025473.400   106859814.979 8      1447.322          51.125    20025473.000   106859814.975 8      1447.322          49.687    20025479.960    83113176.389 8      1125.695          50.250    20025480.220    83113179.391 8      1125.695          50.250
G21  22725856.140   119425142.396 7      1340.275          45.187    22725854.340   119425142.401 5      1340.275          35.062    22725857.820    93058562.618 5      1044.370          35.312
G08  22951137.540   120609014.761 7      -260.598          44.750    22951136.440   120609014.758 7      -260.598          43.562    22951147.300    93981074.023 7      -203.063          43.375    22951147.880    93981077.031 7      -203.063          46.937
G14  22209145.220   116709848.325 7      2019.686          43.937    22209143.920   116709848.338 5      2019.686          35.125    22209149.480    90942739.952 5      1573.781          34.562    22209149.660    90942744.950 8      1573.781          49.125
R18  21771667.360   116218639.490 7      4904.672          44.187    21771667.480   116218639.485 7      4904.672          44.625    21771675.460    90392313.948 7      3814.745          47.125    21771675.700    90392315.955 7      3814.745          47.625
R17  20412636.280   109232135.492 7      3145.722          47.812    20412636.460   109232135.515 7      3145.722          46.875    20412645.440    84958368.715 8      2446.673          50.250    20412645.260    84958366.718 8      2446.673          50.750
R24  22660742.200   121177142.353 7       859.091          44.250    22660741.580   121177142.360 7       859.091          43.562    22660755.360    94248923.826 7       668.182          44.875    22660755.260    94248929.824 7       668.182          45.312
G22  23357680.080   122745433.663 7      3428.326          45.187    23357678.800   122745433.668 5      3428.326          33.000    23357682.400    95645797.823 5      2671.422          32.750
R16  23124785.220   123528451.690 7      1353.245          44.875    23124784.880   123528451.694 7      1353.245          43.875    23124795.120    96077716.591 7      1052.524          47.562    23124795.440    96077719.593 7      1052.524          47.812
R03  20194867.860   108104710.361 8      5512.853          49.250    20194868.360   108104710.387 7      5512.853          47.312    20194878.180    84081486.102 8      4287.774          50.812    20194878.020    84081484.101 8      4287.774          50.375
R01  23480719.340   125517911.958 6     -1305.170          41.125    23480719.560   125517911.968 6     -1305.170          40.250    23480732.000    97625084.728 6     -1015.132          36.187    23480730.480    97625078.721 6     -1015.132          36.937
G17  22701017.360   119294653.649 7      5387.561          44.375    22701016.300   119294653.653 6      5387.561          36.437    22701019.660    92956882.700 6      4198.100          36.187    22701019.740    92956886.693 7      4198.100          46.437
R15  23453991.840   125331023.159 6      -488.524          39.625    23453992.960   125331023.146 6      -488.524          38.375    23454014.560    97479763.397 7      -379.963          44.250    23454014.020    97479762.400 7      -379.963          44.812
> 2024 05 03 16 37 13.0000000  0 17
G03  20095409.660   105602092.920 8      2222.763          49.875    20095408.920   105602092.925 8      2222.763          50.500    20095413.040    82287343.261 8      1732.023          51.250    20095413.660    82287343.261 8      1732.023          51.437
G02  21992480.200   115571257.628 7      2031.280          47.500    21992478.700   115571257.633 6      2031.280          38.000    21992480.320    90055525.969 6      1582.815          37.937
G09  24873926.160   130713362.700 6      6101.450          41.625    24873925.280   130713362.707 6      6101.450          37.562    24873947.580   101854613.905 6      4754.377          37.937    24873948.440   101854656.913 6      4754.377          40.812
G04  22557282.540   118539323.848 7      5475.274          45.125    22557282.100   118539323.855 5      5475.274          34.125    22557290.380    92368334.005 5      4266.447          34.000    22557290.900    92368337.013 7      4266.447          47.750
R02  20025202.480   106858368.199 8      1446.494          50.375    20025201.940   106858368.194 8      1446.494          49.750    20025208.760    83112051.115 8      1125.051          50.062    20025209.220    83112054.117 8      1125.051          50.187
G21  22725601.120   119423802.262 7      1340.310          45.500    22725599.380   119423802.267 5      1340.310          35.062    22725602.760    93057518.356 5      1044.397          35.062
G08  22951186.960   120609275.776 7      -261.036          46.125    22951186.160   120609275.778 7      -261.036          43.312    22951197.020    93981277.407 7      -203.405          42.937    22951197.340    93981280.413 7      -203.405          46.687
G14  22208760.820   116707829.093 7      2019.193          44.062    22208759.720   116707829.109 5      2019.193          34.500    22208765.260    90941166.526 5      1573.397          34.562    22208765.500    90941171.526 8      1573.397          49.625
R18  21770748.580   116213734.758 7      4904.857          44.437    21770748.600   116213734.757 7      4904.857          44.500    21770756.700    90388499.159 7      3814.889          47.250    21770756.900    90388501.163 7      3814.889          47.750
R17  20412048.740   109228990.002 7      3145.465          47.000    20412048.780   109228990.014 7      3145.465          47.125    20412057.680    84955922.215 8      2446.473          50.812    20412057.300    84955920.217 8      2446.473          50.875
R24  22660581.660   121176283.569 7       858.823          43.875    22660580.820   121176283.581 7       858.823          43.625    22660594.860    94248255.883 7       667.973          44.750    22660594.520    94248261.879 7       667.973          45.125
G22  23357027.740   122742005.612 7      3427.919          44.625    23357026.540   122742005.622 5      3427.919          33.000    23357029.940    95643126.616 5      2671.106          32.750
R16  23124532.260   123527098.781 7      1352.671          44.750    23124531.740   123527098.784 7      1352.671          43.875    23124541.860    96076664.322 7      1052.077          47.500    23124542.180    96076667.324 7      1052.077          47.687
R03  20193838.040   108099198.040 8      5512.196          48.312    20193838.480   108099198.065 7      5512.196          47.437    20193848.400    84077198.749 8      4287.264          50.562    20193848.280    84077196.748 8      4287.264          50.562
R01  23480963.400   125519217.267 6     -1305.309          40.562    23480963.620   125519217.282 6     -1305.309          40.250    23480976.840    97626099.958 6     -1015.240          36.187    23480974.680    97626093.957 6     -1015.240          36.937
G17  22699992.300   119289266.294 7      5387.401          43.937    22699991.100   119289266.294 6      5387.401          36.312    22699994.480    92952684.759 5      4197.975          35.687    22699994.680    92952688.764 7      4197.975          46.687
R15  23454083.400   125331511.826 6      -488.502          39.625    23454084.900   125331511.825 6      -488.502          38.375    23454105.800    97480143.441 7      -379.946          44.437    23454105.580    97480142.450 7      -379.946          44.875
> 2024 05 03 16 37 14.0000000  0 17
G03  20094986.700   105599870.626 8      2221.956          49.437    20094986.000   105599870.628 8      2221.956          50.750    20094990.160    82285611.311 8      1731.394          51.437    20094990.980    82285611.311 8      1731.394          51.625
G02  21992093.580   115569226.594 7      2031.032          47.375    21992092.320   115569226.599 6      2031.032          38.375    21992093.660    90053943.343 6      1582.622          38.500
G09  24872765.120   130707261.275 6      6101.331          41.875    24872764.220   130707261.283 6      6101.331          37.562    24872786.600   101849859.544 6      4754.284          38.000    24872786.840   101849902.544 6      4754.284          40.812
G04  22556240.940   118533848.881 7      5474.816          45.000    22556240.280   118533848.891 5      5474.816          34.562    22556248.760    92364067.803 5      4266.091          34.187    22556249.100    92364070.813 7      4266.091          47.875
R02  20024931.480   106856922.342 8      1445.416          50.750    20024931.120   106856922.337 8      1445.416          50.187    20024937.820    83110926.560 8      1124.212          50.625    20024938.180    83110929.561 8      1124.212          50.562
G21  22725346.020   119422462.194 7      1339.994          45.500    22725344.380   119422462.199 5      1339.994          35.437    22725347.740    93056474.145 5      1044.151          35.062
G08  22951236.660   120609537.088 7      -261.473          45.375    22951235.880   120609537.090 7      -261.473          43.562    22951246.680    93981481.017 7      -203.745          43.125    22951247.440    93981484.020 7      -203.745          46.687
G14  22208376.700   116705810.482 7      2018.206          44.312    22208375.640   116705810.497 5      2018.206          34.500    22208381.000    90939593.582 5      1572.628          34.375    22208381.500    90939598.578 8      1572.628          49.750
R18  21769829.940   116208829.979 7      4904.827          43.625    21769829.740   116208829.974 7      4904.827          44.312    21769838.000    90384684.333 7      3814.865          47.625    21769837.860    90384686.335 7      3814.865          47.812
R17  20411461.000   109225844.729 7      3145.144          47.187    20411460.760   109225844.746 7      3145.144          47.125    20411470.100    84953475.895 8      2446.223          50.875    20411469.640    84953473.896 8      2446.223          50.812
R24  22660421.000   121175425.100 7       858.256          45.312    22660420.200   121175425.112 7       858.256          43.312    22660433.960    94247588.172 7       667.532          44.562    22660433.920    94247594.168 7       667.532          45.312
G22  23356375.460   122738578.117 7      3427.111          44.312    23356374.200   122738578.122 5      3427.111          32.875    23356377.620    95640455.841 5      2670.476          32.750
R16  23124279.020   123525746.488 7      1352.010          44.812    23124278.940   123525746.489 7      1352.010          43.812    23124288.820    96075612.532 7      1051.563          47.437    23124288.860    96075615.533 7      1051.563          47.687
R03  20192808.360   108093686.406 8      5511.300          48.812    20192809.200   108093686.426 7      5511.300          47.125    20192818.940    84072911.920 8      4286.567          50.250    20192818.660    84072909.918 8      4286.567          50.875
R01  23481207.500   125520522.889 6     -1305.760          40.562    23481208.240   125520522.900 6     -1305.760          40.250    23481221.160    97627115.439 6     -1015.591          36.187    23481219.540    97627109.434 6     -1015.591          36.937
G17  22698966.940   119283879.079 7      5387.159          45.187    22698965.960   119283879.078 6      5387.159          36.250    22698969.240    92948486.929 6      4197.786          36.062    22698969.580    92948490.934 7      4197.786          47.250
R15  23454174.860   125332000.585 6      -488.740          39.625    23454176.700   125332000.597 6      -488.740          38.375    23454197.300    97480523.565 7      -380.131          44.562    23454197.180    97480522.569 7      -380.131          44.562
> 2024 05 03 16 37 15.0000000  0 17
G03  20094563.780   105597648.781 8      2221.569          50.500    20094563.260   105597648.786 8      2221.569          50.687    20094567.380    82283879.524 8      1731.093          51.375    20094568.300    82283879.524 8      1731.093          51.562
G02  21991707.400   115567195.578 7      2030.957          47.687    21991705.760   115567195.583 6      2030.957          38.250    21991707.140    90052360.735 6      1582.564          38.000
G09  24871604.080   130701159.622 7      6101.714          42.250    24871603.100   130701159.632 6      6101.714          38.250    24871625.540   101845105.005 6      4754.583          38.125    24871626.140   101845148.009 6      4754.583          40.812
G04  22555198.880   118528374.038 7      5474.791          45.625    22555198.360   118528374.051 5      5474.791          34.562    22555206.780    92359801.704 5      4266.071          34.187    22555207.420    92359804.710 7      4266.071          47.562
R02  20024660.280   106855477.298 8      1444.604          51.312    20024660.220   106855477.297 8      1444.604          49.562    20024666.980    83109802.639 8      1123.581          50.000    20024667.540    83109805.637 8      1123.581          50.750
G21  22725091.080   119421122.073 7      1340.065          45.187    22725089.300   119421122.078 5      1340.065          35.437    22725092.640    93055429.897 5      1044.206          35.437
G08  22951286.540   120609798.597 7      -261.644          44.875    22951285.680   120609798.599 7      -261.644          43.437    22951296.440    93981684.786 7      -203.879          43.375    22951297.100    93981687.787 7      -203.879          46.812
G14  22207992.920   116703792.377 7      2017.844          43.812    22207991.640   116703792.393 5      2017.844          35.125    22207996.880    90938021.027 5      1572.346          34.500    22207997.480    90938026.015 8      1572.346          49.312
R18  21768911.180   116203925.138 7      4904.999          43.000    21768910.680   116203925.141 7      4904.999          44.437    21768918.960    90380869.463 7      3814.999          47.375    21768919.360    90380871.469 7      3814.999          47.562
R17  20410872.920   109222699.632 7      3145.012          47.937    20410873.280   109222699.650 7      3145.012          46.500    20410882.280    84951029.709 8      2446.120          50.812    20410881.660    84951027.709 8      2446.120          51.125
R24  22660260.240   121174566.797 7       858.132          44.062    22660259.580   121174566.809 7       858.132          43.750    22660273.880    94246920.601 7       667.436          44.437    22660273.780    94246926.597 7       667.436          44.937
G22  23355723.240   122735151.130 7      3426.695          44.875    23355722.060   122735151.135 5      3426.695          32.875    23355725.440    95637785.464 5      2670.152          32.750
R16  23124026.280   123524394.799 7      1351.509          44.812    23124026.100   123524394.795 7      1351.509          43.687    23124035.920    96074561.210 7      1051.174          47.750    23124035.980    96074564.211 7      1051.174          47.625
R03  20191779.220   108088175.339 8      5510.718          48.437    20191779.980   108088175.357 7      5510.718          47.250    20191789.400    84068625.537 8      4286.114          50.687    20191789.440    84068623.537 8      4286.114          50.812
R01  23481451.600   125521828.764 6     -1306.105          40.375    23481452.180   125521828.768 6     -1306.105          40.250    23481464.600    97628131.107 6     -1015.860          37.875    23481463.960    97628125.098 6     -1015.860          38.375
G17  22697941.860   119278491.989 7      5387.085          45.812    22697940.820   119278491.992 6      5387.085          36.437    22697944.080    92944289.197 6      4197.729          36.000    22697944.500    92944293.206 7      4197.729          46.875
R15  23454266.340   125332489.400 6      -488.739          39.625    23454268.520   125332489.419 6      -488.739          38.562    23454288.620    97480903.730 7      -380.130          44.500    23454288.700    97480902.735 7      -380.130          44.437
> 2024 05 03 16 37 16.0000000  0 17
G03  20094141.140   105595427.612 8      2220.599          50.250    20094140.580   105595427.617 8      2220.599          51.062    20094144.660    82282148.884 8      1730.337          51.437    20094145.580    82282148.884 8      1730.337          51.125
G02  21991321.080   115565164.756 7      2030.425          47.125    21991319.280   115565164.764 6      2030.425          38.562    21991320.760    90050778.277 6      1582.150          38.187
G09  24870442.680   130695058.019 6      6101.300          41.312    24870441.980   130695058.024 6      6101.300          38.125    24870464.340   101840350.499 6      4754.259          38.187    24870464.700   101840393.503 6      4754.259          41.125
G04  22554157.100   118522899.581 7      5473.998          45.250    22554156.500   118522899.591 5      5473.998          34.125    22554165.060    92355535.900 5      4265.453          34.312    22554165.680    92355538.910 7      4265.453          47.875
R02  20024389.980   106854033.210 8      1443.321          50.750    20024389.540   106854033.208 8      1443.321          49.312    20024396.380    83108679.460 8      1122.583          50.250    20024396.840    83108682.459 8      1122.583          50.562
G21  22724836.020   119419782.113 7      1339.511          45.250    22724834.340   119419782.118 5      1339.511          35.062    22724837.540    93054385.770 5      1043.775          35.500
G08  22951336.620   120610060.529 7      -262.452          44.500    22951335.520   120610060.531 7      -262.452          43.375    22951346.260    93981888.880 7      -204.508          43.125    22951347.040    93981891.884 7      -204.508          46.437
G14  22207608.820   116701774.996 7      2016.757          44.000    22207607.920   116701775.006 5      2016.757          34.562    22207612.920    90936449.031 5      1571.499          34.937    22207613.580    90936454.023 8      1571.499          49.750
R18  21767992.260   116199020.470 7      4904.247          43.687    21767991.780   116199020.468 7      4904.247          44.187    21768000.260    90377054.723 7      3814.415          47.500    21768000.440    90377056.730 7      3814.415          47.625
R17  20410285.200   109219554.878 7      3144.264          47.062    20410285.520   109219554.895 7      3144.264          46.750    20410294.720    84948583.793 8      2445.539          50.625    20410294.180    84948581.793 8      2445.539          50.875
R24  22660099.960   121173708.932 7       857.333          44.000    22660099.200   121173708.942 7       857.333          43.750    22660113.440    94246253.363 7       666.815          44.750    22660113.240    94246259.354 7       666.815          44.875
G22  23355071.360   122731724.794 7      3425.763          45.187    23355070.120   122731724.802 5      3425.763          33.000    23355073.340    95635115.594 5      2669.426          33.125
R16  23123773.320   123523043.845 7      1350.306          44.312    23123772.860   123523043.854 7      1350.306          43.312    23123783.200    96073510.472 7      1050.238          47.000    23123783.200    96073513.475 7      1050.238          47.562
R03  20190749.760   108082665.047 8      5509.636          49.312    20190750.420   108082665.070 7      5509.636          47.937    20190760.040    84064339.765 8      4285.273          50.500    20190760.020    84064337.762 8      4285.273          50.500
R01  23481696.220   125523135.024 6     -1306.872          40.375    23481695.740   125523135.012 6     -1306.872          39.562    23481709.000    97629147.077 6     -1016.456          37.875    23481708.700    97629141.072 6     -1016.456          38.375
G17  22696916.840   119273105.155 7      5386.559          44.437    22696915.680   119273105.157 5      5386.559          35.625    22696919.040    92940091.674 5      4197.319          35.500    22696919.560    92940095.677 7      4197.319          46.750
R15  23454357.920   125332978.481 6      -489.548          39.625    23454359.740   125332978.504 6      -489.548          38.562    23454380.700    97481284.104 7      -380.760          44.562    23454380.160    97481283.109 7      -380.760          44.625
> 2024 05 03 16 37 17.0000000  0 17
G03  20093718.640   105593207.052 8      2220.277          50.187    20093718.040   105593207.054 8      2220.277          50.875    20093722.100    82280418.817 8      1730.086          51.500    20093723.080    82280418.817 8      1730.086          51.375
G02  21990934.500   115563134.090 7      2030.624          47.375    21990932.900   115563134.100 6      2030.624          38.375    21990934.240    90049195.941 6      1582.304          38.187
G09  24869281.580   130688956.410 6      6101.704          41.812    24869280.900   130688956.418 6      6101.704          37.750    24869303.260   101835595.996 6      4754.575          38.125    24869303.620   101835638.996 6      4754.575          41.125
G04  22553115.540   118517425.468 7      5473.999          45.750    22553114.900   118517425.481 5      5473.999          34.625    22553123.500    92351270.368 5      4265.454          34.312    22553123.640    92351273.378 7      4265.454          47.937
R02  20024119.460   106852590.051 8      1442.728          50.937    20024119.220   106852590.046 8      1442.728          49.625    20024125.940    83107556.998 8      1122.122          50.062    20024126.440    83107560.000 8      1122.122          50.312
G21  22724581.000   119418442.273 7      1339.852          46.187    22724579.280   119418442.278 5      1339.852          35.062    22724582.480    93053341.739 5      1044.041          35.062
G08  22951386.540   120610322.889 7      -262.505          44.437    22951385.400   120610322.894 7      -262.505          43.437    22951396.140    93982093.311 7      -204.550          43.625    22951397.340    93982096.308 7      -204.550          46.687
G14  22207225.020   116699758.197 7      2016.524          44.062    22207224.040   116699758.205 5      2016.524          35.375    22207229.220    90934877.500 5      1571.317          34.937    22207229.960    90934882.496 8      1571.317          49.062
R18  21767073.340   116194115.781 7      4904.693          43.625    21767073.080   116194115.780 7      4904.693          44.062    21767081.380    90373239.963 7      3814.761          47.125    21767081.420    90373241.972 7      3814.761          47.687
R17  20409697.680   109216410.434 7      3144.268          47.500    20409698.000   109216410.454 7      3144.268          47.062    20409706.880    84946138.112 8      2445.542          50.500    20409706.540    84946136.115 8      2445.542          50.750
R24  22659939.460   121172851.455 7       857.369          44.000    22659938.900   121172851.470 7       857.369          44.125    22659953.200    94245586.430 7       666.842          44.500    22659953.020    94245592.430 7       666.842          45.312
G22  23354419.340   122728299.037 7      3425.463          45.625    23354418.200   122728299.042 5      3425.463          33.000    23354421.320    95632446.170 5      2669.192          33.125
R16  23123520.280   123521693.521 7      1350.030          44.312    23123520.640   123521693.530 7      1350.030          44.062    23123530.380    96072460.216 7      1050.023          47.187    23123530.380    96072463.219 7      1050.023          47.500
R03  20189720.580   108077155.549 7      5509.187          47.875    20189721.100   108077155.577 7      5509.187          47.562    20189730.900    84060054.608 8      4284.923          51.000    20189730.880    84060052.607 8      4284.923          50.750
R01  23481940.400   125524441.627 6     -1306.870          40.375    23481940.380   125524441.625 6     -1306.870          39.562    23481952.540    97630163.336 6     -1016.454          37.875    23481952.460    97630157.318 6     -1016.454          38.375
G17  22695891.720   119267718.531 7      5386.500          44.062    22695890.580   119267718.541 6      5386.500          36.375    22695894.080    92935894.311 5      4197.273          35.500    22695894.140    92935898.308 7      4197.273          46.750
R15  23454450.440   125333467.686 6      -489.253          39.812    23454451.180   125333467.703 6      -489.253          38.562    23454472.120    97481664.555 7      -380.530          44.375    23454471.740    97481663.556 7      -380.530          44.187
> 2024 05 03 16 37 18.0000000  0 17
G03  20093296.180   105590987.026 8      2219.859          49.937    20093295.580   105590987.030 8      2219.859          51.000    20093299.700    82278688.914 8      1729.760          51.562    20093300.560    82278688.914 8      1729.760          51.437
G02  21990548.100   115561103.520 7      2030.600          47.062    21990546.440   115561103.530 6      2030.600          38.875    21990547.900    90047613.677 6      1582.285          38.812
G09  24868120.620   130682854.662 6      6101.939          41.625    24868119.840   130682854.670 6      6101.939          37.750    24868142.100   101830841.386 6      4754.758          37.812    24868142.140   101830884.384 6      4754.758          41.250
G04  22552073.860   118511951.563 7      5473.890          45.687    22552073.200   118511951.574 5      5473.890          34.625    22552081.720    92347004.993 5      4265.369          34.312    22552082.040    92347007.995 7      4265.369          47.562
R02  20023849.300   106851147.702 8      1442.011          50.937    20023848.840   106851147.700 8      1442.011          49.812    20023855.660    83106435.175 8      1121.564          49.875    20023856.100    83106438.173 8      1121.564          49.812
G21  22724326.040   119417102.491 7      1339.723          45.937    22724324.520   119417102.496 5      1339.723          34.937    22724327.660    93052297.749 5      1043.940          35.062
G08  22951436.480   120610585.510 7      -262.649          45.687    22951435.320   120610585.512 7      -262.649          43.125    22951446.020    93982297.940 7      -204.661          43.062    22951446.960    93982300.944 7      -204.661          46.437
G14  22206841.400   116697742.024 7      2016.020          44.687    22206840.340   116697742.031 5      2016.020          34.937    22206845.460    90933306.454 5      1570.925          34.750    22206846.200    90933311.452 8      1570.925          49.125
R18  21766154.720   116189211.125 7      4904.762          44.375    21766154.420   116189211.125 7      4904.762          44.062    21766162.640    90369425.236 7      3814.815          47.500    21766162.760    90369427.247 7      3814.815          47.875
R17  20409110.100   109213266.255 7      3144.180          47.625    20409110.360   109213266.275 7      3144.180          47.312    20409119.500    84943692.638 8      2445.473          50.687    20409118.860    84943690.638 8      2445.473          51.062
R24  22659778.880   121171994.211 7       857.233          45.062    22659778.520   121171994.226 7       857.233          43.812    22659792.640    94244919.678 7       666.737          44.437    22659792.600    94244925.674 7       666.737          44.562
G22  23353767.580   122724873.849 7      3425.021          45.875    23353766.280   122724873.852 5      3425.021          32.500    23353769.660    95629777.189 5      2668.848          32.687
R16  23123267.740   123520343.931 7      1349.417          44.750    23123267.840   123520343.935 7      1349.417          43.125    23123277.800    96071410.525 7      1049.547          47.562    23123278.000    96071413.525 7      1049.547          47.625
R03  20188691.560   108071646.739 8      5508.556          48.500    20188692.200   108071646.767 7      5508.556          47.250    20188701.840    84055769.980 8      4284.433          50.375    20188701.840    84055767.979 8      4284.433          50.812
R01  23482184.940   125525748.528 6     -1306.886          40.187    23482184.880   125525748.532 6     -1306.886          39.562    23482196.600    97631179.821 6     -1016.467          37.437    23482196.740    97631173.804 6     -1016.467          38.125
G17  22694866.460   119262332.091 7      5386.464          45.000    22694865.460   119262332.095 6      5386.464          36.250    22694868.960    92931697.085 6      4197.245          36.000    22694869.660    92931701.078 7      4197.245          46.937
R15  23454542.560   125333956.955 6      -489.031          39.812    23454543.080   125333956.964 6      -489.031          39.250    23454563.700    97482045.056 7      -380.357          44.625    23454563.360    97482044.061 7      -380.357          44.875
> 2024 05 03 16 37 19.0000000  0 17
G03  20092873.880   105588767.509 8      2219.136          49.250    20092873.260   105588767.514 8      2219.136          50.812    20092877.320    82276959.666 8      1729.197          51.250    20092878.240    82276959.666 8      1729.197          51.375
G02  21990161.720   115559072.996 7      2030.342          46.687    21990160.060   115559073.000 6      2030.342          38.062    21990161.480    90046031.448 6      1582.084          38.000
G09  24866959.680   130676752.775 7      6101.861          42.187    24866958.520   130676752.786 6      6101.861          37.875    24866981.120   101826086.664 6      4754.697          37.937    24866981.220   101826129.673 6      4754.697          41.250
G04  22551032.120   118506477.866 7      5473.480          44.750    22551031.500   118506477.873 5      5473.480          34.187    22551040.220    92342739.780 5      4265.050          34.187    22551040.500    92342742.782 7      4265.050          47.750
R02  20023579.220   106849706.178 8      1440.936          50.937    20023578.700   106849706.179 8      1440.936          49.625    20023585.580    83105313.992 8      1120.728          50.000    20023586.000    83105316.990 8      1120.728          49.812
G21  22724071.200   119415762.699 7      1339.607          45.437    22724069.640   119415762.701 5      1339.607          35.187    22724072.740    93051253.751 5      1043.850          35.062
G08  22951486.640   120610848.406 7      -263.193          44.562    22951485.440   120610848.411 7      -263.193          43.187    22951496.060    93982502.786 7      -205.085          43.562    22951497.020    93982505.788 7      -205.085          46.312
G14  22206457.660   116695726.371 7      2015.261          44.562    22206456.740   116695726.384 5      2015.261          34.937    22206462.060    90931735.813 5      1570.333          34.812    22206462.580    90931740.813 8      1570.333          50.062
R18  21765235.700   116184306.372 7      4904.623          45.062    21765235.540   116184306.372 7      4904.623          44.000    21765243.800    90365610.431 7      3814.707          47.687    21765243.880    90365612.439 7      3814.707          47.875
R17  20408522.900   109210122.354 8      3143.622          48.062    20408522.980   109210122.366 7      3143.622          47.625    20408531.860    84941247.380 8      2445.039          50.687    20408531.600    84941245.378 8      2445.039          51.625
R24  22659618.540   121171137.224 7       856.692          44.625    22659618.040   121171137.230 7       856.692          43.375    22659632.360    94244253.124 7       666.316          44.500    22659632.260    94244259.118 7       666.316          44.625
G22  23353115.740   122721449.153 7      3424.204          45.875    23353114.660   122721449.158 5      3424.204          32.500    23353117.940    95627108.596 5      2668.211          32.687
R16  23123014.940   123518994.892 7      1348.550          43.937    23123015.180   123518994.898 7      1348.550          43.125    23123025.320    96070361.274 7      1048.872          47.125    23123025.200    96070364.270 7      1048.872          47.875
R03  20187662.280   108066138.584 8      5507.716          48.500    20187663.140   108066138.610 7      5507.716          47.875    20187672.900    84051485.860 8      4283.779          50.875    20187672.700    84051483.862 8      4283.779          51.000
R01  23482429.320   125527055.778 6     -1307.662          40.187    23482429.060   125527055.773 6     -1307.662          38.687    23482441.700    97632196.571 6     -1017.070          37.437    23482441.300    97632190.561 6     -1017.070          38.125
G17  22693841.500   119256945.745 7      5386.166          45.437    22693840.420   119256945.744 6      5386.166          36.250    22693844.220    92927499.932 6      4197.013          36.062    22693844.500    92927503.931 7      4197.013          47.500
R15  23454634.180   125334446.245 6      -489.348          39.812    23454634.700   125334446.249 6      -489.348          39.250    23454655.200    97482425.582 7      -380.604          44.312    23454654.940    97482424.585 7      -380.604          44.562
> 2024 05 03 16 37 20.0000000  0 17
G03  20092451.600   105586548.578 8      2218.564          50.125    20092450.920   105586548.580 8      2218.564          50.687    20092455.040    82275230.500 8      1728.751          51.250    20092456.020    82275230.500 8      1728.751          51.375
G02  21989775.260   115557042.597 7      2030.239          47.625    21989773.620   115557042.602 6      2030.239          38.437    21989775.160    90044449.321 6      1582.004          38.500
G09  24865798.560   130670650.807 7      6101.933          42.562    24865797.380   130670650.814 6      6101.933          38.125    24865820.000   101821331.884 6      4754.753          38.187    24865820.240   101821374.880 6      4754.753          41.062
G04  22549990.660   118501004.405 7      5473.209          45.125    22549989.840   118501004.412 5      5473.209          34.187    22549998.740    92338474.756 5      4264.838          34.187    22549998.880    92338477.766 7      4264.838          47.875
R02  20023309.260   106848265.574 8      1440.090          50.687    20023308.880   106848265.570 8      1440.090          49.500    20023315.460    83104193.518 8      1120.070          50.250    20023315.860    83104196.520 8      1120.070          50.062
G21  22723816.300   119414422.993 7      1339.565          45.375    22723814.740   119414422.993 5      1339.565          35.187    22723817.620    93050209.823 5      1043.817          35.000
G08  22951536.660   120611111.599 7      -263.413          45.312    22951535.420   120611111.601 7      -263.413          43.312    22951546.180    93982707.863 7      -205.257          43.687    22951547.020    93982710.869 7      -205.257          46.500
G14  22206074.540   116693711.343 7      2014.752          44.250    22206073.220   116693711.359 5      2014.752          34.937    22206078.600    90930165.664 5      1569.937          34.812    22206079.100    90930170.658 8      1569.937          49.812
R18  21764317.000   116179401.675 7      4904.658          45.375    21764316.580   116179401.689 7      4904.658          43.937    21764324.960    90361795.675 7      3814.734          47.750    21764324.900    90361797.675 7      3814.734          47.062
R17  20407935.560   109206978.721 8      3143.476          48.375    20407935.400   109206978.731 7      3143.476          46.625    20407944.440    84938802.329 8      2444.925          50.625    20407944.020    84938800.332 8      2444.925          51.062
R24  22659458.260   121170280.533 7       856.478          44.125    22659458.000   121170280.529 7       856.478          43.625    22659472.160    94243586.792 7       666.150          43.750    22659471.980    94243592.788 7       666.150          44.562
G22  23352464.320   122718025.046 7      3423.733          45.812    23352463.040   122718025.053 5      3423.733          32.500    23352466.440    95624440.465 5      2667.844          32.687
R16  23122762.920   123517646.563 7      1347.973          43.937    23122762.280   123517646.566 7      1347.973          42.937    23122772.520    96069312.572 7      1048.423          47.312    23122772.780    96069315.570 7      1048.423          47.437
R03  20186633.820   108060631.147 8      5506.993          48.625    20186634.280   108060631.170 7      5506.993          47.250    20186644.200    84047202.306 8      4283.217          50.875    20186644.120    84047200.302 8      4283.217          51.125
R01  23482674.000   125528363.313 6     -1307.663          40.187    23482673.840   125528363.314 6     -1307.663          38.687    23482687.700    97633213.547 6     -1017.071          37.437    23482685.720    97633207.540 6     -1017.071          38.125
G17  22692816.720   119251559.620 7      5385.979          44.250    22692815.440   119251559.622 6      5385.979          36.062    22692819.000    92923302.954 5      4196.867          35.687    22692819.280    92923306.969 7      4196.867          46.937
R15  23454725.840   125334935.629 6      -489.398          41.000    23454726.780   125334935.630 6      -489.398          39.250    23454747.000    97482806.184 7      -380.643          44.875    23454746.660    97482805.187 7      -380.643          44.687
> 2024 05 03 16 37 21.0000000  0 17
G03  20092029.400   105584330.104 8      2218.283          50.125    20092028.800   105584330.104 8      2218.283          50.812    20092032.900    82273501.662 8      1728.532          51.250    20092033.840    82273501.662 8      1728.532          50.437
G02  21989388.820   115555012.180 7      2030.443          47.312    21989387.280   115555012.182 6      2030.443          38.250    21989388.660    90042867.172 6      1582.164          38.375
G09  24864637.100   130664548.725 7      6102.148          42.500    24864636.360   130664548.733 6      6102.148          38.187    24864658.800   101816577.007 6      4754.920          38.375    24864659.140   101816620.005 6      4754.920          41.062
G04  22548948.980   118495531.162 7      5473.173          45.750    22548948.160   118495531.172 5      5473.173          34.500    22548957.040    92334209.902 5      4264.810          34.312    22548957.520    92334212.903 7      4264.810          47.562
R02  20023039.380   106846825.787 8      1439.413          50.750    20023038.980   106846825.782 8      1439.413          49.625    20023045.760    83103073.680 8      1119.543          50.062    20023045.940    83103076.681 8      1119.543          49.562
G21  22723561.620   119413083.219 7      1339.832          45.875    22723559.760   119413083.224 5      1339.832          35.125    22723562.680    93049165.843 5      1044.025          35.000
G08  22951586.740   120611375.068 7      -263.515          45.000    22951585.620   120611375.073 7      -263.515          43.125    22951596.320    93982913.154 7      -205.336          42.937    22951597.180    93982916.157 7      -205.336          46.687
G14  22205691.040   116691696.857 7      2014.309          44.687    22205689.960   116691696.872 5      2014.309          34.625    22205695.280    90928595.928 5      1569.591          34.562    22205695.620    90928600.926 8      1569.591          48.875
R18  21763398.280   116174496.895 7      4904.919          44.125    21763398.120   116174496.893 7      4904.919          44.437    21763406.220    90357980.836 7      3814.937          47.250    21763405.980    90357982.832 7      3814.937          46.937
R17  20407347.820   109203835.216 7      3143.458          47.937    20407347.780   109203835.234 7      3143.458          47.250    20407357.160    84936357.383 8      2444.912          49.562    20407356.700    84936355.386 8      2444.912          49.750
R24  22659298.240   121169424.072 7       856.436          44.062    22659297.440   121169424.073 7       856.436          43.687    22659312.080    94242920.652 7       666.117          44.062    22659311.620    94242926.648 7       666.117          44.625
G22  23351812.740   122714601.422 7      3423.388          45.312    23351811.560   122714601.426 5      3423.388          32.500    23351815.060    95621772.704 5      2667.575          32.687
R16  23122510.460   123516298.808 7      1347.640          43.937    23122509.620   123516298.806 7      1347.640          43.062    23122520.280    96068264.308 7      1048.165          46.625    23122520.700    96068267.308 7      1048.165          47.312
R03  20185605.080   108055124.353 8      5506.566          48.937    20185605.500   108055124.381 7      5506.566          47.250    20185615.400    84042919.246 8      4282.884          50.375    20185615.400    84042917.247 8      4282.884          50.250
R01  23482918.980   125529671.040 6     -1307.758          39.500    23482917.700   125529671.044 6     -1307.758          38.687    23482931.660    97634230.658 6     -1017.145          37.375    23482930.220    97634224.657 6     -1017.145          37.687
G17  22691791.920   119246173.547 7      5386.106          43.500    22691790.580   119246173.550 5      5386.106          35.812    22691794.180    92919106.016 5      4196.966          35.687    22691794.500    92919110.028 7      4196.966          46.812
R15  23454817.680   125335425.082 6      -489.410          41.000    23454818.140   125335425.086 6      -489.410          40.312    23454838.560    97483186.835 7      -380.652          44.500    23454838.160    97483185.838 7      -380.652          43.937
> 2024 05 03 16 37 22.0000000  0 17
G03  20091607.200   105582112.238 8      2217.707          50.250    20091606.740   105582112.237 8      2217.707          50.875    20091610.880    82271772.823 8      1728.083          51.187    20091611.520    82271772.823 8      1728.083          51.187
G02  21989002.560   115552981.926 7      2030.317          47.375    21989000.920   115552981.931 6      2030.317          38.687    21989002.400    90041285.158 6      1582.065          38.750
G09  24863475.940   130658446.531 7      6102.263          42.062    24863475.100   130658446.538 6      6102.263          38.125    24863497.420   101811822.046 6      4755.010          38.250    24863497.780   101811865.056 6      4755.010          41.125
G04  22547907.680   118490058.174 7      5472.992          44.437    22547906.640   118490058.184 5      5472.992          34.375    22547915.740    92329945.238 5      4264.669          34.312    22547916.060    92329948.242 8      4264.669          48.312
R02  20022769.760   106845386.966 8      1438.455          50.812    20022769.460   106845386.961 8      1438.455          50.062    20022776.020    83101954.601 8      1118.799          50.250    20022775.980    83101957.600 8      1118.799          49.625
G21  22723306.500   119411743.561 7      1339.773          46.500    22723304.800   119411743.566 5      1339.773          34.625    22723307.700    93048121.955 5      1043.979          34.812
G08  22951636.880   120611638.866 7      -263.819          45.375    22951635.920   120611638.865 7      -263.819          43.562    22951646.520    93983118.700 7      -205.573          43.312    22951647.360    93983121.706 7      -205.573          46.500
G14  22205308.020   116689683.009 7      2013.661          44.437    22205306.760   116689683.025 5      2013.661          34.625    22205312.100    90927026.696 5      1569.087          34.312    22205312.360    90927031.692 8      1569.087          49.687
R18  21762479.080   116169592.188 7      4904.843          43.875    21762479.200   116169592.194 7      4904.843          44.250    21762487.580    90354166.067 7      3814.878          47.375    21762487.020    90354168.063 7      3814.878          47.625
R17  20406760.180   109200692.011 7      3143.222          47.375    20406760.500   109200692.031 7      3143.222          47.250    20406769.760    84933912.675 8      2444.729          50.687    20406768.980    84933910.673 8      2444.729          50.437
R24  22659138.540   121168567.975 7       856.122          44.250    22659137.760   121168567.989 7       856.122          43.687    22659151.820    94242254.803 7       665.873          43.687    22659151.260    94242260.797 7       665.873          43.937
G22  23351161.520   122711178.397 7      3422.846          45.500    23351160.240   122711178.404 5      3422.846          32.687    23351163.580    95619105.414 5      2667.153          32.687
R16  23122258.440   123514951.753 7      1346.889          43.875    23122257.760   123514951.757 7      1346.889          42.812    23122268.240    96067216.600 7      1047.580          47.062    23122268.300    96067219.607 7      1047.580          47.375
R03  20184576.440   108049618.267 8      5505.885          48.437    20184577.140   108049618.296 7      5505.885          47.625    20184586.740    84038636.737 8      4282.355          50.687    20184586.900    84038634.741 8      4282.355          50.750
R01  23483163.200   125530979.196 6     -1308.164          39.500    23483162.600   125530979.184 6     -1308.164          38.687    23483176.680    97635248.091 6     -1017.461          37.375    23483174.920    97635242.084 6     -1017.461          37.687
G17  22690767.080   119240787.733 7      5385.871          44.062    22690765.700   119240787.740 5      5385.871          35.875    22690769.300    92914909.284 5      4196.783          35.750    22690769.140    92914913.285 7      4196.783          45.937
R15  23454909.620   125335914.634 6      -489.428          41.687    23454910.160   125335914.633 6      -489.428          40.312    23454930.080    97483567.562 7      -380.666          44.500    23454929.920    97483566.570 7      -380.666          43.937
> 2024 05 03 16 37 23.0000000  0 17
G03  20091185.260   105579895.036 8      2216.835          50.187    20091184.820   105579895.041 8      2216.835          50.562    20091188.880    82270045.050 8      1727.404          51.250    20091189.600    82270045.050 8      1727.404          51.500
G02  21988616.380   115550951.877 7      2029.988          46.812    21988614.580   115550951.882 6      2029.988          38.562    21988616.100    90039703.300 6      1581.809          38.500
G09  24862314.680   130652344.386 6      6102.115          41.687    24862313.860   130652344.399 6      6102.115          38.187    24862336.380   101807067.128 6      4754.895          38.062    24862336.820   101807110.128 6      4754.895          41.125
G04  22546866.420   118484585.585 7      5472.359          44.812    22546865.240   118484585.598 5      5472.359          34.375    22546874.120    92325680.895 5      4264.176          34.375    22546874.540    92325683.901 7      4264.176          47.875
R02  20022500.180   106843949.134 8      1437.354          50.750    20022500.020   106843949.132 8      1437.354          49.687    20022506.620    83100836.287 8      1117.942          50.125    20022506.700    83100839.291 8      1117.942          50.437
G21  22723051.420   119410404.092 7      1339.444          45.125    22723049.980   119410404.097 5      1339.444          34.937    22723052.920    93047078.207 5      1043.723          35.000
G08  22951687.180   120611903.128 7      -264.561          45.062    22951686.180   120611903.131 7      -264.561          43.375    22951696.820    93983324.613 7      -206.152          43.562    22951697.760    93983327.614 7      -206.152          46.187
G14  22204925.000   116687669.860 7      2012.715          44.250    22204923.740   116687669.876 5      2012.715          34.437    22204928.980    90925458.007 5      1568.349          34.062    22204929.200    90925463.000 8      1568.349          49.437
R18  21761560.440   116164687.539 7      4904.592          42.812    21761560.560   116164687.550 7      4904.592          44.375    21761568.640    90350351.345 7      3814.683          47.062    21761568.480    90350353.349 8      3814.683          48.062
R17  20406172.820   109197549.202 7      3142.597          47.250    20406173.180   109197549.222 7      3142.597          47.125    20406182.580    84931468.268 8      2444.242          50.875    20406182.120    84931466.264 8      2444.242          51.187
R24  22658978.060   121167712.311 7       855.464          44.187    22658977.500   121167712.323 7       855.464          44.500    22658991.700    94241589.276 7       665.361          43.500    22658991.800    94241595.268 7       665.361          44.187
G22  23350510.340   122707756.023 7      3422.005          45.875    23350509.120   122707756.031 5      3422.005          32.687    23350512.280    95616438.629 5      2666.498          32.937
R16  23122005.960   123513605.395 7      1345.977          42.875    23122005.520   123513605.391 7      1345.977          42.812    23122016.260    96066169.427 7      1046.871          47.312    23122016.340    96066172.430 7      1046.871          47.625
R03  20183547.860   108044113.020 8      5504.858          48.625    20183548.620   108044113.045 7      5504.858          47.312    20183558.360    84034354.882 8      4281.556          50.937    20183558.340    84034352.884 8      4281.556          50.812
R01  23483407.660   125532287.717 6     -1308.788          39.500    23483407.240   125532287.734 6     -1308.788          37.875    23483421.880    97636265.845 6     -1017.947          37.375    23483419.900    97636259.844 6     -1017.947          38.875
G17  22689742.300   119235402.162 7      5385.495          45.437    22689740.880   119235402.164 6      5385.495          36.187    22689744.360    92910712.733 5      4196.490          35.750    22689744.340    92910716.728 7      4196.490          46.375
R15  23455000.840   125336404.403 7      -489.896          42.312    23455001.560   125336404.412 6      -489.896          40.812    23455022.000    97483948.472 7      -381.030          44.125    23455021.400    97483947.478 7      -381.030          43.937
> 2024 05 03 16 37 24.0000000  0 17
G03  20090763.520   105577678.299 8      2216.612          50.062    20090762.960   105577678.304 8      2216.612          50.875    20090767.040    82268318.095 8      1727.230          51.312    20090767.740    82268318.095 8      1727.230          51.375
G02  21988229.820   115548921.849 7      2030.151          46.625    21988228.320   115548921.854 6      2030.151          38.437    21988229.760    90038121.460 6      1581.936          38.312
G09  24861153.500   130646242.068 7      6102.594          42.562    24861152.720   130646242.079 6      6102.594          37.750    24861175.040   101802312.069 6      4755.268          37.875    24861175.640   101802355.067 6      4755.268          41.125
G04  22545824.860   118479113.157 7      5472.396          44.937    22545823.860   118479113.167 5      5472.396          34.562    22545832.760    92321416.671 5      4264.205          34.500    22545833.080    92321419.677 8      4264.205          48.312
R02  20022231.000   106842512.087 8      1436.745          50.875    20022230.560   106842512.085 8      1436.745          49.812    20022237.300    83099718.586 8      1117.468          50.000    20022237.600    83099721.592 8      1117.468          50.125
G21  22722796.480   119409064.583 7      1339.677          45.312    22722795.060   119409064.586 5      1339.677          34.937    22722798.120    93046034.432 5      1043.904          35.062
G08  22951737.440   120612167.599 7      -264.505          44.687    22951736.480   120612167.598 7      -264.505          43.375    22951747.140    93983530.683 7      -206.108          43.187    22951747.780    93983533.685 7      -206.108          46.312
G14  22204541.900   116685657.176 7      2012.642          44.812    22204540.780   116685657.192 5      2012.642          34.437    22204546.000    90923889.675 5      1568.292          34.062    22204546.440    90923894.669 8      1568.292          49.750
R18  21760641.640   116159782.802 7      4904.897          44.875    21760641.560   116159782.808 7      4904.897          44.375    21760650.120    90346536.551 7      3814.920          47.812    21760649.840    90346538.558 7      3814.920          47.937
R17  20405585.640   109194406.594 8      3142.593          48.500    20405586.220   109194406.606 7      3142.593          47.125    20405595.300    84929024.010 8      2444.239          50.562    20405594.760    84929022.009 8      2444.239          51.375
R24  22658818.360   121166856.828 7       855.611          43.937    22658817.460   121166856.835 7       855.611          43.687    22658831.580    94240923.890 7       665.475          43.687    22658831.880    94240929.890 7       665.475          44.375
G22  23349858.980   122704334.112 7      3421.806          45.437    23349857.880   122704334.120 5      3421.806          32.687    23349861.360    95613772.203 5      2666.342          32.937
R16  23121754.320   123512259.542 7      1345.699          42.750    23121753.600   123512259.546 7      1345.699          42.312    23121764.320    96065122.650 7      1046.655          47.062    23121764.540    96065125.655 7      1046.655          47.562
R03  20182519.440   108038608.380 8      5504.484          49.187    20182520.060   108038608.411 7      5504.484          47.812    20182529.960    84030073.504 8      4281.265          50.625    20182529.960    84030071.505 8      4281.265          50.812
R01  23483652.320   125533596.495 6     -1308.677          39.500    23483652.760   125533596.502 6     -1308.677          37.875    23483666.760    97637283.762 6     -1017.860          38.437    23483665.300    97637277.757 6     -1017.860          38.875
G17  22688717.540   119230016.686 7      5385.573          44.687    22688716.040   119230016.686 6      5385.573          36.187    22688719.560    92906516.258 5      4196.550          35.875    22688719.920    92906520.247 7      4196.550          46.562
R15  23455092.580   125336894.179 7      -489.670          42.312    23455093.800   125336894.167 6      -489.670          40.812    23455113.460    97484329.370 7      -380.854          43.937    23455112.840    97484328.371 7      -380.854          44.250
> 2024 05 03 16 37 25.0000000  0 17
G03  20090341.740   105575461.964 8      2216.193          49.625    20090341.220   105575461.964 8      2216.193          50.812    20090345.340    82266590.976 8      1726.904          51.375    20090345.960    82266590.976 8      1726.904          51.250
G02  21987843.500   115546891.737 7      2030.271          46.625    21987842.040   115546891.744 6      2030.271          38.500    21987843.480    90036539.554 6      1582.029          38.125
G09  24859992.160   130640139.477 7      6102.756          42.125    24859991.440   130640139.490 6      6102.756          38.000    24860013.700   101797556.797 6      4755.394          38.250    24860014.980   101797599.799 6      4755.394          41.125
G04  22544783.240   118473640.755 7      5472.415          44.937    22544782.440   118473640.765 5      5472.415          34.187    22544791.540    92317152.470 5      4264.220          34.500    22544791.800    92317155.474 7      4264.220          47.812
R02  20021961.760   106841075.667 8      1436.152          50.812    20021961.620   106841075.665 8      1436.152          50.250    20021968.060    83098601.370 8      1117.007          50.375    20021968.400    83098604.376 8      1117.007          50.187
G21  22722541.500   119407724.941 7      1339.780          45.812    22722540.040   119407724.948 5      1339.780          34.812    22722543.060    93044990.557 5      1043.984          35.062
G08  22951787.580   120612432.155 7      -264.545          44.687    22951786.860   120612432.160 7      -264.545          43.062    22951797.380    93983736.829 7      -206.139          43.125    22951798.160    93983739.833 7      -206.139          46.312
G14  22204158.860   116683645.000 7      2012.016          44.437    22204157.980   116683645.012 5      2012.016          34.625    22204163.060    90922321.745 5      1567.805          34.625    22204163.600    90922326.745 8      1567.805          49.375
R18  21759723.040   116154877.947 7      4904.980          44.625    21759722.560   116154877.948 7      4904.980          44.125    21759731.180    90342721.663 7      3814.985          47.312    21759730.920    90342723.671 7      3814.985          47.750
R17  20404998.240   109191264.079 8      3142.477          48.062    20404998.960   109191264.096 7      3142.477          46.812    20405008.020    84926579.834 8      2444.149          50.625    20405007.440    84926577.833 8      2444.149          51.125
R24  22658658.240   121166001.424 7       855.369          44.500    22658658.000   121166001.430 7       855.369          43.687    22658671.840    94240258.573 7       665.287          43.687    22658671.840    94240264.571 7       665.287          44.250
G22  23349207.900   122700912.643 7      3421.405          45.375    23349206.920   122700912.648 5      3421.405          32.687    23349210.340    95611106.119 5      2666.030          32.937
R16  23121502.500   123510914.226 7      1345.226          42.750    23121501.780   123510914.222 7      1345.226          42.125    23121512.600    96064076.289 7      1046.287          47.062    23121512.700    96064079.292 7      1046.287          47.812
R03  20181491.380   108033104.243 8      5503.930          48.437    20181491.860   108033104.269 7      5503.930          47.625    20181501.860    84025792.510 8      4280.835          50.750    20181501.820    84025790.512 8      4280.835          50.812
R01  23483897.500   125534905.463 6     -1308.950          38.687    23483897.200   125534905.464 6     -1308.950          37.875    23483911.200    97638301.840 6     -1018.072          38.437    23483909.800    97638295.827 6     -1018.072          39.375
G17  22687692.500   119224631.234 7      5385.607          44.312    22687691.260   119224631.233 5      5385.607          35.875    22687694.540    92902319.802 5      4196.577          35.875    22687695.240    92902323.807 7      4196.577          46.750
R15  23455184.440   125337383.860 7      -489.553          42.750    23455185.380   125337383.858 6      -489.553          41.375    23455205.160    97484710.197 7      -380.764          43.625    23455204.620    97484709.205 7      -380.764          43.562
> 2024 05 03 16 37 26.0000000  0 17
G03  20089920.100   105573246.296 8      2215.397          49.562    20089919.600   105573246.301 8      2215.397          50.875    20089923.700    82264864.431 8      1726.283          51.625    20089924.280    82264864.431 8      1726.283          51.250
G02  21987457.380   115544861.900 7      2029.717          47.312    21987455.820   115544861.905 6      2029.717          38.250    21987457.140    90034957.865 6      1581.598          38.187
G09  24858831.140   130634036.957 6      6102.597          41.750    24858830.180   130634036.967 6      6102.597          38.125    24858852.420   101792801.582 6      4755.270          38.250    24858853.220   101792844.574 6      4755.270          41.437
G04  22543741.820   118468168.828 7      5471.862          44.875    22543741.080   118468168.833 5      5471.862          34.187    22543750.180    92312888.635 5      4263.789          34.375    22543750.360    92312891.639 8      4263.789          48.125
R02  20021692.660   106839640.279 8      1434.909          50.937    20021692.580   106839640.280 8      1434.909          49.875    20021699.120    83097484.960 8      1116.040          50.125    20021699.400    83097487.964 8      1116.040          50.125
G21  22722286.420   119406385.551 7      1339.272          45.437    22722285.120   119406385.553 5      1339.272          34.687    22722288.040    93043946.872 5      1043.588          34.750
G08  22951837.960   120612697.264 7      -265.275          45.062    22951837.360   120612697.269 7      -265.275          43.750    22951847.840    93983943.397 7      -206.708          43.187    22951848.740    93983946.401 7      -206.708          46.500
G14  22203776.200   116681633.469 7      2011.284          44.437    22203775.280   116681633.482 5      2011.284          35.062    22203780.280    90920754.319 5      1567.234          34.625    22203780.720    90920759.321 8      1567.234          49.500
R18  21758804.300   116149973.187 7      4904.686          43.812    21758803.760   116149973.187 7      4904.686          44.000    21758812.420    90338906.849 7      3814.756          47.625    21758812.180    90338908.851 7      3814.756          47.375
R17  20404411.360   109188121.987 8      3141.915          48.000    20404411.900   109188122.002 7      3141.915          46.937    20404420.740    84924135.981 8      2443.712          50.687    20404420.420    84924133.979 8      2443.712          51.187
R24  22658498.820   121165146.546 7       854.679          44.875    22658498.000   121165146.555 7       854.679          43.812    22658511.820    94239593.656 7       664.750          43.250    22658511.700    94239599.658 7       664.750          43.750
G22  23348557.100   122697491.812 7      3420.454          45.625    23348555.880   122697491.814 5      3420.454          32.812    23348559.140    95608440.532 5      2665.289          32.937
R16  23121250.880   123509569.653 7      1344.175          43.625    23121250.000   123509569.664 7      1344.175          42.125    23121260.800    96063030.516 7      1045.470          47.250    23121261.200    96063033.521 8      1045.470          48.000
R03  20180463.340   108027600.952 8      5502.916          48.750    20180463.660   108027600.980 7      5502.916          47.000    20180473.720    84021512.179 8      4280.046          51.062    20180473.500    84021510.181 8      4280.046          51.125
R01  23484141.500   125536214.883 6     -1309.683          38.687    23484141.660   125536214.881 6     -1309.683          37.875    23484156.000    97639320.273 6     -1018.643          38.750    23484155.120    97639314.266 6     -1018.643          39.375
G17  22686667.960   119219246.047 7      5385.083          44.812    22686666.700   119219246.049 5      5385.083          35.937    22686669.700    92898123.559 5      4196.168          35.625    22686670.360    92898127.568 7      4196.168          46.500
R15  23455276.040   125337873.730 7      -489.948          42.312    23455276.900   125337873.744 6      -489.948          41.375    23455296.980    97485091.193 7      -381.071          43.750    23455296.440    97485090.200 7      -381.071          43.437
