     3.05           OBSERVATION DATA    MIXED               RINEX VERSION / TYPE
TPS2RIN 1.0.29.3920 TPS-USER            20240511 193124 UTC PGM / RUN BY / DATE
Win64 build Feb 23, 2024 (c) Topcon Positioning Systems     COMMENT
SRC: 20240509_FA08.tps                                      COMMENT
OPT: -S -v 3.05                                             COMMENT
Observer            Agency                                  OBSERVER / AGENCY
O0M3X53SBGM         TPS HIPER_SR        4.8 HSR Jul,08,2022 REC # / TYPE / VERS
FW: 4.8 HSR Jul,08,2022 p3                                  COMMENT
SN: HiPer SR 1212-12575                                     COMMENT
000                 TPSHIPER_SR     NONE                    ANT # / TYPE
        1.8000        0.0000        0.0000                  ANTENNA: DELTA H/E/N
FA08                                                        MARKER NAME
  5390932.1772 -1598585.2669  3005105.9984                  APPROX POSITION XYZ
  2024     5     9    11    32   46.0000000     GPS         TIME OF FIRST OBS
  2024     5     9    11    47   46.0000000     GPS         TIME OF LAST OBS
     1.000                                                  INTERVAL
   901 EPOCHS                                               COMMENT
G   16 C1C L1C D1C S1C C1W L1W D1W S1W C2W L2W D2W S2W C2X  SYS / # / OBS TYPES
       L2X D2X S2X                                          SYS / # / OBS TYPES
R   16 C1C L1C D1C S1C C1P L1P D1P S1P C2P L2P D2P S2P C2C  SYS / # / OBS TYPES
       L2C D2C S2C                                          SYS / # / OBS TYPES
    16                                                      # OF SATELLITES
   G02   902   902   902   902   902   902   902   902   902PRN / # OF OBS
         902   902   902     0     0     0     0            PRN / # OF OBS
   G07   200   200   200   200   189   189   189   189   189PRN / # OF OBS
         189   189   189   185   185   185   185            PRN / # OF OBS
   G08   902   902   902   902   902   902   902   902   902PRN / # OF OBS
         902   902   902   902   902   902   902            PRN / # OF OBS
   G10   902   902   902   902   902   902   902   902   902PRN / # OF OBS
         902   902   902   902   902   902   902            PRN / # OF OBS
   G16   902   902   902   902   902   902   902   902   902PRN / # OF OBS
         902   902   902     0     0     0     0            PRN / # OF OBS
   G18   851   851   851   851   848   848   848   848   848PRN / # OF OBS
         848   848   848   844   844   844   844            PRN / # OF OBS
   G21   902   902   902   902   902   902   902   902   902PRN / # OF OBS
         902   902   902     0     0     0     0            PRN / # OF OBS
   G23   902   902   902   902   902   902   902   902   902PRN / # OF OBS
         902   902   902   902   902   902   902            PRN / # OF OBS
   G26   902   902   902   902   902   902   902   902   902PRN / # OF OBS
         902   902   902   902   902   902   902            PRN / # OF OBS
   G27   902   902   902   902   902   902   902   902   902PRN / # OF OBS
         902   902   902   902   902   902   902            PRN / # OF OBS
   G31   902   902   902   902   902   902   902   902   902PRN / # OF OBS
         902   902   902   902   902   902   902            PRN / # OF OBS
   R10   902   902   902   902   902   902   902   902     0PRN / # OF OBS
           0     0     0     0     0     0     0            PRN / # OF OBS
   R11   902   902   902   902   902   902   902   902   902PRN / # OF OBS
         902   902   902   902   902   902   902            PRN / # OF OBS
   R12   902   902   902   902   902   902   902   902   902PRN / # OF OBS
         902   902   902   902   902   902   902            PRN / # OF OBS
   R21   902   902   902   902   902   902   902   902   902PRN / # OF OBS
         902   902   902   902   902   902   902            PRN / # OF OBS
   R22   902   902   902   902   902   902   902   902   902PRN / # OF OBS
         902   902   902   902   902   902   902            PRN / # OF OBS
G L1C                                                       SYS / PHASE SHIFT
G L1W -0.25000                                              SYS / PHASE SHIFT
G L2W  0.00000                                              SYS / PHASE SHIFT
G L2X  0.25000                                              SYS / PHASE SHIFT
R L1C                                                       SYS / PHASE SHIFT
R L1P -0.25000                                              SYS / PHASE SHIFT
R L2P -0.25000                                              SYS / PHASE SHIFT
R L2C                                                       SYS / PHASE SHIFT
  5 R10 -7 R11  0 R12 -1 R21  4 R22 -3                      GLONASS SLOT / FRQ #
                                                            GLONASS COD/PHS/BIS
    18    18  1929     7GPS                                 LEAP SECONDS
                                                            END OF HEADER
> 2024 05 09 11 32 46.0000000  0 15
G02  24095694.800   126623732.984 7      5506.165          44.187    24095693.240   126623732.986 5      5506.165          32.312    24095703.380    98667877.668 5      4290.518          32.562
G27  20830741.900   109466282.805 7      2365.406          47.187    20830740.600   109466282.810 8      2365.406          48.687    20830746.680    85298423.565 8      1843.173          49.000    20830747.320    85298425.569 8      1843.173          50.250
R11  19189568.060   102543231.580 8      3062.613          48.375    19189568.100   102543231.578 8      3062.613          48.312    19189575.260    79755874.774 8      2382.032          52.437    19189575.400    79755875.776 8      2382.032          53.187
G16  20425225.300   107335275.859 7      2525.768          45.937    20425223.620   107335275.866 6      2525.768          41.125    20425227.140    83637886.496 6      1968.131          40.875
R21  19979358.880   106913584.294 8       758.892          48.500    19979359.400   106913584.314 7       758.892          47.062    19979369.260    83155049.695 8       590.250          50.562    19979368.620    83155048.699 8       590.250          50.187
G26  21374511.120   112323810.065 7       469.036          45.875    21374509.380   112323810.073 7       469.036          46.875    21374518.180    87525074.280 7       365.482          47.062    21374518.580    87525076.285 8       365.482          48.125
R22  20652078.800   110242193.364 8      3990.070          48.500    20652079.220   110242193.362 8      3990.070          48.062    20652087.200    85743964.317 8      3103.388          50.312    20652087.520    85743966.313 8      3103.388          50.812
R10  21104514.780   112498925.063 7      -844.952          43.312    21104514.420   112498925.083 7      -844.952          42.937
G08  22052516.700   115886752.832 7      3823.330          44.687    22052515.960   115886752.829 5      3823.330          35.750    22052523.880    90301396.050 5      2979.219          35.562    22052524.860    90301399.064 8      2979.219          48.687
G10  22631771.420   118930759.984 7      3955.965          46.062    22631770.440   118930759.986 7      3955.965          45.375    22631780.160    92673357.081 7      3082.570          45.437    22631780.180    92673352.083 7      3082.570          47.125
G23  23081432.240   121293740.578 7      2194.504          43.125    23081431.100   121293740.583 5      2194.504          32.875    23081439.320    94514634.043 5      1710.004          32.750    23081439.500    94514635.063 7      1710.004          46.875
G21  22264852.340   117002588.169 6      5272.106          41.125    22264849.880   117002588.173 4      5272.106          29.625    22264857.800    91170868.819 4      4108.134          29.500
G31  23968334.440   125954435.755 7      -973.982          44.500    23968333.640   125954435.762 6      -973.982          40.250    23968344.900    98146352.286 6      -758.947          40.625    23968345.340    98146354.290 7      -758.947          43.687
R12  22597210.280   120710235.349 7      6373.212          44.937    22597208.180   120710235.369 7      6373.212          45.187    22597218.080    93885779.518 7      4956.943          43.312    22597218.200    93885780.509 7      4956.943          43.062
G18  24860005.940   130640204.852 7      -968.949          42.875    24860005.360   130640204.855 5      -968.949          30.312    24860015.140   101797590.444 5      -755.025          30.875    24860015.660   101797607.442 7      -755.025          45.875
> 2024 05 09 11 32 47.0000000  0 15
G02  24094646.820   126618226.474 7      5506.789          43.937    24094645.420   126618226.476 5      5506.789          32.312    24094655.520    98663586.898 5      4291.004          32.125
G27  20830291.580   109463916.872 7      2366.301          47.875    20830290.420   109463916.880 8      2366.301          49.312    20830296.500    85296579.989 8      1843.871          49.562    20830297.000    85296581.994 8      1843.871          49.937
R11  19188995.000   102540168.658 8      3062.901          48.625    19188994.980   102540168.654 8      3062.901          48.312    19189002.140    79753492.508 8      2382.256          52.500    19189002.280    79753493.514 8      2382.256          53.250
G16  20424744.360   107332749.692 7      2526.399          46.250    20424742.940   107332749.697 6      2526.399          40.812    20424746.340    83635918.060 6      1968.623          40.312
R21  19979217.160   106912825.004 7       759.582          47.312    19979217.700   106912825.016 7       759.582          47.250    19979227.280    83154459.134 8       590.786          50.375    19979226.520    83154458.138 8       590.786          50.250
G26  21374421.720   112323340.570 7       469.730          47.312    21374420.060   112323340.577 7       469.730          47.000    21374428.900    87524708.444 7       366.023          46.937    21374429.400    87524710.444 8       366.023          48.312
R22  20651331.360   110238202.942 8      3990.576          48.437    20651331.660   110238202.940 7      3990.576          47.937    20651339.580    85740860.664 8      3103.781          50.000    20651339.800    85740862.660 8      3103.781          50.562
R10  21104672.940   112499769.411 7      -844.152          43.250    21104672.920   112499769.425 7      -844.152          42.937
G08  22051789.320   115882929.018 7      3824.093          45.125    22051788.180   115882929.015 6      3824.093          36.000    22051796.120    90298416.462 5      2979.813          35.875    22051797.040    90298419.478 8      2979.813          48.625
G10  22631018.640   118926803.512 7      3956.691          45.812    22631017.720   118926803.512 7      3956.691          45.187    22631027.380    92670274.124 7      3083.136          45.500    22631027.480    92670269.125 7      3083.136          47.312
G23  23081014.540   121291545.636 7      2195.039          43.437    23081013.400   121291545.638 5      2195.039          32.687    23081021.600    94512923.705 5      1710.420          32.937    23081021.820    94512924.719 7      1710.420          47.625
G21  22263849.020   116997315.671 6      5272.692          40.750    22263846.660   116997315.681 4      5272.692          29.625    22263854.440    91166760.396 4      4108.591          29.500
G31  23968519.760   125955409.063 7      -972.908          45.125    23968519.000   125955409.071 6      -972.908          40.500    23968530.120    98147110.704 6      -758.110          40.562    23968530.620    98147112.704 7      -758.110          43.875
R12  22596016.820   120703861.582 7      6374.095          44.437    22596014.460   120703861.599 7      6374.095          44.937    22596025.240    93880822.154 7      4957.630          43.500    22596025.680    93880823.148 7      4957.630          43.812
G18  24860190.200   130641173.182 7      -968.002          43.312    24860189.740   130641173.184 5      -968.002          31.187    24860199.420   101798344.987 5      -754.287          30.875    24860199.700   101798361.989 7      -754.287          45.812
> 2024 05 09 11 32 48.0000000  0 15
G02  24093599.000   126612719.344 7      5507.681          43.687    24093597.320   126612719.349 5      5507.681          32.250    24093607.720    98659295.646 5      4291.699          32.125
G27  20829841.220   109461550.243 7      2367.235          46.875    20829840.060   109461550.248 8      2367.235          48.687    20829846.160    85294735.871 8      1844.599          49.250    20829846.620    85294737.873 8      1844.599          49.750
R11  19188421.840   102537105.691 8      3063.169          48.812    19188421.500   102537105.695 8      3063.169          48.125    19188428.940    79751110.208 8      2382.465          52.750    19188428.960    79751111.211 8      2382.465          52.812
G16  20424263.860   107330223.105 7      2527.017          46.062    20424262.220   107330223.110 6      2527.017          40.312    20424265.700    83633949.300 6      1969.104          39.937
R21  19979074.960   106912065.202 7       760.306          47.250    19979075.340   106912065.217 7       760.306          47.125    19979085.260    83153868.186 8       591.349          50.937    19979084.860    83153867.189 8       591.349          50.312
G26  21374332.320   112322870.609 7       470.413          46.687    21374330.660   112322870.614 7       470.413          47.000    21374339.500    87524342.245 7       366.556          46.687    21374339.720    87524344.248 8       366.556          48.437
R22  20650583.600   110234212.176 7      3991.172          47.562    20650584.120   110234212.177 7      3991.172          47.937    20650592.120    85737756.745 8      3104.245          50.250    20650592.220    85737758.743 8      3104.245          50.812
R10  21104831.660   112500613.447 7      -843.701          43.250    21104831.280   112500613.458 7      -843.701          42.187
G08  22051061.540   115879104.430 7      3825.189          45.625    22051060.500   115879104.427 6      3825.189          36.000    22051068.380    90295436.273 5      2980.667          35.875    22051069.440    90295439.289 8      2980.667          49.500
G10  22630265.640   118922846.607 7      3957.337          47.000    22630264.540   118922846.609 7      3957.337          45.125    22630274.400    92667190.836 7      3083.639          45.437    22630274.220    92667185.836 7      3083.639          46.875
G23  23080596.900   121289350.398 7      2195.619          44.250    23080595.820   121289350.403 5      2195.619          32.687    23080603.840    94511213.140 5      1710.872          32.937    23080603.740    94511214.156 7      1710.872          47.000
G21  22262845.800   116992042.718 6      5273.496          41.750    22262843.160   116992042.728 4      5273.496          29.375    22262851.100    91162651.612 4      4109.218          29.437
G31  23968705.080   125956381.516 7      -971.871          45.687    23968704.320   125956381.531 6      -971.871          40.250    23968715.240    98147868.457 6      -757.302          40.500    23968715.560    98147870.457 7      -757.302          43.750
R12  22594823.560   120697487.164 7      6374.967          43.875    22594820.060   120697487.173 7      6374.967          44.062    22594832.600    93875864.283 7      4958.308          43.437    22594832.460    93875865.279 7      4958.308          44.187
G18  24860374.260   130642140.658 7      -966.784          43.500    24860373.780   130642140.657 5      -966.784          31.187    24860383.460   101799098.870 5      -753.338          30.875    24860384.120   101799115.878 7      -753.338          45.750
> 2024 05 09 11 32 49.0000000  0 15
G02  24092551.100   126607211.536 7      5507.801          44.250    24092549.200   126607211.544 5      5507.801          32.250    24092559.640    98655003.864 5      4291.793          32.125
G27  20829390.800   109459182.847 7      2367.432          47.750    20829389.560   109459182.847 8      2367.432          49.125    20829395.700    85292891.151 8      1844.752          49.187    20829396.040    85292893.155 8      1844.752          50.000
R11  19187848.640   102534042.548 8      3062.874          49.375    19187848.500   102534042.547 8      3062.874          48.000    19187855.700    79748727.770 8      2382.235          52.687    19187856.000    79748728.770 8      2382.235          53.250
G16  20423782.940   107327695.983 7      2527.052          46.687    20423781.320   107327695.985 6      2527.052          41.562    20423784.680    83631980.117 6      1969.132          40.812
R21  19978933.180   106911304.839 7       760.299          47.250    19978933.400   106911304.849 8       760.299          48.062    19978943.200    83153276.799 8       591.344          50.562    19978942.620    83153275.800 8       591.344          50.000
G26  21374242.720   112322400.097 7       470.468          47.375    21374241.080   112322400.094 7       470.468          47.187    21374249.940    87523975.608 7       366.598          47.187    21374250.320    87523977.613 8       366.598          48.812
R22  20649836.100   110230220.980 7      3991.018          47.750    20649836.440   110230220.983 7      3991.018          47.750    20649844.380    85734652.492 8      3104.125          50.437    20649844.580    85734654.492 8      3104.125          50.500
R10  21104989.740   112501457.014 7      -843.745          43.187    21104989.300   112501457.023 7      -843.745          42.375
G08  22050333.780   115875279.045 7      3825.401          45.437    22050332.580   115875279.039 6      3825.401          36.000    22050340.380    90292455.460 5      2980.832          35.750    22050341.300    90292458.480 8      2980.832          48.687
G10  22629512.420   118918889.153 7      3957.347          46.500    22629511.580   118918889.155 7      3957.347          45.687    22629521.340    92664107.116 7      3083.647          45.437    22629521.400    92664102.118 7      3083.647          47.000
G23  23080179.180   121287154.794 7      2195.483          44.187    23080178.060   121287154.799 5      2195.483          33.187    23080186.080    94509502.288 5      1710.766          33.062    23080186.080    94509503.302 7      1710.766          47.437
G21  22261842.040   116986769.274 7      5273.387          42.750    22261839.600   116986769.282 4      5273.387          29.375    22261847.600    91158542.447 4      4109.133          29.437
G31  23968889.960   125957353.006 7      -971.397          45.375    23968889.300   125957353.016 6      -971.397          40.375    23968900.080    98148625.456 6      -756.933          40.875    23968900.500    98148627.461 7      -756.933          43.812
R12  22593629.740   120691111.973 7      6375.179          43.500    22593626.340   120691111.982 7      6375.179          44.062    22593639.220    93870905.825 7      4958.472          43.562    22593639.440    93870906.825 7      4958.472          45.000
G18  24860558.320   130643107.258 7      -966.499          43.875    24860557.820   130643107.261 5      -966.499          31.187    24860567.320   101799852.070 5      -753.116          31.062    24860567.640   101799869.076 7      -753.116          45.562
> 2024 05 09 11 32 50.0000000  0 15
G02  24091502.700   126601703.468 7      5508.469          43.500    24091501.200   126601703.476 5      5508.469          32.250    24091511.320    98650711.877 5      4292.313          32.062
G27  20828940.200   109456815.086 7      2368.118          47.875    20828939.060   109456815.088 8      2368.118          49.062    20828945.080    85291046.148 8      1845.287          49.187    20828945.480    85291048.153 8      1845.287          49.937
R11  19187275.600   102530979.680 8      3063.038          49.687    19187275.220   102530979.681 8      3063.038          48.812    19187282.500    79746345.545 8      2382.363          52.875    19187282.580    79746346.546 8      2382.363          53.750
G16  20423301.840   107325168.768 7      2527.504          46.687    20423300.400   107325168.773 6      2527.504          41.062    20423303.900    83630010.869 6      1969.484          40.500
R21  19978790.780   106910544.329 7       760.844          47.687    19978791.400   106910544.339 7       760.844          47.625    19978801.100    83152685.293 8       591.768          50.625    19978800.660    83152684.296 8       591.768          50.250
G26  21374153.200   112321929.440 7       471.019          47.187    21374151.660   112321929.445 7       471.019          47.187    21374160.360    87523608.873 7       367.028          47.250    21374160.800    87523610.877 8       367.028          48.187
R22  20649088.160   110226229.760 8      3991.357          48.062    20649088.720   110226229.769 8      3991.357          48.062    20649096.760    85731548.222 8      3104.389          50.000    20649097.000    85731550.214 8      3104.389          50.375
R10  21105148.340   112502300.560 7      -843.328          43.125    21105147.460   112502300.574 7      -843.328          42.375
G08  22049605.420   115871453.227 7      3826.262          45.312    22049604.600   115871453.221 5      3826.262          35.875    22049612.420    90289474.309 5      2981.503          35.750    22049613.520    90289477.333 8      2981.503          49.000
G10  22628759.360   118914931.575 7      3957.914          46.375    22628758.660   118914931.580 7      3957.914          45.750    22628768.300    92661023.299 7      3084.089          45.937    22628767.920    92661018.299 7      3084.089          46.687
G23  23079761.320   121284959.245 7      2195.725          44.000    23079760.280   121284959.250 5      2195.725          33.250    23079768.280    94507791.477 5      1710.955          33.062    23079768.020    94507792.497 7      1710.955          47.500
G21  22260838.540   116981495.702 6      5273.872          41.437    22260836.080   116981495.709 4      5273.872          29.375    22260844.040    91154433.184 4      4109.511          29.437
G31  23969074.900   125958323.963 7      -970.412          45.375    23969074.140   125958323.971 6      -970.412          40.312    23969084.760    98149382.036 6      -756.165          40.187    23969085.140    98149384.034 7      -756.165          43.875
R12  22592436.500   120684736.404 7      6376.051          43.500    22592432.140   120684736.410 7      6376.051          44.000    22592445.580    93865947.063 7      4959.151          43.750    22592445.900    93865948.067 7      4959.151          44.875
G18  24860742.060   130644073.342 7      -965.654          44.187    24860741.680   130644073.349 5      -965.654          31.125    24860751.160   101800604.866 5      -752.458          31.062    24860751.700   101800621.882 7      -752.458          45.875
> 2024 05 09 11 32 51.0000000  0 15
G02  24090454.600   126596194.596 7      5509.086          43.500    24090452.860   126596194.604 5      5509.086          31.687    24090463.020    98646419.266 5      4292.794          32.062
G27  20828489.480   109454446.415 7      2368.941          47.375    20828488.220   109454446.420 8      2368.941          49.187    20828494.300    85289200.443 8      1845.928          49.312    20828494.600    85289202.448 8      1845.928          50.125
R11  19186702.240   102527916.572 8      3063.062          49.000    19186702.180   102527916.570 8      3063.062          48.062    19186709.400    79743963.136 8      2382.382          52.687    19186709.460    79743964.138 8      2382.382          53.375
G16  20422820.880   107322640.925 7      2527.952          46.812    20422819.460   107322640.932 6      2527.952          41.062    20422822.720    83628041.129 6      1969.833          40.687
R21  19978648.440   106909783.099 7       761.363          46.437    19978648.960   106909783.112 7       761.363          47.250    19978658.840    83152093.236 8       592.171          50.562    19978658.340    83152092.237 8       592.171          49.812
G26  21374063.720   112321458.137 7       471.548          47.812    21374061.880   112321458.139 7       471.548          46.937    21374070.680    87523241.628 7       367.440          47.000    21374071.040    87523243.630 8       367.440          48.437
R22  20648340.540   110222237.998 8      3991.799          48.000    20648341.100   110222238.004 7      3991.799          47.937    20648348.900    85728443.527 8      3104.733          50.187    20648349.000    85728445.526 8      3104.733          50.312
R10  21105306.340   112503143.562 7      -842.917          43.125    21105305.820   112503143.573 7      -842.917          42.312
G08  22048877.320   115867626.492 7      3827.077          45.500    22048876.500   115867626.486 5      3827.077          35.750    22048884.180    90286492.446 5      2982.138          35.437    22048885.200    90286495.470 8      2982.138          48.687
G10  22628006.120   118910973.367 7      3958.384          45.562    22628005.260   118910973.377 7      3958.384          45.625    22628014.980    92657938.993 7      3084.455          45.500    22628014.880    92657933.994 7      3084.455          47.000
G23  23079343.060   121282763.200 7      2196.082          44.125    23079342.460   121282763.200 5      2196.082          33.250    23079350.380    94506080.282 5      1711.233          33.062    23079350.280    94506081.299 7      1711.233          47.437
G21  22259834.960   116976221.501 6      5274.410          41.562    22259832.620   116976221.503 4      5274.410          29.375    22259840.340    91150323.426 4      4109.930          29.437
G31  23969259.240   125959293.856 7      -969.514          45.187    23969258.680   125959293.864 6      -969.514          40.500    23969269.340    98150137.795 6      -755.465          40.562    23969270.080    98150139.797 7      -755.465          44.062
R12  22591242.700   120678359.971 7      6376.708          43.750    22591238.740   120678359.967 7      6376.708          44.250    22591251.680    93860987.626 7      4959.662          44.187    22591251.980    93860988.622 7      4959.662          45.187
G18  24860926.080   130645038.387 7      -964.626          43.250    24860925.380   130645038.392 5      -964.626          31.125    24860934.860   101801356.853 5      -751.657          31.062    24860935.400   101801373.869 7      -751.657          45.812
> 2024 05 09 11 32 52.0000000  0 15
G02  24089406.160   126590685.062 7      5509.737          44.500    24089404.380   126590685.069 5      5509.737          31.687    24089414.640    98642126.137 5      4293.301          32.062
G27  20828038.660   109452076.991 7      2369.736          47.875    20828037.360   109452077.001 8      2369.736          48.875    20828043.440    85287354.148 8      1846.548          49.312    20828043.860    85287356.149 8      1846.548          49.812
R11  19186129.220   102524853.324 8      3063.201          48.750    19186128.940   102524853.325 8      3063.201          48.125    19186136.080    79741580.620 8      2382.489          52.562    19186136.140    79741581.623 8      2382.489          52.875
G16  20422339.520   107320112.575 7      2528.525          46.750    20422338.260   107320112.580 6      2528.525          41.250    20422341.620    83626070.993 6      1970.279          41.250
R21  19978506.120   106909021.241 7       762.032          47.375    19978506.620   106909021.258 7       762.032          47.750    19978516.400    83151500.689 8       592.692          50.687    19978516.180    83151499.693 8       592.692          49.687
G26  21373973.740   112320986.306 7       471.958          46.937    21373972.140   112320986.313 7       471.958          47.062    21373980.960    87522873.975 7       367.760          47.250    21373981.240    87522875.978 8       367.760          48.312
R22  20647592.680   110218245.828 7      3992.237          47.812    20647593.020   110218245.831 8      3992.237          48.312    20647601.040    85725338.509 8      3105.073          50.000    20647601.020    85725340.511 8      3105.073          50.625
R10  21105464.460   112503986.158 7      -842.564          43.250    21105464.080   112503986.177 7      -842.564          42.312
G08  22048148.920   115863798.952 7      3827.903          46.125    22048148.020   115863798.944 5      3827.903          35.937    22048155.740    90283509.958 5      2982.782          35.937    22048157.020    90283512.982 8      2982.782          49.062
G10  22627252.960   118907014.646 7      3958.881          46.937    22627251.940   118907014.648 7      3958.881          45.312    22627261.680    92654854.282 7      3084.842          45.312    22627261.220    92654849.286 7      3084.842          46.562
G23  23078925.220   121280566.798 7      2196.465          43.687    23078924.600   121280566.803 5      2196.465          33.125    23078932.400    94504368.805 5      1711.532          33.187    23078932.260    94504369.825 7      1711.532          47.125
G21  22258831.180   116970946.799 6      5274.876          41.687    22258828.800   116970946.798 4      5274.876          29.875    22258836.640    91146213.280 4      4110.293          29.687
G31  23969443.680   125960262.814 7      -968.513          44.937    23969443.240   125960262.821 6      -968.513          40.437    23969453.800    98150892.820 6      -754.686          40.250    23969454.380    98150894.823 7      -754.686          43.812
R12  22590048.920   120671982.778 7      6377.507          43.750    22590045.780   120671982.771 7      6377.507          44.500    22590058.040    93856027.587 7      4960.283          44.000    22590058.320    93856028.587 7      4960.283          45.062
G18  24861109.560   130646002.560 7      -963.749          43.000    24861108.860   130646002.565 5      -963.749          31.125    24861118.320   101802108.161 5      -750.974          31.062    24861118.740   101802125.181 7      -750.974          45.812
> 2024 05 09 11 32 53.0000000  0 15
G02  24088357.640   126585175.160 7      5510.052          43.562    24088355.900   126585175.160 5      5510.052          32.000    24088366.180    98637832.721 5      4293.547          31.937
G27  20827587.640   109449707.130 7      2370.096          47.625    20827586.400   109449707.138 8      2370.096          49.062    20827592.540    85285507.508 8      1846.828          49.187    20827592.960    85285509.510 8      1846.828          49.812
R11  19185555.800   102521790.250 8      3062.994          48.875    19185555.500   102521790.251 8      3062.994          48.500    19185562.920    79739198.234 8      2382.329          53.000    19185562.980    79739199.234 8      2382.329          52.937
G16  20421858.740   107317584.033 7      2528.654          46.187    20421857.080   107317584.043 6      2528.654          41.250    20421860.520    83624100.709 6      1970.380          41.000
R21  19978363.580   106908259.123 7       762.211          47.750    19978364.120   106908259.137 7       762.211          47.062    19978374.080    83150907.933 8       592.831          50.812    19978373.460    83150906.938 8       592.831          49.687
G26  21373883.940   112320514.246 7       472.179          46.812    21373882.360   112320514.251 7       472.179          47.062    21373891.100    87522506.134 7       367.932          47.125    21373891.320    87522508.139 8       367.932          48.562
R22  20646844.760   110214253.543 7      3992.365          47.937    20646845.100   110214253.549 8      3992.365          48.062    20646853.260    85722233.407 8      3105.173          49.875    20646853.160    85722235.409 8      3105.173          50.250
R10  21105622.220   112504828.624 7      -842.469          43.625    21105622.140   112504828.644 7      -842.469          42.375
G08  22047420.580   115859970.927 7      3828.252          46.437    22047419.440   115859970.919 6      3828.252          36.062    22047427.300    90280527.087 5      2983.054          35.812    22047428.520    90280530.113 8      2983.054          48.000
G10  22626499.660   118903055.713 7      3959.018          46.062    22626498.560   118903055.717 7      3959.018          45.500    22626508.340    92651769.407 7      3084.949          45.375    22626507.700    92651764.411 7      3084.949          46.437
G23  23078507.140   121278370.358 7      2196.403          43.437    23078506.540   121278370.363 5      2196.403          33.125    23078514.480    94502657.300 5      1711.483          33.187    23078514.320    94502658.316 7      1711.483          47.562
G21  22257827.300   116965671.894 7      5275.076          42.125    22257825.080   116965671.893 4      5275.076          29.875    22257832.860    91142102.975 4      4110.449          29.687
G31  23969627.720   125961231.172 7      -968.110          44.937    23969627.520   125961231.183 6      -968.110          39.937    23969637.920    98151647.381 6      -754.372          40.687    23969638.320    98151649.380 7      -754.372          43.562
R12  22588854.920   120665605.170 7      6377.856          44.125    22588852.160   120665605.158 7      6377.856          44.437    22588864.380    93851067.227 7      4960.555          44.062    22588864.540    93851068.225 7      4960.555          44.500
G18  24861292.600   130646966.165 6      -963.347          41.750    24861292.040   130646966.165 5      -963.347          30.562    24861301.760   101802859.026 5      -750.660          30.562    24861302.040   101802876.032 7      -750.660          45.937
> 2024 05 09 11 32 54.0000000  0 15
G02  24087309.240   126579664.874 7      5510.836          43.500    24087307.200   126579664.879 5      5510.836          32.000    24087317.620    98633539.008 5      4294.158          31.937
G27  20827136.580   109447336.775 7      2370.959          47.750    20827135.300   109447336.783 8      2370.959          49.375    20827141.440    85283660.486 8      1847.501          49.375    20827141.880    85283662.485 8      1847.501          49.500
R11  19184982.780   102518727.358 8      3063.194          48.750    19184982.700   102518727.357 8      3063.194          48.062    19184989.780    79736815.989 8      2382.485          52.312    19184989.860    79736816.993 8      2382.485          53.062
G16  20421377.380   107315055.284 7      2529.229          47.437    20421375.940   107315055.294 6      2529.229          41.000    20421379.280    83622130.263 6      1970.828          40.375
R21  19978221.420   106907496.747 8       762.824          48.062    19978221.680   106907496.765 7       762.824          47.375    19978231.600    83150314.983 8       593.308          50.812    19978230.940    83150313.986 8       593.308          50.437
G26  21373794.300   112320041.929 7       472.793          47.062    21373792.440   112320041.942 7       472.793          47.000    21373801.320    87522138.107 7       368.410          47.125    21373801.500    87522140.110 8       368.410          48.437
R22  20646097.000   110210261.143 7      3992.847          47.500    20646097.120   110210261.147 8      3992.847          48.250    20646105.320    85719128.214 8      3105.548          50.312    20646105.560    85719130.216 8      3105.548          50.750
R10  21105780.520   112505670.960 7      -841.939          43.437    21105780.040   112505670.974 7      -841.939          42.562
G08  22046691.840   115856142.381 7      3829.098          45.687    22046690.820   115856142.370 5      3829.098          35.875    22046698.820    90277543.813 5      2983.713          35.625    22046700.000    90277546.837 8      2983.713          48.500
G10  22625746.160   118899096.545 7      3959.541          47.250    22625745.160   118899096.547 7      3959.541          45.625    22625754.880    92648684.354 7      3085.357          45.812    22625754.200    92648679.356 7      3085.357          46.625
G23  23078089.380   121276173.835 7      2196.908          43.500    23078088.640   121276173.837 5      2196.908          33.062    23078096.480    94500945.730 5      1711.876          32.812    23078096.620    94500946.750 7      1711.876          47.375
G21  22256823.560   116960396.774 7      5275.669          42.750    22256821.460   116960396.773 4      5275.669          29.875    22256829.120    91137992.500 4      4110.911          29.687
G31  23969812.160   125962198.874 7      -967.105          45.187    23969811.600   125962198.876 6      -967.105          40.750    23969822.100    98152401.427 6      -753.588          40.625    23969822.200    98152403.427 7      -753.588          43.562
R12  22587660.780   120659227.109 7      6378.671          45.187    22587658.800   120659227.110 7      6378.671          45.000    22587670.900    93846106.525 7      4961.189          44.437    22587670.860    93846107.519 7      4961.189          45.250
G18  24861476.200   130647929.124 6      -962.304          41.625    24861475.080   130647929.126 5      -962.304          30.562    24861485.260   101803609.390 5      -749.847          30.562    24861485.360   101803626.394 7      -749.847          45.937
> 2024 05 09 11 32 55.0000000  0 15
G02  24086260.400   126574154.076 7      5511.141          43.875    24086258.440   126574154.081 5      5511.141          32.000    24086268.780    98629244.898 5      4294.396          31.937
G27  20826685.480   109444965.822 8      2371.276          48.500    20826684.160   109444965.832 8      2371.276          49.312    20826690.240    85281812.998 8      1847.748          49.437    20826690.940    85281815.001 8      1847.748          50.062
R11  19184409.820   102515664.469 8      3062.923          49.125    19184409.340   102515664.470 8      3062.923          48.125    19184416.560    79734433.752 8      2382.274          52.750    19184416.480    79734434.754 8      2382.274          52.500
G16  20420896.080   107312526.198 7      2529.272          46.375    20420894.660   107312526.203 6      2529.272          40.562    20420898.060    83620159.551 6      1970.861          40.187
R21  19978079.120   106906733.992 7       763.022          47.437    19978079.300   106906734.007 7       763.022          47.437    19978089.100    83149721.733 8       593.461          50.750    19978088.540    83149720.737 8       593.461          50.250
G26  21373704.380   112319569.244 7       472.940          46.625    21373702.540   112319569.248 7       472.940          47.312    21373711.440    87521769.781 7       368.525          47.187    21373711.580    87521771.788 8       368.525          48.312
R22  20645349.020   110206268.482 7      3992.802          47.500    20645349.300   110206268.483 8      3992.802          48.562    20645357.300    85716022.823 8      3105.513          50.562    20645357.580    85716024.821 8      3105.513          51.000
R10  21105938.520   112506513.018 7      -841.921          43.437    21105938.260   112506513.035 7      -841.921          42.562
G08  22045963.300   115852313.153 7      3829.638          46.062    22045962.140   115852313.144 5      3829.638          35.875    22045970.160    90274560.009 5      2984.133          35.875    22045970.960    90274563.033 8      2984.133          48.187
G10  22624992.760   118895136.994 7      3959.817          47.312    22624991.720   118895136.994 7      3959.817          45.062    22625001.320    92645598.997 7      3085.572          45.312    22625000.760    92645594.000 7      3085.572          46.750
G23  23077671.380   121273977.107 7      2196.906          43.312    23077670.720   121273977.109 5      2196.906          33.062    23077678.600    94499234.002 5      1711.875          32.812    23077678.620    94499235.024 7      1711.875          47.500
G21  22255819.700   116955121.278 7      5275.788          42.000    22255817.680   116955121.283 4      5275.788          29.875    22255825.200    91133881.740 4      4111.004          29.687
G31  23969995.760   125963165.769 7      -966.411          44.437    23969995.640   125963165.771 6      -966.411          40.250    23970005.940    98153154.843 6      -753.048          40.375    23970006.560    98153156.841 7      -753.048          43.437
R12  22586466.840   120652848.462 7      6378.993          45.687    22586464.800   120652848.458 7      6378.993          45.187    22586477.700    93841145.360 7      4961.439          44.500    22586476.640    93841146.360 7      4961.439          46.000
G18  24861659.040   130648891.371 6      -961.876          41.875    24861657.960   130648891.370 5      -961.876          30.562    24861668.360   101804359.195 5      -749.513          30.562    24861668.240   101804376.197 7      -749.513          46.125
> 2024 05 09 11 32 56.0000000  0 15
G02  24085211.520   126568642.916 7      5511.281          43.562    24085209.760   126568642.920 5      5511.281          31.625    24085220.080    98624950.500 5      4294.504          31.750
G27  20826234.060   109442594.392 7      2371.583          47.687    20826232.960   109442594.397 8      2371.583          49.000    20826239.060    85279965.133 8      1847.987          48.687    20826239.380    85279967.132 8      1847.987          50.125
R11  19183836.220   102512601.756 8      3062.539          48.500    19183836.260   102512601.759 8      3062.539          48.500    19183843.360    79732051.648 8      2381.975          52.625    19183843.340    79732052.650 8      2381.975          53.812
G16  20420414.640   107309996.894 7      2529.203          47.125    20420413.320   107309996.904 6      2529.203          40.812    20420416.740    83618188.673 6      1970.808          40.437
R21  19977936.440   106905970.970 7       763.061          47.750    19977936.600   106905970.988 7       763.061          47.625    19977946.580    83149128.277 8       593.492          51.062    19977946.120    83149127.281 8       593.492          50.125
G26  21373614.240   112319096.319 7       472.966          47.125    21373612.460   112319096.322 7       472.966          47.500    21373621.380    87521401.273 7       368.545          47.437    21373621.620    87521403.273 8       368.545          48.312
R22  20644601.240   110202275.679 8      3992.761          48.687    20644601.140   110202275.683 7      3992.761          47.562    20644609.380    85712917.318 8      3105.481          50.250    20644609.680    85712919.318 8      3105.481          50.250
R10  21106096.240   112507354.922 7      -841.954          43.812    21106096.420   112507354.938 7      -841.954          42.500
G08  22045234.500   115848483.451 7      3829.859          45.312    22045233.420   115848483.437 6      3829.859          36.000    22045241.500    90271575.832 5      2984.306          35.875    22045242.120    90271578.852 8      2984.306          48.375
G10  22624238.920   118891177.246 7      3959.770          47.000    22624238.260   118891177.246 7      3959.770          45.500    22624247.980    92642513.488 7      3085.535          45.625    22624247.380    92642508.492 7      3085.535          46.375
G23  23077253.420   121271780.315 7      2196.751          43.562    23077252.600   121271780.325 5      2196.751          33.187    23077260.400    94497522.226 5      1711.754          33.187    23077260.600    94497523.246 7      1711.754          47.750
G21  22254815.760   116949845.600 6      5275.699          41.500    22254813.820   116949845.603 4      5275.699          29.875    22254821.140    91129770.833 4      4110.934          29.937
G31  23970179.800   125964132.033 7      -966.017          44.812    23970179.600   125964132.030 6      -966.017          40.125    23970189.640    98153907.770 6      -752.740          40.437    23970190.160    98153909.771 7      -752.740          43.375
R12  22585273.000   120646469.327 7      6379.248          45.562    22585270.640   120646469.328 7      6379.248          45.062    22585283.880    93836183.831 7      4961.637          45.312    22585282.760    93836184.829 7      4961.637          45.875
G18  24861841.640   130649853.003 6      -961.454          40.812    24861840.640   130649853.005 5      -961.454          30.562    24861851.420   101805108.518 5      -749.185          30.562    24861851.660   101805125.512 7      -749.185          45.937
> 2024 05 09 11 32 57.0000000  0 15
G02  24084162.580   126563131.292 7      5512.135          43.062    24084161.020   126563131.295 5      5512.135          31.625    24084171.220    98620655.747 5      4295.170          31.750
G27  20825782.600   109440222.416 8      2372.554          48.312    20825781.580   109440222.421 8      2372.554          49.500    20825787.580    85278116.848 8      1848.744          49.500    20825788.080    85278118.849 8      1848.744          50.250
R11  19183263.260   102509539.131 8      3062.818          49.000    19183263.020   102509539.129 7      3062.818          47.812    19183270.260    79729669.612 8      2382.192          52.687    19183270.280    79729670.617 8      2382.192          53.437
G16  20419933.260   107307467.307 7      2529.935          47.937    20419931.980   107307467.312 6      2529.935          40.875    20419935.360    83616217.572 6      1971.378          40.500
R21  19977793.420   106905207.549 8       763.779          48.875    19977794.080   106905207.566 7       763.779          47.437    19977803.760    83148534.514 8       594.051          50.812    19977803.280    83148533.517 8       594.051          49.937
G26  21373524.400   112318623.080 7       473.596          47.062    21373522.480   112318623.087 7       473.596          47.062    21373531.340    87521032.519 7       369.036          47.062    21373531.680    87521034.525 8       369.036          49.000
R22  20643853.060   110198282.711 7      3993.265          47.687    20643853.060   110198282.717 7      3993.265          47.687    20643861.380    85709811.691 8      3105.873          50.062    20643861.520    85709813.691 8      3105.873          50.312
R10  21106254.280   112508196.636 7      -841.350          43.437    21106254.200   112508196.645 7      -841.350          42.375
G08  22044505.600   115844653.121 7      3830.953          46.187    22044504.460   115844653.116 5      3830.953          35.750    22044512.380    90268591.171 5      2985.158          35.812    22044513.360    90268594.196 8      2985.158          48.250
G10  22623485.440   118887217.183 7      3960.429          46.687    22623484.720   118887217.185 7      3960.429          45.500    22623494.360    92639427.736 7      3086.049          45.312    22623493.900    92639422.743 7      3086.049          46.375
G23  23076835.480   121269583.395 7      2197.272          44.375    23076834.620   121269583.405 5      2197.272          33.187    23076842.500    94495810.349 5      1712.160          33.187    23076842.620    94495811.367 7      1712.160          47.312
G21  22253811.960   116944569.613 6      5276.494          41.937    22253809.860   116944569.615 4      5276.494          29.875    22253817.320    91125659.684 4      4111.553          29.937
G31  23970363.780   125965097.581 7      -964.940          44.625    23970363.340   125965097.580 6      -964.940          39.875    23970373.300    98154660.144 6      -751.901          40.125    23970374.100    98154662.145 7      -751.901          43.250
R12  22584078.500   120640089.690 7      6380.136          44.500    22584076.480   120640089.699 7      6380.136          44.687    22584090.320    93831221.914 7      4962.328          45.562    22584088.920    93831222.916 7      4962.328          46.687
G18  24862024.300   130650813.947 6      -960.379          40.750    24862023.100   130650813.949 5      -960.379          30.562    24862034.200   101805857.304 4      -748.347          29.625    24862034.460   101805874.297 7      -748.347          45.562
> 2024 05 09 11 32 58.0000000  0 15
G02  24083113.500   126557619.152 7      5512.268          43.125    24083112.200   126557619.154 5      5512.268          31.625    24083122.220    98616360.587 5      4295.274          31.750
G27  20825331.060   109437849.823 7      2372.741          47.312    20825330.060   109437849.823 8      2372.741          49.187    20825336.140    85276268.078 8      1848.889          49.687    20825336.720    85276270.077 8      1848.889          50.187
R11  19182690.200   102506476.500 8      3062.427          48.750    19182689.880   102506476.504 8      3062.427          48.312    19182697.260    79727287.575 8      2381.888          52.500    19182697.300    79727288.579 8      2381.888          53.562
G16  20419451.820   107304937.344 7      2529.963          47.187    20419450.580   107304937.351 6      2529.963          41.125    20419453.960    83614246.178 6      1971.400          40.687
R21  19977650.780   106904443.649 8       763.887          48.312    19977651.200   106904443.666 7       763.887          47.500    19977661.060    83147940.375 8       594.134          50.562    19977660.640    83147939.381 8       594.134          50.187
G26  21373434.160   112318149.409 7       473.758          47.125    21373432.340   112318149.417 7       473.758          47.000    21373441.200    87520663.431 7       369.162          47.187    21373441.620    87520665.435 8       369.162          48.437
R22  20643104.840   110194289.452 7      3993.243          47.625    20643105.140   110194289.450 7      3993.243          47.437    20643113.220    85706705.824 8      3105.856          50.062    20643113.540    85706707.822 8      3105.856          50.250
R10  21106411.720   112509038.044 7      -841.452          43.562    21106411.840   112509038.050 7      -841.452          42.375
G08  22043776.720   115840822.156 7      3831.120          45.187    22043775.560   115840822.150 5      3831.120          35.875    22043783.400    90265606.012 5      2985.288          35.562    22043784.240    90265609.022 7      2985.288          47.812
G10  22622731.880   118883256.736 7      3960.463          47.187    22622731.080   118883256.741 7      3960.463          45.375    22622740.780    92636341.686 7      3086.075          45.437    22622740.020    92636336.686 7      3086.075          46.562
G23  23076417.620   121267386.249 7      2197.052          44.875    23076416.560   121267386.259 5      2197.052          33.312    23076424.600    94494098.295 5      1711.988          33.062    23076424.480    94494099.311 7      1711.988          47.562
G21  22252807.840   116939293.266 6      5276.339          41.750    22252805.860   116939293.265 4      5276.339          29.875    22252813.340    91121548.257 4      4111.433          29.937
G31  23970547.320   125966062.321 7      -964.514          45.125    23970546.860   125966062.323 6      -964.514          39.812    23970556.680    98155411.888 6      -751.570          39.750    23970557.640    98155413.881 7      -751.570          42.750
R12  22582884.400   120633709.473 7      6380.338          45.500    22582882.480   120633709.476 7      6380.338          44.812    22582895.800    93826259.535 7      4962.485          45.562    22582894.620    93826260.541 7      4962.485          46.750
G18  24862207.020   130651774.128 6      -959.936          40.562    24862205.680   130651774.133 4      -959.936          29.250    24862216.840   101806605.489 4      -748.002          29.625    24862217.280   101806622.487 7      -748.002          45.375
> 2024 05 09 11 32 59.0000000  0 15
G02  24082064.820   126552106.443 7      5512.932          43.125    24082063.100   126552106.448 5      5512.932          31.375    24082073.320    98612064.986 5      4295.791          31.625
G27  20824879.640   109435476.573 7      2373.441          47.875    20824878.480   109435476.578 8      2373.441          49.312    20824884.500    85274418.801 8      1849.435          49.312    20824884.840    85274420.805 8      1849.435          49.875
R11  19182116.880   102503413.849 8      3062.509          48.562    19182116.680   102503413.850 8      3062.509          48.312    19182124.160    79724905.523 8      2381.951          52.375    19182124.240    79724906.525 8      2381.951          53.625
G16  20418970.480   107302407.007 7      2530.389          47.312    20418969.040   107302407.012 6      2530.389          40.937    20418972.360    83612274.494 6      1971.731          40.812
R21  19977507.820   106903679.270 7       764.485          47.125    19977508.520   106903679.284 7       764.485          47.187    19977518.300    83147345.860 8       594.600          50.562    19977517.860    83147344.864 8       594.600          50.250
G26  21373343.860   112317675.342 7       474.256          46.812    21373342.120   112317675.347 7       474.256          46.937    21373351.000    87520294.030 7       369.550          47.250    21373351.260    87520296.030 8       369.550          48.687
R22  20642356.720   110190295.880 7      3993.580          47.875    20642356.780   110190295.887 8      3993.580          48.062    20642365.200    85703599.728 8      3106.118          50.125    20642365.380    85703601.726 8      3106.118          50.500
R10  21106570.220   112509879.149 7      -841.072          43.562    21106569.240   112509879.152 7      -841.072          42.437
G08  22043047.520   115836990.486 7      3831.863          45.562    22043046.340   115836990.483 6      3831.863          36.125    22043054.160    90262620.305 5      2985.867          35.750    22043055.120    90262623.317 8      2985.867          48.562
G10  22621978.160   118879295.884 7      3960.942          46.437    22621977.420   118879295.884 7      3960.942          45.125    22621987.000    92633255.314 7      3086.448          45.312    22621986.640    92633250.315 7      3086.448          46.812
G23  23075999.300   121265188.846 7      2197.395          44.187    23075998.500   121265188.856 5      2197.395          33.000    23076006.280    94492386.039 5      1712.256          33.062    23076006.340    94492387.052 7      1712.256          47.937
G21  22251804.000   116934016.524 6      5276.752          41.375    22251801.520   116934016.527 5      5276.752          30.062    22251809.140    91117436.525 4      4111.755          29.937
G31  23970730.880   125967026.231 7      -963.581          44.937    23970730.140   125967026.233 6      -963.581          39.125    23970740.100    98156162.985 6      -750.842          39.375    23970740.520    98156164.979 7      -750.842          42.750
R12  22581689.920   120627328.612 7      6381.045          45.000    22581687.560   120627328.618 7      6381.045          44.750    22581701.040    93821296.664 7      4963.035          45.062    22581699.780    93821297.675 7      4963.035          46.750
G18  24862389.500   130652733.524 6      -959.074          39.750    24862388.000   130652733.532 4      -959.074          29.250    24862399.440   101807353.072 4      -747.330          29.625    24862399.520   101807370.064 7      -747.330          45.437
> 2024 05 09 11 33  0.0000000  0 15
G02  24081015.720   126546593.160 7      5513.700          44.000    24081013.920   126546593.167 5      5513.700          31.375    24081024.120    98607768.937 5      4296.390          31.625
G27  20824427.800   109433102.653 8      2374.411          48.000    20824426.780   109433102.652 8      2374.411          48.937    20824432.740    85272568.999 8      1850.191          49.125    20824432.840    85272571.004 8      1850.191          49.875
R11  19181544.020   102500351.176 8      3062.856          49.562    19181543.680   102500351.174 8      3062.856          48.562    19181550.980    79722523.448 8      2382.221          52.812    19181550.840    79722524.450 8      2382.221          53.500
G16  20418488.880   107299876.250 7      2531.135          47.062    20418487.480   107299876.250 6      2531.135          41.062    20418490.880    83610302.484 6      1972.313          40.500
R21  19977365.220   106902914.438 7       765.172          47.125    19977365.360   106902914.459 7       765.172          47.625    19977375.360    83146751.004 8       595.134          50.562    19977374.740    83146750.005 8       595.134          50.187
G26  21373253.700   112317200.839 7       474.839          46.250    21373251.880   112317200.846 7       474.839          47.062    21373260.800    87519924.293 7       370.005          46.937    21373261.080    87519926.289 8       370.005          49.187
R22  20641608.560   110186301.994 7      3994.221          46.562    20641608.740   110186301.998 7      3994.221          47.812    20641617.060    85700493.376 8      3106.616          49.937    20641617.120    85700495.374 8      3106.616          50.437
R10  21106727.940   112510719.890 7      -840.350          43.125    21106727.200   112510719.901 7      -840.350          42.437
G08  22042318.300   115833158.096 7      3832.888          45.812    22042317.140   115833158.091 6      3832.888          36.000    22042324.940    90259634.036 5      2986.666          35.625    22042325.920    90259637.050 8      2986.666          48.500
G10  22621224.340   118875334.607 7      3961.633          47.062    22621223.520   118875334.607 7      3961.633          45.562    22621233.180    92630168.617 7      3086.986          45.437    22621232.860    92630163.619 7      3086.986          46.875
G23  23075581.120   121262991.184 7      2197.904          43.625    23075580.300   121262991.195 5      2197.904          33.000    23075588.080    94490673.586 5      1712.652          32.812    23075587.980    94490674.601 7      1712.652          47.750
G21  22250799.360   116928739.347 6      5277.490          41.687    22250797.120   116928739.349 5      5277.490          30.062    22250804.920    91113324.453 5      4112.330          30.250
G31  23970913.820   125967989.314 7      -962.567          45.187    23970913.440   125967989.316 6      -962.567          39.125    23970923.240    98156913.433 6      -750.052          39.312    23970924.100    98156915.433 7      -750.052          42.562
R12  22580495.240   120620947.067 7      6382.014          44.687    22580492.880   120620947.085 7      6382.014          45.375    22580505.680    93816333.266 7      4963.788          45.000    22580505.460    93816334.280 7      4963.788          46.187
G18  24862571.920   130653692.116 6      -957.928          39.750    24862570.340   130653692.124 4      -957.928          29.250    24862581.460   101808100.021 4      -746.437          29.625    24862581.680   101808117.021 7      -746.437          45.187
> 2024 05 09 11 33  1.0000000  0 15
G02  24079966.460   126541079.232 7      5514.094          43.687    24079964.580   126541079.237 5      5514.094          31.375    24079974.900    98603472.385 5      4296.697          31.625
G27  20823975.900   109430727.986 7      2374.846          47.687    20823974.820   109430727.988 8      2374.846          49.250    20823980.840    85270718.620 8      1850.530          49.312    20823980.880    85270720.622 8      1850.530          50.437
R11  19180970.640   102497288.390 8      3062.629          48.937    19180970.640   102497288.386 8      3062.629          48.937    19180977.780    79720141.284 8      2382.045          52.312    19180977.820    79720142.286 8      2382.045          53.500
G16  20418007.240   107297345.023 7      2531.254          47.437    20418005.760   107297345.031 6      2531.254          41.375    20418009.280    83608330.107 6      1972.406          40.437
R21  19977222.200   106902149.104 8       765.415          48.000    19977222.520   106902149.111 7       765.415          47.687    19977232.360    83146155.740 8       595.323          51.125    19977232.020    83146154.743 8       595.323          50.125
G26  21373163.320   112316725.812 7       475.067          47.250    21373161.560   112316725.817 7       475.067          46.937    21373170.400    87519554.145 7       370.182          46.937    21373170.680    87519556.143 8       370.182          48.937
R22  20640860.040   110182307.713 7      3994.315          47.125    20640860.260   110182307.716 7      3994.315          47.750    20640868.600    85697386.723 8      3106.690          50.000    20640869.060    85697388.717 8      3106.690          50.937
R10  21106885.520   112511560.267 7      -840.377          43.500    21106884.840   112511560.270 7      -840.377          42.437
G08  22041588.480   115829324.916 7      3833.413          45.500    22041587.740   115829324.913 6      3833.413          36.000    22041595.520    90256647.152 5      2987.075          35.812    22041596.560    90256650.164 8      2987.075          48.500
G10  22620470.380   118871372.823 7      3961.919          46.875    22620469.760   118871372.822 7      3961.919          46.125    22620479.420    92627081.520 7      3087.209          46.000    22620478.840    92627076.525 7      3087.209          47.062
G23  23075162.860   121260793.187 7      2197.960          44.437    23075161.940   121260793.192 5      2197.960          33.125    23075169.900    94488960.865 5      1712.696          32.812    23075169.640    94488961.878 8      1712.696          48.000
G21  22249795.080   116923461.691 7      5277.756          42.500    22249792.840   116923461.691 5      5277.756          30.062    22249800.680    91109212.004 5      4112.537          30.250
G31  23971097.180   125968951.469 7      -961.882          44.437    23971096.340   125968951.465 6      -961.882          38.375    23971106.080    98157663.156 6      -749.518          38.937    23971107.280    98157665.150 7      -749.518          42.437
R12  22579300.500   120614564.797 7      6382.440          44.125    22579297.800   120614564.803 7      6382.440          44.562    22579309.800    93811369.281 7      4964.120          44.000    22579310.220    93811370.296 7      4964.120          45.312
G18  24862754.300   130654649.844 6      -957.450          40.062    24862752.500   130654649.849 4      -957.450          29.250    24862763.480   101808846.306 4      -746.065          29.625    24862763.640   101808863.306 7      -746.065          44.625
> 2024 05 09 11 33  2.0000000  0 15
G02  24078917.140   126535564.898 7      5514.624          44.687    24078915.140   126535564.900 5      5514.624          31.562    24078925.520    98599175.517 5      4297.110          31.625
G27  20823524.120   109428352.805 8      2375.518          48.062    20823522.880   109428352.807 8      2375.518          48.875    20823528.840    85268867.835 8      1851.053          48.937    20823529.180    85268869.840 8      1851.053          50.125
R11  19180397.580   102494225.731 8      3062.713          48.562    19180397.320   102494225.732 8      3062.713          48.062    19180404.740    79717759.226 8      2382.110          52.562    19180404.800    79717760.228 8      2382.110          53.250
G16  20417525.600   107294813.539 7      2531.748          47.500    20417524.040   107294813.546 6      2531.748          41.000    20417527.500    83606357.528 6      1972.791          40.312
R21  19977078.980   106901383.441 7       765.972          47.937    19977079.440   106901383.448 7       765.972          47.500    19977089.380    83145560.230 8       595.756          50.750    19977088.640    83145559.234 8       595.756          49.875
G26  21373072.660   112316250.489 7       475.606          47.187    21373071.080   112316250.491 7       475.606          47.312    21373079.960    87519183.765 7       370.602          46.937    21373080.260    87519185.766 8       370.602          48.812
R22  20640111.840   110178313.268 8      3994.645          48.000    20640112.220   110178313.267 7      3994.645          47.750    20640120.420    85694279.939 8      3106.946          50.125    20640120.600    85694281.937 8      3106.946          50.125
R10  21107042.980   112512400.433 7      -839.896          43.562    21107042.600   112512400.444 7      -839.896          42.312
G08  22040859.280   115825491.202 7      3834.174          45.937    22040858.140   115825491.196 5      3834.174          35.875    22040866.000    90253659.847 5      2987.668          35.812    22040867.060    90253662.857 8      2987.668          48.437
G10  22619716.540   118867410.770 7      3962.392          46.875    22619715.680   118867410.772 7      3962.392          45.187    22619725.520    92623994.217 7      3087.578          45.312    22619724.960    92623989.224 7      3087.578          46.875
G23  23074744.400   121258595.069 7      2198.340          44.875    23074743.640   121258595.068 5      2198.340          33.125    23074751.600    94487248.047 5      1712.993          33.375    23074751.320    94487249.063 7      1712.993          47.750
G21  22248791.040   116918183.762 6      5278.225          41.750    22248788.460   116918183.762 5      5278.225          30.062    22248796.300    91105099.345 5      4112.903          30.250
G31  23971280.060   125969912.940 7      -961.061          44.812    23971279.160   125969912.935 6      -961.061          38.625    23971288.940    98158412.350 6      -748.879          38.562    23971290.280    98158414.351 7      -748.879          42.437
R12  22578105.160   120608182.002 7      6383.169          43.812    22578101.900   120608182.014 7      6383.169          43.750    22578113.600    93806404.898 7      4964.687          43.875    22578115.220    93806405.915 7      4964.687          44.750
G18  24862936.640   130655606.920 6      -956.690          40.625    24862934.420   130655606.925 4      -956.690          27.937    24862945.440   101809592.076 4      -745.473          28.000    24862945.560   101809609.082 7      -745.473          44.750
> 2024 05 09 11 33  3.0000000  0 15
G02  24077867.220   126530050.011 7      5515.055          43.687    24077865.760   126530050.008 5      5515.055          31.562    24077876.040    98594878.217 5      4297.445          31.625
G27  20823072.020   109425977.006 7      2375.967          47.812    20823070.740   109425977.008 8      2375.967          49.125    20823076.820    85267016.571 8      1851.403          49.437    20823077.300    85267018.574 8      1851.403          49.812
R11  19179824.580   102491163.082 8      3062.560          49.187    19179824.260   102491163.080 8      3062.560          48.062    19179831.540    79715377.165 8      2381.991          52.500    19179831.700    79715378.170 8      2381.991          53.750
G16  20417043.720   107292281.699 7      2531.975          47.312    20417042.280   107292281.704 6      2531.975          41.000    20417045.580    83604384.672 6      1972.968          40.312
R21  19976936.160   106900617.336 7       766.236          47.437    19976936.140   106900617.351 7       766.236          47.500    19976946.120    83144964.383 8       595.962          50.687    19976945.600    83144963.387 8       595.962          50.312
G26  21372982.280   112315774.787 7       475.738          47.562    21372980.420   112315774.792 7       475.738          46.750    21372989.460    87518813.093 7       370.705          47.000    21372989.800    87518815.093 8       370.705          48.312
R22  20639363.660   110174318.547 7      3994.671          47.500    20639363.800   110174318.548 7      3994.671          47.812    20639371.940    85691172.946 8      3106.966          51.000    20639372.200    85691174.944 8      3106.966          50.125
R10  21107200.340   112513240.330 7      -839.952          43.562    21107199.620   112513240.346 7      -839.952          42.312
G08  22040129.740   115821656.805 7      3834.627          45.562    22040128.560   115821656.799 6      3834.627          36.062    22040136.340    90250672.011 5      2988.021          35.937    22040137.220    90250675.029 8      2988.021          48.187
G10  22618962.600   118863448.358 7      3962.480          46.562    22618961.780   118863448.357 7      3962.480          45.500    22618971.460    92620906.633 7      3087.647          45.437    22618971.160    92620901.636 7      3087.647          46.750
G23  23074326.180   121256396.738 7      2198.392          44.000    23074325.400   121256396.740 5      2198.392          33.250    23074333.120    94485535.072 5      1713.032          33.375    23074332.820    94485536.088 7      1713.032          47.562
G21  22247786.620   116912905.494 7      5278.364          42.812    22247783.960   116912905.499 5      5278.364          30.062    22247791.800    91100986.423 5      4113.011          30.250
G31  23971462.700   125970873.603 7      -960.397          43.875    23971461.880   125970873.605 6      -960.397          38.000    23971471.640    98159160.919 6      -748.361          38.187    23971473.240    98159162.919 6      -748.361          41.687
R12  22576910.140   120601798.671 7      6383.439          43.000    22576906.400   120601798.680 7      6383.439          44.125    22576917.360    93801440.089 7      4964.897          43.250    22576919.900    93801441.104 7      4964.897          43.562
G18  24863118.220   130656563.208 6      -955.950          40.687    24863116.440   130656563.215 4      -955.950          27.937    24863127.080   101810337.241 4      -744.896          28.000    24863127.420   101810354.251 7      -744.896          44.500
> 2024 05 09 11 33  4.0000000  0 15
G02  24076817.820   126524534.731 7      5515.669          43.625    24076816.340   126524534.733 5      5515.669          31.562    24076826.500    98590580.612 5      4297.924          31.625
G27  20822619.580   109423600.702 8      2376.678          48.250    20822618.580   109423600.707 8      2376.678          49.187    20822624.660    85265164.913 8      1851.957          49.500    20822625.380    85265166.915 8      1851.957          50.000
R11  19179251.380   102488100.582 8      3062.530          48.562    19179251.040   102488100.576 8      3062.530          48.500    19179258.420    79712995.230 8      2381.968          52.562    19179259.020    79712996.230 8      2381.968          53.312
G16  20416561.560   107289749.650 8      2532.189          48.000    20416560.340   107289749.657 6      2532.189          41.062    20416563.740    83602411.655 6      1973.135          40.375
R21  19976793.440   106899850.918 8       766.698          48.625    19976792.900   106899850.930 7       766.698          47.062    19976802.860    83144368.283 8       596.320          50.687    19976802.280    83144367.282 8       596.320          50.312
G26  21372891.540   112315298.813 7       476.175          46.625    21372889.980   112315298.817 7       476.175          47.187    21372898.760    87518442.207 7       371.046          46.812    21372899.120    87518444.212 8       371.046          48.437
R22  20638614.980   110170323.681 8      3995.056          48.562    20638615.440   110170323.679 7      3995.056          47.500    20638623.700    85688065.830 8      3107.266          50.625    20638624.120    85688067.832 8      3107.266          50.562
R10  21107358.160   112514080.058 7      -839.541          43.250    21107357.440   112514080.078 7      -839.541          42.375
G08  22039400.020   115817821.885 7      3835.282          46.312    22039398.720   115817821.874 5      3835.282          35.937    22039406.660    90247683.772 5      2988.531          35.562    22039407.500    90247686.780 8      2988.531          48.125
G10  22618208.600   118859485.675 7      3962.986          47.125    22618207.640   118859485.677 7      3962.986          45.937    22618217.500    92617818.835 7      3088.041          45.687    22618217.460    92617813.839 7      3088.041          47.062
G23  23073907.700   121254198.330 7      2198.506          44.500    23073907.220   121254198.338 5      2198.506          33.250    23073914.820    94483822.040 5      1713.122          33.312    23073914.480    94483823.055 7      1713.122          47.312
G21  22246781.960   116907626.977 7      5278.810          42.250    22246779.460   116907626.981 5      5278.810          30.062    22246787.480    91096873.302 5      4113.359          30.125
G31  23971645.200   125971833.619 7      -959.520          43.625    23971644.360   125971833.616 6      -959.520          38.125    23971654.140    98159908.973 6      -747.678          38.250    23971655.260    98159910.978 6      -747.678          41.687
R12  22575714.680   120595414.875 7      6384.149          43.000    22575711.100   120595414.871 7      6384.149          44.187    22575721.960    93796474.915 7      4965.450          42.750    22575724.300    93796475.917 7      4965.450          42.812
G18  24863300.260   130657518.912 6      -955.347          41.312    24863298.400   130657518.920 4      -955.347          27.937    24863308.940   101811081.946 4      -744.427          28.000    24863309.600   101811098.952 7      -744.427          44.875
> 2024 05 09 11 33  5.0000000  0 15
G02  24075768.440   126519018.896 7      5516.031          44.062    24075766.720   126519018.903 5      5516.031          31.562    24075776.960    98586282.580 5      4298.206          31.687
G27  20822167.480   109421223.758 8      2377.210          48.062    20822166.200   109421223.763 8      2377.210          49.000    20822172.300    85263312.756 8      1852.372          49.062    20822172.680    85263314.761 8      1852.372          49.750
R11  19178678.160   102485038.048 8      3062.427          49.375    19178677.860   102485038.052 8      3062.427          48.750    19178685.360    79710613.271 8      2381.888          52.562    19178685.480    79710614.273 8      2381.888          53.125
G16  20416080.020   107287217.180 7      2532.651          47.312    20416078.500   107287217.185 6      2532.651          41.125    20416081.920    83600438.306 6      1973.494          40.687
R21  19976649.460   106899084.005 8       767.113          49.187    19976649.460   106899084.020 7       767.113          47.187    19976659.680    83143771.803 8       596.643          50.437    19976659.260    83143770.809 8       596.643          50.437
G26  21372801.160   112314822.417 7       476.568          46.937    21372799.380   112314822.422 7       476.568          47.375    21372808.220    87518070.994 7       371.352          47.500    21372808.200    87518072.995 8       371.352          48.562
R22  20637866.880   110166328.513 8      3995.162          48.375    20637866.720   110166328.517 7      3995.162          47.937    20637875.100    85684958.494 8      3107.348          50.187    20637875.320    85684960.494 8      3107.348          50.562
R10  21107515.260   112514919.510 7      -839.412          43.125    21107514.960   112514919.516 7      -839.412          42.312
G08  22038669.920   115813986.253 7      3835.928          46.500    22038668.880   115813986.242 6      3835.928          36.125    22038676.760    90244694.978 5      2989.035          35.937    22038677.520    90244697.990 8      2989.035          48.875
G10  22617454.260   118855522.598 7      3963.234          47.625    22617453.320   118855522.605 7      3963.234          45.875    22617463.240    92614730.741 7      3088.234          45.937    22617463.040    92614725.743 7      3088.234          47.125
G23  23073489.060   121251999.676 7      2198.721          43.750    23073488.740   121251999.684 5      2198.721          33.500    23073496.380    94482108.807 5      1713.289          33.312    23073496.520    94482109.820 7      1713.289          47.687
G21  22245777.120   116902348.081 7      5279.017          42.000    22245775.000   116902348.085 5      5279.017          30.062    22245782.880    91092759.891 5      4113.520          30.125
G31  23971827.780   125972792.797 7      -958.770          42.750    23971826.740   125972792.794 6      -958.770          38.187    23971836.540    98160656.388 6      -747.094          38.062    23971837.640    98160658.385 6      -747.094          41.625
R12  22574519.400   120589030.416 7      6384.689          43.375    22574516.260   120589030.417 7      6384.689          43.812    22574526.900    93791509.231 7      4965.869          42.875    22574528.740    93791510.225 7      4965.869          42.625
G18  24863482.240   130658473.781 6      -954.555          41.687    24863480.440   130658473.791 4      -954.555          27.937    24863490.620   101811826.006 4      -743.809          28.000    24863491.600   101811843.024 7      -743.809          45.062
> 2024 05 09 11 33  6.0000000  0 15
G02  24074718.620   126513502.693 7      5516.490          43.562    24074717.020   126513502.700 5      5516.490          31.562    24074727.260    98581984.256 5      4298.564          31.687
G27  20821714.980   109418846.343 8      2377.742          48.125    20821713.840   109418846.343 8      2377.742          48.750    20821719.920    85261460.229 8      1852.786          48.937    20821720.260    85261462.232 8      1852.786          49.750
R11  19178105.080   102481975.696 8      3062.354          49.125    19178104.940   102481975.694 7      3062.354          47.437    19178112.240    79708231.446 8      2381.831          52.687    19178112.400    79708232.444 8      2381.831          53.437
G16  20415597.960   107284684.518 7      2532.886          47.375    20415596.600   107284684.521 6      2532.886          40.812    20415600.020    83598464.807 6      1973.677          40.500
R21  19976506.400   106898316.827 7       767.432          47.125    19976506.280   106898316.842 7       767.432          47.312    19976516.200    83143175.116 8       596.892          50.875    19976515.620    83143174.121 8       596.892          50.312
G26  21372710.460   112314345.767 7       476.967          47.062    21372708.660   112314345.767 7       476.967          47.000    21372717.500    87517699.576 7       371.663          47.125    21372717.740    87517701.577 8       371.663          48.812
R22  20637118.180   110162333.204 8      3995.471          48.000    20637118.500   110162333.208 8      3995.471          48.062    20637126.680    85681851.040 8      3107.588          50.312    20637127.100    85681853.038 8      3107.588          50.312
R10  21107673.040   112515758.775 7      -839.128          43.125    21107672.540   112515758.781 7      -839.128          42.312
G08  22037939.780   115810150.114 7      3836.543          45.687    22037938.820   115810150.100 6      3836.543          36.375    22037946.840    90241705.779 6      2989.514          36.187    22037947.920    90241708.791 8      2989.514          48.937
G10  22616699.840   118851559.287 7      3963.515          46.937    22616699.100   118851559.289 7      3963.515          45.437    22616709.140    92611642.453 7      3088.453          45.375    22616708.900    92611637.449 7      3088.453          46.625
G23  23073070.960   121249800.935 7      2198.917          43.250    23073070.280   121249800.937 5      2198.917          33.312    23073078.120    94480395.510 5      1713.442          33.375    23073078.100    94480396.520 7      1713.442          47.937
G21  22244772.240   116897068.948 7      5279.305          42.500    22244770.420   116897068.950 5      5279.305          30.312    22244778.280    91088646.292 5      4113.744          30.125
G31  23972010.200   125973751.334 7      -958.070          42.937    23972009.020   125973751.328 6      -958.070          37.125    23972018.760    98161403.296 6      -746.548          37.437    23972019.960    98161405.282 6      -746.548          41.437
R12  22573324.440   120582645.496 7      6385.257          43.500    22573321.640   120582645.478 7      6385.257          44.000    22573332.140    93786543.173 7      4966.311          43.312    22573333.160    93786544.159 7      4966.311          43.000
G18  24863664.100   130659428.066 7      -953.863          42.437    24863662.260   130659428.084 4      -953.863          28.937    24863672.400   101812569.609 4      -743.270          28.687    24863673.560   101812586.617 7      -743.270          45.687
> 2024 05 09 11 33  7.0000000  0 15
G02  24073668.920   126507986.030 7      5516.902          44.437    24073667.260   126507986.032 5      5516.902          31.562    24073677.420    98577685.572 5      4298.884          31.687
G27  20821262.640   109416468.374 8      2378.294          48.375    20821261.260   109416468.376 8      2378.294          48.750    20821267.340    85259607.277 8      1853.216          49.062    20821267.720    85259609.277 8      1853.216          50.000
R11  19177532.120   102478913.426 8      3062.257          48.937    19177531.880   102478913.430 8      3062.257          48.250    19177539.200    79705849.689 8      2381.756          52.500    19177539.340    79705850.689 8      2381.756          52.937
G16  20415116.120   107282151.568 8      2533.124          48.062    20415114.520   107282151.575 6      2533.124          41.187    20415117.900    83596491.087 6      1973.863          40.625
R21  19976362.940   106897549.312 7       767.748          47.687    19976362.920   106897549.327 7       767.748          47.937    19976372.780    83142578.166 8       597.137          50.812    19976372.220    83142577.169 8       597.137          50.000
G26  21372619.700   112313868.823 7       477.137          46.687    21372617.960   112313868.828 7       477.137          47.750    21372626.780    87517327.938 7       371.795          47.437    21372626.980    87517329.940 8       371.795          48.625
R22  20636369.780   110158337.727 8      3995.613          48.562    20636370.020   110158337.731 7      3995.613          47.437    20636378.380    85678743.453 8      3107.699          50.250    20636378.320    85678745.451 8      3107.699          50.625
R10  21107830.160   112516597.843 7      -838.952          43.375    21107829.940   112516597.854 7      -838.952          42.250
G08  22037209.660   115806313.386 7      3837.054          45.937    22037208.780   115806313.381 6      3837.054          36.187    22037216.720    90238716.135 5      2989.912          35.937    22037217.600    90238719.155 8      2989.912          48.562
G10  22615945.520   118847595.674 7      3963.827          47.187    22615944.880   118847595.676 7      3963.827          45.312    22615954.980    92608553.929 7      3088.696          45.812    22615954.820    92608548.930 7      3088.696          47.062
G23  23072652.300   121247602.086 7      2198.911          43.000    23072651.900   121247602.089 5      2198.911          33.312    23072659.600    94478682.128 5      1713.438          33.375    23072659.440    94478683.137 7      1713.438          47.812
G21  22243768.100   116891789.535 7      5279.590          42.375    22243765.780   116891789.539 5      5279.590          30.312    22243773.740    91084532.475 5      4113.966          30.125
G31  23972192.540   125974709.164 7      -957.497          43.125    23972191.160   125974709.166 6      -957.497          37.187    23972200.780    98162149.657 6      -746.101          37.500    23972202.640    98162151.656 6      -746.101          41.437
R12  22572129.420   120576260.057 7      6385.780          44.312    22572127.060   120576260.037 7      6385.780          44.125    22572137.720    93781576.719 7      4966.718          42.937    22572137.840    93781577.711 7      4966.718          43.000
G18  24863845.500   130660381.669 7      -953.221          42.437    24863844.060   130660381.687 4      -953.221          28.937    24863854.340   101813312.678 4      -742.770          28.687    24863855.460   101813329.680 7      -742.770          46.312
> 2024 05 09 11 33  8.0000000  0 15
G02  24072619.180   126502468.939 7      5517.103          43.750    24072617.340   126502468.936 5      5517.103          31.000    24072627.640    98573386.553 5      4299.041          31.187
G27  20820809.960   109414089.871 7      2378.666          47.687    20820808.720   109414089.871 8      2378.666          49.312    20820814.760    85257753.902 8      1853.506          49.562    20820815.120    85257755.903 8      1853.506          49.750
R11  19176958.840   102475851.253 8      3061.978          48.750    19176958.780   102475851.249 7      3061.978          47.812    19176966.220    79703467.998 8      2381.538          53.125    19176966.200    79703469.001 8      2381.538          53.500
G16  20414634.300   107279618.346 7      2533.167          47.562    20414632.500   107279618.351 6      2533.167          40.750    20414635.960    83594517.159 6      1973.896          40.125
R21  19976219.000   106896781.418 7       767.904          46.937    19976219.480   106896781.438 7       767.904          47.062    19976229.280    83141980.925 8       597.259          50.750    19976228.800    83141979.926 8       597.259          50.437
G26  21372528.880   112313391.550 7       477.318          46.875    21372527.080   112313391.555 7       477.318          46.687    21372535.900    87516956.043 7       371.936          46.937    21372536.140    87516958.045 8       371.936          48.875
R22  20635621.360   110154342.058 8      3995.590          48.062    20635621.340   110154342.059 7      3995.590          47.812    20635629.740    85675635.716 8      3107.681          49.875    20635629.860    85675637.716 8      3107.681          50.062
R10  21107987.840   112517436.679 7      -838.804          43.125    21107987.400   112517436.690 7      -838.804          42.812
G08  22036479.440   115802476.080 7      3837.443          45.625    22036478.620   115802476.075 5      3837.443          35.812    22036486.480    90235726.035 5      2990.215          35.500    22036487.320    90235729.055 8      2990.215          48.437
G10  22615191.420   118843631.779 7      3963.888          46.875    22615190.440   118843631.784 7      3963.888          45.812    22615200.520    92605465.193 7      3088.744          46.125    22615200.660    92605460.193 7      3088.744          47.437
G23  23072234.080   121245403.072 7      2198.951          43.437    23072233.260   121245403.077 5      2198.951          33.062    23072241.120    94476968.620 5      1713.468          33.062    23072241.180    94476969.628 8      1713.468          48.000
G21  22242763.380   116886509.842 7      5279.627          42.625    22242761.240   116886509.847 5      5279.627          30.312    22242769.180    91080418.442 5      4113.995          30.187
G31  23972374.560   125975666.245 7      -956.861          42.875    23972372.920   125975666.247 6      -956.861          37.187    23972382.960    98162895.433 6      -745.606          37.125    23972384.160    98162897.433 6      -745.606          41.125
R12  22570933.780   120569874.085 7      6386.092          44.625    22570932.220   120569874.075 7      6386.092          45.125    22570942.420    93776609.864 7      4966.961          43.375    22570942.800    93776610.857 7      4966.961          44.625
G18  24864026.720   130661334.596 7      -952.710          42.812    24864025.700   130661334.609 4      -952.710          28.937    24864035.920   101814055.216 4      -742.372          28.687    24864036.680   101814072.218 7      -742.372          46.562
> 2024 05 09 11 33  9.0000000  0 15
G02  24071569.040   126496951.388 7      5517.705          43.375    24071567.180   126496951.393 5      5517.705          31.000    24071577.460    98569087.179 5      4299.511          31.187
G27  20820357.240   109411710.835 7      2379.280          47.875    20820355.860   109411710.843 8      2379.280          48.875    20820362.000    85255900.120 8      1853.984          49.000    20820362.300    85255902.123 8      1853.984          49.562
R11  19176385.740   102472789.162 8      3061.989          49.250    19176385.780   102472789.161 8      3061.989          48.000    19176393.120    79701086.378 8      2381.547          52.375    19176393.140    79701087.383 8      2381.547          53.875
G16  20414151.820   107277084.846 7      2533.599          47.062    20414150.420   107277084.851 6      2533.599          41.187    20414153.720    83592543.009 6      1974.233          40.687
R21  19976075.540   106896013.159 7       768.322          46.937    19976075.980   106896013.185 7       768.322          47.250    19976085.720    83141383.399 8       597.584          50.750    19976085.240    83141382.404 8       597.584          50.375
G26  21372438.000   112312913.980 7       477.669          46.562    21372436.140   112312913.985 7       477.669          47.187    21372445.060    87516583.917 7       372.210          47.062    21372445.260    87516585.919 8       372.210          49.000
R22  20634872.660   110150346.180 8      3995.974          48.375    20634872.700   110150346.181 8      3995.974          48.062    20634881.140    85672527.822 8      3107.980          50.375    20634881.360    85672529.826 8      3107.980          50.500
R10  21108145.280   112518275.339 7      -838.590          43.125    21108144.480   112518275.353 7      -838.590          42.812
G08  22035749.260   115798638.191 7      3838.125          45.125    22035748.200   115798638.191 5      3838.125          35.937    22035756.060    90232735.486 5      2990.747          35.875    22035757.020    90232738.504 8      2990.747          48.812
G10  22614437.120   118839667.578 7      3964.330          46.687    22614436.100   118839667.583 7      3964.330          45.437    22614446.380    92602376.217 7      3089.088          45.312    22614446.300    92602371.213 7      3089.088          47.187
G23  23071815.660   121243203.950 7      2199.100          43.437    23071814.660   121243203.952 5      2199.100          33.062    23071822.440    94475255.023 5      1713.585          33.062    23071822.780    94475256.033 7      1713.585          47.687
G21  22241758.640   116881229.861 7      5280.126          42.437    22241756.560   116881229.866 5      5280.126          30.312    22241764.440    91076304.187 5      4114.384          30.187
G31  23972556.660   125976622.651 7      -956.082          42.750    23972554.960   125976622.653 6      -956.082          36.937    23972565.100    98163640.680 6      -744.999          37.375    23972566.260    98163642.674 6      -744.999          41.125
R12  22569738.420   120563487.607 7      6386.713          44.312    22569736.600   120563487.603 7      6386.713          44.875    22569747.580    93771642.618 7      4967.444          44.687    22569747.480    93771643.609 7      4967.444          44.875
G18  24864207.880   130662286.843 7      -951.958          43.500    24864207.260   130662286.855 5      -951.958          31.187    24864217.200   101814797.231 4      -741.786          28.687    24864218.040   101814814.237 7      -741.786          46.750
> 2024 05 09 11 33 10.0000000  0 15
G02  24070518.900   126491433.420 7      5518.088          43.812    24070517.260   126491433.425 5      5518.088          31.000    24070527.460    98564787.479 5      4299.809          31.187
G27  20819904.520   109409331.266 8      2379.840          48.125    20819903.160   109409331.271 8      2379.840          49.312    20819909.220    85254045.916 8      1854.421          49.312    20819909.500    85254047.919 8      1854.421          49.937
R11  19175812.920   102469727.184 8      3061.931          48.875    19175812.880   102469727.191 8      3061.931          48.062    19175820.140    79698704.850 8      2381.502          52.562    19175820.300    79698705.855 8      2381.502          53.625
G16  20413669.380   107274551.084 7      2533.838          47.312    20413668.200   107274551.094 6      2533.838          41.000    20413671.640    83590568.659 6      1974.420          40.562
R21  19975931.640   106895244.598 7       768.679          46.937    19975932.300   106895244.618 7       768.679          46.937    19975942.060    83140785.633 8       597.862          50.875    19975941.580    83140784.637 8       597.862          50.000
G26  21372347.000   112312436.116 7       477.960          47.062    21372345.200   112312436.119 7       477.960          47.187    21372354.100    87516211.553 7       372.436          47.250    21372354.480    87516213.556 8       372.436          48.750
R22  20634123.940   110146350.146 8      3996.130          48.000    20634124.180   110146350.146 7      3996.130          47.875    20634132.580    85669419.801 8      3108.101          50.312    20634132.920    85669421.801 8      3108.101          50.437
R10  21108302.620   112519113.807 7      -838.461          43.375    21108302.140   112519113.819 7      -838.461          42.375
G08  22035018.700   115794799.743 7      3838.656          45.187    22035017.760   115794799.742 5      3838.656          35.937    22035025.740    90229744.496 5      2991.161          35.875    22035026.340    90229747.510 7      2991.161          47.875
G10  22613682.560   118835703.113 7      3964.569          46.750    22613681.760   118835703.118 7      3964.569          45.375    22613691.960    92599287.032 7      3089.275          45.625    22613691.800    92599282.034 7      3089.275          47.125
G23  23071396.960   121241004.697 7      2199.249          43.687    23071396.260   121241004.699 5      2199.249          33.312    23071403.980    94473541.325 5      1713.701          32.937    23071404.220    94473542.335 7      1713.701          47.875
G21  22240753.960   116875949.617 7      5280.287          42.687    22240751.700   116875949.625 5      5280.287          30.125    22240759.680    91072189.722 5      4114.510          30.187
G31  23972738.600   125977578.353 7      -955.436          43.187    23972736.760   125977578.350 6      -955.436          37.250    23972746.920    98164385.377 6      -744.496          37.000    23972748.060    98164387.375 6      -744.496          41.062
R12  22568543.340   120557100.678 7      6387.060          44.875    22568541.060   120557100.674 7      6387.060          45.000    22568552.240    93766675.013 7      4967.713          44.187    22568551.900    93766676.013 7      4967.713          45.437
G18  24864388.780   130663238.440 7      -951.352          43.687    24864388.520   130663238.450 5      -951.352          31.187    24864398.460   101815538.737 5      -741.313          31.062    24864399.220   101815555.737 7      -741.313          46.812
> 2024 05 09 11 33 11.0000000  0 15
G02  24069468.880   126485915.052 7      5518.784          43.250    24069467.080   126485915.057 5      5518.784          30.937    24069477.520    98560487.467 5      4300.351          30.937
G27  20819451.500   109406951.234 8      2380.470          48.000    20819450.200   109406951.234 8      2380.470          48.937    20819456.380    85252191.348 8      1854.911          49.250    20819456.560    85252193.349 8      1854.911          49.875
R11  19175239.700   102466665.379 8      3061.853          48.687    19175239.780   102466665.386 8      3061.853          48.312    19175247.120    79696323.455 8      2381.441          53.187    19175247.200    79696324.457 8      2381.441          53.562
G16  20413187.200   107272017.106 7      2534.314          47.625    20413186.180   107272017.110 6      2534.314          40.875    20413189.440    83588594.133 6      1974.790          40.437
R21  19975787.880   106894475.788 8       769.117          48.000    19975788.620   106894475.806 7       769.117          47.437    19975798.380    83140187.670 8       598.202          50.812    19975797.820    83140186.671 8       598.202          50.187
G26  21372256.060   112311957.995 7       478.402          46.750    21372254.280   112311957.997 7       478.402          47.000    21372263.260    87515838.993 7       372.781          47.000    21372263.380    87515840.993 8       372.781          48.562
R22  20633375.520   110142353.988 7      3996.415          47.437    20633375.420   110142353.989 8      3996.415          48.187    20633383.980    85666311.683 8      3108.323          49.875    20633384.080    85666313.687 8      3108.323          50.250
R10  21108460.100   112519952.110 7      -838.024          43.125    21108459.620   112519952.122 7      -838.024          42.375
G08  22034288.340   115790960.755 7      3839.445          44.750    22034287.200   115790960.750 6      3839.445          36.250    22034295.320    90226753.083 6      2991.775          36.187    22034295.640    90226756.095 7      2991.775          47.937
G10  22612928.100   118831738.394 7      3965.093          46.812    22612927.220   118831738.399 7      3965.093          45.937    22612937.580    92596197.648 7      3089.683          45.562    22612937.340    92596192.653 7      3089.683          47.500
G23  23070978.220   121238805.359 7      2199.592          43.125    23070977.780   121238805.364 5      2199.592          33.312    23070985.580    94471827.566 5      1713.968          32.937    23070985.860    94471828.571 7      1713.968          47.375
G21  22239749.080   116870669.140 7      5280.841          42.562    22239746.900   116870669.147 5      5280.841          30.125    22239754.860    91068075.074 5      4114.941          30.187
G31  23972920.300   125978533.382 7      -954.522          42.875    23972918.420   125978533.382 6      -954.522          36.750    23972928.660    98165129.551 6      -743.783          36.562    23972929.580    98165131.556 6      -743.783          41.062
R12  22567347.340   120550713.257 7      6387.885          44.875    22567345.440   120550713.251 7      6387.885          44.500    22567356.620    93761707.025 7      4968.355          44.437    22567356.040    93761708.021 7      4968.355          45.187
G18  24864569.680   130664189.412 7      -950.556          43.875    24864569.680   130664189.422 5      -950.556          31.187    24864579.760   101816279.757 5      -740.693          31.062    24864580.120   101816296.755 7      -740.693          46.750
> 2024 05 09 11 33 12.0000000  0 15
G02  24068418.620   126480396.174 7      5519.178          43.687    24068416.920   126480396.182 5      5519.178          30.937    24068427.040    98556187.059 5      4300.658          30.937
G27  20818998.460   109404570.558 7      2380.981          47.875    20818997.220   109404570.561 8      2380.981          48.875    20819003.300    85250336.286 8      1855.310          49.062    20819003.660    85250338.285 8      1855.310          49.750
R11  19174667.120   102463603.572 8      3061.748          49.625    19174666.960   102463603.576 8      3061.748          48.312    19174674.200    79693942.053 8      2381.359          52.812    19174674.120    79693943.056 8      2381.359          53.500
G16  20412705.020   107269482.778 7      2534.535          46.625    20412703.700   107269482.783 6      2534.535          41.250    20412707.180    83586619.336 6      1974.963          40.750
R21  19975644.160   106893706.507 7       769.520          47.625    19975644.780   106893706.522 7       769.520          47.375    19975654.700    83139589.349 8       598.516          50.750    19975654.300    83139588.350 8       598.516          50.625
G26  21372165.000   112311479.474 7       478.692          47.250    21372163.240   112311479.481 7       478.692          46.937    21372172.060    87515466.130 7       373.007          46.937    21372172.320    87515468.128 8       373.007          48.562
R22  20632626.800   110138357.537 8      3996.613          48.187    20632626.880   110138357.540 7      3996.613          47.875    20632635.100    85663203.342 8      3108.477          50.500    20632635.320    85663205.346 8      3108.477          50.437
R10  21108617.200   112520790.139 7      -837.915          43.625    21108616.640   112520790.147 7      -837.915          42.375
G08  22033557.500   115787121.114 7      3839.966          46.375    22033556.620   115787121.113 6      3839.966          36.000    22033564.540    90223761.161 5      2992.182          35.687    22033564.920    90223764.179 8      2992.182          48.187
G10  22612173.460   118827773.312 7      3965.307          46.750    22612172.680   118827773.314 7      3965.307          46.062    22612182.920    92593107.984 7      3089.850          46.000    22612182.880    92593102.987 7      3089.850          47.500
G23  23070559.900   121236605.819 7      2199.695          42.750    23070559.200   121236605.822 5      2199.695          33.375    23070566.920    94470113.645 5      1714.048          33.125    23070567.260    94470114.646 7      1714.048          47.375
G21  22238744.160   116865388.315 7      5280.977          42.062    22238742.040   116865388.323 5      5280.977          30.125    22238749.900    91063960.158 5      4115.047          30.187
G31  23973102.320   125979487.610 7      -953.765          42.750    23973099.940   125979487.612 6      -953.765          36.875    23973110.300    98165873.103 6      -743.194          37.125    23973110.760    98165875.108 6      -743.194          41.000
R12  22566151.580   120544325.231 7      6388.340          44.562    22566149.440   120544325.229 7      6388.340          44.875    22566160.840    93756738.570 7      4968.709          44.625    22566160.120    93756739.568 7      4968.709          45.125
G18  24864750.640   130665139.609 7      -949.783          43.937    24864750.720   130665139.612 5      -949.783          31.937    24864760.520   101817020.170 5      -740.090          31.812    24864761.020   101817037.168 7      -740.090          47.125
> 2024 05 09 11 33 13.0000000  0 15
G02  24067368.320   126474876.874 7      5519.428          43.937    24067366.640   126474876.881 5      5519.428          30.937    24067376.760    98551886.324 5      4300.853          30.937
G27  20818545.320   109402189.365 7      2381.384          47.437    20818544.140   109402189.373 8      2381.384          49.187    20818550.200    85248480.821 8      1855.624          48.812    20818550.480    85248482.824 8      1855.624          49.875
R11  19174094.040   102460541.866 8      3061.614          48.500    19174093.980   102460541.867 8      3061.614          48.562    19174101.280    79691560.733 8      2381.255          53.125    19174101.360    79691561.737 8      2381.255          53.437
G16  20412222.840   107266948.180 7      2534.681          46.750    20412221.520   107266948.185 6      2534.681          40.562    20412224.800    83584644.333 6      1975.076          40.375
R21  19975500.660   106892936.860 7       769.782          46.562    19975501.060   106892936.875 7       769.782          47.687    19975510.860    83138990.736 8       598.719          51.062    19975510.300    83138989.738 8       598.719          50.437
G26  21372073.820   112311000.656 7       478.946          47.000    21372072.120   112311000.661 7       478.946          46.937    21372080.980    87515093.027 7       373.205          46.750    21372081.060    87515095.028 8       373.205          48.187
R22  20631877.860   110134360.917 8      3996.636          48.062    20631878.160   110134360.929 7      3996.636          47.312    20631886.580    85660094.875 8      3108.495          50.187    20631886.880    85660096.877 8      3108.495          50.437
R10  21108774.400   112521627.951 7      -837.750          43.625    21108773.860   112521627.963 7      -837.750          42.500
G08  22032826.680   115783280.905 7      3840.435          45.625    22032825.780   115783280.899 6      3840.435          36.312    22032833.820    90220768.798 5      2992.547          35.875    22032834.320    90220771.804 8      2992.547          48.250
G10  22611418.880   118823807.954 7      3965.374          46.125    22611418.020   118823807.959 7      3965.374          45.625    22611428.440    92590018.107 7      3089.902          45.812    22611428.300    92590013.112 7      3089.902          47.812
G23  23070141.200   121234406.156 7      2199.670          43.062    23070140.620   121234406.161 5      2199.670          33.375    23070148.320    94468399.630 5      1714.029          33.125    23070148.440    94468400.637 7      1714.029          47.500
G21  22237739.300   116860107.196 7      5281.276          42.187    22237736.940   116860107.204 5      5281.276          30.312    22237744.860    91059845.013 5      4115.280          30.187
G31  23973283.180   125980441.181 7      -953.313          42.125    23973281.360   125980441.183 6      -953.313          36.625    23973291.840    98166616.141 6      -742.841          36.625    23973292.500    98166618.148 6      -742.841          41.000
R12  22564955.320   120537936.659 7      6388.825          43.812    22564952.880   120537936.663 7      6388.825          44.312    22564964.900    93751769.698 7      4969.086          44.687    22564964.580    93751770.696 7      4969.086          45.875
G18  24864931.720   130666089.163 7      -949.219          42.375    24864931.400   130666089.165 5      -949.219          31.937    24864941.180   101817760.084 5      -739.651          31.812    24864941.580   101817777.084 7      -739.651          46.875
> 2024 05 09 11 33 14.0000000  0 15
G02  24066318.080   126469357.239 7      5519.655          44.062    24066316.360   126469357.247 5      5519.655          30.875    24066326.720    98547585.324 5      4301.030          30.937
G27  20818092.100   109399807.739 7      2381.821          47.875    20818090.900   109399807.746 8      2381.821          48.937    20818096.960    85246625.014 8      1855.964          49.125    20818097.320    85246627.015 8      1855.964          49.625
R11  19173521.180   102457480.404 8      3061.270          49.250    19173521.220   102457480.405 7      3061.270          47.875    19173528.280    79689179.599 8      2380.987          52.312    19173528.480    79689180.602 8      2380.987          53.312
G16  20411740.360   107264413.411 7      2534.804          47.125    20411739.140   107264413.418 6      2534.804          41.312    20411742.480    83582669.194 6      1975.172          40.625
R21  19975356.820   106892166.977 8       769.986          48.000    19975357.100   106892166.989 7       769.986          47.312    19975366.980    83138391.945 8       598.878          50.687    19975366.580    83138390.946 8       598.878          50.375
G26  21371982.780   112310521.639 7       479.125          47.250    21371980.960   112310521.643 7       479.125          46.562    21371989.900    87514719.769 7       373.344          46.812    21371989.880    87514721.769 8       373.344          48.875
R22  20631129.220   110130364.218 7      3996.756          47.937    20631129.520   110130364.221 8      3996.756          48.187    20631137.760    85656986.333 8      3108.588          50.437    20631138.180    85656988.331 8      3108.588          50.812
R10  21108931.520   112522465.692 7      -837.645          43.375    21108931.000   112522465.703 7      -837.645          42.500
G08  22032095.900   115779440.215 7      3840.860          44.750    22032094.980   115779440.214 6      3840.860          36.312    22032103.000    90217776.063 6      2992.878          36.000    22032103.420    90217779.075 8      2992.878          48.562
G10  22610664.440   118819842.399 7      3965.641          47.125    22610663.420   118819842.402 7      3965.641          45.312    22610673.800    92586928.071 7      3090.110          45.562    22610673.420    92586923.075 7      3090.110          47.562
G23  23069722.920   121232206.469 7      2199.733          43.312    23069721.960   121232206.469 5      2199.733          33.312    23069729.860    94466685.592 5      1714.078          33.187    23069729.940    94466686.594 7      1714.078          47.750
G21  22236734.140   116854825.925 7      5281.375          42.125    22236732.160   116854825.933 5      5281.375          30.312    22236739.880    91055729.747 5      4115.357          30.187
G31  23973464.440   125981394.105 7      -952.645          43.062    23973462.680   125981394.105 6      -952.645          36.937    23973473.200    98167358.676 6      -742.321          37.187    23973474.280    98167360.670 6      -742.321          41.312
R12  22563759.520   120531547.716 7      6389.032          43.750    22563756.600   120531547.725 7      6389.032          44.187    22563769.060    93746800.533 7      4969.247          44.500    22563768.680    93746801.531 7      4969.247          45.812
G18  24865112.200   130667038.170 7      -948.802          43.062    24865111.840   130667038.169 5      -948.802          31.937    24865121.720   101818499.568 5      -739.326          31.812    24865121.940   101818516.561 7      -739.326          46.187
> 2024 05 09 11 33 15.0000000  0 15
G02  24065267.700   126463837.100 7      5520.342          43.937    24065265.920   126463837.108 5      5520.342          30.875    24065276.140    98543283.938 5      4301.565          30.812
G27  20817638.760   109397425.542 8      2382.444          48.562    20817637.600   109397425.549 8      2382.444          49.375    20817643.660    85244768.765 8      1856.450          49.375    20817644.180    85244770.768 8      1856.450          50.187
R11  19172947.840   102454418.968 8      3061.380          49.625    19172948.400   102454418.969 8      3061.380          48.500    19172955.500    79686798.497 8      2381.073          52.625    19172955.400    79686799.499 8      2381.073          53.062
G16  20411258.240   107261878.337 7      2535.133          46.687    20411256.860   107261878.347 6      2535.133          40.500    20411260.100    83580693.824 6      1975.428          40.125
R21  19975213.020   106891396.749 7       770.415          47.562    19975213.200   106891396.759 7       770.415          47.750    19975223.120    83137792.878 8       599.212          50.937    19975222.460    83137791.880 8       599.212          50.312
G26  21371891.480   112310042.295 7       479.465          47.375    21371889.660   112310042.295 7       479.465          46.937    21371898.640    87514346.252 7       373.609          47.000    21371898.980    87514348.257 8       373.609          48.750
R22  20630380.520   110126367.312 7      3996.925          47.750    20630380.800   110126367.311 7      3996.925          47.812    20630389.100    85653877.631 8      3108.720          50.125    20630389.400    85653879.633 8      3108.720          50.500
R10  21109088.660   112523303.206 7      -837.385          43.562    21109088.380   112523303.215 7      -837.385          42.625
G08  22031364.960   115775598.920 7      3841.507          44.625    22031364.120   115775598.917 5      3841.507          35.812    22031372.080    90214782.855 5      2993.382          35.687    22031372.340    90214785.865 8      2993.382          48.687
G10  22609909.880   118815876.532 7      3965.971          46.750    22609908.600   118815876.537 7      3965.971          46.062    22609919.140    92583837.797 7      3090.367          45.687    22609918.800    92583832.803 7      3090.367          47.250
G23  23069304.220   121230006.625 7      2199.891          43.187    23069303.460   121230006.627 5      2199.891          33.312    23069311.180    94464971.434 5      1714.201          33.187    23069311.500    94464972.437 7      1714.201          47.687
G21  22235728.880   116849544.336 7      5281.621          42.250    22235727.040   116849544.343 5      5281.621          30.312    22235734.860    91051614.235 5      4115.549          30.500
G31  23973645.980   125982346.312 7      -951.853          43.687    23973644.080   125982346.312 6      -951.853          37.375    23973654.560    98168100.647 6      -741.703          37.750    23973655.780    98168102.650 6      -741.703          41.312
R12  22562563.480   120525158.247 7      6389.606          43.750    22562560.160   120525158.256 7      6389.606          44.250    22562573.400    93741830.960 7      4969.693          44.625    22562572.680    93741831.956 7      4969.693          46.187
G18  24865292.880   130667986.428 6      -947.952          41.875    24865292.020   130667986.430 5      -947.952          31.437    24865301.940   101819238.474 5      -738.664          31.312    24865302.480   101819255.478 7      -738.664          45.937
> 2024 05 09 11 33 16.0000000  0 15
G02  24064217.180   126458316.507 7      5520.876          43.562    24064215.160   126458316.520 5      5520.876          30.875    24064225.580    98538982.193 5      4301.982          30.812
G27  20817185.500   109395042.769 7      2383.143          47.625    20817184.120   109395042.774 8      2383.143          49.187    20817190.180    85242912.064 8      1856.995          49.000    20817190.700    85242914.064 8      1856.995          49.750
R11  19172375.240   102451357.601 8      3061.437          48.562    19172375.360   102451357.602 8      3061.437          48.562    19172382.560    79684417.434 8      2381.117          52.875    19172382.620    79684418.436 8      2381.117          52.875
G16  20410775.720   107259342.935 7      2535.653          46.625    20410774.200   107259342.940 6      2535.653          41.375    20410777.600    83578718.190 6      1975.833          40.812
R21  19975069.200   106890626.101 8       770.897          48.375    19975069.140   106890626.111 7       770.897          47.562    19975078.980    83137193.494 8       599.587          50.812    19975078.680    83137192.499 8       599.587          50.562
G26  21371800.320   112309562.574 7       479.900          47.375    21371798.380   112309562.576 7       479.900          47.375    21371807.200    87513972.453 7       373.948          47.375    21371807.820    87513974.452 8       373.948          48.250
R22  20629631.780   110122370.146 7      3997.343          46.812    20629631.820   110122370.136 8      3997.343          48.125    20629640.200    85650768.730 8      3109.045          50.062    20629640.320    85650770.732 8      3109.045          49.937
R10  21109245.720   112524140.477 7      -837.182          43.750    21109245.400   112524140.491 7      -837.182          42.750
G08  22030633.760   115771756.977 7      3842.305          44.937    22030633.000   115771756.974 5      3842.305          35.875    22030641.140    90211789.141 5      2994.004          35.562    22030641.800    90211792.151 8      2994.004          48.312
G10  22609155.000   118811910.317 7      3966.482          46.687    22609153.920   118811910.322 7      3966.482          45.062    22609164.480    92580747.246 7      3090.765          45.125    22609164.100    92580742.255 7      3090.765          47.687
G23  23068885.740   121227806.586 7      2200.199          43.437    23068884.660   121227806.588 5      2200.199          33.375    23068892.640    94463257.124 5      1714.440          33.250    23068892.680    94463258.131 7      1714.440          47.875
G21  22234723.560   116844262.397 6      5282.191          41.937    22234721.880   116844262.405 5      5282.191          30.312    22234729.660    91047498.451 5      4115.993          30.500
G31  23973827.080   125983297.747 7      -951.027          43.125    23973825.360   125983297.746 6      -951.027          37.562    23973835.820    98168842.023 6      -741.060          37.500    23973836.860    98168844.035 6      -741.060          41.562
R12  22561367.040   120518768.180 7      6390.269          43.750    22561363.060   120518768.197 7      6390.269          43.625    22561377.500    93736860.933 7      4970.209          45.187    22561376.880    93736861.933 7      4970.209          46.312
G18  24865473.180   130668933.995 7      -947.120          42.062    24865472.120   130668933.997 5      -947.120          31.437    24865482.080   101819976.842 5      -738.016          31.312    24865482.340   101819993.844 7      -738.016          45.812
> 2024 05 09 11 33 17.0000000  0 15
G02  24063166.320   126452795.501 7      5520.861          43.812    24063164.660   126452795.511 5      5520.861          30.562    24063175.100    98534680.127 5      4301.969          30.812
G27  20816732.040   109392659.471 8      2383.280          48.062    20816730.600   109392659.479 8      2383.280          49.937    20816736.720    85241054.957 8      1857.101          49.687    20816737.200    85241056.957 8      1857.101          49.875
R11  19171802.380   102448296.344 8      3061.003          49.125    19171802.440   102448296.345 8      3061.003          48.250    19171809.680    79682036.463 8      2380.780          52.562    19171809.740    79682037.467 8      2380.780          52.937
G16  20410293.120   107256807.299 7      2535.478          47.375    20410291.740   107256807.306 6      2535.478          40.937    20410295.080    83576742.372 6      1975.697          40.312
R21  19974925.120   106889855.103 8       770.929          48.187    19974925.080   106889855.115 7       770.929          47.625    19974935.120    83136593.837 8       599.612          50.562    19974934.480    83136592.842 8       599.612          50.000
G26  21371708.820   112309082.563 7       479.933          47.375    21371707.120   112309082.568 7       479.933          46.812    21371716.020    87513598.419 7       373.974          46.937    21371716.620    87513600.422 8       373.974          48.625
R22  20628882.880   110118372.822 8      3997.154          48.375    20628883.280   110118372.820 8      3997.154          48.250    20628891.340    85647659.708 8      3108.897          49.937    20628891.620    85647661.710 8      3108.897          50.687
R10  21109403.100   112524977.554 7      -837.258          43.750    21109402.440   112524977.560 7      -837.258          42.750
G08  22029902.900   115767914.500 7      3842.511          46.312    22029901.800   115767914.497 5      3842.511          35.937    22029909.840    90208795.007 5      2994.164          35.562    22029910.540    90208798.017 8      2994.164          48.562
G10  22608400.480   118807943.835 7      3966.438          46.687    22608399.000   118807943.835 7      3966.438          45.500    22608409.660    92577656.487 7      3090.731          45.437    22608409.100    92577651.498 7      3090.731          47.187
G23  23068466.800   121225606.426 7      2200.091          43.312    23068466.120   121225606.431 5      2200.091          33.250    23068473.900    94461542.722 5      1714.357          33.250    23068473.920    94461543.729 7      1714.357          47.812
G21  22233718.760   116838980.214 6      5282.081          41.937    22233716.620   116838980.222 5      5282.081          30.562    22233724.540    91043382.477 5      4115.908          30.500
G31  23974007.880   125984248.496 7      -950.730          42.937    23974006.300   125984248.503 6      -950.730          37.562    23974016.980    98169582.866 6      -740.829          37.500    23974017.800    98169584.875 6      -740.829          41.937
R12  22560170.620   120512377.624 7      6390.592          43.187    22560166.480   120512377.612 7      6390.592          43.812    22560181.600    93731890.494 7      4970.460          45.750    22560180.580    93731891.490 7      4970.460          46.812
G18  24865653.080   130669880.892 7      -946.740          42.000    24865652.020   130669880.894 5      -946.740          31.437    24865662.120   101820714.694 5      -737.720          31.312    24865662.720   101820731.692 7      -737.720          45.750
> 2024 05 09 11 33 18.0000000  0 15
G02  24062115.520   126447274.322 7      5521.230          43.625    24062114.000   126447274.332 5      5521.230          30.562    24062124.340    98530377.923 5      4302.257          30.437
G27  20816278.580   109390275.932 8      2383.695          48.250    20816277.060   109390275.937 8      2383.695          49.750    20816283.160    85239197.657 8      1857.425          49.625    20816283.580    85239199.658 8      1857.425          50.312
R11  19171229.500   102445235.501 8      3060.652          48.562    19171229.420   102445235.500 8      3060.652          48.250    19171236.820    79679655.811 8      2380.507          52.812    19171237.000    79679656.812 8      2380.507          53.125
G16  20409810.780   107254271.657 7      2535.704          47.125    20409809.100   107254271.662 6      2535.704          41.000    20409812.540    83574766.554 6      1975.873          40.625
R21  19974781.020   106889084.053 7       771.095          47.812    19974781.100   106889084.068 7       771.095          47.687    19974791.020    83135994.140 8       599.740          50.750    19974790.200    83135993.146 8       599.740          50.312
G26  21371617.580   112308602.534 7       480.175          46.625    21371615.660   112308602.539 7       480.175          47.437    21371624.680    87513224.377 7       374.163          47.437    21371625.060    87513226.375 8       374.163          49.187
R22  20628134.100   110114375.596 7      3997.214          46.937    20628134.400   110114375.597 7      3997.214          47.375    20628142.700    85644550.766 8      3108.944          50.437    20628142.980    85644552.766 8      3108.944          50.625
R10  21109560.100   112525814.709 7      -837.223          43.812    21109559.660   112525814.717 7      -837.223          42.625
G08  22029171.800   115764071.730 7      3842.927          45.875    22029170.560   115764071.721 5      3842.927          35.812    22029178.480    90205800.646 5      2994.489          35.562    22029179.060    90205803.656 8      2994.489          48.625
G10  22607645.560   118803977.361 7      3966.539          46.000    22607644.200   118803977.363 7      3966.539          45.312    22607654.840    92574565.742 7      3090.809          45.125    22607654.180    92574560.750 7      3090.809          47.000
G23  23068048.100   121223406.479 7      2199.870          43.625    23068047.420   121223406.481 5      2199.870          33.250    23068055.280    94459828.483 5      1714.184          33.000    23068055.220    94459829.491 7      1714.184          47.750
G21  22232713.460   116833698.050 6      5282.210          41.500    22232711.460   116833698.060 5      5282.210          30.562    22232719.400    91039266.514 5      4116.008          30.500
G31  23974188.880   125985198.819 7      -950.091          43.937    23974187.400   125985198.824 6      -950.091          37.875    23974197.980    98170323.369 6      -740.331          37.750    23974198.860    98170325.376 6      -740.331          41.937
R12  22558974.300   120505986.833 7      6390.901          43.437    22558970.000   120505986.826 7      6390.901          43.187    22558985.460    93726919.906 7      4970.701          45.500    22558984.320    93726920.910 7      4970.701          47.187
G18  24865833.340   130670827.426 6      -946.262          41.875    24865832.060   130670827.428 5      -946.262          30.187    24865842.240   101821452.249 5      -737.347          31.312    24865842.340   101821469.253 7      -737.347          45.625
> 2024 05 09 11 33 19.0000000  0 15
G02  24061065.080   126441752.688 7      5521.717          44.125    24061063.160   126441752.698 5      5521.717          30.562    24061073.460    98526075.368 5      4302.637          30.437
G27  20815824.860   109387891.825 7      2384.371          47.562    20815823.300   109387891.830 8      2384.371          49.250    20815829.480    85237339.920 8      1857.951          49.375    20815829.880    85237341.916 8      1857.951          50.125
R11  19170656.920   102442174.715 8      3060.723          48.687    19170656.680   102442174.718 7      3060.723          47.875    19170664.120    79677275.210 8      2380.562          52.375    19170664.260    79677276.212 8      2380.562          52.875
G16  20409328.340   107251735.738 7      2536.051          46.687    20409326.620   107251735.740 6      2536.051          40.875    20409330.000    83572790.518 6      1976.144          40.500
R21  19974636.780   106888312.667 8       771.522          48.250    19974636.860   106888312.679 7       771.522          47.437    19974646.980    83135394.173 8       600.073          50.625    19974646.320    83135393.176 8       600.073          49.625
G26  21371526.180   112308122.181 7       480.573          47.312    21371524.380   112308122.189 7       480.573          47.125    21371533.260    87512850.078 7       374.472          46.937    21371533.580    87512852.079 8       374.472          48.812
R22  20627385.040   110110378.150 7      3997.614          47.687    20627385.420   110110378.153 7      3997.614          47.812    20627393.700    85641441.649 8      3109.255          50.312    20627394.260    85641443.651 8      3109.255          50.687
R10  21109717.160   112526651.620 7      -836.768          43.812    21109716.680   112526651.618 7      -836.768          42.375
G08  22028440.280   115760228.346 7      3843.679          45.187    22028439.300   115760228.338 6      3843.679          36.312    22028446.960    90202805.809 5      2995.075          35.500    22028447.680    90202808.818 8      2995.075          48.250
G10  22606890.640   118800010.568 7      3966.918          46.812    22606889.380   118800010.573 7      3966.918          45.750    22606899.980    92571474.745 7      3091.105          45.812    22606899.500    92571469.754 7      3091.105          47.062
G23  23067629.300   121221206.322 7      2200.243          43.562    23067628.720   121221206.321 5      2200.243          33.250    23067636.620    94458114.079 5      1714.475          33.000    23067636.620    94458115.085 7      1714.475          47.187
G21  22231708.280   116828415.578 6      5282.557          41.437    22231706.140   116828415.585 5      5282.557          30.562    22231714.040    91035150.313 5      4116.279          30.562
G31  23974369.480   125986148.386 7      -949.108          43.312    23974368.420   125986148.398 6      -949.108          37.875    23974378.760    98171063.287 6      -739.565          37.625    23974379.480    98171065.300 7      -739.565          42.312
R12  22557777.740   120499595.521 7      6391.478          43.437    22557774.140   120499595.511 7      6391.478          43.937    22557788.840    93721948.906 7      4971.150          46.125    22557788.120    93721949.904 7      4971.150          46.812
G18  24866013.380   130671773.246 6      -945.414          41.875    24866012.100   130671773.251 5      -945.414          30.187    24866021.980   101822189.254 4      -736.686          29.875    24866022.300   101822206.264 7      -736.686          45.625
> 2024 05 09 11 33 20.0000000  0 15
G02  24060014.460   126436230.604 7      5522.515          43.875    24060012.400   126436230.612 5      5522.515          30.562    24060022.660    98521772.460 5      4303.258          30.437
G27  20815370.980   109385507.205 7      2384.982          47.812    20815369.620   109385507.213 8      2384.982          49.000    20815375.760    85235481.785 8      1858.427          49.562    20815376.060    85235483.783 8      1858.427          49.750
R11  19170084.160   102439114.091 8      3060.620          48.750    19170083.960   102439114.089 8      3060.620          48.125    19170091.340    79674894.733 8      2380.482          52.250    19170091.380    79674895.731 8      2380.482          53.000
G16  20408845.600   107249199.552 7      2536.413          46.812    20408844.060   107249199.560 6      2536.413          40.625    20408847.380    83570814.283 6      1976.426          40.312
R21  19974492.500   106887540.954 7       771.979          47.750    19974492.560   106887540.966 7       771.979          47.437    19974502.720    83134793.960 8       600.428          50.312    19974501.940    83134792.959 8       600.428          50.312
G26  21371434.700   112307641.551 7       480.913          46.812    21371432.820   112307641.553 7       480.913          47.250    21371441.720    87512475.565 7       374.737          47.437    21371442.020    87512477.561 8       374.737          48.312
R22  20626636.240   110106380.561 8      3997.795          48.062    20626636.640   110106380.565 8      3997.795          48.250    20626644.820    85638332.426 8      3109.396          50.437    20626645.200    85638334.428 8      3109.396          50.625
R10  21109874.020   112527488.351 7      -836.469          43.500    21109873.420   112527488.351 7      -836.469          42.375
G08  22027708.940   115756384.401 7      3844.312          46.375    22027707.760   115756384.395 6      3844.312          36.312    22027715.580    90199810.537 5      2995.568          35.687    22027716.460    90199813.551 8      2995.568          48.500
G10  22606135.900   118796043.502 7      3967.322          45.875    22606134.340   118796043.507 7      3967.322          45.625    22606145.080    92568383.535 7      3091.420          45.812    22606144.900    92568378.542 7      3091.420          47.125
G23  23067210.920   121219006.070 7      2200.462          44.250    23067210.060   121219006.072 5      2200.462          33.250    23067217.980    94456399.608 5      1714.645          33.062    23067217.800    94456400.619 7      1714.645          47.437
G21  22230702.980   116823132.838 6      5282.968          41.875    22230700.840   116823132.845 5      5282.968          30.625    22230708.760    91031033.904 5      4116.599          30.562
G31  23974549.820   125987097.287 7      -948.443          43.500    23974549.180   125987097.300 6      -948.443          38.312    23974559.520    98171802.689 6      -739.047          38.375    23974560.440    98171804.702 7      -739.047          42.437
R12  22556580.980   120493203.696 7      6392.197          43.437    22556578.080   120493203.686 7      6392.197          43.937    22556592.400    93716977.499 7      4971.709          46.000    22556591.760    93716978.503 7      4971.709          46.875
G18  24866193.200   130672718.419 7      -944.722          42.125    24866192.060   130672718.424 5      -944.722          30.187    24866201.800   101822925.761 4      -736.147          29.875    24866202.100   101822942.771 7      -736.147          45.187
> 2024 05 09 11 33 21.0000000  0 15
G02  24058963.220   126430708.088 7      5522.813          43.187    24058961.600   126430708.095 5      5522.813          30.687    24058971.960    98517469.215 5      4303.491          30.437
G27  20814917.000   109383122.016 8      2385.461          48.562    20814915.700   109383122.018 8      2385.461          49.562    20814921.860    85233623.200 8      1858.801          49.500    20814922.360    85233625.196 8      1858.801          50.125
R11  19169511.500   102436053.486 8      3060.571          49.937    19169511.320   102436053.487 8      3060.571          49.312    19169518.620    79672514.267 8      2380.444          52.312    19169518.560    79672515.269 8      2380.444          52.687
G16  20408362.800   107246663.065 7      2536.699          47.875    20408361.320   107246663.075 6      2536.699          41.250    20408364.700    83568837.803 6      1976.649          40.687
R21  19974348.300   106886768.848 8       772.262          49.437    19974348.560   106886768.860 8       772.262          48.125    19974358.300    83134193.435 8       600.648          50.750    19974357.580    83134192.441 8       600.648          50.062
G26  21371343.080   112307160.563 7       481.192          47.000    21371341.360   112307160.567 7       481.192          47.000    21371350.260    87512100.773 7       374.954          46.937    21371350.680    87512102.769 8       374.954          48.375
R22  20625887.360   110102382.751 8      3997.879          48.687    20625887.620   110102382.758 8      3997.879          48.312    20625895.940    85635223.026 8      3109.462          50.125    20625896.240    85635225.024 8      3109.462          50.562
R10  21110030.880   112528324.863 7      -836.556          43.500    21110030.060   112528324.871 7      -836.556          42.437
G08  22026977.340   115752539.856 7      3844.866          46.625    22026976.260   115752539.851 5      3844.866          35.812    22026984.120    90196814.796 6      2995.999          36.062    22026985.060    90196817.808 8      2995.999          48.500
G10  22605380.820   118792076.114 7      3967.496          46.187    22605379.340   118792076.121 7      3967.496          45.625    22605390.060    92565292.076 7      3091.556          45.562    22605389.940    92565287.084 7      3091.556          47.250
G23  23066792.220   121216805.671 7      2200.447          43.750    23066791.380   121216805.676 5      2200.447          32.937    23066799.120    94454685.019 5      1714.634          33.062    23066799.440    94454686.031 7      1714.634          47.125
G21  22229697.620   116817849.798 7      5283.191          42.500    22229695.620   116817849.808 5      5283.191          30.625    22229703.500    91026917.262 5      4116.772          30.562
G31  23974730.480   125988045.451 7      -947.799          44.125    23974729.700   125988045.463 6      -947.799          38.375    23974740.300    98172541.516 6      -738.544          38.562    23974740.840    98172543.518 7      -738.544          42.437
R12  22555384.280   120486811.372 7      6392.597          44.250    22555381.980   120486811.357 7      6392.597          43.875    22555395.060    93712005.698 7      4972.020          45.187    22555395.200    93712006.706 7      4972.020          46.437
G18  24866372.780   130673662.888 7      -944.060          42.187    24866371.900   130673662.896 5      -944.060          30.187    24866381.540   101823661.715 4      -735.631          29.875    24866381.880   101823678.721 7      -735.631          45.875
> 2024 05 09 11 33 22.0000000  0 15
G02  24057912.320   126425185.164 7      5523.005          44.062    24057910.500   126425185.171 5      5523.005          30.687    24057920.840    98513165.652 5      4303.640          30.625
G27  20814463.000   109380736.337 8      2385.782          48.750    20814461.700   109380736.339 8      2385.782          49.875    20814467.840    85231764.231 8      1859.051          49.312    20814468.360    85231766.232 8      1859.051          50.062
R11  19168939.080   102432993.052 8      3060.196          50.062    19168938.740   102432993.053 8      3060.196          49.625    19168945.940    79670133.929 8      2380.152          52.437    19168945.860    79670134.929 8      2380.152          53.500
G16  20407880.020   107244126.365 7      2536.658          47.437    20407878.680   107244126.375 6      2536.658          41.187    20407882.040    83566861.158 6      1976.616          40.562
R21  19974203.780   106885996.447 8       772.422          49.125    19974204.100   106885996.459 8       772.422          49.062    19974214.000    83133592.683 8       600.773          51.000    19974213.360    83133591.687 8       600.773          50.625
G26  21371251.360   112306679.320 7       481.283          47.875    21371249.760   112306679.324 7       481.283          47.625    21371258.720    87511725.780 7       375.025          47.312    21371258.980    87511727.781 8       375.025          48.187
R22  20625138.420   110098384.806 8      3997.838          49.187    20625138.740   110098384.809 8      3997.838          49.125    20625147.200    85632113.515 8      3109.430          50.312    20625147.280    85632115.513 8      3109.430          50.062
R10  21110187.540   112529161.199 7      -836.473          43.562    21110186.880   112529161.204 7      -836.473          42.500
G08  22026245.600   115748694.768 7      3845.160          46.812    22026244.480   115748694.762 6      3845.160          36.500    22026252.440    90193818.633 6      2996.229          36.187    22026253.380    90193821.645 8      2996.229          49.125
G10  22604625.920   118788108.486 7      3967.558          47.125    22604624.380   118788108.488 7      3967.558          46.062    22604635.120    92562200.422 7      3091.604          45.625    22604634.420    92562195.428 7      3091.604          46.937
G23  23066373.340   121214605.175 7      2200.333          43.375    23066372.640   121214605.182 5      2200.333          32.937    23066380.360    94452970.353 5      1714.545          32.750    23066380.380    94452971.365 7      1714.545          47.500
G21  22228692.480   116812566.525 7      5283.284          42.062    22228690.140   116812566.535 5      5283.284          30.625    22228698.180    91022800.438 5      4116.845          30.437
G31  23974910.760   125988992.944 7      -947.261          43.312    23974910.240   125988992.949 6      -947.261          38.937    23974920.660    98173279.810 6      -738.126          39.000    23974921.160    98173281.811 7      -738.126          42.875
R12  22554187.740   120480418.569 7      6392.825          45.875    22554185.760   120480418.562 7      6392.825          45.625    22554197.880    93707033.526 7      4972.197          45.562    22554198.440    93707034.537 7      4972.197          46.250
G18  24866552.160   130674606.745 6      -943.687          41.750    24866551.580   130674606.753 4      -943.687          29.750    24866561.220   101824397.190 4      -735.341          29.875    24866562.100   101824414.190 7      -735.341          45.937
> 2024 05 09 11 33 23.0000000  0 15
G02  24056861.280   126419661.995 7      5523.441          43.750    24056859.600   126419662.003 5      5523.441          30.687    24056869.840    98508861.901 5      4303.980          30.625
G27  20814009.060   109378350.320 8      2386.315          48.937    20814007.620   109378350.322 8      2386.315          50.312    20814013.820    85229905.003 8      1859.466          49.375    20814014.520    85229907.006 8      1859.466          50.500
R11  19168366.220   102429932.917 8      3060.073          50.187    19168366.080   102429932.921 8      3060.073          49.750    19168373.340    79667753.837 8      2380.057          52.687    19168373.340    79667754.839 8      2380.057          53.125
G16  20407397.360   107241589.570 7      2536.985          47.625    20407395.860   107241589.577 6      2536.985          41.125    20407399.240    83564884.442 6      1976.872          40.500
R21  19974059.540   106885223.918 8       772.733          48.875    19974059.720   106885223.933 8       772.733          48.500    19974069.780    83132991.838 8       601.015          51.125    19974069.220    83132990.843 8       601.015          50.375
G26  21371159.840   112306197.969 7       481.550          47.375    21371158.160   112306197.976 7       481.550          47.812    21371167.040    87511350.706 7       375.234          47.625    21371167.180    87511352.707 8       375.234          48.375
R22  20624389.420   110094386.860 7      3998.039          47.250    20624389.700   110094386.863 8      3998.039          49.000    20624398.020    85629004.012 8      3109.586          50.187    20624398.200    85629006.010 8      3109.586          50.437
R10  21110343.960   112529997.543 7      -836.237          43.500    21110343.580   112529997.548 7      -836.237          42.500
G08  22025513.940   115744849.296 7      3845.788          46.562    22025512.660   115744849.290 6      3845.788          36.437    22025520.660    90190822.168 6      2996.718          36.000    22025521.560    90190825.184 8      2996.718          49.000
G10  22603870.760   118784140.758 7      3967.835          46.875    22603869.340   118784140.763 7      3967.835          46.062    22603880.100    92559108.698 7      3091.819          45.875    22603879.520    92559103.704 7      3091.819          47.000
G23  23065954.720   121212404.734 7      2200.616          44.625    23065953.860   121212404.739 5      2200.616          33.437    23065961.800    94451255.730 5      1714.766          32.750    23065961.780    94451256.739 7      1714.766          47.500
G21  22227686.860   116807283.186 7      5283.529          42.375    22227684.860   116807283.193 5      5283.529          30.250    22227692.680    91018683.561 5      4117.035          30.437
G31  23975091.080   125989939.915 7      -946.537          44.312    23975090.640   125989939.922 6      -946.537          39.812    23975100.980    98174017.703 6      -737.562          39.937    23975101.740    98174019.702 7      -737.562          42.937
R12  22552991.560   120474025.444 7      6393.446          45.312    22552989.080   120474025.437 7      6393.446          45.375    22553000.580    93702061.104 7      4972.680          45.500    22553001.120    93702062.110 7      4972.680          46.125
G18  24866731.480   130675550.124 6      -943.065          41.875    24866730.840   130675550.129 4      -943.065          29.750    24866740.900   101825132.288 4      -734.856          29.562    24866741.500   101825149.292 7      -734.856          45.937
> 2024 05 09 11 33 24.0000000  0 15
G02  24055810.200   126414138.517 7      5523.409          43.187    24055808.480   126414138.530 5      5523.409          30.125    24055818.900    98504557.910 5      4303.955          30.625
G27  20813554.880   109375963.880 8      2386.506          48.250    20813553.620   109375963.884 8      2386.506          48.625    20813559.640    85228045.448 8      1859.615          49.250    20813560.320    85228047.446 8      1859.615          49.937
R11  19167793.660   102426873.009 8      3059.612          48.562    19167793.220   102426873.008 8      3059.612          48.625    19167800.600    79665373.906 8      2379.698          52.687    19167800.640    79665374.909 8      2379.698          53.500
G16  20406914.540   107239052.641 8      2536.787          48.375    20406913.080   107239052.649 6      2536.787          41.000    20406916.380    83562907.619 6      1976.717          40.500
R21  19973915.160   106884451.162 8       772.672          48.562    19973915.440   106884451.174 7       772.672          47.562    19973925.280    83132390.807 8       600.967          51.312    19973924.540    83132389.811 8       600.967          50.625
G26  21371068.320   112305716.442 7       481.368          47.937    21371066.540   112305716.444 7       481.368          46.875    21371075.400    87510975.492 7       375.092          46.937    21371075.760    87510977.491 8       375.092          48.187
R22  20623640.460   110090388.863 7      3997.737          45.625    20623640.660   110090388.864 8      3997.737          48.125    20623649.140    85625894.465 8      3109.351          50.187    20623649.340    85625896.463 8      3109.351          50.062
R10  21110501.000   112530833.812 7      -836.375          43.125    21110500.440   112530833.820 7      -836.375          42.375
G08  22024781.820   115741003.380 7      3845.944          45.250    22024780.800   115741003.374 6      3845.944          36.000    22024788.900    90187825.358 6      2996.840          36.000    22024789.780    90187828.376 8      2996.840          49.250
G10  22603115.600   118780172.859 7      3967.839          46.500    22603114.320   118780172.864 7      3967.839          45.375    22603125.100    92556016.835 7      3091.822          45.437    22603124.800    92556011.842 7      3091.822          46.875
G23  23065536.160   121210204.301 7      2200.303          44.750    23065534.960   121210204.305 5      2200.303          33.062    23065543.240    94449541.115 5      1714.522          33.187    23065543.360    94449542.124 7      1714.522          47.250
G21  22226681.560   116801999.692 7      5283.293          42.437    22226679.480   116801999.694 5      5283.293          30.250    22226687.060    91014566.561 5      4116.852          30.437
G31  23975271.060   125990886.307 7      -946.266          43.937    23975270.820   125990886.312 6      -946.266          39.187    23975281.300    98174755.144 6      -737.350          39.750    23975281.720    98174757.148 7      -737.350          42.750
R12  22551793.980   120467631.934 7      6393.492          44.250    22551791.840   120467631.935 7      6393.492          44.812    22551803.200    93697088.386 7      4972.716          44.687    22551804.280    93697089.399 7      4972.716          45.812
G18  24866911.160   130676492.956 6      -942.813          40.062    24866909.920   130676492.956 4      -942.813          29.750    24866920.080   101825866.962 4      -734.659          29.562    24866920.940   101825883.954 7      -734.659          45.562
> 2024 05 09 11 33 25.0000000  0 15
G02  24054759.240   126408614.833 7      5523.821          43.875    24054757.320   126408614.844 5      5523.821          30.125    24054767.700    98500253.755 5      4304.276          30.625
G27  20813100.800   109373577.155 7      2386.922          47.437    20813099.260   109373577.163 8      2386.922          48.750    20813105.480    85226185.673 8      1859.939          49.000    20813106.060    85226187.673 8      1859.939          50.187
R11  19167221.120   102423813.454 8      3059.382          49.062    19167220.700   102423813.458 8      3059.382          48.500    19167228.140    79662994.259 8      2379.519          52.687    19167227.960    79662995.263 8      2379.519          53.375
G16  20406431.620   107236515.662 7      2537.110          47.187    20406430.380   107236515.670 6      2537.110          40.625    20406433.840    83560930.759 6      1976.969          40.562
R21  19973770.580   106883678.274 8       773.030          48.312    19973771.000   106883678.284 7       773.030          47.437    19973780.720    83131789.677 8       601.246          50.812    19973780.340    83131788.678 8       601.246          50.437
G26  21370976.560   112305234.829 7       481.641          46.312    21370974.820   112305234.833 7       481.641          46.687    21370983.820    87510600.215 7       375.304          47.312    21370984.100    87510602.218 7       375.304          47.875
R22  20622891.500   110086390.909 7      3997.947          47.500    20622891.700   110086390.912 7      3997.947          47.625    20622900.180    85622784.956 8      3109.514          50.250    20622900.420    85622786.954 8      3109.514          50.125
R10  21110657.960   112531670.119 7      -836.261          43.125    21110657.120   112531670.127 7      -836.261          42.000
G08  22024049.860   115737157.119 7      3846.517          45.375    22024048.900   115737157.114 6      3846.517          36.062    22024056.840    90184828.278 5      2997.286          35.875    22024058.020    90184831.296 8      2997.286          48.812
G10  22602360.580   118776204.940 7      3967.954          46.187    22602359.100   118776204.939 7      3967.954          45.187    22602369.940    92552924.960 7      3091.912          45.750    22602369.360    92552919.960 7      3091.912          47.687
G23  23065117.600   121208003.967 7      2200.339          44.500    23065116.160   121208003.977 5      2200.339          33.062    23065124.480    94447826.578 5      1714.550          33.187    23065124.400    94447827.595 7      1714.550          47.562
G21  22225675.980   116796716.142 7      5283.522          42.312    22225674.040   116796716.142 5      5283.522          30.250    22225681.660    91010449.519 5      4117.030          30.437
G31  23975450.880   125991832.200 7      -945.469          43.687    23975450.900   125991832.208 6      -945.469          39.437    23975461.440    98175492.199 6      -736.729          39.500    23975462.080    98175494.204 7      -736.729          43.312
R12  22550597.120   120461238.154 7      6393.918          44.250    22550594.540   120461238.160 7      6393.918          44.375    22550606.080    93692115.457 7      4973.047          44.437    22550607.060    93692116.465 7      4973.047          45.062
G18  24867090.400   130677435.344 6      -942.191          39.687    24867088.940   130677435.346 4      -942.191          29.750    24867099.380   101826601.291 4      -734.175          29.562    24867100.080   101826618.289 7      -734.175          45.875
> 2024 05 09 11 33 26.0000000  0 15
G02  24053707.900   126403090.698 7      5524.297          43.437    24053706.040   126403090.703 5      5524.297          30.125    24053716.400    98495949.249 4      4304.647          29.875
G27  20812646.600   109371189.895 8      2387.473          48.250    20812645.060   109371189.898 8      2387.473          49.312    20812651.240    85224325.472 8      1860.368          49.437    20812651.580    85224327.473 8      1860.368          50.125
R11  19166648.260   102420753.998 8      3059.297          48.500    19166648.260   102420753.999 8      3059.297          48.437    19166655.500    79660614.686 8      2379.453          52.687    19166655.440    79660615.688 8      2379.453          53.750
G16  20405949.040   107233978.434 7      2537.319          47.000    20405947.560   107233978.436 6      2537.319          41.062    20405950.900    83558953.700 6      1977.131          40.437
R21  19973626.200   106882905.010 7       773.348          46.187    19973626.280   106882905.019 7       773.348          47.187    19973636.440    83131188.255 8       601.493          51.250    19973635.720    83131187.256 8       601.493          50.562
G26  21370884.940   112304752.910 7       481.895          47.125    21370883.260   112304752.920 7       481.895          47.187    21370892.140    87510224.699 7       375.503          46.937    21370892.420    87510226.701 8       375.503          48.187
R22  20622142.620   110082392.776 7      3998.137          47.625    20622142.820   110082392.777 7      3998.137          47.562    20622151.260    85619675.299 8      3109.662          49.875    20622151.340    85619677.297 8      3109.662          50.187
R10  21110814.600   112532506.204 7      -835.962          43.062    21110814.360   112532506.218 7      -835.962          42.000
G08  22023317.900   115733310.273 7      3847.075          45.312    22023316.940   115733310.268 6      3847.075          36.062    22023324.780    90181830.744 5      2997.721          35.875    22023326.040    90181833.764 8      2997.721          49.187
G10  22601605.420   118772236.691 7      3968.347          45.750    22601603.980   118772236.696 7      3968.347          45.437    22601614.760    92549832.827 7      3092.218          45.437    22601614.440    92549827.835 7      3092.218          47.375
G23  23064698.840   121205803.526 7      2200.466          43.750    23064697.500   121205803.534 5      2200.466          33.375    23064705.860    94446111.952 5      1714.649          33.312    23064705.640    94446112.960 7      1714.649          47.437
G21  22224670.580   116791432.299 7      5283.948          42.000    22224668.620   116791432.301 5      5283.948          30.250    22224676.140    91006332.251 5      4117.362          30.375
G31  23975630.900   125992777.413 7      -944.958          44.500    23975630.880   125992777.421 6      -944.958          39.750    23975641.480    98176228.724 6      -736.331          40.250    23975642.000    98176230.727 7      -736.331          43.625
R12  22549399.980   120454843.840 7      6394.509          44.375    22549397.280   120454843.846 7      6394.509          43.812    22549409.040    93687142.105 7      4973.507          44.625    22549409.940    93687143.110 7      4973.507          45.750
G18  24867269.400   130678377.041 6      -941.403          39.125    24867267.800   130678377.049 4      -941.403          28.375    24867278.560   101827335.079 4      -733.561          29.562    24867278.920   101827352.070 7      -733.561          45.562
> 2024 05 09 11 33 27.0000000  0 15
G02  24052656.520   126397566.208 7      5524.762          43.187    24052654.560   126397566.213 5      5524.762          30.125    24052665.000    98491644.466 4      4305.009          29.875
G27  20812192.000   109368802.173 7      2388.043          47.937    20812190.700   109368802.172 8      2388.043          49.187    20812196.900    85222464.915 8      1860.813          49.375    20812197.280    85222466.916 8      1860.813          50.250
R11  19166075.620   102417694.713 8      3059.342          49.125    19166075.700   102417694.712 8      3059.342          48.187    19166083.120    79658235.250 8      2379.488          52.812    19166082.980    79658236.248 8      2379.488          52.875
G16  20405466.080   107231440.980 7      2537.716          47.375    20405464.700   107231440.987 6      2537.716          40.687    20405468.060    83556976.475 6      1977.441          40.312
R21  19973481.640   106882131.443 8       773.877          48.500    19973482.020   106882131.455 7       773.877          47.375    19973491.860    83130586.598 8       601.904          50.500    19973491.220    83130585.597 8       601.904          50.312
G26  21370793.140   112304270.745 7       482.386          46.375    21370791.460   112304270.755 7       482.386          46.937    21370800.380    87509848.988 7       375.885          46.812    21370800.640    87509850.994 8       375.885          48.750
R22  20621393.620   110078394.515 7      3998.433          46.562    20621393.620   110078394.516 7      3998.433          47.625    20621402.360    85616565.549 8      3109.892          50.562    20621402.260    85616567.551 8      3109.892          50.625
R10  21110971.980   112533342.169 7      -835.751          43.312    21110971.400   112533342.199 7      -835.751          42.437
G08  22022585.780   115729462.920 7      3847.666          45.312    22022584.920   115729462.914 6      3847.666          36.625    22022592.780    90178832.812 6      2998.181          36.125    22022593.660    90178835.839 8      2998.181          48.500
G10  22600850.360   118768268.225 7      3968.802          46.312    22600848.860   118768268.230 7      3968.802          45.312    22600859.560    92546740.528 7      3092.573          45.375    22600859.140    92546735.532 7      3092.573          46.625
G23  23064279.840   121203602.999 7      2200.701          44.375    23064278.800   121203603.003 5      2200.701          33.375    23064287.100    94444397.260 5      1714.832          33.312    23064287.020    94444398.271 7      1714.832          47.500
G21  22223665.160   116786148.271 7      5284.309          42.750    22223663.040   116786148.273 5      5284.309          30.437    22223670.600    91002214.837 5      4117.644          30.375
G31  23975810.880   125993721.966 7      -944.068          44.437    23975810.720   125993721.976 6      -944.068          40.437    23975821.360    98176964.734 6      -735.638          39.937    23975821.420    98176966.738 7      -735.638          43.625
R12  22548202.880   120448449.074 7      6395.112          43.562    22548199.940   120448449.089 7      6395.112          44.000    22548212.180    93682168.414 7      4973.976          45.437    22548212.620    93682169.413 7      4973.976          45.687
G18  24867448.420   130679318.184 6      -940.926          39.062    24867446.480   130679318.194 4      -940.926          28.375    24867457.520   101828068.434 4      -733.189          29.562    24867458.120   101828085.434 7      -733.189          44.875
> 2024 05 09 11 33 28.0000000  0 15
G02  24051605.220   126392041.203 7      5525.140          43.000    24051603.260   126392041.205 4      5525.140          29.625    24051613.780    98487339.281 4      4305.304          29.875
G27  20811737.600   109366413.841 8      2388.434          48.187    20811736.240   109366413.843 8      2388.434          49.062    20811742.360    85220603.885 8      1861.118          49.375    20811742.780    85220605.886 8      1861.118          50.312
R11  19165503.320   102414635.460 8      3059.099          48.687    19165503.240   102414635.461 8      3059.099          48.437    19165510.560    79655855.842 8      2379.299          52.875    19165510.500    79655856.842 8      2379.299          53.187
G16  20404983.280   107228903.223 7      2537.744          47.937    20404981.860   107228903.233 6      2537.744          40.937    20404985.000    83554999.006 6      1977.463          40.187
R21  19973336.860   106881357.538 8       773.999          48.125    19973337.100   106881357.553 7       773.999          47.375    19973347.220    83129984.680 8       601.999          50.750    19973346.620    83129983.682 8       601.999          50.375
G26  21370701.440   112303788.243 7       482.476          46.875    21370699.600   112303788.251 7       482.476          47.187    21370708.560    87509473.014 7       375.955          47.187    21370708.740    87509475.017 8       375.955          48.187
R22  20620644.600   110074396.027 7      3998.472          46.437    20620644.680   110074396.023 8      3998.472          48.062    20620653.260    85613455.620 8      3109.922          50.437    20620653.380    85613457.620 8      3109.922          50.375
R10  21111128.640   112534177.919 7      -835.759          43.312    21111128.080   112534177.930 7      -835.759          42.437
G08  22021853.600   115725614.931 7      3848.228          45.000    22021852.600   115725614.925 6      3848.228          36.187    22021860.460    90175834.390 6      2998.619          36.375    22021861.260    90175837.416 8      2998.619          48.437
G10  22600095.080   118764299.457 7      3968.710          46.250    22600093.700   118764299.465 7      3968.710          45.687    22600104.320    92543647.991 7      3092.501          46.000    22600103.940    92543643.000 7      3092.501          47.375
G23  23063860.900   121201402.305 7      2200.669          44.250    23063860.000   121201402.305 5      2200.669          33.250    23063868.380    94442682.440 5      1714.807          33.000    23063868.380    94442683.445 7      1714.807          47.937
G21  22222659.340   116780863.918 7      5284.224          43.312    22222657.540   116780863.920 5      5284.224          30.437    22222665.040    90998097.172 5      4117.577          30.375
G31  23975990.320   125994665.771 7      -943.577          44.437    23975990.440   125994665.778 6      -943.577          40.375    23976001.000    98177700.160 6      -735.255          40.187    23976001.580    98177702.166 7      -735.255          43.625
R12  22547005.920   120442053.785 7      6395.384          44.125    22547002.840   120442053.792 7      6395.384          44.000    22547015.580    93677194.306 7      4974.188          45.437    22547015.720    93677195.306 7      4974.188          45.437
G18  24867627.220   130680258.557 6      -940.184          40.187    24867625.480   130680258.567 4      -940.184          28.375    24867636.320   101828801.193 4      -732.611          27.875    24867637.100   101828818.188 7      -732.611          44.812
> 2024 05 09 11 33 29.0000000  0 15
G02  24050553.600   126386516.095 7      5525.270          42.812    24050551.780   126386516.100 4      5525.270          29.625    24050562.340    98483034.017 4      4305.405          29.875
G27  20811283.240   109364025.275 8      2388.840          48.375    20811281.740   109364025.279 8      2388.840          49.312    20811287.820    85218742.671 8      1861.434          49.375    20811288.180    85218744.674 8      1861.434          49.812
R11  19164931.060   102411576.621 8      3058.793          49.312    19164930.800   102411576.620 8      3058.793          48.437    19164938.180    79653476.749 8      2379.061          53.187    19164938.300    79653477.751 8      2379.061          53.312
G16  20404500.240   107226365.475 7      2537.904          46.937    20404498.840   107226365.485 6      2537.904          40.750    20404502.160    83553021.546 6      1977.587          39.937
R21  19973192.220   106880583.629 8       774.176          48.187    19973192.660   106880583.641 7       774.176          47.562    19973202.620    83129382.753 8       602.137          51.000    19973202.040    83129381.752 8       602.137          50.875
G26  21370609.640   112303305.708 7       482.630          46.625    21370607.880   112303305.718 7       482.630          47.125    21370616.760    87509097.019 7       376.075          47.125    21370616.960    87509099.017 8       376.075          48.500
R22  20619895.660   110070397.633 7      3998.591          46.250    20619895.600   110070397.629 7      3998.591          47.937    20619904.140    85610345.764 8      3110.015          50.250    20619904.240    85610347.766 8      3110.015          50.562
R10  21111285.240   112535013.730 7      -835.659          43.437    21111285.240   112535013.747 7      -835.659          42.375
G08  22021121.000   115721766.668 7      3848.577          45.562    22021120.340   115721766.663 6      3848.577          36.187    22021128.100    90172835.752 6      2998.891          36.312    22021128.760    90172838.776 8      2998.891          48.250
G10  22599339.760   118760330.670 7      3968.896          45.375    22599338.480   118760330.673 7      3968.896          45.625    22599349.060    92540555.438 7      3092.646          45.625    22599349.040    92540550.445 7      3092.646          47.062
G23  23063442.340   121199201.765 7      2200.633          43.375    23063441.260   121199201.767 5      2200.633          33.250    23063449.720    94440967.739 5      1714.779          33.000    23063449.380    94440968.748 7      1714.779          47.687
G21  22221653.680   116775579.544 7      5284.555          42.375    22221651.940   116775579.548 5      5284.555          30.437    22221659.540    90993979.490 5      4117.835          30.687
G31  23976169.980   125995609.149 7      -943.016          44.437    23976170.000   125995609.157 6      -943.016          40.187    23976180.540    98178435.252 6      -734.817          40.062    23976181.080    98178437.254 7      -734.817          43.750
R12  22545808.480   120435658.259 7      6395.853          43.875    22545805.500   120435658.257 7      6395.853          44.250    22545818.640    93672220.016 7      4974.552          45.687    22545818.120    93672221.014 7      4974.552          45.875
G18  24867806.240   130681198.562 6      -939.698          40.250    24867804.620   130681198.572 4      -939.698          28.375    24867814.780   101829533.666 4      -732.232          27.875    24867815.500   101829550.668 7      -732.232          44.687
> 2024 05 09 11 33 30.0000000  0 15
G02  24049502.520   126380990.562 7      5525.620          42.812    24049500.420   126380990.565 4      5525.620          29.625    24049510.860    98478728.419 4      4305.678          29.562
G27  20810828.460   109361636.217 8      2389.197          48.500    20810827.120   109361636.222 8      2389.197          48.812    20810833.220    85216881.074 8      1861.712          49.187    20810833.600    85216883.077 8      1861.712          49.875
R11  19164358.640   102408517.916 8      3058.471          49.062    19164358.320   102408517.920 8      3058.471          48.937    19164365.780    79651097.766 8      2378.810          52.375    19164365.760    79651098.766 8      2378.810          52.875
G16  20404017.300   107223827.505 7      2537.977          46.750    20404015.860   107223827.508 6      2537.977          41.062    20404019.280    83551043.914 6      1977.644          40.750
R21  19973047.380   106879809.422 8       774.227          48.812    19973047.860   106879809.435 7       774.227          47.625    19973057.920    83128780.594 8       602.177          51.375    19973057.540    83128779.596 8       602.177          50.437
G26  21370517.540   112302822.914 7       482.833          47.375    21370516.020   112302822.914 7       482.833          47.125    21370524.980    87508720.810 7       376.233          46.937    21370525.380    87508722.813 8       376.233          48.687
R22  20619147.060   110066399.124 7      3998.485          47.375    20619146.620   110066399.125 8      3998.485          48.125    20619155.300    85607235.823 8      3109.933          50.000    20619155.520    85607237.823 8      3109.933          50.500
R10  21111441.860   112535849.397 7      -835.688          43.625    21111442.200   112535849.414 7      -835.688          42.187
G08  22020389.000   115717917.859 7      3849.032          45.500    22020388.020   115717917.854 6      3849.032          36.687    22020395.540    90169836.688 6      2999.246          36.000    22020396.060    90169839.708 7      2999.246          47.750
G10  22598584.820   118756361.634 7      3969.032          45.750    22598583.200   118756361.636 7      3969.032          45.562    22598593.660    92537462.691 7      3092.752          45.562    22598593.820    92537457.706 7      3092.752          47.187
G23  23063023.380   121197001.153 7      2200.469          43.312    23063022.440   121197001.150 5      2200.469          33.000    23063030.880    94439252.980 5      1714.651          32.937    23063030.760    94439253.992 8      1714.651          48.187
G21  22220648.620   116770294.964 6      5284.595          41.625    22220646.340   116770294.972 5      5284.595          30.750    22220653.760    90989861.646 5      4117.866          30.687
G31  23976349.300   125996551.863 7      -942.467          44.500    23976349.480   125996551.866 6      -942.467          40.437    23976360.040    98179169.824 6      -734.390          40.500    23976360.240    98179171.822 7      -734.390          43.687
R12  22544610.740   120429262.275 7      6396.181          44.250    22544607.900   120429262.271 7      6396.181          44.312    22544621.400    93667245.371 7      4974.807          45.562    22544620.720    93667246.373 7      4974.807          46.125
G18  24867985.100   130682137.936 6      -939.263          41.437    24867983.680   130682137.949 4      -939.263          28.375    24867993.380   101830265.648 4      -731.894          27.875    24867994.400   101830282.656 7      -731.894          44.312
> 2024 05 09 11 33 31.0000000  0 15
G02  24048450.880   126375464.722 7      5525.924          42.437    24048448.740   126375464.727 4      5525.924          29.625    24048459.280    98474422.588 4      4305.915          29.562
G27  20810373.680   109359246.750 7      2389.636          47.812    20810372.420   109359246.752 8      2389.636          49.625    20810378.580    85215019.158 8      1862.054          49.625    20810379.080    85215021.160 8      1862.054          49.937
R11  19163786.340   102405459.435 8      3058.338          48.500    19163786.180   102405459.433 7      3058.338          47.812    19163793.400    79648718.950 8      2378.707          52.625    19163793.680    79648719.952 8      2378.707          53.187
G16  20403534.380   107221289.376 7      2538.195          47.562    20403532.900   107221289.386 6      2538.195          41.437    20403536.420    83549066.159 6      1977.814          41.250
R21  19972903.060   106879034.916 8       774.598          49.000    19972903.280   106879034.931 7       774.598          47.750    19972913.060    83128178.209 8       602.465          50.875    19972912.680    83128177.204 8       602.465          50.562
G26  21370425.880   112302339.927 7       483.086          47.625    21370424.060   112302339.932 7       483.086          47.312    21370433.060    87508344.462 7       376.430          47.312    21370432.940    87508346.465 8       376.430          48.375
R22  20618397.860   110062400.532 7      3998.543          47.125    20618397.500   110062400.536 7      3998.543          47.625    20618406.000    85604125.819 8      3109.978          50.250    20618406.160    85604127.819 8      3109.978          51.000
R10  21111598.580   112536684.989 7      -835.601          44.000    21111598.880   112536685.009 7      -835.601          42.187
G08  22019656.460   115714068.611 7      3849.445          46.312    22019655.380   115714068.603 5      3849.445          35.937    22019663.140    90166837.280 6      2999.567          36.000    22019663.260    90166840.298 7      2999.567          47.437
G10  22597829.420   118752392.435 7      3969.290          46.000    22597827.900   118752392.440 7      3969.290          45.437    22597838.300    92534369.819 7      3092.953          45.750    22597838.360    92534364.831 7      3092.953          47.187
G23  23062604.560   121194800.515 7      2200.660          43.562    23062603.660   121194800.514 5      2200.660          32.875    23062612.020    94437538.206 5      1714.800          32.937    23062612.220    94437539.209 8      1714.800          48.000
G21  22219642.600   116765010.230 7      5284.835          42.250    22219640.740   116765010.232 5      5284.835          30.750    22219648.280    90985743.683 5      4118.053          30.687
G31  23976528.820   125997493.983 7      -941.855          44.750    23976528.660   125997493.983 6      -941.855          40.375    23976539.280    98179903.937 6      -733.913          40.187    23976539.580    98179905.944 7      -733.913          43.937
R12  22543413.680   120422865.905 7      6396.461          44.250    22543410.460   120422865.898 7      6396.461          44.500    22543424.200    93662270.432 7      4975.025          45.562    22543424.040    93662271.436 7      4975.025          46.937
G18  24868163.640   130683076.751 6      -938.560          41.250    24868162.500   130683076.761 4      -938.560          28.062    24868172.320   101830997.196 4      -731.346          27.875    24868173.520   101831014.219 7      -731.346          44.625
> 2024 05 09 11 33 32.0000000  0 15
G02  24047399.400   126369938.674 7      5526.267          42.437    24047397.260   126369938.678 4      5526.267          29.250    24047407.520    98470116.593 4      4306.182          29.562
G27  20809919.180   109356856.970 7      2390.156          47.937    20809917.620   109356856.975 8      2390.156          49.187    20809923.800    85213156.998 8      1862.459          49.250    20809924.100    85213158.998 8      1862.459          49.812
R11  19163214.180   102402401.285 8      3058.172          49.312    19163213.780   102402401.287 7      3058.172          47.750    19163221.060    79646340.399 8      2378.578          52.375    19163221.220    79646341.404 8      2378.578          53.250
G16  20403051.500   107218751.228 7      2538.282          47.187    20403049.980   107218751.233 6      2538.282          40.437    20403053.360    83547088.383 6      1977.882          40.250
R21  19972758.240   106878260.289 8       774.828          48.812    19972758.580   106878260.299 7       774.828          47.937    19972768.560    83127575.719 8       602.644          50.750    19972767.720    83127574.719 8       602.644          50.437
G26  21370333.780   112301856.886 7       483.198          47.187    21370332.180   112301856.889 7       483.198          47.500    21370341.060    87507968.069 7       376.518          47.437    21370341.280    87507970.070 8       376.518          48.625
R22  20617648.720   110058402.002 7      3998.643          47.937    20617648.700   110058402.005 8      3998.643          48.062    20617656.920    85601015.853 8      3110.056          50.375    20617657.120    85601017.855 8      3110.056          50.812
R10  21111755.680   112537520.627 7      -835.539          44.000    21111755.900   112537520.636 7      -835.539          42.500
G08  22018923.960   115710219.006 7      3849.961          46.125    22018922.780   115710219.001 5      3849.961          35.937    22018930.700    90163837.594 5      2999.970          35.625    22018930.980    90163840.606 7      2999.970          47.750
G10  22597074.060   118748423.196 7      3969.410          46.062    22597072.600   118748423.198 7      3969.410          45.812    22597083.100    92531276.914 7      3093.046          45.687    22597083.000    92531271.928 7      3093.046          47.125
G23  23062186.160   121192599.990 7      2200.658          43.750    23062184.960   121192599.992 5      2200.658          32.875    23062193.340    94435823.521 5      1714.798          32.937    23062193.340    94435824.522 8      1714.798          48.000
G21  22218637.040   116759725.454 7      5284.956          42.437    22218635.020   116759725.456 5      5284.956          30.750    22218642.660    90981625.682 5      4118.148          30.687
G31  23976708.040   125998435.623 7      -941.283          44.250    23976707.860   125998435.625 6      -941.283          40.000    23976718.520    98180637.674 6      -733.467          40.375    23976718.640    98180639.674 7      -733.467          43.875
R12  22542216.340   120416469.254 7      6396.866          43.625    22542213.300   120416469.247 7      6396.866          44.125    22542226.500    93657295.276 7      4975.340          46.312    22542226.400    93657296.278 7      4975.340          46.812
G18  24868342.560   130684015.148 6      -938.035          41.500    24868341.300   130684015.155 4      -938.035          28.062    24868351.140   101831728.417 4      -730.936          27.875    24868352.160   101831745.431 7      -730.936          45.500
> 2024 05 09 11 33 33.0000000  0 15
G02  24046347.520   126364412.097 7      5526.730          43.000    24046345.480   126364412.102 4      5526.730          29.250    24046355.840    98465810.182 4      4306.543          29.562
G27  20809464.200   109354466.578 8      2390.575          48.187    20809462.840   109354466.580 8      2390.575          49.000    20809468.960    85211294.363 8      1862.786          49.187    20809469.180    85211296.363 8      1862.786          50.125
R11  19162641.920   102399343.149 8      3057.972          48.812    19162641.460   102399343.150 8      3057.972          48.187    19162648.820    79643961.855 8      2378.423          52.937    19162648.680    79643962.860 8      2378.423          53.062
G16  20402568.420   107216212.702 7      2538.534          47.312    20402566.840   107216212.706 6      2538.534          41.312    20402570.140    83545110.315 6      1978.079          40.750
R21  19972613.560   106877485.243 8       775.107          48.937    19972613.740   106877485.252 8       775.107          48.250    19972623.640    83126972.909 8       602.861          50.750    19972622.880    83126971.911 8       602.861          50.375
G26  21370241.740   112301373.442 7       483.446          47.937    21370240.240   112301373.444 7       483.446          46.750    21370249.200    87507591.361 7       376.711          47.187    21370249.380    87507593.368 8       376.711          48.750
R22  20616899.680   110054403.199 7      3998.729          46.687    20616899.540   110054403.200 7      3998.729          47.812    20616907.860    85597905.680 8      3110.123          49.687    20616908.140    85597907.682 8      3110.123          50.750
R10  21111912.340   112538355.958 7      -835.406          43.812    21111912.200   112538355.964 7      -835.406          42.687
G08  22018191.080   115706368.742 7      3850.438          45.000    22018190.060   115706368.736 6      3850.438          36.500    22018198.000    90160837.396 6      3000.341          36.062    22018198.320    90160840.406 7      3000.341          47.562
G10  22596318.540   118744453.576 7      3969.619          46.312    22596317.240   118744453.579 7      3969.619          45.437    22596327.660    92528183.712 7      3093.210          45.562    22596327.380    92528178.728 7      3093.210          46.875
G23  23061767.520   121190399.257 7      2200.639          43.562    23061766.180   121190399.262 5      2200.639          33.375    23061774.640    94434108.669 5      1714.784          33.187    23061774.540    94434109.670 8      1714.784          48.250
G21  22217631.100   116754440.294 7      5285.223          42.187    22217629.380   116754440.293 5      5285.223          30.500    22217637.000    90977507.388 5      4118.355          30.562
G31  23976887.180   125999376.458 7      -940.600          44.562    23976886.900   125999376.458 6      -940.600          40.562    23976897.740    98181370.786 6      -732.935          40.375    23976897.540    98181372.789 7      -732.935          44.187
R12  22541018.340   120410072.002 7      6397.280          43.125    22541015.720   120410072.005 7      6397.280          44.000    22541028.620    93652319.662 7      4975.662          45.750    22541028.840    93652320.666 7      4975.662          46.312
G18  24868520.840   130684952.743 6      -937.224          41.250    24868519.740   130684952.753 4      -937.224          28.062    24868529.820   101832459.019 4      -730.304          28.375    24868530.520   101832476.029 7      -730.304          46.125
> 2024 05 09 11 33 34.0000000  0 15
G02  24045295.780   126358885.321 7      5526.882          43.062    24045293.760   126358885.329 4      5526.882          29.250    24045304.100    98461503.619 4      4306.661          29.187
G27  20809009.320   109352075.876 8      2390.924          48.187    20809007.860   109352075.878 8      2390.924          49.187    20809014.040    85209431.480 8      1863.058          48.937    20809014.080    85209433.485 8      1863.058          49.812
R11  19162069.360   102396285.350 8      3057.608          48.625    19162069.320   102396285.359 8      3057.608          48.562    19162076.660    79641583.575 8      2378.140          52.687    19162076.480    79641584.577 8      2378.140          52.562
G16  20402085.380   107213674.141 7      2538.540          47.312    20402083.740   107213674.149 6      2538.540          41.250    20402087.220    83543132.222 6      1978.083          40.812
R21  19972468.320   106876710.113 8       775.195          49.312    19972468.780   106876710.125 8       775.195          48.062    19972478.720    83126370.037 8       602.930          51.000    19972478.020    83126369.039 8       602.930          50.125
G26  21370149.760   112300889.907 7       483.591          47.500    21370148.280   112300889.912 7       483.591          47.562    21370157.120    87507214.585 7       376.824          47.562    21370157.140    87507216.584 8       376.824          48.500
R22  20616150.200   110050404.442 8      3998.756          48.187    20616150.340   110050404.437 8      3998.756          48.250    20616158.700    85594795.539 8      3110.143          50.250    20616159.120    85594797.539 8      3110.143          50.250
R10  21112069.260   112539191.327 7      -835.454          43.937    21112069.140   112539191.330 7      -835.454          42.687
G08  22017458.300   115702518.120 7      3850.823          45.500    22017457.340   115702518.114 5      3850.823          35.812    22017465.240    90157836.917 6      3000.641          36.000    22017465.880    90157839.927 8      3000.641          48.125
G10  22595563.140   118740483.896 7      3969.640          46.375    22595562.020   118740483.899 7      3969.640          45.250    22595572.100    92525090.461 7      3093.226          45.062    22595571.760    92525085.475 7      3093.226          46.937
G23  23061348.680   121188198.608 7      2200.629          43.750    23061347.440   121188198.613 5      2200.629          33.375    23061355.820    94432393.879 5      1714.775          33.187    23061355.740    94432394.883 7      1714.775          47.750
G21  22216625.600   116749155.110 7      5285.188          42.250    22216623.540   116749155.112 5      5285.188          30.500    22216631.260    90973389.073 5      4118.328          30.562
G31  23977066.520   126000316.826 7      -940.137          44.625    23977065.920   126000316.828 6      -940.137          40.000    23977076.760    98182103.532 6      -732.574          40.500    23977076.820    98182105.528 7      -732.574          43.937
R12  22539820.640   120403674.482 7      6397.758          44.500    22539818.880   120403674.481 7      6397.758          43.875    22539830.560    93647343.812 7      4976.034          46.250    22539831.340    93647344.820 7      4976.034          46.375
G18  24868699.220   130685889.953 6      -936.980          41.000    24868698.100   130685889.960 4      -936.980          28.062    24868708.560   101833189.310 4      -730.114          28.375    24868709.240   101833206.320 7      -730.114          46.750
> 2024 05 09 11 33 35.0000000  0 15
G02  24044244.120   126353358.199 7      5527.137          42.875    24044241.960   126353358.201 4      5527.137          29.250    24044252.300    98457196.781 4      4306.860          29.187
G27  20808554.480   109349684.724 7      2391.310          47.750    20808552.820   109349684.729 8      2391.310          49.000    20808558.880    85207568.251 8      1863.359          48.750    20808559.380    85207570.256 8      1863.359          49.750
R11  19161497.580   102393227.732 8      3057.384          49.187    19161496.980   102393227.741 8      3057.384          48.062    19161504.420    79639205.438 8      2377.965          52.500    19161504.300    79639206.443 8      2377.965          53.437
G16  20401602.380   107211135.383 7      2538.778          46.625    20401600.540   107211135.391 6      2538.778          41.312    20401604.140    83541153.977 6      1978.269          40.562
R21  19972323.400   106875934.716 7       775.351          47.562    19972323.800   106875934.731 8       775.351          48.000    19972333.720    83125766.959 8       603.051          50.687    19972333.320    83125765.962 8       603.051          50.687
G26  21370057.720   112300406.166 7       483.744          46.875    21370056.180   112300406.173 7       483.744          46.937    21370065.180    87506837.647 7       376.943          46.812    21370065.080    87506839.648 8       376.943          48.187
R22  20615401.340   110046405.583 8      3998.783          48.437    20615401.440   110046405.578 7      3998.783          47.500    20615409.760    85591685.316 8      3110.164          50.375    20615409.700    85591687.316 8      3110.164          50.312
R10  21112226.080   112540026.551 7      -835.303          43.437    21112225.760   112540026.554 7      -835.303          42.187
G08  22016725.400   115698667.009 7      3851.276          45.250    22016724.440   115698667.006 6      3851.276          36.375    22016732.480    90154836.058 5      3000.995          35.875    22016733.200    90154839.066 8      3000.995          48.250
G10  22594807.700   118736514.001 7      3969.873          46.500    22594806.520   118736514.006 7      3969.873          45.250    22594816.660    92521997.046 7      3093.407          45.500    22594816.360    92521992.063 7      3093.407          46.812
G23  23060929.740   121185997.926 7      2200.559          43.687    23060928.620   121185997.936 5      2200.559          33.500    23060936.780    94430679.070 5      1714.721          33.437    23060936.820    94430680.073 7      1714.721          47.875
G21  22215619.920   116743869.727 7      5285.348          42.875    22215617.820   116743869.729 5      5285.348          30.500    22215625.420    90969270.605 5      4118.453          30.562
G31  23977245.080   126001256.576 7      -939.620          43.812    23977244.660   126001256.573 6      -939.620          40.500    23977255.560    98182835.794 6      -732.171          40.375    23977255.960    98182837.795 7      -732.171          43.687
R12  22538623.220   120397276.563 7      6398.044          43.500    22538621.240   120397276.553 7      6398.044          44.000    22538632.520    93642367.652 7      4976.256          45.625    22538633.020    93642368.660 7      4976.256          46.375
G18  24868877.680   130686826.558 6      -936.513          41.375    24868876.220   130686826.562 4      -936.513          29.500    24868887.200   101833919.128 4      -729.751          28.375    24868887.860   101833936.142 7      -729.751          47.187
> 2024 05 09 11 33 36.0000000  0 15
G02  24043192.220   126347830.753 7      5527.551          42.875    24043190.220   126347830.755 4      5527.551          29.187    24043200.540    98452889.692 4      4307.182          29.187
G27  20808099.380   109347293.192 7      2391.619          47.750    20808097.760   109347293.197 8      2391.619          49.187    20808103.900    85205704.725 8      1863.599          49.375    20808104.440    85205706.728 8      1863.599          49.812
R11  19160925.220   102390170.368 8      3057.112          49.125    19160924.900   102390170.374 8      3057.112          48.687    19160932.280    79636827.493 8      2377.754          52.500    19160932.400    79636828.497 8      2377.754          53.187
G16  20401119.180   107208596.513 7      2538.820          47.062    20401117.480   107208596.520 6      2538.820          41.375    20401121.000    83539175.641 6      1978.301          40.750
R21  19972178.600   106875159.094 8       775.584          48.562    19972179.020   106875159.106 8       775.584          48.250    19972189.000    83125163.701 8       603.232          50.750    19972188.180    83125162.705 8       603.232          50.250
G26  21369965.740   112299922.245 7       483.990          47.500    21369964.100   112299922.250 7       483.990          47.312    21369973.080    87506460.565 7       377.135          47.250    21369973.160    87506462.565 8       377.135          48.437
R22  20614652.320   110042406.684 7      3998.780          46.687    20614652.240   110042406.682 8      3998.780          48.125    20614660.600    85588575.065 8      3110.162          50.375    20614660.640    85588577.065 8      3110.162          50.375
R10  21112382.960   112540861.744 7      -835.360          43.437    21112381.940   112540861.747 7      -835.360          42.500
G08  22015992.560   115694815.465 7      3851.655          45.500    22015991.580   115694815.462 5      3851.655          35.937    22015999.560    90151834.863 5      3001.289          35.875    22016000.500    90151837.871 8      3001.289          48.875
G10  22594052.220   118732543.963 7      3970.008          46.312    22594051.080   118732543.966 7      3970.008          45.875    22594061.160    92518903.518 7      3093.513          45.812    22594060.840    92518898.537 7      3093.513          46.437
G23  23060511.140   121183797.248 7      2200.595          44.875    23060509.940   121183797.256 5      2200.595          33.500    23060518.180    94428964.262 5      1714.749          33.437    23060517.880    94428965.270 7      1714.749          47.375
G21  22214614.020   116738584.212 7      5285.426          42.375    22214612.100   116738584.212 5      5285.426          30.750    22214619.520    90965152.032 5      4118.514          30.687
G31  23977424.080   126002195.729 7      -938.937          43.687    23977423.280   126002195.726 6      -938.937          39.812    23977434.020    98183567.594 6      -731.639          39.937    23977434.580    98183569.591 7      -731.639          44.000
R12  22537425.400   120390878.216 7      6398.506          44.750    22537424.060   120390878.214 7      6398.506          44.062    22537434.260    93637391.170 7      4976.616          45.000    22537435.120    93637392.174 7      4976.616          45.625
G18  24869055.680   130687762.598 6      -935.814          41.625    24869054.420   130687762.613 4      -935.814          29.500    24869065.560   101834648.516 4      -729.206          28.375    24869066.060   101834665.520 7      -729.206          47.625
> 2024 05 09 11 33 37.0000000  0 15
G02  24042140.640   126342303.073 7      5527.798          43.312    24042138.420   126342303.075 4      5527.798          29.187    24042148.760    98448582.419 4      4307.375          29.187
G27  20807644.080   109344901.286 8      2391.944          48.875    20807642.620   109344901.291 8      2391.944          49.437    20807648.720    85203840.909 8      1863.853          49.562    20807649.160    85203842.912 8      1863.853          49.437
R11  19160352.980   102387113.308 8      3056.785          49.562    19160352.820   102387113.312 8      3056.785          48.500    19160360.140    79634449.782 8      2377.499          52.187    19160360.160    79634450.784 8      2377.499          53.250
G16  20400636.160   107206057.550 7      2538.862          46.500    20400634.400   107206057.555 6      2538.862          41.000    20400637.760    83537197.232 6      1978.334          40.375
R21  19972033.620   106874383.282 8       775.814          49.062    19972034.200   106874383.292 8       775.814          48.437    19972043.980    83124560.292 8       603.411          50.750    19972043.040    83124559.298 8       603.411          50.500
G26  21369873.680   112299438.225 7       483.984          47.375    21369871.960   112299438.224 7       483.984          47.062    21369881.000    87506083.408 7       377.131          47.000    21369881.000    87506085.411 8       377.131          48.500
R22  20613903.280   110038407.782 8      3998.776          48.000    20613903.060   110038407.781 8      3998.776          48.125    20613911.280    85585464.817 8      3110.159          50.375    20613911.620    85585466.817 8      3110.159          50.312
R10  21112539.740   112541696.883 7      -835.201          43.437    21112538.540   112541696.886 7      -835.201          42.500
G08  22015259.580   115690963.521 7      3852.036          46.437    22015258.520   115690963.513 6      3852.036          36.000    22015266.740    90148833.355 5      3001.586          35.687    22015267.360    90148836.362 8      3001.586          48.562
G10  22593296.660   118728573.829 7      3969.993          46.437    22593295.660   118728573.839 7      3969.993          45.375    22593305.640    92515809.923 7      3093.501          45.562    22593305.160    92515804.938 7      3093.501          46.562
G23  23060092.460   121181596.636 7      2200.456          44.937    23060091.200   121181596.644 5      2200.456          33.062    23060099.480    94427249.508 5      1714.641          33.062    23060099.380    94427250.508 7      1714.641          47.687
G21  22213608.220   116733298.574 6      5285.630          41.687    22213606.280   116733298.576 5      5285.630          30.750    22213613.700    90961033.363 5      4118.673          30.687
G31  23977602.540   126003134.368 7      -938.431          43.625    23977601.660   126003134.362 6      -938.431          40.187    23977612.640    98184298.993 6      -731.245          40.062    23977612.820    98184300.993 7      -731.245          43.562
R12  22536227.400   120384479.575 7      6398.715          44.000    22536226.140   120384479.573 7      6398.715          44.500    22536236.400    93632414.454 7      4976.778          45.437    22536237.100    93632415.454 7      4976.778          45.437
G18  24869233.480   130688698.183 6      -935.524          41.125    24869232.400   130688698.193 4      -935.524          29.500    24869243.920   101835377.535 4      -728.980          29.875    24869244.420   101835394.541 7      -728.980          47.937
> 2024 05 09 11 33 38.0000000  0 15
G02  24041088.760   126336775.104 7      5528.310          43.000    24041086.320   126336775.106 4      5528.310          29.187    24041096.700    98444274.928 4      4307.774          29.187
G27  20807188.740   109342508.986 8      2392.655          48.312    20807187.420   109342508.989 8      2392.655          49.125    20807193.480    85201976.788 8      1864.406          49.187    20807193.840    85201978.786 8      1864.406          49.937
R11  19159781.140   102384056.497 8      3056.773          49.125    19159780.780   102384056.504 7      3056.773          47.750    19159788.060    79632072.268 8      2377.490          52.750    19159788.220    79632073.271 8      2377.490          53.187
G16  20400152.920   107203518.449 7      2539.297          47.000    20400151.200   107203518.456 6      2539.297          40.875    20400154.620    83535218.718 6      1978.673          40.375
R21  19971888.580   106873607.275 8       776.198          48.437    19971888.840   106873607.287 7       776.198          47.812    19971898.900    83123956.741 8       603.709          50.562    19971898.380    83123955.745 8       603.709          50.500
G26  21369781.420   112298954.015 7       484.371          47.062    21369779.920   112298954.018 7       484.371          47.437    21369788.840    87505706.106 7       377.432          47.375    21369788.780    87505708.113 8       377.432          48.062
R22  20613153.840   110034408.833 7      3999.075          47.750    20613154.120   110034408.834 8      3999.075          48.062    20613162.100    85582354.533 8      3110.392          50.312    20613162.660    85582356.533 8      3110.392          50.750
R10  21112696.220   112542532.009 7      -835.132          43.437    21112695.300   112542532.009 7      -835.132          42.687
G08  22014526.500   115687111.125 7      3852.776          46.812    22014525.340   115687111.120 6      3852.776          36.187    22014533.460    90145831.496 5      3002.163          35.937    22014534.620    90145834.512 8      3002.163          49.375
G10  22592541.180   118724603.537 7      3970.483          46.812    22592540.220   118724603.536 7      3970.483          46.000    22592550.100    92512716.193 7      3093.883          45.750    22592549.440    92512711.208 7      3093.883          46.312
G23  23059673.600   121179396.019 7      2200.748          43.437    23059672.400   121179396.027 5      2200.748          33.062    23059680.840    94425534.748 5      1714.868          33.062    23059680.840    94425535.753 7      1714.868          47.562
G21  22212602.520   116728012.854 6      5285.770          41.937    22212600.440   116728012.862 5      5285.770          30.750    22212607.880    90956914.631 5      4118.782          30.687
G31  23977780.760   126004072.442 7      -937.657          43.750    23977780.280   126004072.434 6      -937.657          39.312    23977791.020    98185029.953 6      -730.642          39.000    23977791.100    98185031.950 7      -730.642          43.375
R12  22535029.980   120378080.568 7      6399.283          44.875    22535027.660   120378080.571 7      6399.283          44.562    22535038.760    93627437.461 7      4977.220          45.312    22535039.200    93627438.457 7      4977.220          45.750
G18  24869411.840   130689633.217 6      -934.645          41.312    24869410.440   130689633.227 5      -934.645          30.625    24869421.960   101836106.131 4      -728.295          29.875    24869422.420   101836123.129 7      -728.295          47.812
> 2024 05 09 11 33 39.0000000  0 15
G02  24040036.800   126331246.872 7      5528.268          42.812    24040034.420   126331246.874 4      5528.268          29.187    24040044.780    98439967.229 4      4307.742          28.812
G27  20806733.400   109340116.332 8      2392.757          48.250    20806732.080   109340116.334 8      2392.757          49.187    20806738.200    85200112.388 8      1864.486          48.937    20806738.660    85200114.388 8      1864.486          49.687
R11  19159209.000   102380999.959 8      3056.342          49.312    19159208.640   102380999.960 8      3056.342          48.250    19159216.180    79629694.958 8      2377.155          52.750    19159216.240    79629695.963 8      2377.155          53.125
G16  20399669.620   107200979.244 7      2539.188          46.375    20399668.100   107200979.247 6      2539.188          40.875    20399671.480    83533240.119 6      1978.588          40.062
R21  19971743.780   106872831.118 8       776.143          48.062    19971743.960   106872831.127 8       776.143          48.125    19971753.900    83123353.066 8       603.667          51.062    19971753.080    83123352.067 8       603.667          50.437
G26  21369689.260   112298469.675 7       484.295          46.937    21369687.720   112298469.682 7       484.295          46.875    21369696.680    87505328.700 7       377.373          47.250    21369696.620    87505330.706 8       377.373          48.250
R22  20612404.740   110030409.867 7      3998.923          47.812    20612404.840   110030409.866 8      3998.923          48.187    20612412.960    85579244.233 8      3110.273          50.062    20612413.360    85579246.233 8      3110.273          50.687
R10  21112853.120   112543367.071 7      -835.166          43.437    21112851.720   112543367.066 7      -835.166          42.187
G08  22013793.620   115683258.346 7      3852.875          45.875    22013792.300   115683258.341 6      3852.875          36.187    22013800.240    90142829.337 5      3002.240          35.937    22013801.400    90142832.349 8      3002.240          48.875
G10  22591785.600   118720633.134 7      3970.372          46.812    22591784.620   118720633.136 7      3970.372          45.437    22591794.520    92509622.379 7      3093.796          45.500    22591793.880    92509617.394 7      3093.796          46.187
G23  23059254.900   121177195.447 7      2200.460          44.625    23059253.800   121177195.457 5      2200.460          33.250    23059262.080    94423820.024 5      1714.644          33.062    23059261.840    94423821.028 7      1714.644          47.812
G21  22211596.640   116722726.977 7      5285.806          42.250    22211594.680   116722726.982 5      5285.806          30.750    22211601.880    90952795.774 5      4118.809          30.687
G31  23977959.180   126005009.953 7      -937.385          43.812    23977958.460   126005009.948 6      -937.385          38.937    23977969.260    98185760.478 6      -730.430          39.375    23977969.780    98185762.470 7      -730.430          43.375
R12  22533831.700   120371681.246 7      6399.407          44.250    22533829.460   120371681.252 7      6399.407          44.250    22533841.060    93622460.221 7      4977.317          45.812    22533841.400    93622461.219 7      4977.317          45.250
G18  24869589.500   130690567.757 7      -934.408          42.812    24869588.540   130690567.767 5      -934.408          30.625    24869599.960   101836834.339 4      -728.110          29.875    24869600.260   101836851.331 8      -728.110          48.062
> 2024 05 09 11 33 40.0000000  0 15
G02  24038984.640   126325718.504 7      5528.573          42.750    24038982.480   126325718.504 4      5528.573          28.750    24038992.920    98435659.426 4      4307.979          28.812
G27  20806277.960   109337723.454 7      2393.062          47.750    20806276.760   109337723.456 8      2393.062          49.250    20806282.820    85198247.812 8      1864.724          48.937    20806283.260    85198249.814 8      1864.724          50.187
R11  19158637.100   102377943.872 8      3055.924          49.687    19158636.960   102377943.878 8      3055.924          48.375    19158644.180    79627318.012 8      2376.830          52.750    19158644.320    79627319.015 8      2376.830          53.187
G16  20399186.460   107198440.090 7      2539.282          46.312    20399184.740   107198440.092 6      2539.282          41.000    20399188.260    83531261.565 6      1978.661          40.562
R21  19971598.980   106872054.942 8       776.285          48.375    19971598.720   106872054.946 7       776.285          47.937    19971608.840    83122749.376 8       603.777          51.000    19971608.100    83122748.379 8       603.777          50.125
G26  21369597.360   112297985.342 7       484.406          47.812    21369595.620   112297985.346 7       484.406          47.187    21369604.540    87504951.303 7       377.459          46.875    21369604.660    87504953.306 8       377.459          48.437
R22  20611655.760   110026411.041 8      3998.888          48.500    20611655.620   110026411.044 7      3998.888          47.875    20611663.980    85576134.047 8      3110.246          49.937    20611664.060    85576136.047 8      3110.246          50.437
R10  21113009.800   112544202.277 7      -835.213          43.437    21113008.420   112544202.288 7      -835.213          42.187
G08  22013060.120   115679405.283 7      3853.320          45.250    22013059.160   115679405.278 5      3853.320          35.812    22013067.080    90139826.958 5      3002.587          35.750    22013068.380    90139829.982 8      3002.587          49.125
G10  22591030.120   118716662.771 7      3970.388          46.875    22591029.160   118716662.773 7      3970.388          45.500    22591038.860    92506528.598 7      3093.809          45.562    22591038.300    92506523.612 7      3093.809          46.000
G23  23058836.100   121174995.074 7      2200.355          44.875    23058835.060   121174995.084 5      2200.355          33.250    23058843.240    94422105.456 5      1714.562          33.062    23058843.320    94422106.458 7      1714.562          47.437
G21  22210591.140   116717441.165 7      5285.856          42.750    22210588.700   116717441.170 5      5285.856          30.750    22210596.100    90948676.972 5      4118.849          30.875
G31  23978137.580   126005947.078 7      -936.849          44.375    23978136.540   126005947.078 6      -936.849          39.000    23978147.660    98186490.699 6      -730.012          39.187    23978148.120    98186492.695 7      -730.012          43.375
R12  22532633.940   120365281.731 7      6399.651          44.000    22532631.040   120365281.738 7      6399.651          43.437    22532643.860    93617482.835 7      4977.506          45.437    22532643.380    93617483.833 7      4977.506          46.625
G18  24869767.460   130691501.931 7      -933.949          42.187    24869766.540   130691501.941 5      -933.949          30.625    24869777.760   101837562.266 5      -727.753          31.375    24869777.960   101837579.257 8      -727.753          48.312
> 2024 05 09 11 33 41.0000000  0 15
G02  24037932.360   126320189.802 7      5528.866          43.062    24037930.380   126320189.807 4      5528.866          28.750    24037940.720    98431351.359 4      4308.207          28.812
G27  20805822.620   109335330.130 8      2393.550          48.125    20805821.280   109335330.132 8      2393.550          48.625    20805827.420    85196382.892 8      1865.104          48.687    20805827.780    85196384.890 8      1865.104          49.625
R11  19158065.260   102374887.972 8      3055.757          48.250    19158065.140   102374887.968 7      3055.757          47.250    19158072.320    79624941.199 8      2376.700          52.625    19158072.420    79624942.202 8      2376.700          53.000
G16  20398703.300   107195900.768 7      2539.441          46.062    20398701.720   107195900.770 6      2539.441          41.000    20398705.080    83529282.879 6      1978.785          40.250
R21  19971453.760   106871278.499 8       776.547          48.250    19971453.800   106871278.508 8       776.547          48.000    19971463.800    83122145.481 8       603.981          50.375    19971463.060    83122144.487 8       603.981          50.250
G26  21369505.300   112297500.796 7       484.580          47.000    21369503.480   112297500.808 7       484.580          46.875    21369512.360    87504573.741 7       377.595          47.000    21369512.540    87504575.744 8       377.595          48.187
R22  20610906.760   110022412.142 7      3998.898          46.625    20610906.720   110022412.140 8      3998.898          48.125    20610914.700    85573023.796 8      3110.254          50.312    20610915.040    85573025.798 8      3110.254          50.562
R10  21113166.220   112545037.384 7      -835.079          43.125    21113164.880   112545037.385 7      -835.079          42.187
G08  22012326.720   115675551.740 7      3853.879          44.437    22012325.740   115675551.734 5      3853.879          35.812    22012333.720    90136824.203 5      3003.023          35.500    22012335.240    90136827.233 8      3003.023          49.062
G10  22590274.440   118712692.205 7      3970.598          46.187    22590273.600   118712692.207 7      3970.598          45.687    22590283.320    92503434.661 7      3093.972          46.000    22590282.660    92503429.678 7      3093.972          46.000
G23  23058417.360   121172794.675 7      2200.357          44.562    23058416.380   121172794.680 5      2200.357          32.875    23058424.420    94420390.860 5      1714.564          32.625    23058424.540    94420391.859 7      1714.564          47.312
G21  22209585.080   116712155.157 7      5286.094          42.562    22209582.720   116712155.164 5      5286.094          30.750    22209590.280    90944558.016 5      4119.034          30.875
G31  23978315.760   126006883.578 7      -936.216          43.500    23978314.500   126006883.575 6      -936.216          38.875    23978325.860    98187220.427 6      -729.519          38.937    23978326.300    98187222.421 7      -729.519          43.250
R12  22531435.740   120358881.779 7      6400.109          44.250    22531433.120   120358881.780 7      6400.109          43.750    22531445.600    93612505.105 7      4977.863          45.812    22531445.340    93612506.107 7      4977.863          46.625
G18  24869945.280   130692435.525 7      -933.247          42.625    24869944.380   130692435.538 5      -933.247          31.937    24869955.360   101838289.735 5      -727.205          31.375    24869955.700   101838306.727 8      -727.205          48.187
> 2024 05 09 11 33 42.0000000  0 15
G02  24036880.520   126314660.974 7      5528.548          43.000    24036878.300   126314660.981 4      5528.548          28.750    24036888.460    98427043.197 4      4307.959          28.812
G27  20805367.220   109332936.561 8      2393.381          48.625    20805365.780   109332936.574 8      2393.381          49.187    20805371.920    85194517.785 8      1864.972          49.312    20805372.100    85194519.788 8      1864.972          49.625
R11  19157493.660   102371832.457 8      3055.012          49.062    19157493.300   102371832.458 8      3055.012          48.250    19157500.620    79622564.704 8      2376.120          52.562    19157500.800    79622565.706 8      2376.120          53.375
G16  20398220.140   107193361.450 7      2539.052          47.125    20398218.580   107193361.455 6      2539.052          41.312    20398221.840    83527304.198 6      1978.482          40.875
R21  19971308.640   106870501.980 8       776.242          48.625    19971308.620   106870501.990 7       776.242          47.687    19971318.620    83121541.529 8       603.744          50.562    19971318.020    83121540.532 8       603.744          50.000
G26  21369413.000   112297016.218 7       484.390          46.812    21369411.220   112297016.223 7       484.390          46.937    21369420.080    87504196.145 7       377.447          46.937    21369420.280    87504198.147 8       377.447          48.875
R22  20610157.500   110018413.318 8      3998.527          48.187    20610157.580   110018413.319 8      3998.527          48.000    20610165.440    85569913.608 8      3109.965          50.062    20610165.620    85569915.608 8      3109.965          50.500
R10  21113322.860   112545872.577 7      -835.581          43.125    21113321.780   112545872.588 7      -835.581          42.187
G08  22011593.100   115671697.917 7      3853.719          45.000    22011592.320   115671697.917 5      3853.719          35.687    22011600.320    90133821.239 5      3002.898          35.625    22011601.840    90133824.267 8      3002.898          48.562
G10  22589518.740   118708721.642 7      3970.188          46.062    22589518.120   118708721.647 7      3970.188          45.437    22589527.740    92500340.724 7      3093.653          45.562    22589527.240    92500335.739 7      3093.653          46.312
G23  23057998.500   121170594.400 7      2199.975          44.312    23057997.620   121170594.405 5      2199.975          32.875    23058005.700    94418676.368 5      1714.266          32.625    23058005.460    94418677.369 7      1714.266          47.687
G21  22208578.940   116706869.177 7      5285.628          43.000    22208576.760   116706869.187 5      5285.628          30.750    22208584.220    90940439.083 5      4118.671          30.875
G31  23978493.960   126007819.663 7      -936.094          42.500    23978492.440   126007819.660 6      -936.094          38.687    23978504.000    98187949.831 6      -729.424          38.437    23978504.500    98187951.824 7      -729.424          43.125
R12  22530237.500   120352481.594 7      6399.993          44.500    22530234.840   120352481.595 7      6399.993          43.750    22530247.460    93607527.196 7      4977.772          45.437    22530247.200    93607528.198 7      4977.772          46.437
G18  24870122.660   130693368.738 6      -933.206          41.937    24870121.960   130693368.745 5      -933.206          31.937    24870132.920   101839016.910 5      -727.173          31.812    24870132.980   101839033.906 7      -727.173          47.875
> 2024 05 09 11 33 43.0000000  0 15
G02  24035828.320   126309131.922 7      5529.167          43.125    24035826.080   126309131.930 4      5529.167          28.750    24035836.380    98422734.856 4      4308.442          28.812
G27  20804911.660   109330542.711 8      2394.081          48.250    20804910.200   109330542.718 8      2394.081          49.375    20804916.380    85192652.448 8      1865.517          49.250    20804916.600    85192654.448 8      1865.517          50.187
R11  19156921.960   102368777.324 8      3055.008          48.937    19156921.580   102368777.327 7      3055.008          47.937    19156928.960    79620188.487 8      2376.118          52.437    19156928.760    79620189.490 8      2376.118          53.437
G16  20397736.780   107190822.136 7      2539.358          46.937    20397735.340   107190822.143 6      2539.358          40.625    20397738.660    83525325.513 6      1978.721          40.375
R21  19971163.400   106869725.374 8       776.736          48.937    19971163.680   106869725.386 7       776.736          47.750    19971173.320    83120937.506 8       604.128          51.062    19971172.800    83120936.507 8       604.128          50.562
G26  21369320.720   112296531.615 7       484.766          46.750    21369318.980   112296531.617 7       484.766          47.312    21369327.960    87503818.531 7       377.739          47.062    21369328.480    87503820.534 8       377.739          48.562
R22  20609408.340   110014414.595 7      3998.702          47.562    20609408.340   110014414.596 7      3998.702          47.750    20609416.560    85566803.492 8      3110.102          50.250    20609416.780    85566805.494 8      3110.102          50.312
R10  21113479.320   112546707.823 7      -835.292          43.125    21113479.100   112546707.834 7      -835.292          42.375
G08  22010859.980   115667843.780 7      3854.337          44.687    22010858.920   115667843.779 5      3854.337          35.812    22010866.920    90130818.021 5      3003.380          35.437    22010867.840    90130821.047 8      3003.380          48.500
G10  22588763.380   118704751.040 7      3970.708          46.187    22588762.640   118704751.042 7      3970.708          45.562    22588772.100    92497246.754 7      3094.058          45.750    22588771.560    92497241.765 7      3094.058          46.125
G23  23057579.880   121168394.282 7      2200.197          45.125    23057578.860   121168394.287 5      2200.197          33.250    23057587.040    94416961.992 5      1714.439          33.250    23057587.060    94416962.996 7      1714.439          47.687
G21  22207572.980   116701583.153 7      5286.121          42.937    22207571.060   116701583.160 5      5286.121          31.000    22207578.280    90936320.116 5      4119.056          31.000
G31  23978671.660   126008755.288 7      -935.248          42.250    23978670.380   126008755.285 6      -935.248          38.000    23978681.860    98188678.885 6      -728.764          38.062    23978682.380    98188680.882 7      -728.764          43.000
R12  22529039.640   120346081.183 7      6400.561          44.062    22529036.680   120346081.181 7      6400.561          43.625    22529048.980    93602549.104 7      4978.214          45.312    22529049.140    93602550.110 7      4978.214          45.937
G18  24870299.820   130694301.549 7      -932.509          42.437    24870299.620   130694301.556 5      -932.509          32.062    24870310.380   101839743.771 5      -726.630          31.812    24870310.360   101839760.765 7      -726.630          47.875
> 2024 05 09 11 33 44.0000000  0 15
G02  24034776.280   126303602.621 7      5529.585          42.750    24034773.980   126303602.629 4      5529.585          28.750    24034784.300    98418426.324 4      4308.768          28.812
G27  20804456.120   109328148.504 8      2394.588          48.312    20804454.760   109328148.506 8      2394.588          49.562    20804460.820    85190786.834 8      1865.913          49.500    20804461.160    85190788.836 8      1865.913          50.062
R11  19156350.360   102365722.444 8      3054.840          49.187    19156350.000   102365722.448 8      3054.840          48.187    19156357.220    79617812.481 8      2375.987          52.687    19156357.100    79617813.483 8      2375.987          53.375
G16  20397253.400   107188282.698 7      2539.623          45.937    20397252.020   107188282.705 6      2539.623          40.625    20397255.380    83523346.737 6      1978.927          40.437
R21  19971018.300   106868948.596 8       777.001          48.812    19971018.480   106868948.603 7       777.001          47.812    19971028.260    83120333.345 8       604.334          50.187    19971027.640    83120332.347 8       604.334          50.250
G26  21369228.420   112296046.882 7       484.827          46.437    21369226.700   112296046.885 7       484.827          47.250    21369235.620    87503440.822 7       377.787          47.437    21369236.040    87503442.824 8       377.787          48.875
R22  20608659.280   110010415.835 8      3998.914          48.125    20608659.280   110010415.833 8      3998.914          48.187    20608667.360    85563693.350 8      3110.266          50.187    20608667.600    85563695.352 8      3110.266          50.250
R10  21113636.000   112547543.018 7      -834.985          43.750    21113636.320   112547543.024 7      -834.985          42.437
G08  22010126.480   115663989.216 7      3854.909          45.312    22010125.480   115663989.216 5      3854.909          35.875    22010133.400    90127814.475 5      3003.825          35.687    22010133.980    90127817.495 8      3003.825          48.562
G10  22588007.760   118700780.332 7      3970.873          46.187    22588007.040   118700780.337 7      3970.873          45.875    22588016.540    92494152.707 7      3094.186          45.875    22588015.940    92494147.719 7      3094.186          46.000
G23  23057161.180   121166194.201 7      2200.197          44.375    23057160.420   121166194.206 5      2200.197          33.250    23057168.580    94415247.649 5      1714.439          33.250    23057168.580    94415248.651 7      1714.439          47.437
G21  22206567.080   116696297.034 7      5286.343          42.625    22206565.260   116696297.041 5      5286.343          31.000    22206572.500    90932201.070 5      4119.228          31.000
G31  23978849.480   126009690.380 6      -934.746          41.875    23978848.280   126009690.382 6      -934.746          37.812    23978859.680    98189407.526 6      -728.373          37.812    23978860.200    98189409.521 7      -728.373          42.687
R12  22527841.220   120339680.458 7      6400.954          44.062    22527838.400   120339680.451 7      6400.954          43.625    22527850.160    93597570.771 7      4978.520          45.437    22527851.040    93597571.773 7      4978.520          46.062
G18  24870477.360   130695233.826 6      -931.840          41.687    24870476.980   130695233.834 5      -931.840          32.062    24870487.760   101840470.219 5      -726.109          31.812    24870487.900   101840487.223 7      -726.109          47.812
> 2024 05 09 11 33 45.0000000  0 15
G02  24033723.700   126298072.937 7      5529.812          43.062    24033721.820   126298072.942 4      5529.812          28.750    24033731.960    98414117.495 4      4308.945          28.812
G27  20804000.260   109325753.815 8      2394.924          48.187    20803999.080   109325753.818 8      2394.924          49.312    20804005.160    85188920.849 8      1866.174          49.375    20804005.720    85188922.854 8      1866.174          50.187
R11  19155778.600   102362667.723 8      3054.537          48.625    19155778.280   102362667.719 8      3054.537          48.250    19155785.580    79615436.590 8      2375.751          52.750    19155785.460    79615437.592 8      2375.751          53.500
G16  20396770.340   107185743.057 7      2539.720          46.500    20396768.780   107185743.065 6      2539.720          41.062    20396772.140    83521367.802 6      1979.002          40.750
R21  19970873.020   106868171.540 8       777.141          48.187    19970873.260   106868171.544 7       777.141          47.062    19970883.100    83119728.972 8       604.443          50.375    19970882.520    83119727.974 8       604.443          50.062
G26  21369136.160   112295561.856 7       485.090          47.375    21369134.420   112295561.863 7       485.090          47.437    21369143.360    87503062.887 7       377.992          47.312    21369143.680    87503064.890 8       377.992          48.625
R22  20607910.300   110006416.944 7      3998.956          47.812    20607910.380   110006416.948 7      3998.956          47.687    20607918.220    85560583.114 8      3110.299          50.125    20607918.480    85560585.116 8      3110.299          50.125
R10  21113792.760   112548378.085 7      -835.028          43.812    21113792.800   112548378.088 7      -835.028          42.437
G08  22009392.780   115660134.146 7      3855.213          44.687    22009391.700   115660134.140 5      3855.213          35.875    22009399.780    90124810.526 5      3004.062          35.687    22009400.040    90124813.538 7      3004.062          47.812
G10  22587252.040   118696809.391 7      3970.994          46.187    22587251.380   118696809.396 7      3970.994          45.437    22587260.700    92491058.481 7      3094.281          45.687    22587260.220    92491053.490 7      3094.281          46.125
G23  23056742.840   121163994.046 7      2200.073          44.375    23056741.640   121163994.051 5      2200.073          33.250    23056749.780    94413533.251 5      1714.343          32.937    23056749.560    94413534.253 7      1714.343          47.437
G21  22205561.180   116691010.715 7      5286.340          43.500    22205559.300   116691010.722 5      5286.340          31.000    22205566.680    90928081.873 5      4119.226          31.000
G31  23979027.060   126010624.809 6      -934.168          41.875    23979025.940   126010624.806 6      -934.168          37.750    23979037.380    98190135.643 6      -727.923          37.750    23979037.800    98190137.637 7      -727.923          42.687
R12  22526642.920   120333279.245 7      6401.488          43.625    22526639.780   120333279.246 7      6401.488          43.875    22526651.340    93592592.058 7      4978.935          45.437    22526652.480    93592593.063 7      4978.935          45.875
G18  24870654.600   130696165.525 6      -931.477          41.250    24870654.000   130696165.530 5      -931.477          32.062    24870665.160   101841196.219 5      -725.826          31.875    24870665.200   101841213.215 8      -725.826          48.062
> 2024 05 09 11 33 46.0000000  0 15
G02  24032671.300   126292543.207 7      5529.738          42.250    24032669.460   126292543.218 4      5529.738          28.750    24032679.700    98409808.632 4      4308.887          28.812
G27  20803544.500   109323358.996 8      2394.840          48.312    20803543.280   109323359.001 8      2394.840          48.875    20803549.400    85187054.764 8      1866.109          49.625    20803549.780    85187056.767 8      1866.109          49.937
R11  19155206.940   102359613.520 8      3053.884          49.312    19155206.800   102359613.515 8      3053.884          48.250    19155214.020    79613061.095 8      2375.243          52.812    19155214.200    79613062.099 8      2375.243          52.875
G16  20396286.960   107183203.554 7      2539.403          46.625    20396285.580   107183203.564 6      2539.403          40.875    20396288.820    83519388.976 6      1978.756          40.500
R21  19970728.120   106867394.545 8       776.877          48.500    19970727.840   106867394.550 7       776.877          47.750    19970737.860    83119124.650 8       604.237          50.500    19970737.100    83119123.651 8       604.237          50.562
G26  21369043.880   112295076.950 7       484.813          46.500    21369042.180   112295076.955 7       484.813          46.937    21369051.100    87502685.039 7       377.776          47.562    21369051.440    87502687.041 8       377.776          48.750
R22  20607161.020   110002418.278 8      3998.576          48.000    20607161.200   110002418.281 7      3998.576          47.625    20607169.260    85557473.050 8      3110.003          50.062    20607169.560    85557475.050 8      3110.003          50.375
R10  21113948.900   112549213.331 7      -835.369          43.437    21113949.560   112549213.345 7      -835.369          42.312
G08  22008659.480   115656278.892 7      3855.227          45.250    22008658.000   115656278.889 5      3855.227          35.750    22008666.160    90121806.438 5      3004.073          35.812    22008666.180    90121809.442 7      3004.073          47.937
G10  22586496.560   118692838.573 7      3970.745          46.000    22586495.940   118692838.570 7      3970.745          45.437    22586505.200    92487964.337 7      3094.087          45.562    22586504.440    92487959.350 7      3094.087          46.000
G23  23056324.200   121161794.152 7      2199.754          44.562    23056322.940   121161794.154 5      2199.754          33.437    23056331.120    94411819.054 5      1714.094          32.937    23056330.560    94411820.058 7      1714.094          47.125
G21  22204554.900   116685724.504 7      5286.048          43.000    22204553.260   116685724.509 5      5286.048          31.250    22204560.740    90923962.758 5      4118.998          31.250
G31  23979205.180   126011558.923 7      -933.884          42.125    23979203.520   126011558.917 6      -933.884          37.437    23979214.820    98190863.512 6      -727.702          37.250    23979216.060    98190865.494 7      -727.702          42.625
R12  22525444.760   120326877.952 7      6401.304          43.625    22525441.840   120326877.953 7      6401.304          44.062    22525452.940    93587613.277 7      4978.792          45.562    22525453.900    93587614.281 7      4978.792          45.125
G18  24870831.900   130697096.944 6      -931.410          41.062    24870831.060   130697096.951 5      -931.410          31.750    24870842.340   101841921.993 5      -725.774          31.875    24870842.540   101841938.993 7      -725.774          47.937
> 2024 05 09 11 33 47.0000000  0 15
G02  24031619.080   126287013.447 7      5529.921          43.125    24031617.240   126287013.457 4      5529.921          28.750    24031627.240    98405499.746 4      4309.029          28.812
G27  20803088.780   109320964.003 7      2395.286          47.812    20803087.560   109320964.003 8      2395.286          49.062    20803093.680    85185188.540 8      1866.457          49.187    20803094.080    85185190.541 8      1866.457          50.375
R11  19154635.500   102356559.781 8      3053.696          48.312    19154635.280   102356559.782 7      3053.696          47.812    19154642.540    79610685.977 8      2375.097          52.375    19154642.440    79610686.982 8      2375.097          53.000
G16  20395803.860   107180664.144 7      2539.549          46.875    20395802.320   107180664.154 6      2539.549          40.562    20395805.560    83517410.222 6      1978.869          40.250
R21  19970582.760   106866617.546 7       777.210          47.750    19970582.840   106866617.552 7       777.210          47.250    19970592.560    83118520.323 8       604.497          50.312    19970591.920    83118519.324 8       604.497          50.312
G26  21368951.580   112294592.094 7       485.027          47.000    21368949.880   112294592.104 7       485.027          46.750    21368958.860    87502307.235 7       377.943          46.750    21368959.380    87502309.238 8       377.943          48.375
R22  20606412.120   109998419.817 7      3998.601          47.625    20606411.960   109998419.820 7      3998.601          47.500    20606420.220    85554363.142 8      3110.023          50.062    20606420.460    85554365.140 8      3110.023          50.250
R10  21114105.480   112550048.758 7      -835.298          43.937    21114106.020   112550048.780 7      -835.298          42.375
G08  22007925.780   115652423.398 7      3855.882          45.000    22007924.380   115652423.395 5      3855.882          35.750    22007932.560    90118802.166 5      3004.584          35.687    22007933.080    90118805.172 8      3004.584          48.562
G10  22585741.100   118688867.819 7      3970.892          46.187    22585740.320   118688867.824 7      3970.892          45.437    22585749.640    92484870.261 7      3094.202          45.937    22585749.040    92484865.268 7      3094.202          46.187
G23  23055905.320   121159594.512 7      2199.727          44.875    23055904.480   121159594.517 5      2199.727          33.437    23055912.600    94410105.055 5      1714.073          33.187    23055912.460    94410106.059 7      1714.073          47.562
G21  22203549.200   116680438.369 7      5286.351          42.812    22203547.360   116680438.371 5      5286.351          31.250    22203554.800    90919843.700 5      4119.234          31.250
G31  23979382.620   126012492.717 6      -933.436          41.875    23979380.980   126012492.708 6      -933.436          37.312    23979392.420    98191591.133 6      -727.353          37.250    23979393.160    98191593.125 7      -727.353          42.187
R12  22524246.000   120320476.509 7      6401.638          43.625    22524243.580   120320476.519 7      6401.638          43.687    22524255.120    93582634.385 7      4979.052          45.562    22524255.540    93582635.385 7      4979.052          45.750
G18  24871009.360   130698028.036 6      -930.698          40.875    24871007.980   130698028.038 5      -930.698          31.750    24871019.560   101842647.516 5      -725.219          31.875    24871019.780   101842664.501 7      -725.219          47.937
> 2024 05 09 11 33 48.0000000  0 15
G02  24030566.800   126281483.250 7      5530.385          42.375    24030564.840   126281483.257 4      5530.385          28.750    24030575.020    98401190.509 4      4309.391          28.812
G27  20802632.920   109318568.511 8      2395.735          48.625    20802631.660   109318568.513 8      2395.735          49.375    20802637.880    85183321.929 8      1866.806          49.375    20802638.240    85183323.930 8      1866.806          49.937
R11  19154064.060   102353506.198 8      3053.403          49.250    19154063.800   102353506.202 8      3053.403          48.437    19154071.080    79608310.978 8      2374.869          52.312    19154071.100    79608311.979 8      2374.869          52.875
G16  20395320.440   107178124.512 7      2539.675          46.937    20395319.000   107178124.519 6      2539.675          41.250    20395322.260    83515431.290 6      1978.967          40.437
R21  19970437.280   106865840.233 7       777.381          47.812    19970437.540   106865840.239 7       777.381          47.937    19970447.300    83117915.750 8       604.629          51.000    19970446.760    83117914.754 8       604.629          50.375
G26  21368859.300   112294106.973 7       485.294          47.812    21368857.720   112294106.978 7       485.294          47.125    21368866.520    87501929.216 7       378.151          46.937    21368866.760    87501931.219 8       378.151          48.562
R22  20605662.820   109994421.201 7      3998.591          46.812    20605662.880   109994421.210 7      3998.591          47.812    20605671.140    85551253.120 8      3110.015          49.937    20605671.500    85551255.120 8      3110.015          50.437
R10  21114262.620   112550884.015 7      -835.137          43.937    21114262.740   112550884.028 7      -835.137          42.375
G08  22007192.040   115648567.400 7      3856.227          44.875    22007190.600   115648567.397 6      3856.227          36.250    22007198.800    90115797.498 6      3004.852          36.000    22007199.560    90115800.502 8      3004.852          48.687
G10  22584985.420   118684896.841 7      3971.014          46.750    22584984.740   118684896.843 7      3971.014          45.687    22584993.880    92481775.999 7      3094.296          45.750    22584993.660    92481771.005 7      3094.296          46.125
G23  23055486.840   121157394.760 7      2199.785          44.375    23055485.960   121157394.765 5      2199.785          33.312    23055494.080    94408390.967 5      1714.118          33.187    23055493.940    94408391.976 7      1714.118          47.437
G21  22202543.260   116675152.024 7      5286.423          43.125    22202541.360   116675152.029 5      5286.423          31.250    22202548.880    90915724.480 5      4119.291          31.250
G31  23979560.220   126013425.790 6      -932.704          41.687    23979558.600   126013425.787 6      -932.704          37.125    23979570.000    98192318.205 6      -726.782          37.062    23979571.300    98192320.197 7      -726.782          42.187
R12  22523047.800   120314074.615 7      6402.079          44.812    22523045.380   120314074.611 7      6402.079          44.062    22523057.160    93577655.132 7      4979.395          45.750    22523057.220    93577656.128 7      4979.395          46.250
G18  24871186.720   130698958.485 6      -930.031          41.125    24871185.000   130698958.490 5      -930.031          31.562    24871196.640   101843372.532 5      -724.699          31.125    24871196.600   101843389.522 8      -724.699          48.312
> 2024 05 09 11 33 49.0000000  0 15
G02  24029514.180   126275952.850 7      5530.467          42.375    24029512.140   126275952.855 4      5530.467          28.562    24029522.580    98396881.122 4      4309.455          28.812
G27  20802177.000   109316172.706 8      2395.915          48.562    20802175.760   109316172.711 8      2395.915          49.312    20802181.940    85181455.076 8      1866.947          49.250    20802182.360    85181457.079 8      1866.947          50.000
R11  19153492.640   102350452.943 8      3053.002          48.625    19153492.540   102350452.944 8      3053.002          48.000    19153499.680    79605936.227 8      2374.557          52.687    19153499.720    79605937.227 8      2374.557          53.625
G16  20394837.240   107175584.814 7      2539.678          46.812    20394835.740   107175584.819 6      2539.678          40.937    20394838.960    83513452.306 6      1978.970          40.562
R21  19970292.240   106865062.781 7       777.423          47.875    19970292.240   106865062.785 7       777.423          47.500    19970302.040    83117311.069 8       604.662          50.625    19970301.360    83117310.071 8       604.662          50.062
G26  21368766.980   112293621.762 7       485.298          47.750    21368765.360   112293621.770 7       485.298          46.687    21368774.260    87501551.134 7       378.154          46.687    21368774.400    87501553.135 8       378.154          48.250
R22  20604913.860   109990422.630 7      3998.467          47.000    20604913.980   109990422.631 8      3998.467          48.125    20604922.140    85548143.121 8      3109.919          50.062    20604922.500    85548145.121 8      3109.919          50.625
R10  21114419.200   112551719.314 7      -835.340          43.375    21114419.380   112551719.328 7      -835.340          42.812
G08  22006458.020   115644711.035 7      3856.555          44.250    22006456.800   115644711.029 5      3856.555          35.750    22006464.880    90112792.542 5      3005.108          35.812    22006466.120    90112795.550 8      3005.108          49.125
G10  22584229.760   118680925.771 7      3971.148          46.625    22584229.060   118680925.773 7      3971.148          45.312    22584238.180    92478681.667 7      3094.401          45.375    22584237.960    92478676.671 7      3094.401          46.000
G23  23055068.540   121155195.131 7      2199.535          43.750    23055067.400   121155195.135 5      2199.535          33.312    23055075.520    94406676.978 5      1713.923          33.375    23055075.180    94406677.979 7      1713.923          47.625
G21  22201537.280   116669865.614 7      5286.361          42.937    22201535.500   116669865.621 5      5286.361          31.062    22201542.920    90911605.210 5      4119.242          31.125
G31  23979737.860   126014358.399 6      -932.304          41.437    23979735.980   126014358.398 6      -932.304          36.750    23979747.180    98193044.905 6      -726.471          36.812    23979748.340    98193046.893 7      -726.471          42.125
R12  22521849.480   120307672.427 7      6402.337          44.437    22521846.720   120307672.429 7      6402.337          43.937    22521859.480    93572675.667 7      4979.595          45.375    22521858.960    93572676.663 7      4979.595          46.687
G18  24871363.840   130699888.524 6      -929.931          40.875    24871362.160   130699888.531 5      -929.931          31.562    24871373.840   101844097.232 5      -724.622          31.125    24871373.960   101844114.230 8      -724.622          48.000
> 2024 05 09 11 33 50.0000000  0 15
G02  24028461.700   126270422.267 7      5530.557          42.625    24028459.800   126270422.275 4      5530.557          28.562    24028470.160    98392571.588 4      4309.525          28.812
G27  20801721.060   109313776.625 8      2396.191          48.187    20801719.860   109313776.628 8      2396.191          49.625    20801725.900    85179588.005 8      1867.162          49.687    20801726.240    85179590.005 8      1867.162          49.937
R11  19152921.080   102347400.054 8      3052.611          48.937    19152921.180   102347400.055 8      3052.611          48.312    19152928.420    79603561.764 8      2374.253          52.500    19152928.360    79603562.764 8      2374.253          53.250
G16  20394353.760   107173045.108 7      2539.662          47.187    20394352.440   107173045.112 6      2539.662          41.375    20394355.620    83511473.323 6      1978.957          40.687
R21  19970146.680   106864285.243 8       777.486          48.062    19970146.860   106864285.252 7       777.486          47.687    19970156.700    83116706.322 8       604.711          50.625    19970156.500    83116705.323 8       604.711          50.500
G26  21368674.520   112293136.533 7       485.120          47.187    21368673.000   112293136.538 7       485.120          47.312    21368681.920    87501173.034 7       378.015          47.312    21368682.180    87501175.036 8       378.015          48.312
R22  20604164.780   109986424.126 7      3998.415          47.500    20604164.780   109986424.130 7      3998.415          47.687    20604173.140    85545033.184 8      3109.878          50.250    20604173.100    85545035.184 8      3109.878          50.375
R10  21114576.100   112552554.645 7      -835.404          43.625    21114576.000   112552554.653 7      -835.404          42.187
G08  22005724.220   115640854.354 7      3856.828          45.562    22005723.000   115640854.348 5      3856.828          35.812    22005731.020    90109787.342 5      3005.321          35.875    22005732.520    90109790.356 8      3005.321          48.937
G10  22583474.100   118676954.695 7      3971.036          46.437    22583473.400   118676954.698 7      3971.036          45.937    22583482.480    92475587.328 7      3094.314          45.937    22583482.480    92475582.331 7      3094.314          45.875
G23  23054649.860   121152995.612 7      2199.415          42.875    23054648.780   121152995.614 5      2199.415          33.312    23054656.860    94404963.067 5      1713.830          33.375    23054656.900    94404964.071 7      1713.830          47.750
G21  22200531.440   116664579.182 7      5286.383          42.812    22200529.460   116664579.184 5      5286.383          31.062    22200536.900    90907485.924 5      4119.259          31.125
G31  23979915.260   126015290.563 6      -932.092          41.812    23979913.400   126015290.571 6      -932.092          36.750    23979924.580    98193771.263 6      -726.306          36.625    23979925.800    98193773.259 7      -726.306          42.125
R12  22520650.600   120301270.031 7      6402.399          44.125    22520648.180   120301270.032 7      6402.399          43.750    22520661.480    93567696.040 7      4979.643          46.812    22520660.680    93567697.038 7      4979.643          47.062
G18  24871540.700   130700818.105 7      -929.395          42.125    24871539.240   130700818.118 5      -929.395          31.562    24871550.800   101844821.575 5      -724.204          31.812    24871551.040   101844838.567 8      -724.204          48.312
> 2024 05 09 11 33 51.0000000  0 15
G02  24027409.080   126264891.340 7      5531.319          42.812    24027407.200   126264891.350 4      5531.319          28.562    24027417.800    98388261.789 4      4310.119          28.812
G27  20801265.160   109311380.143 8      2396.783          48.250    20801263.760   109311380.140 8      2396.783          49.125    20801269.920    85177720.619 8      1867.623          49.375    20801270.360    85177722.622 8      1867.623          50.312
R11  19152350.240   102344347.361 8      3052.714          48.937    19152349.840   102344347.359 8      3052.714          48.000    19152357.140    79601187.451 8      2374.333          52.375    19152357.220    79601188.451 8      2374.333          53.187
G16  20393870.540   107170505.257 7      2540.052          46.375    20393869.180   107170505.262 6      2540.052          41.187    20393872.540    83509494.222 6      1979.261          40.562
R21  19970001.260   106863507.513 8       777.952          48.187    19970001.560   106863507.519 7       777.952          47.875    19970011.520    83116101.425 8       605.073          50.500    19970010.880    83116100.430 8       605.073          50.750
G26  21368582.240   112292651.079 7       485.655          46.937    21368580.580   112292651.086 7       485.655          47.125    21368589.520    87500794.761 7       378.433          47.000    21368589.940    87500796.766 8       378.433          48.562
R22  20603415.740   109982425.556 7      3998.754          47.625    20603415.780   109982425.559 7      3998.754          47.875    20603424.100    85541923.189 8      3110.142          50.500    20603424.340    85541925.189 8      3110.142          50.500
R10  21114733.440   112553389.907 7      -835.154          43.250    21114732.440   112553389.905 7      -835.154          42.187
G08  22004990.200   115636997.218 7      3857.497          45.500    22004988.940   115636997.210 5      3857.497          35.875    22004997.020    90106781.790 5      3005.842          35.875    22004998.400    90106784.806 8      3005.842          49.375
G10  22582718.600   118672983.449 7      3971.456          46.750    22582717.740   118672983.449 7      3971.456          45.625    22582726.800    92472492.859 7      3094.641          45.562    22582726.540    92472487.866 7      3094.641          45.937
G23  23054231.100   121150796.077 7      2199.674          42.937    23054230.380   121150796.082 5      2199.674          33.312    23054238.580    94403249.155 5      1714.032          33.437    23054238.480    94403250.162 7      1714.032          47.500
G21  22199525.560   116659292.598 7      5286.804          42.312    22199523.340   116659292.605 5      5286.804          31.062    22199530.900    90903366.519 5      4119.587          31.125
G31  23980092.760   126016222.118 6      -931.194          41.750    23980090.620   126016222.128 6      -931.194          36.875    23980101.520    98194497.147 6      -725.606          36.812    23980102.900    98194499.140 6      -725.606          41.312
R12  22519451.980   120294867.226 7      6403.040          43.187    22519449.100   120294867.214 7      6403.040          43.687    22519463.160    93562716.091 7      4980.142          46.500    22519462.260    93562717.091 7      4980.142          47.125
G18  24871717.700   130701747.164 7      -928.787          43.500    24871716.440   130701747.169 5      -928.787          32.062    24871727.660   101845545.509 5      -723.730          31.812    24871727.680   101845562.500 7      -723.730          47.875
> 2024 05 09 11 33 52.0000000  0 15
G02  24026356.600   126259360.249 7      5531.422          42.000    24026354.760   126259360.257 4      5531.422          28.562    24026365.320    98383951.865 4      4310.199          28.812
G27  20800809.000   109308983.316 7      2397.103          47.250    20800807.700   109308983.321 8      2397.103          49.187    20800813.820    85175852.976 8      1867.872          49.125    20800814.440    85175854.975 8      1867.872          50.125
R11  19151779.000   102341295.028 8      3052.294          48.687    19151778.780   102341295.029 8      3052.294          48.812    19151786.020    79598813.420 8      2374.006          52.625    19151785.880    79598814.423 8      2374.006          53.187
G16  20393387.380   107167965.364 7      2539.990          46.375    20393385.800   107167965.374 6      2539.990          40.937    20393389.300    83507515.093 6      1979.213          40.500
R21  19969856.120   106862729.664 8       778.038          48.500    19969856.400   106862729.674 7       778.038          47.312    19969865.960    83115496.440 8       605.141          50.312    19969865.360    83115495.446 8       605.141          50.125
G26  21368489.920   112292165.568 7       485.624          46.625    21368488.300   112292165.571 7       485.624          47.062    21368497.120    87500416.442 7       378.408          47.187    21368497.560    87500418.444 8       378.408          48.750
R22  20602666.640   109978427.049 8      3998.545          48.125    20602666.480   109978427.056 7      3998.545          47.562    20602674.880    85538813.248 8      3109.980          50.312    20602675.360    85538815.248 8      3109.980          50.375
R10  21114889.960   112554225.161 7      -835.148          43.250    21114888.820   112554225.172 7      -835.148          42.187
G08  22004256.500   115633139.712 7      3857.886          45.500    22004254.980   115633139.709 5      3857.886          35.937    22004262.960    90103775.952 5      3006.145          35.625    22004264.520    90103778.976 8      3006.145          48.875
G10  22581962.820   118669012.138 7      3971.456          46.812    22581961.980   118669012.142 7      3971.456          45.562    22581971.100    92469398.345 7      3094.641          45.437    22581970.960    92469393.351 7      3094.641          46.312
G23  23053812.500   121148596.669 7      2199.493          43.312    23053811.800   121148596.671 5      2199.493          33.437    23053819.900    94401535.338 5      1713.891          33.437    23053819.960    94401536.339 7      1713.891          47.562
G21  22198519.460   116654005.959 7      5286.861          43.437    22198517.240   116654005.963 5      5286.861          31.250    22198524.900    90899247.072 5      4119.632          31.125
G31  23980270.100   126017153.184 7      -930.714          42.250    23980267.840   126017153.192 6      -930.714          36.750    23980278.620    98195222.645 6      -725.232          36.375    23980279.480    98195224.638 6      -725.232          41.187
R12  22518253.780   120288464.117 7      6403.316          43.812    22518250.360   120288464.110 7      6403.316          43.750    22518264.580    93557735.918 7      4980.357          46.437    22518263.700    93557736.918 7      4980.357          47.312
G18  24871894.180   130702675.729 7      -928.188          43.000    24871893.480   130702675.739 5      -928.188          32.062    24871904.420   101846269.070 5      -723.263          31.812    24871904.360   101846286.063 8      -723.263          48.250
> 2024 05 09 11 33 53.0000000  0 15
G02  24025304.360   126253829.046 7      5531.145          42.312    24025302.380   126253829.053 4      5531.145          28.562    24025312.640    98379641.851 4      4309.983          28.375
G27  20800353.000   109306586.321 7      2396.931          47.875    20800351.580   109306586.323 8      2396.931          49.437    20800357.720    85173985.186 8      1867.738          48.937    20800358.160    85173987.187 8      1867.738          49.687
R11  19151207.740   102338243.130 8      3051.551          48.062    19151207.600   102338243.126 8      3051.551          48.062    19151214.800    79596439.733 8      2373.428          52.187    19151214.880    79596440.735 8      2373.428          52.875
G16  20392903.780   107165425.522 7      2539.684          46.437    20392902.600   107165425.532 6      2539.684          40.625    20392905.920    83505536.003 6      1978.974          40.437
R21  19969710.640   106861951.782 8       777.719          48.312    19969711.020   106861951.797 7       777.719          47.750    19969720.720    83114891.431 8       604.893          50.562    19969719.920    83114890.434 8       604.893          50.062
G26  21368397.480   112291680.058 7       485.409          47.312    21368395.820   112291680.066 7       485.409          47.125    21368404.820    87500038.128 7       378.241          47.437    21368405.340    87500040.129 7       378.241          47.812
R22  20601917.520   109974428.660 7      3998.204          47.312    20601917.480   109974428.661 7      3998.204          47.875    20601926.020    85535703.392 8      3109.715          49.750    20601926.040    85535705.392 8      3109.715          49.937
R10  21115046.400   112555060.558 7      -835.530          43.500    21115045.720   112555060.572 7      -835.530          42.187
G08  22003522.340   115629281.980 7      3857.759          45.187    22003520.840   115629281.974 5      3857.759          35.937    22003528.720    90100769.933 5      3006.046          35.875    22003530.340    90100772.961 8      3006.046          48.812
G10  22581207.020   118665040.884 7      3971.070          47.187    22581206.340   118665040.888 7      3971.070          45.375    22581215.360    92466303.867 7      3094.340          45.500    22581215.280    92466298.870 7      3094.340          45.812
G23  23053393.800   121146397.442 7      2198.998          43.312    23053393.500   121146397.441 5      2198.998          33.250    23053401.400    94399821.661 5      1713.505          33.125    23053401.120    94399822.662 7      1713.505          47.562
G21  22197513.380   116648719.385 7      5286.417          43.375    22197511.400   116648719.390 5      5286.417          31.250    22197518.840    90895127.674 5      4119.286          31.312
G31  23980447.100   126018083.875 7      -930.637          42.000    23980445.120   126018083.882 6      -930.637          36.187    23980455.560    98195947.855 6      -725.171          36.062    23980457.020    98195949.855 6      -725.171          41.187
R12  22517054.960   120282060.866 7      6403.158          43.812    22517051.880   120282060.859 7      6403.158          43.875    22517065.520    93552755.622 7      4980.234          47.125    22517065.180    93552756.626 7      4980.234          47.562
G18  24872070.600   130703603.997 7      -928.306          43.687    24872070.420   130703604.007 5      -928.306          32.812    24872081.060   101846992.391 5      -723.355          32.625    24872080.900   101847009.387 7      -723.355          47.937
> 2024 05 09 11 33 54.0000000  0 15
G02  24024251.820   126248297.793 7      5531.776          42.687    24024249.760   126248297.800 4      5531.776          28.375    24024259.980    98375331.796 4      4310.475          28.375
G27  20799896.680   109304189.149 7      2397.692          47.375    20799895.500   109304189.157 8      2397.692          49.375    20799901.520    85172117.271 8      1868.332          49.562    20799902.060    85172119.273 8      1868.332          49.937
R11  19150636.780   102335191.700 8      3051.779          48.500    19150636.540   102335191.701 7      3051.779          47.562    19150643.860    79594066.404 8      2373.606          52.375    19150643.740    79594067.407 8      2373.606          53.375
G16  20392420.880   107162885.800 7      2540.195          46.437    20392419.160   107162885.807 6      2540.195          41.125    20392422.460    83503557.003 6      1979.372          40.687
R21  19969565.180   106861173.901 8       778.409          48.875    19969565.600   106861173.919 7       778.409          47.625    19969575.440    83114286.417 8       605.429          50.437    19969574.880    83114285.422 8       605.429          50.250
G26  21368305.060   112291194.622 7       486.007          47.500    21368303.480   112291194.629 7       486.007          47.000    21368312.440    87499659.866 7       378.707          47.125    21368312.840    87499661.867 8       378.707          48.625
R22  20601168.760   109970430.490 7      3998.575          46.812    20601168.540   109970430.491 7      3998.575          47.937    20601176.920    85532593.714 8      3110.003          50.375    20601177.300    85532595.712 8      3110.003          50.375
R10  21115203.120   112555896.143 7      -835.077          43.000    21115202.300   112555896.157 7      -835.077          42.000
G08  22002788.100   115625424.046 7      3858.568          45.187    22002786.800   115625424.043 5      3858.568          35.812    22002794.620    90097763.754 5      3006.676          35.750    22002795.840    90097766.778 8      3006.676          48.000
G10  22580451.260   118661069.706 7      3971.708          46.437    22580450.600   118661069.708 7      3971.708          45.562    22580459.640    92463209.449 7      3094.837          45.750    22580459.400    92463204.450 7      3094.837          46.062
G23  23052975.860   121144198.454 7      2199.456          44.062    23052974.980   121144198.456 5      2199.456          33.250    23052983.100    94398108.168 5      1713.862          33.125    23052982.680    94398109.173 8      1713.862          48.000
G21  22196507.680   116643432.911 7      5286.974          43.562    22196505.420   116643432.916 5      5286.974          31.250    22196512.980    90891008.354 5      4119.720          31.312
G31  23980623.960   126019014.226 6      -929.694          41.437    23980622.220   126019014.234 5      -929.694          35.875    23980632.540    98196672.800 6      -724.437          36.312    23980634.040    98196674.808 6      -724.437          41.125
R12  22515856.260   120275657.482 7      6403.978          43.375    22515853.340   120275657.483 7      6403.978          44.375    22515866.400    93547775.227 7      4980.872          46.312    22515866.540    93547776.233 7      4980.872          46.812
G18  24872247.340   130704531.939 7      -927.330          43.437    24872247.300   130704531.949 5      -927.330          32.812    24872257.420   101847715.463 5      -722.595          32.625    24872257.180   101847732.457 7      -722.595          47.250
> 2024 05 09 11 33 55.0000000  0 15
G02  24023199.300   126242766.030 7      5531.695          43.250    24023197.080   126242766.037 4      5531.695          28.375    24023207.340    98371021.347 4      4310.412          28.375
G27  20799440.320   109301791.377 7      2397.843          47.125    20799439.180   109301791.376 8      2397.843          49.875    20799445.360    85170248.878 8      1868.449          49.562    20799445.800    85170250.881 8      1868.449          50.125
R11  19150065.700   102332140.335 8      3051.135          49.312    19150065.420   102332140.341 8      3051.135          48.125    19150072.880    79591693.135 8      2373.105          52.437    19150072.900    79591694.137 8      2373.105          53.250
G16  20391937.400   107160345.742 7      2540.034          46.812    20391935.940   107160345.746 6      2540.034          41.312    20391939.120    83501577.737 6      1979.247          41.062
R21  19969419.800   106860395.655 8       778.266          49.062    19969420.440   106860395.659 8       778.266          48.187    19969430.040    83113681.110 8       605.318          51.000    19969429.480    83113680.115 8       605.318          50.875
G26  21368212.700   112290708.833 7       485.791          47.500    21368210.960   112290708.841 7       485.791          47.250    21368220.000    87499281.334 7       378.539          46.875    21368220.200    87499283.334 8       378.539          48.937
R22  20600419.740   109966432.069 7      3998.308          47.875    20600419.440   109966432.075 7      3998.308          47.937    20600427.980    85529483.839 8      3109.795          51.062    20600428.240    85529485.839 8      3109.795          50.250
R10  21115360.260   112556731.474 7      -835.389          43.000    21115358.760   112556731.491 7      -835.389          42.000
G08  22002053.720   115621565.470 7      3858.666          45.062    22002052.480   115621565.470 5      3858.666          35.812    22002060.360    90094757.084 5      3006.753          35.812    22002061.500    90094760.104 8      3006.753          48.562
G10  22579695.720   118657098.184 7      3971.534          47.062    22579694.960   118657098.186 7      3971.534          45.187    22579703.900    92460114.767 7      3094.701          45.500    22579703.280    92460109.769 7      3094.701          45.687
G23  23052557.480   121141999.311 7      2198.968          43.562    23052556.560   121141999.316 5      2198.968          32.875    23052564.600    94396394.558 5      1713.482          33.125    23052564.600    94396395.570 8      1713.482          48.187
G21  22195501.620   116638146.112 7      5286.661          43.187    22195499.420   116638146.117 5      5286.661          31.375    22195506.960    90886888.778 5      4119.476          31.312
G31  23980800.740   126019943.784 6      -929.227          41.187    23980799.320   126019943.789 6      -929.227          36.250    23980809.340    98197397.133 6      -724.073          36.437    23980811.120    98197399.137 6      -724.073          41.125
R12  22514657.420   120269253.531 7      6403.999          43.375    22514655.000   120269253.532 7      6403.999          44.187    22514666.940    93542794.391 7      4980.888          46.250    22514667.580    93542795.393 7      4980.888          47.062
G18  24872423.980   130705459.161 7      -927.136          43.812    24872423.800   130705459.171 5      -927.136          32.937    24872433.620   101848437.972 5      -722.444          33.000    24872433.760   101848454.967 7      -722.444          46.750
> 2024 05 09 11 33 56.0000000  0 15
G02  24022146.380   126237234.256 7      5531.762          43.687    24022144.420   126237234.266 4      5531.762          28.375    24022154.800    98366710.891 4      4310.464          28.375
G27  20798984.000   109299393.507 7      2398.014          47.312    20798982.840   109299393.506 8      2398.014          49.000    20798988.960    85168380.412 8      1868.582          49.250    20798989.460    85168382.413 8      1868.582          49.875
R11  19149494.680   102329089.484 8      3050.691          49.687    19149494.620   102329089.496 8      3050.691          48.562    19149501.760    79589320.253 8      2372.760          52.437    19149501.920    79589321.253 8      2372.760          52.812
G16  20391453.840   107157805.846 7      2539.894          47.062    20391452.600   107157805.851 6      2539.894          41.312    20391455.900    83499598.606 6      1979.138          40.687
R21  19969274.740   106859617.475 8       778.224          48.562    19969274.800   106859617.487 7       778.224          47.750    19969284.580    83113075.867 8       605.285          50.437    19969283.760    83113074.873 8       605.285          50.625
G26  21368120.120   112290223.165 7       485.716          47.375    21368118.560   112290223.168 7       485.716          47.000    21368127.540    87498902.887 7       378.480          46.937    21368127.740    87498904.890 8       378.480          49.250
R22  20599670.260   109962433.891 7      3998.199          47.625    20599670.280   109962433.892 7      3998.199          47.375    20599678.960    85526374.151 8      3109.711          49.812    20599679.480    85526376.149 8      3109.711          50.187
R10  21115517.300   112557567.045 7      -835.579          42.687    21115515.940   112557567.067 6      -835.579          41.937
G08  22001319.380   115617706.726 7      3858.932          44.750    22001318.140   115617706.723 6      3858.932          36.000    22001326.140    90091750.277 5      3006.960          35.937    22001326.760    90091753.295 8      3006.960          48.312
G10  22578940.080   118653126.830 7      3971.394          45.875    22578939.220   118653126.832 7      3971.394          45.750    22578948.160    92457020.210 7      3094.593          45.875    22578947.620    92457015.210 7      3094.593          45.875
G23  23052138.820   121139800.436 7      2198.828          44.562    23052138.140   121139800.441 5      2198.828          32.875    23052146.260    94394681.155 5      1713.372          32.937    23052146.000    94394682.160 7      1713.372          47.875
G21  22194495.660   116632859.446 7      5286.661          42.750    22194493.500   116632859.448 5      5286.661          31.375    22194501.020    90882769.307 5      4119.476          31.187
G31  23980977.840   126020873.108 7      -929.073          42.000    23980976.320   126020873.116 6      -929.073          36.687    23980986.100    98198121.273 6      -723.953          36.437    23980988.100    98198123.272 6      -723.953          40.937
R12  22513458.840   120262849.500 7      6404.238          44.687    22513456.100   120262849.496 7      6404.238          44.062    22513467.860    93537813.472 7      4981.074          45.812    22513468.340    93537814.471 7      4981.074          47.000
G18  24872600.280   130706386.133 7      -926.821          44.000    24872600.080   130706386.138 5      -926.821          32.937    24872609.880   101849160.292 5      -722.198          33.000    24872609.760   101849177.286 7      -722.198          46.562
> 2024 05 09 11 33 57.0000000  0 15
G02  24021093.560   126231702.154 7      5532.247          42.687    24021091.640   126231702.164 4      5532.247          28.375    24021102.080    98362400.178 4      4310.842          28.375
G27  20798527.920   109296995.211 7      2398.395          47.187    20798526.500   109296995.213 8      2398.395          48.812    20798532.640    85166511.621 8      1868.880          49.062    20798533.120    85166513.623 8      1868.880          50.062
R11  19148923.800   102326038.872 8      3050.370          48.937    19148923.680   102326038.876 8      3050.370          48.125    19148930.980    79586947.557 8      2372.510          52.625    19148931.120    79586948.559 8      2372.510          53.687
G16  20390970.700   107155265.799 7      2540.016          46.562    20390969.220   107155265.803 6      2540.016          40.937    20390972.460    83497619.357 6      1979.233          40.750
R21  19969128.780   106858839.076 7       778.426          47.125    19969129.180   106858839.085 7       778.426          47.437    19969139.000    83112470.452 8       605.442          50.375    19969138.760    83112469.457 8       605.442          50.687
G26  21368027.720   112289737.295 7       485.891          47.312    21368026.100   112289737.303 7       485.891          46.937    21368035.120    87498524.295 7       378.616          46.937    21368035.560    87498526.298 8       378.616          48.625
R22  20598921.580   109958435.652 7      3998.268          47.562    20598921.140   109958435.650 7      3998.268          47.062    20598930.020    85523264.418 8      3109.764          49.875    20598930.100    85523266.418 8      3109.764          49.937
R10  21115674.020   112558402.531 7      -835.418          42.687    21115672.420   112558402.542 6      -835.418          41.812
G08  22000584.900   115613847.544 7      3859.317          44.562    22000583.860   115613847.544 6      3859.317          36.062    22000591.960    90088743.132 5      3007.260          35.937    22000592.220    90088746.148 8      3007.260          48.437
G10  22578184.060   118649155.292 7      3971.517          46.000    22578183.480   118649155.295 7      3971.517          45.500    22578192.420    92453925.519 7      3094.689          45.687    22578191.900    92453920.522 7      3094.689          45.750
G23  23051720.520   121137601.566 7      2198.730          44.125    23051719.740   121137601.571 5      2198.730          33.125    23051727.860    94392967.756 5      1713.296          32.937    23051727.560    94392968.770 8      1713.296          48.000
G21  22193489.380   116627572.613 7      5286.835          42.625    22193487.460   116627572.615 5      5286.835          31.375    22193494.820    90878649.708 5      4119.612          31.187
G31  23981154.720   126021801.804 7      -928.543          42.062    23981153.220   126021801.812 6      -928.543          36.625    23981162.880    98198844.924 6      -723.540          36.437    23981164.280    98198846.927 6      -723.540          40.937
R12  22512260.160   120256445.082 7      6404.559          43.437    22512256.980   120256445.083 7      6404.559          44.062    22512268.860    93532832.272 7      4981.324          46.000    22512269.400    93532833.272 7      4981.324          46.187
G18  24872776.500   130707312.541 7      -926.245          43.250    24872776.440   130707312.540 5      -926.245          32.937    24872785.880   101849882.166 5      -721.749          31.625    24872785.820   101849899.170 7      -721.749          45.687
> 2024 05 09 11 33 58.0000000  0 15
G02  24020040.560   126226169.818 7      5532.612          43.000    24020038.880   126226169.834 4      5532.612          28.187    24020049.300    98358089.282 4      4311.126          28.125
G27  20798071.200   109294596.581 8      2398.862          48.000    20798070.020   109294596.584 8      2398.862          49.625    20798076.100    85164642.565 8      1869.243          49.687    20798076.640    85164644.565 8      1869.243          50.375
R11  19148352.940   102322988.554 8      3050.205          49.187    19148353.000   102322988.558 8      3050.205          48.375    19148360.180    79584575.099 8      2372.382          52.562    19148360.280    79584576.102 8      2372.382          53.187
G16  20390487.460   107152725.706 7      2540.144          47.062    20390485.880   107152725.709 6      2540.144          40.750    20390489.080    83495640.068 6      1979.333          40.375
R21  19968983.520   106858060.556 8       778.612          48.625    19968983.660   106858060.571 7       778.612          47.875    19968993.660    83111864.943 8       605.587          50.625    19968993.100    83111863.948 8       605.587          50.375
G26  21367935.380   112289251.312 7       486.169          46.812    21367933.640   112289251.320 7       486.169          47.312    21367942.620    87498145.605 7       378.833          47.312    21367942.840    87498147.610 8       378.833          48.812
R22  20598172.360   109954437.431 7      3998.292          47.687    20598172.500   109954437.434 7      3998.292          47.687    20598180.920    85520154.697 8      3109.783          50.062    20598181.100    85520156.699 8      3109.783          50.562
R10  21115831.060   112559238.030 7      -835.530          42.750    21115829.920   112559238.044 6      -835.530          41.812
G08  21999850.560   115609987.965 7      3859.853          44.562    21999849.240   115609987.964 5      3859.853          35.875    21999857.460    90085735.676 5      3007.678          35.750    21999857.880    90085738.694 8      3007.678          48.812
G10  22577428.340   118645183.665 7      3971.679          47.562    22577427.620   118645183.670 7      3971.679          45.625    22577436.680    92450830.751 7      3094.815          45.375    22577436.120    92450825.752 7      3094.815          45.625
G23  23051301.940   121135402.762 7      2198.804          45.062    23051301.180   121135402.770 5      2198.804          33.125    23051309.420    94391254.406 5      1713.353          32.812    23051309.180    94391255.414 7      1713.353          47.875
G21  22192483.180   116622285.729 7      5286.908          42.375    22192481.320   116622285.731 5      5286.908          31.437    22192488.660    90874530.069 5      4119.668          31.187
G31  23981331.680   126022729.996 7      -928.004          42.937    23981330.120   126022730.003 6      -928.004          36.750    23981339.560    98199568.188 6      -723.120          36.687    23981341.260    98199570.195 6      -723.120          41.000
R12  22511060.720   120250040.399 7      6404.800          43.312    22511057.560   120250040.408 7      6404.800          43.750    22511069.700    93527850.865 7      4981.511          45.875    22511070.100    93527851.863 7      4981.511          46.062
G18  24872952.880   130708238.473 7      -925.617          43.187    24872952.440   130708238.472 5      -925.617          31.562    24872961.720   101850603.682 5      -721.260          31.625    24872961.720   101850620.681 7      -721.260          45.500
> 2024 05 09 11 33 59.0000000  0 15
G02  24018987.740   126220637.391 7      5532.501          42.812    24018986.040   126220637.401 4      5532.501          28.187    24018996.440    98353778.311 4      4311.040          28.125
G27  20797614.980   109292197.737 7      2398.872          47.500    20797613.620   109292197.739 8      2398.872          49.437    20797619.720    85162773.341 8      1869.251          49.312    20797620.180    85162775.342 8      1869.251          49.937
R11  19147782.140   102319938.690 8      3049.552          48.750    19147782.120   102319938.693 8      3049.552          48.312    19147789.380    79582202.977 8      2371.873          52.375    19147789.460    79582203.975 8      2371.873          53.437
G16  20390003.960   107150185.643 7      2539.996          46.187    20390002.560   107150185.650 6      2539.996          41.187    20390005.820    83493660.806 6      1979.218          40.312
R21  19968838.220   106857282.010 8       778.445          49.000    19968838.420   106857282.022 7       778.445          47.500    19968848.160    83111259.411 8       605.457          50.125    19968847.540    83111258.416 8       605.457          50.750
G26  21367842.820   112288765.356 7       485.938          46.625    21367841.120   112288765.355 7       485.938          47.125    21367850.180    87497766.938 7       378.653          47.000    21367850.340    87497768.942 8       378.653          48.687
R22  20597423.280   109950439.338 7      3997.948          47.000    20597423.420   109950439.339 8      3997.948          48.000    20597431.940    85517045.075 8      3109.515          50.125    20597432.420    85517047.073 8      3109.515          50.312
R10  21115987.420   112560073.601 7      -835.753          42.812    21115986.440   112560073.612 6      -835.753          41.875
G08  21999116.100   115606128.139 7      3859.868          45.062    21999114.860   115606128.138 5      3859.868          35.875    21999123.000    90082728.026 5      3007.690          35.937    21999123.220    90082731.040 8      3007.690          48.375
G10  22576672.540   118641212.059 7      3971.560          47.312    22576671.860   118641212.069 7      3971.560          45.812    22576680.860    92447736.003 7      3094.722          45.750    22576680.220    92447731.002 7      3094.722          45.750
G23  23050883.560   121133204.145 7      2198.480          44.937    23050882.660   121133204.147 5      2198.480          33.250    23050891.080    94389541.200 5      1713.101          32.812    23050890.980    94389542.203 7      1713.101          47.937
G21  22191477.160   116616998.864 7      5286.784          42.125    22191475.500   116616998.863 5      5286.784          31.437    22191482.700    90870410.444 5      4119.572          31.312
G31  23981508.120   126023657.772 7      -927.710          42.812    23981506.840   126023657.783 6      -927.710          37.000    23981516.220    98200291.127 6      -722.891          37.062    23981517.500    98200293.132 6      -722.891          41.000
R12  22509862.020   120243635.511 7      6404.903          43.312    22509858.600   120243635.510 7      6404.903          43.750    22509870.760    93522869.289 7      4981.592          46.375    22509871.420    93522870.285 7      4981.592          46.437
G18  24873129.000   130709164.061 7      -925.463          42.687    24873128.220   130709164.065 5      -925.463          31.562    24873137.600   101851324.921 5      -721.140          31.625    24873137.400   101851341.929 7      -721.140          45.250
> 2024 05 09 11 34  0.0000000  0 15
G02  24017935.340   126215104.813 7      5532.727          42.437    24017933.060   126215104.821 4      5532.727          28.187    24017943.560    98349467.224 4      4311.216          28.125
G27  20797158.200   109289798.647 7      2399.332          47.000    20797157.040   109289798.650 8      2399.332          49.187    20797163.140    85160903.923 8      1869.610          49.250    20797163.440    85160905.926 8      1869.610          49.875
R11  19147211.720   102316889.218 8      3049.352          49.187    19147211.380   102316889.219 8      3049.352          48.687    19147218.720    79579831.168 8      2371.719          53.187    19147218.660    79579832.168 8      2371.719          53.437
G16  20389520.680   107147645.624 7      2540.139          46.437    20389519.180   107147645.632 6      2540.139          40.937    20389522.500    83491681.573 6      1979.329          40.437
R21  19968692.560   106856503.375 7       778.799          47.687    19968692.860   106856503.387 8       778.799          48.437    19968702.660    83110653.810 8       605.732          50.687    19968702.120    83110652.814 8       605.732          50.500
G26  21367750.500   112288279.401 7       485.951          46.687    21367748.740   112288279.409 7       485.951          47.250    21367757.620    87497388.282 7       378.663          46.875    21367757.720    87497390.281 8       378.663          48.687
R22  20596674.520   109946441.373 7      3998.006          47.687    20596674.620   109946441.374 8      3998.006          48.125    20596683.120    85513935.553 8      3109.560          50.500    20596683.400    85513937.551 8      3109.560          50.437
R10  21116143.840   112560909.281 7      -835.639          43.062    21116143.600   112560909.298 7      -835.639          42.187
G08  21998381.700   115602268.034 7      3860.333          45.375    21998380.360   115602268.036 5      3860.333          35.812    21998388.260    90079720.162 5      3008.051          35.562    21998388.780    90079723.172 8      3008.051          48.375
G10  22575916.760   118637240.498 7      3971.604          47.187    22575916.100   118637240.503 7      3971.604          45.812    22575925.180    92444641.284 7      3094.757          45.750    22575924.540    92444636.281 7      3094.757          45.812
G23  23050464.980   121131005.714 7      2198.392          44.750    23050464.580   121131005.718 5      2198.392          33.250    23050472.700    94387828.145 5      1713.033          33.187    23050472.640    94387829.155 8      1713.033          48.125
G21  22190470.920   116611712.030 7      5286.946          43.437    22190469.360   116611712.035 5      5286.946          31.437    22190476.740    90866290.848 5      4119.698          31.312
G31  23981684.480   126024585.160 7      -927.158          42.250    23981683.520   126024585.170 6      -927.158          37.437    23981692.740    98201013.763 6      -722.461          37.687    23981693.760    98201015.765 6      -722.461          41.437
R12  22508662.860   120237230.409 7      6405.332          43.000    22508659.340   120237230.410 7      6405.332          43.687    22508671.900    93517887.558 7      4981.925          46.187    22508672.380    93517888.554 7      4981.925          46.937
G18  24873305.040   130710089.288 7      -924.978          43.125    24873304.020   130710089.296 5      -924.978          31.562    24873313.320   101852045.884 5      -720.762          31.625    24873313.320   101852062.888 7      -720.762          44.937
> 2024 05 09 11 34  1.0000000  0 15
G02  24016882.660   126209572.049 7      5533.072          42.437    24016880.380   126209572.056 4      5533.072          28.187    24016890.760    98345155.996 4      4311.484          28.125
G27  20796701.860   109287399.303 7      2399.624          47.125    20796700.620   109287399.306 8      2399.624          49.312    20796706.620    85159034.313 8      1869.837          49.187    20796707.160    85159036.311 8      1869.837          50.187
R11  19146640.840   102313840.094 8      3049.134          49.125    19146640.860   102313840.101 8      3049.134          48.187    19146648.200    79577459.639 8      2371.549          53.062    19146648.180    79577460.639 8      2371.549          53.437
G16  20389037.360   107145105.605 7      2540.215          46.562    20389035.840   107145105.608 6      2540.215          41.125    20389039.100    83489702.341 6      1979.388          40.750
R21  19968547.100   106855724.639 7       778.934          47.937    19968547.380   106855724.651 8       778.934          48.125    19968557.220    83110048.133 8       605.838          50.375    19968556.740    83110047.134 8       605.838          50.625
G26  21367658.020   112287793.387 7       486.114          47.062    21367656.240   112287793.392 7       486.114          47.250    21367665.200    87497009.570 7       378.790          47.062    21367665.440    87497011.572 8       378.790          48.437
R22  20595925.540   109942443.470 8      3998.117          48.187    20595925.560   109942443.468 8      3998.117          48.062    20595934.100    85510826.081 8      3109.646          50.250    20595934.280    85510828.079 8      3109.646          50.750
R10  21116300.680   112561745.031 7      -835.624          43.062    21116300.360   112561745.039 7      -835.624          42.187
G08  21997646.820   115598407.617 7      3860.731          45.187    21997645.640   115598407.616 5      3860.731          35.937    21997653.780    90076712.049 5      3008.361          35.875    21997654.240    90076715.065 8      3008.361          48.500
G10  22575161.040   118633268.892 7      3971.805          47.500    22575160.320   118633268.897 7      3971.805          45.937    22575169.380    92441546.537 7      3094.913          46.062    22575168.780    92441541.533 7      3094.913          45.875
G23  23050046.660   121128807.409 7      2198.369          45.062    23050046.160   121128807.414 5      2198.369          33.125    23050054.420    94386115.189 5      1713.015          33.187    23050054.200    94386116.194 7      1713.015          47.937
G21  22189464.800   116606425.183 7      5287.063          43.750    22189463.240   116606425.188 5      5287.063          31.625    22189470.680    90862171.241 5      4119.790          31.312
G31  23981860.620   126025512.072 7      -926.536          42.750    23981860.080   126025512.082 6      -926.536          37.250    23981869.240    98201736.032 6      -721.976          37.500    23981870.740    98201738.039 6      -721.976          41.437
R12  22507463.060   120230825.048 7      6405.718          42.875    22507460.660   120230825.049 7      6405.718          43.312    22507472.960    93512905.621 7      4982.225          45.875    22507473.460    93512906.621 7      4982.225          46.625
G18  24873481.040   130711014.085 7      -924.455          42.687    24873479.760   130711014.098 5      -924.455          30.062    24873489.140   101852766.509 5      -720.354          30.125    24873489.500   101852783.519 7      -720.354          44.750
> 2024 05 09 11 34  2.0000000  0 15
G02  24015829.720   126204039.022 7      5533.263          42.750    24015827.320   126204039.030 4      5533.263          28.187    24015837.840    98340844.563 4      4311.633          28.125
G27  20796245.240   109284999.562 7      2400.068          47.562    20796243.920   109284999.565 8      2400.068          49.562    20796249.940    85157164.393 8      1870.183          49.750    20796250.460    85157166.393 8      1870.183          50.500
R11  19146070.500   102310791.261 8      3048.840          49.125    19146070.380   102310791.257 8      3048.840          48.312    19146077.660    79575088.321 8      2371.320          53.062    19146077.680    79575089.323 8      2371.320          53.437
G16  20388553.820   107142565.463 7      2540.267          46.062    20388552.440   107142565.471 6      2540.267          40.562    20388555.840    83487723.016 6      1979.429          40.437
R21  19968401.780   106854945.707 8       779.140          48.125    19968401.740   106854945.722 7       779.140          47.937    19968411.640    83109442.303 8       605.998          50.875    19968411.040    83109441.304 8       605.998          50.312
G26  21367565.520   112287307.204 7       486.361          47.062    21367563.700   112287307.209 7       486.361          46.875    21367572.680    87496630.730 7       378.983          47.062    21367572.800    87496632.728 8       378.983          48.187
R22  20595176.400   109938445.551 8      3998.063          48.250    20595176.700   109938445.554 8      3998.063          48.062    20595185.040    85507716.599 8      3109.605          50.375    20595185.420    85507718.595 8      3109.605          51.125
R10  21116457.380   112562580.708 7      -835.406          43.625    21116457.440   112562580.717 7      -835.406          42.500
G08  21996912.240   115594546.774 7      3861.150          45.250    21996910.960   115594546.768 6      3861.150          36.312    21996919.120    90073703.604 6      3008.688          36.062    21996919.820    90073706.614 8      3008.688          48.625
G10  22574405.260   118629297.173 7      3971.828          47.000    22574404.520   118629297.175 7      3971.828          45.812    22574413.580    92438451.699 7      3094.931          46.000    22574413.000    92438446.691 7      3094.931          46.125
G23  23049628.440   121126609.128 7      2198.317          44.375    23049627.900   121126609.135 5      2198.317          33.562    23049636.200    94384402.246 5      1712.974          33.250    23049636.040    94384403.254 8      1712.974          48.250
G21  22188459.020   116601138.216 7      5287.255          43.062    22188457.180   116601138.218 5      5287.255          31.625    22188464.600    90858051.534 5      4119.939          31.437
G31  23982036.940   126026438.422 7      -925.922          42.937    23982036.480   126026438.432 6      -925.922          37.625    23982045.760    98202457.859 6      -721.498          37.625    23982047.120    98202459.863 6      -721.498          41.687
R12  22506264.060   120224419.356 7      6405.917          43.187    22506261.080   120224419.347 7      6405.917          43.312    22506273.840    93507923.422 7      4982.380          46.375    22506274.140    93507924.422 7      4982.380          46.687
G18  24873656.860   130711938.370 7      -923.930          42.125    24873655.420   130711938.380 5      -923.930          30.062    24873664.980   101853486.737 5      -719.945          30.125    24873665.360   101853503.745 7      -719.945          45.000
> 2024 05 09 11 34  3.0000000  0 15
G02  24014776.900   126198505.832 7      5533.092          42.437    24014774.360   126198505.842 4      5533.092          28.000    24014784.900    98336533.005 4      4311.500          28.062
G27  20795788.400   109282599.580 8      2399.982          48.312    20795787.160   109282599.582 8      2399.982          49.250    20795793.200    85155294.281 8      1870.115          49.687    20795793.760    85155296.281 8      1870.115          50.312
R11  19145499.980   102307742.837 8      3048.106          49.250    19145499.980   102307742.836 8      3048.106          48.250    19145507.160    79572717.328 8      2370.749          52.687    19145507.160    79572718.333 8      2370.749          53.000
G16  20388070.580   107140025.331 7      2539.962          46.250    20388069.160   107140025.336 6      2539.962          40.687    20388072.360    83485743.698 6      1979.191          40.500
R21  19968256.040   106854166.770 8       778.790          48.500    19968256.120   106854166.785 7       778.790          47.875    19968266.000    83108836.467 8       605.726          50.375    19968265.560    83108835.469 8       605.726          50.812
G26  21367472.940   112286821.027 7       486.047          47.125    21367471.340   112286821.029 7       486.047          47.000    21367480.120    87496251.888 7       378.738          47.187    21367480.280    87496253.887 8       378.738          48.312
R22  20594427.800   109934447.749 7      3997.619          47.875    20594427.880   109934447.750 8      3997.619          48.000    20594436.120    85504607.202 8      3109.259          49.937    20594436.460    85504609.202 8      3109.259          50.250
R10  21116613.740   112563416.503 7      -835.989          43.375    21116614.260   112563416.533 7      -835.989          42.500
G08  21996177.500   115590685.636 7      3861.117          46.187    21996176.100   115590685.631 5      3861.117          35.937    21996184.460    90070694.931 5      3008.662          35.812    21996185.080    90070697.950 8      3008.662          48.812
G10  22573649.380   118625325.427 7      3971.612          47.062    22573648.680   118625325.432 7      3971.612          45.625    22573657.780    92435356.847 7      3094.763          45.812    22573657.460    92435351.835 7      3094.763          46.312
G23  23049210.420   121124411.001 7      2197.934          44.375    23049209.660   121124411.006 5      2197.934          33.562    23049217.860    94382689.425 5      1712.676          33.250    23049217.920    94382690.430 8      1712.676          48.187
G21  22187453.120   116595851.279 7      5286.820          42.437    22187451.160   116595851.282 5      5286.820          31.437    22187458.420    90853931.852 5      4119.600          31.437
G31  23982213.400   126027364.380 7      -926.000          43.437    23982212.860   126027364.393 6      -926.000          38.437    23982222.180    98203179.385 6      -721.558          38.437    23982223.200    98203181.387 7      -721.558          42.000
R12  22505064.920   120218013.429 7      6405.809          43.187    22505061.640   120218013.427 7      6405.809          42.875    22505074.180    93502941.045 7      4982.296          45.625    22505074.860    93502942.051 7      4982.296          46.500
G18  24873832.560   130712862.258 6      -923.859          40.937    24873831.060   130712862.265 5      -923.859          30.062    24873840.960   101854206.647 5      -719.890          30.125    24873841.400   101854223.663 7      -719.890          44.812
> 2024 05 09 11 34  4.0000000  0 15
G02  24013723.920   126192972.614 7      5533.426          42.187    24013721.600   126192972.624 4      5533.426          28.000    24013731.720    98332221.416 4      4311.760          28.062
G27  20795331.680   109280199.453 7      2400.399          47.687    20795330.480   109280199.458 8      2400.399          49.312    20795336.580    85153424.060 8      1870.441          49.750    20795336.960    85153426.062 8      1870.441          50.125
R11  19144929.620   102304694.889 8      3047.970          48.500    19144929.380   102304694.890 7      3047.970          47.875    19144936.720    79570346.716 8      2370.643          52.625    19144937.000    79570347.718 8      2370.643          53.312
G16  20387587.020   107137485.305 7      2540.265          46.500    20387585.820   107137485.312 6      2540.265          41.250    20387589.100    83483764.463 6      1979.428          40.562
R21  19968110.760   106853387.889 7       779.070          47.375    19968110.680   106853387.901 8       779.070          48.250    19968120.500    83108230.673 8       605.944          50.750    19968119.820    83108229.673 8       605.944          50.062
G26  21367380.240   112286334.923 7       486.278          46.812    21367378.820   112286334.925 7       486.278          47.375    21367387.560    87495873.108 7       378.918          47.437    21367388.040    87495875.105 8       378.918          48.062
R22  20593678.900   109930450.139 7      3997.745          47.937    20593679.100   109930450.140 7      3997.745          47.500    20593687.340    85501497.952 8      3109.357          50.062    20593687.360    85501499.954 8      3109.357          49.875
R10  21116770.860   112564252.498 7      -835.891          43.375    21116770.900   112564252.525 7      -835.891          42.375
G08  21995442.680   115586824.307 7      3861.592          46.062    21995441.360   115586824.301 6      3861.592          36.500    21995449.680    90067686.112 6      3009.033          36.062    21995450.480    90067689.128 8      3009.033          48.812
G10  22572893.660   118621353.821 7      3971.731          46.750    22572892.800   118621353.824 7      3971.731          45.687    22572902.020    92432262.093 7      3094.855          46.000    22572901.480    92432257.085 7      3094.855          46.125
G23  23048791.800   121122213.141 7      2198.010          43.062    23048791.480   121122213.146 5      2198.010          33.437    23048799.560    94380976.812 5      1712.735          33.312    23048799.700    94380977.811 8      1712.735          48.187
G21  22186447.160   116590564.448 7      5286.995          43.625    22186445.220   116590564.453 5      5286.995          31.437    22186452.380    90849812.253 5      4119.736          31.437
G31  23982389.520   126028289.986 7      -925.278          43.875    23982389.040   126028289.994 6      -925.278          37.937    23982398.480    98203900.628 6      -720.996          37.812    23982399.640    98203902.635 7      -720.996          42.000
R12  22503865.840   120211607.408 7      6406.365          42.187    22503861.380   120211607.399 7      6406.365          42.437    22503875.060    93497958.590 7      4982.728          46.000    22503875.500    93497959.594 7      4982.728          46.687
G18  24874008.220   130713785.864 6      -923.164          41.937    24874006.700   130713785.874 5      -923.164          30.062    24874017.020   101854926.347 5      -719.349          30.125    24874017.420   101854943.345 7      -719.349          45.250
> 2024 05 09 11 34  5.0000000  0 15
G02  24012670.860   126187439.198 6      5533.124          41.937    24012668.580   126187439.205 4      5533.124          28.000    24012678.700    98327909.678 4      4311.525          28.062
G27  20794874.820   109277799.031 8      2400.181          48.000    20794873.720   109277799.039 8      2400.181          49.000    20794879.740    85151553.606 8      1870.271          49.437    20794880.220    85151555.608 8      1870.271          50.000
R11  19144359.160   102301647.317 8      3047.025          48.375    19144359.200   102301647.315 8      3047.025          48.125    19144366.420    79567976.385 8      2369.908          52.437    19144366.480    79567977.389 8      2369.908          52.875
G16  20387103.460   107134945.273 7      2539.715          47.062    20387102.420   107134945.283 6      2539.715          41.250    20387105.620    83481785.226 6      1978.999          40.562
R21  19967964.920   106852608.883 8       778.683          48.250    19967964.860   106852608.892 8       778.683          48.250    19967974.820    83107624.781 8       605.642          50.375    19967974.600    83107623.783 8       605.642          49.750
G26  21367287.600   112285848.756 7       485.810          46.875    21367286.200   112285848.761 7       485.810          47.000    21367295.180    87495494.279 7       378.553          47.062    21367295.400    87495496.279 8       378.553          48.312
R22  20592930.280   109926452.604 7      3997.133          47.875    20592930.180   109926452.605 8      3997.133          48.000    20592938.380    85498388.777 8      3108.881          50.312    20592938.560    85498390.781 8      3108.881          50.437
R10  21116927.900   112565088.533 7      -836.361          43.125    21116927.560   112565088.555 7      -836.361          42.062
G08  21994707.820   115582962.642 7      3861.471          45.437    21994706.500   115582962.636 6      3861.471          36.500    21994714.780    90064677.030 5      3008.938          35.937    21994715.640    90064680.048 8      3008.938          48.312
G10  22572137.680   118617382.158 7      3971.269          47.312    22572137.060   118617382.165 7      3971.269          45.562    22572146.320    92429167.302 7      3094.495          45.812    22572145.920    92429162.290 7      3094.495          46.125
G23  23048373.680   121120015.398 7      2197.381          43.687    23048373.260   121120015.398 5      2197.381          33.437    23048381.420    94379264.287 5      1712.245          33.312    23048381.640    94379265.291 8      1712.245          48.000
G21  22185441.060   116585277.578 7      5286.536          43.000    22185439.120   116585277.585 5      5286.536          31.437    22185446.380    90845692.626 5      4119.379          31.562
G31  23982565.640   126029215.122 7      -925.238          43.937    23982565.220   126029215.127 6      -925.238          38.437    23982574.620    98204621.507 6      -720.965          38.687    23982575.840    98204623.516 7      -720.965          42.125
R12  22502666.120   120205201.161 7      6406.011          42.187    22502660.960   120205201.151 7      6406.011          42.437    22502675.860    93492975.974 7      4982.453          45.875    22502676.100    93492976.976 7      4982.453          46.687
G18  24874183.940   130714709.051 6      -923.284          40.812    24874182.200   130714709.058 4      -923.284          29.687    24874192.680   101855645.709 4      -719.442          29.625    24874193.480   101855662.715 7      -719.442          45.312
> 2024 05 09 11 34  6.0000000  0 15
G02  24011617.620   126181905.491 7      5533.700          42.062    24011615.480   126181905.498 4      5533.700          28.000    24011625.680    98323597.706 4      4311.974          28.062
G27  20794418.020   109275398.237 8      2400.774          48.250    20794416.880   109275398.239 8      2400.774          49.437    20794422.920    85149682.863 8      1870.733          49.500    20794423.560    85149684.864 8      1870.733          49.812
R11  19143788.880   102298600.015 8      3046.918          49.187    19143788.740   102298600.016 8      3046.918          48.312    19143796.200    79565606.269 8      2369.825          52.875    19143796.260    79565607.272 8      2369.825          52.937
G16  20386620.320   107132405.125 7      2540.067          47.312    20386619.040   107132405.130 6      2540.067          40.750    20386622.140    83479805.890 6      1979.273          40.437
R21  19967819.320   106851829.694 8       779.048          48.312    19967819.340   106851829.704 7       779.048          47.750    19967829.320    83107018.754 8       605.926          50.625    19967828.760    83107017.758 8       605.926          50.312
G26  21367195.380   112285362.444 7       486.146          47.062    21367193.720   112285362.449 7       486.146          47.187    21367202.600    87495115.339 7       378.815          47.375    21367202.820    87495117.337 8       378.815          48.437
R22  20592181.200   109922455.059 7      3997.344          47.687    20592181.240   109922455.060 8      3997.344          48.437    20592189.500    85495279.583 8      3109.045          49.875    20592189.820    85495281.585 8      3109.045          50.562
R10  21117084.380   112565924.562 7      -836.114          43.062    21117084.640   112565924.571 7      -836.114          42.062
G08  21993972.700   115579100.556 7      3862.103          45.375    21993971.640   115579100.553 5      3862.103          35.937    21993979.860    90061667.623 5      3009.431          35.937    21993980.540    90061670.643 8      3009.431          48.375
G10  22571381.860   118613410.373 7      3971.626          47.437    22571381.160   118613410.378 7      3971.626          45.437    22571390.520    92426072.411 7      3094.773          45.562    22571390.480    92426067.401 7      3094.773          46.312
G23  23047955.720   121117817.690 7      2197.568          44.500    23047955.040   121117817.692 5      2197.568          33.062    23047963.200    94377551.794 5      1712.391          33.062    23047963.300    94377552.795 8      1712.391          48.062
G21  22184435.040   116579990.602 7      5286.833          43.500    22184433.080   116579990.612 5      5286.833          31.437    22184440.320    90841572.917 5      4119.610          31.562
G31  23982741.780   126030139.725 7      -924.603          43.687    23982741.220   126030139.737 6      -924.603          38.500    23982750.920    98205341.978 6      -720.470          38.562    23982752.060    98205343.983 7      -720.470          42.437
R12  22501467.160   120198794.528 6      6406.628          41.500    22501461.740   120198794.529 6      6406.628          41.937    22501476.660    93487993.059 7      4982.933          45.750    22501476.960    93487994.065 7      4982.933          46.812
G18  24874359.380   130715631.735 6      -922.684          41.812    24874357.680   130715631.745 4      -922.684          29.687    24874368.380   101856364.681 4      -718.975          29.625    24874368.920   101856381.687 7      -718.975          45.687
