     3.05           OBSERVATION DATA    MIXED               RINEX VERSION / TYPE
TPS2RIN 1.0.29.3920 TPS-USER            20240511 193229 UTC PGM / RUN BY / DATE
Win64 build Feb 23, 2024 (c) Topcon Positioning Systems     COMMENT
SRC: 20240509_FA09.tps                                      COMMENT
OPT: -S -v 3.05                                             COMMENT
Observer            Agency                                  OBSERVER / AGENCY
O0M3X53SBGM         TPS HIPER_SR        4.8 HSR Jul,08,2022 REC # / TYPE / VERS
FW: 4.8 HSR Jul,08,2022 p3                                  COMMENT
SN: HiPer SR 1212-12575                                     COMMENT
000                 TPSHIPER_SR     NONE                    ANT # / TYPE
        1.8000        0.0000        0.0000                  ANTENNA: DELTA H/E/N
FA09                                                        MARKER NAME
  5391372.2297 -1598661.1581  3004204.1141                  APPROX POSITION XYZ
  2024     5     9    12     2   51.0000000     GPS         TIME OF FIRST OBS
  2024     5     9    12    19    5.0000000     GPS         TIME OF LAST OBS
     1.000                                                  INTERVAL
   975 EPOCHS                                               COMMENT
G   16 C1C L1C D1C S1C C1W L1W D1W S1W C2W L2W D2W S2W C2X  SYS / # / OBS TYPES
       L2X D2X S2X                                          SYS / # / OBS TYPES
R   16 C1C L1C D1C S1C C1P L1P D1P S1P C2P L2P D2P S2P C2C  SYS / # / OBS TYPES
       L2C D2C S2C                                          SYS / # / OBS TYPES
    16                                                      # OF SATELLITES
   G02   975   975   975   975   975   975   975   975   975PRN / # OF OBS
         975   975   975     0     0     0     0            PRN / # OF OBS
   G07   975   975   975   975   975   975   975   975   975PRN / # OF OBS
         975   975   975   975   975   975   975            PRN / # OF OBS
   G08   975   975   975   975   975   975   975   975   975PRN / # OF OBS
         975   975   975   975   975   975   975            PRN / # OF OBS
   G10   975   975   975   975   975   975   975   975   975PRN / # OF OBS
         975   975   975   975   975   975   975            PRN / # OF OBS
   G16   975   975   975   975   975   975   975   975   975PRN / # OF OBS
         975   975   975     0     0     0     0            PRN / # OF OBS
   G21   975   975   975   975   975   975   975   975   975PRN / # OF OBS
         975   975   975     0     0     0     0            PRN / # OF OBS
   G23   975   975   975   975   975   975   975   975   975PRN / # OF OBS
         975   975   975   975   975   975   975            PRN / # OF OBS
   G26   975   975   975   975   975   975   975   975   975PRN / # OF OBS
         975   975   975   975   975   975   975            PRN / # OF OBS
   G27   975   975   975   975   975   975   975   975   975PRN / # OF OBS
         975   975   975   975   975   975   975            PRN / # OF OBS
   G31   757   757   757   757   757   757   757   757   757PRN / # OF OBS
         757   757   757   757   757   757   757            PRN / # OF OBS
   R10   975   975   975   975   975   975   975   975     0PRN / # OF OBS
           0     0     0     0     0     0     0            PRN / # OF OBS
   R11   975   975   975   975   975   975   975   975   975PRN / # OF OBS
         975   975   975   975   975   975   975            PRN / # OF OBS
   R12   975   975   975   975   975   975   975   975   975PRN / # OF OBS
         975   975   975   975   975   975   975            PRN / # OF OBS
   R21   975   975   975   975   975   975   975   975   975PRN / # OF OBS
         975   975   975   975   975   975   975            PRN / # OF OBS
   R22   975   975   975   975   975   975   975   975   975PRN / # OF OBS
         975   975   975   975   975   975   975            PRN / # OF OBS
   R23   975   975   975   975   975   975   975   975     0PRN / # OF OBS
           0     0     0     0     0     0     0            PRN / # OF OBS
G L1C                                                       SYS / PHASE SHIFT
G L1W -0.25000                                              SYS / PHASE SHIFT
G L2W  0.00000                                              SYS / PHASE SHIFT
G L2X  0.25000                                              SYS / PHASE SHIFT
R L1C                                                       SYS / PHASE SHIFT
R L1P -0.25000                                              SYS / PHASE SHIFT
R L2P -0.25000                                              SYS / PHASE SHIFT
R L2C                                                       SYS / PHASE SHIFT
  6 R10 -7 R11  0 R12 -1 R21  4 R22 -3 R23  3               GLONASS SLOT / FRQ #
                                                            GLONASS COD/PHS/BIS
    18    18  1929     7GPS                                 LEAP SECONDS
                                                            END OF HEADER
> 2024 05 09 12 02 51.0000000  0 16
G27  20942292.180   110052487.921 7      2128.583          47.625    20942290.840   110052487.933 8      2128.583          48.625    20942297.440    85755210.613 8      1658.636          48.875    20942297.880    85755211.614 8      1658.636          49.562
G02  23169366.320   121755847.093 7      4992.981          42.937    23169364.600   121755847.108 5      4992.981          33.437    23169373.120    94874705.012 5      3890.634          33.625
G08  21650511.320   113774203.081 7      3659.611          45.812    21650510.180   113774203.081 6      3659.611          37.875    21650518.240    88655252.315 6      2851.645          37.562    21650518.800    88655256.322 8      2851.645          50.125
R22  20333549.740   108541868.139 8      3129.687          49.187    20333549.820   108541868.143 8      3129.687          49.250    20333557.460    84421486.572 8      2434.201          50.125    20333557.600    84421488.570 8      2434.201          50.375
G23  23380824.100   122867060.968 7      1202.445          44.625    23380823.060   122867060.967 5      1202.445          32.687    23380831.500    95740591.055 5       936.970          32.812    23380832.060    95740591.051 7       936.970          46.687
R11  19285926.680   103058143.276 8      1573.540          49.437    19285927.080   103058143.285 8      1573.540          49.187    19285935.140    80156365.591 8      1223.865          52.812    19285934.900    80156366.595 8      1223.865          53.625
G16  20571955.960   108106356.693 7      1737.959          46.500    20571954.600   108106356.695 6      1737.959          40.687    20571958.840    84238729.746 6      1354.254          40.000
R10  22400399.220   119406700.450 6     -1540.844          40.375    22400397.640   119406700.453 6     -1540.844          39.375
G21  21468141.060   112815843.477 7      4476.793          46.312    21468139.500   112815843.484 6      4476.793          36.375    21468145.460    87908469.433 6      3488.410          36.250
R23  23766786.820   127136294.302 7      5176.294          42.312    23766786.340   127136294.317 6      5176.294          41.687
R21  20690489.100   110718984.075 8       317.135          49.312    20690489.440   110718984.092 8       317.135          48.250    20690500.100    86114808.789 8       246.660          50.125    20690499.640    86114807.788 8       246.660          49.500
G26  22204429.840   116685062.729 7      -150.577          46.000    22204428.720   116685062.732 7      -150.577          44.312    22204440.260    90923460.682 7      -117.332          44.250    22204440.600    90923463.688 7      -117.332          46.812
R12  21405544.200   114344574.972 7      5822.412          47.562    21405543.900   114344574.976 7      5822.412          47.687    21405554.960    88934716.279 8      4528.542          48.187    21405555.240    88934715.281 8      4528.542          48.875
G10  22289709.420   117133217.291 7      3129.068          47.437    22289708.160   117133217.296 7      3129.068          46.500    22289717.920    91272668.184 7      2438.235          46.687    22289718.160    91272668.194 7      2438.235          47.687
G07  24646727.100   129519422.609 6      4381.145          39.812    24646726.600   129519422.611 4      4381.145          26.687    24646734.540   100924252.630 4      3413.879          26.500    24646735.120   100924259.639 7      3413.879          42.375
G31  25157166.760   132201803.098 6      -770.698          39.500    25157165.120   132201803.100 5      -770.698          33.687    25157180.720   103014439.905 5      -600.544          33.625    25157181.400   103014442.903 6      -600.544          41.500
> 2024 05 09 12 02 52.0000000  0 16
G27  20941887.220   110050359.568 7      2128.080          47.562    20941885.860   110050359.565 8      2128.080          49.500    20941892.420    85753552.148 8      1658.244          49.375    20941892.960    85753553.145 8      1658.244          49.375
G02  23168415.960   121750854.444 7      4992.264          42.937    23168414.520   121750854.459 5      4992.264          33.437    23168423.040    94870814.640 5      3890.076          33.625
G08  21649815.000   113770543.745 7      3659.192          46.375    21649813.760   113770543.745 6      3659.192          37.937    21649822.040    88652400.884 6      2851.319          37.500    21649822.640    88652404.889 8      2851.319          50.312
R22  20332963.540   108538738.945 8      3128.821          49.437    20332963.680   108538738.952 8      3128.821          49.625    20332971.340    84419052.755 8      2433.528          50.750    20332971.420    84419054.753 8      2433.528          50.625
G23  23380595.560   122865859.005 7      1201.534          44.125    23380594.400   122865859.009 5      1201.534          32.312    23380602.680    95739654.461 5       936.260          32.312    23380603.100    95739654.459 7       936.260          46.750
R11  19285632.480   103056570.364 8      1572.320          49.625    19285632.760   103056570.373 8      1572.320          48.625    19285640.820    80155142.208 8      1222.915          53.000    19285640.700    80155143.209 8      1222.915          53.562
G16  20571625.200   108104619.134 7      1737.200          46.875    20571624.060   108104619.139 6      1737.200          40.500    20571628.100    84237375.804 6      1353.662          39.812
R10  22400687.780   119408241.585 6     -1541.481          40.375    22400686.940   119408241.599 6     -1541.481          39.375
G21  21467289.260   112811367.261 7      4475.849          47.000    21467287.680   112811367.271 6      4475.849          36.562    21467293.780    87904981.477 6      3487.675          36.250
R23  23765819.300   127131118.289 7      5175.668          42.312    23765819.560   127131118.309 6      5175.668          41.000
R21  20690429.840   110718667.238 8       316.591          49.562    20690430.440   110718667.256 8       316.591          48.000    20690440.940    86114562.354 8       246.238          49.375    20690440.440    86114561.356 8       246.238          49.875
G26  22204458.560   116685213.704 7      -151.347          45.375    22204457.500   116685213.709 7      -151.347          44.062    22204469.040    90923578.319 7      -117.933          43.750    22204469.240    90923581.320 7      -117.933          47.062
R12  21404453.940   114338752.999 7      5821.549          47.875    21404454.120   114338753.000 8      5821.549          48.000    21404465.060    88930188.074 8      4527.871          48.375    21404465.240    88930187.073 8      4527.871          48.562
G10  22289114.380   117130088.800 7      3128.111          47.500    22289112.780   117130088.805 7      3128.111          46.937    22289122.640    91270230.399 7      2437.489          47.187    22289122.600    91270230.403 8      2437.489          48.000
G07  24645892.940   129515041.691 6      4380.488          39.437    24645893.020   129515041.696 4      4380.488          26.687    24645901.000   100920838.930 4      3413.367          26.500    24645901.060   100920845.940 7      3413.367          42.500
G31  25157313.240   132202574.014 6      -771.032          39.250    25157311.800   132202574.021 5      -771.032          33.375    25157327.500   103015040.621 5      -600.804          33.500    25157327.960   103015043.623 6      -600.804          41.375
> 2024 05 09 12 02 53.0000000  0 16
G27  20941482.440   110048231.329 7      2128.213          47.500    20941480.880   110048231.341 8      2128.213          49.500    20941487.480    85751893.788 8      1658.348          49.250    20941487.900    85751894.787 8      1658.348          49.562
G02  23167465.940   121745862.124 7      4992.189          43.625    23167464.600   121745862.139 5      4992.189          33.375    23167472.940    94866924.530 5      3890.018          33.187
G08  21649118.820   113766884.548 7      3659.163          46.562    21649117.520   113766884.545 6      3659.163          37.812    21649125.780    88649549.560 6      2851.296          37.125    21649126.420    88649553.569 8      2851.296          50.250
R22  20332377.180   108535610.218 8      3128.466          50.062    20332377.600   108535610.225 8      3128.466          49.812    20332385.160    84416619.302 8      2433.251          50.187    20332385.540    84416621.298 8      2433.251          50.187
G23  23380366.960   122864657.619 7      1201.100          44.625    23380365.780   122864657.624 5      1201.100          32.312    23380374.100    95738718.316 5       935.922          32.312    23380374.780    95738718.314 7       935.922          46.312
R11  19285338.280   103054998.297 8      1571.654          50.062    19285338.460   103054998.308 8      1571.654          49.875    19285346.680    80153919.493 8      1222.398          52.500    19285346.300    80153920.494 8      1222.398          53.000
G16  20571294.740   108102882.072 7      1736.907          47.375    20571293.380   108102882.077 6      1736.907          40.687    20571297.640    84236022.249 6      1353.434          40.125
R10  22400977.000   119409783.058 6     -1541.651          40.750    22400976.240   119409783.062 6     -1541.651          39.937
G21  21466437.460   112806891.542 7      4475.492          46.875    21466436.020   112806891.547 6      4475.492          36.500    21466442.200    87901493.901 6      3487.396          36.625
R23  23764852.060   127125942.603 6      5175.637          41.500    23764851.340   127125942.625 6      5175.637          41.000
R21  20690370.760   110718350.570 8       316.598          49.187    20690371.100   110718350.582 8       316.598          48.812    20690381.820    86114316.055 8       246.243          49.625    20690381.440    86114315.052 8       246.243          49.437
G26  22204487.660   116685365.010 7      -151.479          46.000    22204486.320   116685365.012 7      -151.479          44.500    22204497.960    90923696.211 7      -118.036          44.250    22204498.180    90923699.215 7      -118.036          47.375
R12  21403364.280   114332931.489 8      5821.334          48.125    21403364.460   114332931.484 8      5821.334          48.250    21403375.380    88925660.234 8      4527.704          48.375    21403375.560    88925659.234 8      4527.704          49.125
G10  22288519.080   117126960.853 7      3127.651          46.812    22288517.640   117126960.864 7      3127.651          46.750    22288527.460    91267793.046 7      2437.130          46.812    22288527.400    91267793.052 7      2437.130          47.812
G07  24645059.700   129510661.256 6      4380.252          39.437    24645059.260   129510661.264 4      4380.252          26.687    24645067.300   100917425.604 4      3413.184          26.500    24645067.500   100917432.612 7      3413.184          42.500
G31  25157459.500   132203344.746 6      -770.566          39.312    25157458.540   132203344.756 5      -770.566          33.375    25157474.160   103015641.188 5      -600.441          33.500    25157474.320   103015644.189 6      -600.441          41.375
> 2024 05 09 12 02 54.0000000  0 16
G27  20941077.360   110046103.252 7      2128.125          47.875    20941075.860   110046103.260 8      2128.125          49.437    20941082.480    85750235.542 8      1658.279          49.125    20941082.780    85750236.540 8      1658.279          49.312
G02  23166515.980   121740870.168 7      4991.900          43.687    23166514.620   121740870.178 5      4991.900          33.375    23166523.120    94863034.701 5      3889.792          33.187
G08  21648422.320   113763225.417 7      3659.198          46.125    21648421.260   113763225.417 6      3659.198          37.187    21648429.360    88646698.289 6      2851.323          37.312    21648429.960    88646702.298 8      2851.323          49.687
R22  20331791.200   108532481.910 8      3128.205          50.437    20331791.500   108532481.919 8      3128.205          49.500    20331799.180    84414186.176 8      2433.049          50.187    20331799.200    84414188.174 8      2433.049          50.562
G23  23380138.480   122863456.768 7      1200.650          45.187    23380137.480   122863456.772 5      1200.650          32.812    23380145.620    95737782.583 5       935.571          32.687    23380145.900    95737782.588 7       935.571          46.562
R11  19285044.100   103053427.113 8      1570.864          50.687    19285044.480   103053427.120 8      1570.864          48.937    19285052.720    80152697.454 8      1221.783          52.625    19285052.420    80152698.456 8      1221.783          52.812
G16  20570964.240   108101145.472 7      1736.509          47.437    20570962.960   108101145.476 6      1736.509          41.062    20570967.160    84234669.052 6      1353.124          40.562
R10  22401265.860   119411324.742 6     -1541.622          40.750    22401265.400   119411324.748 6     -1541.622          39.937
G21  21465585.520   112802416.278 7      4475.215          46.437    21465584.320   112802416.285 6      4475.215          36.500    21465590.440    87898006.686 6      3487.181          36.437
R23  23763884.440   127120767.232 6      5175.376          41.500    23763884.120   127120767.252 6      5175.376          41.000
R21  20690311.580   110718034.060 8       316.536          49.750    20690311.940   110718034.072 8       316.536          49.187    20690322.620    86114069.876 8       246.195          49.437    20690322.240    86114068.879 8       246.195          49.312
G26  22204516.280   116685516.623 7      -151.673          45.125    22204515.080   116685516.628 7      -151.673          44.375    22204526.740    90923814.343 7      -118.187          44.312    22204526.900    90923817.346 7      -118.187          47.187
R12  21402274.660   114327110.445 8      5820.891          48.875    21402274.780   114327110.449 8      5820.891          48.187    21402285.520    88921132.761 8      4527.359          48.187    21402285.840    88921131.760 8      4527.359          48.437
G10  22287923.780   117123833.424 7      3127.249          47.500    22287922.460   117123833.434 7      3127.249          47.375    22287932.200    91265356.088 7      2436.817          46.875    22287932.240    91265356.092 7      2436.817          47.750
G07  24644226.260   129506281.237 6      4379.878          38.875    24644225.560   129506281.242 4      4379.878          26.687    24644233.740   100914012.602 4      3412.892          26.687    24644234.560   100914019.612 7      3412.892          42.250
G31  25157606.100   132204115.321 6      -770.385          38.500    25157605.020   132204115.331 5      -770.385          33.562    25157620.880   103016241.633 5      -600.300          33.625    25157621.000   103016244.633 6      -600.300          41.687
> 2024 05 09 12 02 55.0000000  0 16
G27  20940672.540   110043975.470 7      2127.556          47.937    20940671.000   110043975.475 8      2127.556          49.750    20940677.620    85748577.528 8      1657.835          49.625    20940678.000    85748578.527 8      1657.835          49.000
G02  23165566.500   121735878.686 7      4991.133          43.500    23165564.780   121735878.696 5      4991.133          33.812    23165573.060    94859145.239 5      3889.195          33.750
G08  21647726.160   113759566.551 7      3658.671          46.250    21647725.000   113759566.551 6      3658.671          37.937    21647733.180    88643847.227 6      2850.912          37.812    21647733.660    88643851.236 8      2850.912          50.062
R22  20331205.440   108529354.219 8      3127.365          50.750    20331205.540   108529354.222 8      3127.365          49.812    20331213.440    84411753.523 8      2432.395          50.375    20331213.380    84411755.519 8      2432.395          50.562
G23  23379910.120   122862256.612 7      1199.777          45.500    23379908.940   122862256.622 5      1199.777          32.812    23379917.300    95736847.399 5       934.891          32.687    23379917.460    95736847.393 7       934.891          46.187
R11  19284750.400   103051856.906 8      1569.660          50.437    19284750.620   103051856.912 8      1569.660          49.687    19284758.780    80151476.179 8      1220.847          52.312    19284758.520    80151477.181 8      1220.847          53.125
G16  20570633.980   108099409.507 7      1735.572          47.312    20570632.560   108099409.520 6      1735.572          40.625    20570636.760    84233316.353 6      1352.393          40.312
R10  22401555.480   119412866.901 6     -1542.438          41.187    22401554.440   119412866.909 6     -1542.438          39.937
G21  21464734.100   112797941.683 7      4474.206          46.812    21464732.860   112797941.688 6      4474.206          36.125    21464739.100    87894519.990 6      3486.395          36.312
R23  23762916.920   127115592.302 7      5174.678          42.187    23762916.900   127115592.325 6      5174.678          41.687
R21  20690252.640   110717717.873 8       315.989          49.562    20690252.840   110717717.883 8       315.989          48.687    20690263.700    86113823.949 8       245.769          49.562    20690263.200    86113822.950 8       245.769          49.625
G26  22204545.300   116685668.719 7      -152.403          45.062    22204544.080   116685668.719 7      -152.403          44.312    22204555.800    90923932.849 7      -118.755          44.062    22204555.820    90923935.853 7      -118.755          47.250
R12  21401185.120   114321290.016 8      5820.027          48.187    21401184.940   114321290.023 8      5820.027          48.750    21401195.980    88916605.762 8      4526.688          48.125    21401196.060    88916604.762 8      4526.688          48.812
G10  22287328.860   117120706.681 7      3126.400          47.937    22287327.440   117120706.686 7      3126.400          46.812    22287337.200    91262919.660 7      2436.156          46.687    22287337.140    91262919.663 7      2436.156          47.812
G07  24643393.280   129501901.798 6      4379.137          38.875    24643392.180   129501901.805 4      4379.137          26.687    24643400.340   100910600.054 4      3412.314          26.687    24643401.200   100910607.073 7      3412.314          42.625
G31  25157752.700   132204885.891 6      -770.721          39.312    25157751.640   132204885.893 5      -770.721          33.562    25157767.520   103016842.063 5      -600.562          33.625    25157768.080   103016845.054 6      -600.562          41.687
> 2024 05 09 12 02 56.0000000  0 16
G27  20940267.540   110041848.016 8      2127.265          48.375    20940266.140   110041848.018 8      2127.265          49.562    20940272.780    85746919.768 8      1657.609          49.187    20940273.160    85746920.765 8      1657.609          49.500
G02  23164616.680   121730887.737 7      4990.661          44.000    23164614.900   121730887.745 5      4990.661          33.812    23164623.240    94855256.192 5      3888.827          33.750
G08  21647029.920   113755907.985 7      3658.298          46.000    21647028.880   113755907.982 6      3658.298          38.500    21647036.940    88640996.394 6      2850.622          37.875    21647037.340    88641000.407 8      2850.622          50.500
R22  20330619.420   108526227.197 8      3126.593          50.062    20330619.800   108526227.201 8      3126.593          49.375    20330627.560    84409321.393 8      2431.794          50.562    20330627.520    84409323.389 8      2431.794          50.875
G23  23379681.760   122861057.226 7      1198.914          45.687    23379680.700   122861057.234 5      1198.914          32.562    23379689.140    95735912.813 5       934.219          32.562    23379689.040    95735912.807 7       934.219          46.625
R11  19284456.820   103050287.774 8      1568.490          49.937    19284456.960   103050287.778 8      1568.490          49.000    19284465.180    80150255.742 8      1219.936          52.437    19284465.000    80150256.744 8      1219.936          52.937
G16  20570303.620   108097674.219 7      1734.906          47.500    20570302.300   108097674.226 6      1734.906          40.812    20570306.520    84231964.176 6      1351.875          40.312
R10  22401844.820   119414409.547 6     -1542.995          41.187    22401844.380   119414409.553 6     -1542.995          39.750
G21  21463882.780   112793467.762 7      4473.506          46.312    21463881.480   112793467.764 6      4473.506          36.750    21463887.800    87891033.815 6      3485.849          36.937
R23  23761949.460   127110417.875 7      5174.145          42.187    23761949.380   127110417.898 6      5174.145          41.687
R21  20690193.540   110717402.059 8       315.459          50.187    20690193.700   110717402.071 8       315.459          48.875    20690204.620    86113578.315 8       245.357          49.750    20690204.120    86113577.317 8       245.357          49.562
G26  22204574.620   116685821.336 7      -152.964          45.312    22204573.160   116685821.343 7      -152.964          44.562    22204584.680    90924051.769 7      -119.193          43.875    22204585.040    90924054.771 7      -119.193          47.500
R12  21400095.560   114315470.234 8      5819.416          48.000    21400095.660   114315470.238 8      5819.416          48.375    21400106.520    88912079.267 8      4526.213          48.000    21400106.700    88912078.266 8      4526.213          48.750
G10  22286733.880   117117580.686 7      3125.607          47.687    22286732.620   117117580.686 7      3125.607          46.750    22286742.380    91260483.818 7      2435.538          46.562    22286742.280    91260483.827 7      2435.538          47.562
G07  24642559.900   129497523.042 6      4378.291          40.062    24642558.940   129497523.050 4      4378.291          26.687    24642566.920   100907188.037 4      3411.656          26.687    24642567.820   100907195.049 7      3411.656          42.625
G31  25157899.320   132205656.452 6      -770.918          39.250    25157898.220   132205656.462 5      -770.918          33.562    25157914.040   103017442.496 5      -600.716          33.375    25157915.560   103017445.498 6      -600.716          41.687
> 2024 05 09 12 02 57.0000000  0 16
G27  20939862.600   110039720.681 8      2127.256          48.250    20939861.380   110039720.677 8      2127.256          49.937    20939867.960    85745262.098 8      1657.602          49.812    20939868.340    85745263.099 8      1657.602          49.125
G02  23163666.960   121725897.103 7      4990.373          44.000    23163665.120   121725897.108 5      4990.373          33.312    23163673.680    94851367.390 5      3888.602          33.125
G08  21646333.680   113752249.471 7      3658.406          46.250    21646332.740   113752249.468 6      3658.406          37.750    21646340.600    88638145.606 6      2850.706          37.312    21646341.440    88638149.617 8      2850.706          49.937
R22  20330033.660   108523100.584 8      3126.377          50.062    20330034.040   108523100.582 8      3126.377          49.312    20330041.780    84406889.579 8      2431.627          50.125    20330041.820    84406891.575 8      2431.627          50.875
G23  23379453.740   122859858.350 7      1198.573          45.500    23379452.600   122859858.355 5      1198.573          32.562    23379460.880    95734978.616 5       933.953          32.562    23379461.080    95734978.612 7       933.953          47.062
R11  19284163.320   103048719.421 8      1567.940          51.062    19284163.240   103048719.430 8      1567.940          49.375    19284171.680    80149035.911 8      1219.509          53.000    19284171.380    80149036.911 8      1219.509          52.750
G16  20569973.600   108095939.379 7      1734.529          47.312    20569972.320   108095939.381 6      1734.529          41.062    20569976.500    84230612.348 6      1351.581          40.562
R10  22402134.140   119415952.428 6     -1543.071          41.125    22402133.340   119415952.434 6     -1543.071          39.750
G21  21463031.760   112788994.292 7      4473.147          47.562    21463030.260   112788994.294 6      4473.147          36.875    21463036.500    87887547.998 6      3485.569          36.687
R23  23760982.360   127105243.735 7      5173.942          42.375    23760982.500   127105243.744 6      5173.942          41.625
R21  20690134.700   110717086.325 8       315.567          49.812    20690134.820   110717086.337 8       315.567          48.750    20690145.620    86113332.742 8       245.441          49.625    20690145.240    86113331.746 8       245.441          49.500
G26  22204603.480   116685974.242 7      -153.086          45.125    22204602.140   116685974.254 7      -153.086          44.125    22204613.820    90924170.910 7      -119.288          43.687    22204614.000    90924173.916 7      -119.288          47.375
R12  21399005.900   114309650.839 8      5819.211          48.625    21399006.180   114309650.848 8      5819.211          48.187    21399017.060    88907553.077 8      4526.053          48.125    21399017.320    88907552.074 8      4526.053          48.750
G10  22286139.020   117114455.185 7      3125.128          47.875    22286137.760   117114455.188 7      3125.128          46.937    22286147.600    91258048.365 7      2435.165          47.187    22286147.540    91258048.372 7      2435.165          47.750
G07  24641726.700   129493144.652 6      4378.067          39.312    24641725.760   129493144.654 4      4378.067          26.562    24641733.820   100903776.306 4      3411.481          26.687    24641734.240   100903783.316 7      3411.481          42.625
G31  25158046.580   132206426.775 6      -770.270          39.250    25158044.960   132206426.782 5      -770.270          33.625    25158060.620   103018042.742 5      -600.210          33.375    25158061.640   103018045.735 6      -600.210          41.500
> 2024 05 09 12 02 58.0000000  0 16
G27  20939457.880   110037593.618 7      2126.888          47.812    20939456.600   110037593.620 8      2126.888          49.125    20939463.240    85743604.648 8      1657.315          49.062    20939463.680    85743605.648 8      1657.315          49.625
G02  23162717.420   121720906.940 7      4989.851          44.000    23162715.560   121720906.945 5      4989.851          33.312    23162724.080    94847478.955 5      3888.196          33.125
G08  21645637.560   113748591.205 7      3658.110          46.187    21645636.720   113748591.204 6      3658.110          37.750    21645644.380    88635295.013 6      2850.475          37.562    21645645.240    88635299.024 8      2850.475          50.125
R22  20329447.820   108519974.561 8      3125.652          50.500    20329448.320   108519974.562 8      3125.652          49.687    20329456.240    84404458.231 8      2431.063          50.250    20329456.060    84404460.225 8      2431.063          50.625
G23  23379225.540   122858660.173 7      1197.677          44.750    23379224.720   122858660.181 5      1197.677          32.500    23379232.900    95734044.972 5       933.255          32.562    23379232.960    95734044.970 7       933.255          46.687
R11  19283870.100   103047152.106 8      1566.795          50.312    19283870.060   103047152.116 8      1566.795          49.437    19283878.340    80147816.887 8      1218.618          52.687    19283878.040    80147817.887 8      1218.618          53.312
G16  20569643.620   108094205.136 7      1733.911          47.562    20569642.080   108094205.141 6      1733.911          40.312    20569646.360    84229260.990 6      1351.100          39.687
R10  22402423.960   119417495.767 6     -1543.610          41.125    22402422.880   119417495.770 6     -1543.610          39.750
G21  21462180.640   112784521.455 7      4472.433          46.625    21462179.140   112784521.463 6      4472.433          36.687    21462185.260    87884062.673 6      3485.013          36.937
R23  23760015.860   127100070.008 7      5173.420          42.375    23760015.040   127100070.037 6      5173.420          41.625
R21  20690075.600   110716770.909 8       315.159          49.375    20690075.800   110716770.926 8       315.159          49.000    20690086.600    86113087.417 8       245.124          49.687    20690086.320    86113086.416 8       245.124          49.562
G26  22204632.880   116686127.636 7      -153.696          45.187    22204631.460   116686127.641 7      -153.696          44.375    22204642.920    90924290.426 7      -119.763          44.375    22204643.320    90924293.430 7      -119.763          47.500
R12  21397916.840   114303832.076 8      5818.413          48.687    21397916.900   114303832.088 8      5818.413          48.687    21397927.900    88903027.377 8      4525.432          48.187    21397928.100    88903026.372 8      4525.432          49.000
G10  22285544.360   117111330.352 7      3124.485          47.937    22285543.200   117111330.354 7      3124.485          46.937    22285552.900    91255613.430 7      2434.664          46.625    22285553.320    91255613.437 7      2434.664          47.687
G07  24640893.400   129488766.850 6      4377.469          39.437    24640892.660   129488766.850 4      4377.469          26.562    24640901.000   100900365.032 4      3411.014          26.687    24640901.340   100900372.044 7      3411.014          42.812
G31  25158192.560   132207197.087 6      -770.229          39.000    25158191.800   132207197.089 5      -770.229          33.625    25158207.120   103018642.976 5      -600.178          33.750    25158208.700   103018645.972 6      -600.178          41.500
> 2024 05 09 12 02 59.0000000  0 16
G27  20939053.080   110035466.763 8      2126.801          48.000    20939051.920   110035466.763 7      2126.801          47.375    20939058.480    85741947.357 7      1657.247          46.812    20939058.980    85741948.356 8      1657.247          49.250
G02  23161767.740   121715917.179 7      4989.558          42.875    23161765.920   121715917.186 5      4989.558          33.375    23161774.420    94843590.842 5      3887.967          33.250
G08  21644941.540   113744933.117 7      3658.003          46.000    21644940.500   113744933.114 6      3658.003          37.437    21644948.560    88632444.552 6      2850.392          37.375    21644949.060    88632448.564 8      2850.392          50.312
R22  20328862.400   108516849.058 8      3125.261          50.000    20328862.700   108516849.062 8      3125.261          49.562    20328870.640    84402027.285 7      2430.758          47.437    20328870.680    84402029.281 7      2430.758          47.062
G23  23378997.700   122857462.593 7      1197.264          44.562    23378996.820   122857462.595 5      1197.264          32.500    23379005.040    95733111.790 5       932.933          32.625    23379005.080    95733111.792 7       932.933          46.500
R11  19283577.120   103045585.693 8      1565.973          50.250    19283576.820   103045585.702 8      1565.973          49.937    19283585.200    80146598.558 8      1217.979          48.375    19283585.040    80146599.559 8      1217.979          48.437
G16  20569313.900   108092471.436 7      1733.520          47.687    20569312.140   108092471.444 6      1733.520          40.125    20569316.400    84227910.056 6      1350.795          39.687
R10  22402713.880   119419039.477 6     -1544.030          41.125    22402711.760   119419039.480 6     -1544.030          40.062
G21  21461329.580   112780049.155 7      4472.102          46.750    21461328.120   112780049.159 6      4472.102          36.750    21461334.200    87880577.768 6      3484.755          36.500
R23  23759047.960   127094896.649 7      5173.138          42.437    23759048.000   127094896.682 6      5173.138          41.687
R21  20690016.680   110716455.742 8       315.144          48.875    20690017.140   110716455.751 8       315.144          49.250    20690027.880    86112842.283 8       245.112          48.000    20690027.300    86112841.282 7       245.112          47.875
G26  22204662.120   116686281.391 7      -153.949          45.750    22204660.680   116686281.401 7      -153.949          43.687    22204672.240    90924410.229 7      -119.960          43.125    22204672.420    90924413.233 7      -119.960          45.937
R12  21396827.460   114298013.853 8      5817.995          48.750    21396827.800   114298013.857 8      5817.995          48.812    21396838.780    88898502.086 7      4525.107          46.187    21396838.680    88898501.086 7      4525.107          47.875
G10  22284950.000   117108206.123 7      3123.967          46.937    22284948.680   117108206.128 7      3123.967          46.375    22284958.420    91253178.970 7      2434.260          46.375    22284958.540    91253178.979 7      2434.260          46.812
G07  24640060.400   129484389.579 6      4376.941          39.437    24640059.740   129484389.578 4      4376.941          26.562    24640068.220   100896954.173 4      3410.604          26.687    24640067.900   100896961.182 7      3410.604          42.812
G31  25158339.000   132207967.315 6      -770.134          39.125    25158338.180   132207967.319 5      -770.134          34.000    25158353.720   103019243.148 5      -600.104          33.750    25158355.080   103019246.141 6      -600.104          41.562
> 2024 05 09 12 03  0.0000000  0 16
G27  20938648.240   110033340.035 7      2126.619          47.875    20938647.160   110033340.040 8      2126.619          49.562    20938653.820    85740290.170 8      1657.106          49.500    20938654.460    85740291.167 8      1657.106          49.437
G02  23160818.380   121710927.754 7      4989.172          43.437    23160816.620   121710927.764 5      4989.172          33.375    23160825.020    94839702.985 5      3887.667          33.250
G08  21644245.360   113741275.108 7      3657.900          46.437    21644244.520   113741275.105 6      3657.900          37.437    21644252.440    88629594.154 6      2850.311          37.625    21644252.920    88629598.165 8      2850.311          49.750
R22  20328277.040   108513723.993 8      3124.852          49.812    20328277.340   108513723.994 8      3124.852          49.500    20328285.200    84399596.683 8      2430.441          50.187    20328285.360    84399598.674 8      2430.441          50.562
G23  23378769.760   122856265.564 7      1196.763          44.437    23378769.020   122856265.564 5      1196.763          32.437    23378777.200    95732179.034 5       932.542          32.625    23378777.220    95732179.034 7       932.542          47.062
R11  19283284.020   103044020.104 8      1565.146          49.937    19283283.720   103044020.113 8      1565.146          49.687    19283292.220    80145380.875 8      1217.336          52.562    19283292.060    80145381.875 8      1217.336          53.562
G16  20568983.940   108090738.223 7      1732.973          47.687    20568982.360   108090738.228 6      1732.973          40.875    20568986.660    84226559.494 6      1350.369          40.500
R10  22403003.840   119420583.431 6     -1544.186          40.750    22403001.520   119420583.427 6     -1544.186          40.062
G21  21460478.500   112775577.348 7      4471.591          46.625    21460477.280   112775577.355 6      4471.591          36.312    21460483.180    87877093.243 6      3484.357          36.375
R23  23758081.220   127089723.578 7      5172.862          42.437    23758080.940   127089723.620 6      5172.862          41.687
R21  20689957.980   110716140.751 8       314.943          49.812    20689958.140   110716140.769 8       314.943          48.500    20689969.020    86112597.286 7       244.956          47.812    20689968.600    86112596.287 7       244.956          47.625
G26  22204691.260   116686435.473 7      -154.252          45.500    22204690.100   116686435.481 7      -154.252          43.937    22204701.620    90924530.283 7      -120.196          43.750    22204702.020    90924533.285 7      -120.196          47.437
R12  21395738.540   114292196.093 8      5817.520          48.937    21395738.580   114292196.097 8      5817.520          48.375    21395749.580    88893977.165 8      4524.737          48.375    21395749.360    88893976.163 7      4524.737          47.375
G10  22284355.720   117105082.428 7      3123.376          47.437    22284354.220   117105082.430 7      3123.376          45.312    22284363.940    91250744.916 7      2433.799          45.375    22284364.100    91250744.924 7      2433.799          47.812
G07  24639227.460   129480012.707 6      4376.554          39.562    24639226.860   129480012.704 4      4376.554          26.562    24639235.300   100893543.624 4      3410.301          26.437    24639235.200   100893550.632 7      3410.301          42.500
G31  25158485.440   132208737.322 6      -769.838          39.250    25158484.800   132208737.324 5      -769.838          34.000    25158500.280   103019843.147 5      -599.874          33.875    25158500.980   103019846.139 6      -599.874          41.562
> 2024 05 09 12 03  1.0000000  0 16
G27  20938243.640   110031213.461 8      2126.514          48.437    20938242.460   110031213.463 8      2126.514          49.500    20938249.100    85738633.096 8      1657.024          49.500    20938249.740    85738634.097 8      1657.024          49.062
G02  23159868.900   121705938.652 7      4988.937          43.875    23159867.280   121705938.665 5      4988.937          33.500    23159875.620    94835815.379 5      3887.483          33.312
G08  21643549.320   113737617.196 7      3657.826          46.687    21643548.300   113737617.195 6      3657.826          37.937    21643556.340    88626743.837 6      2850.254          37.937    21643556.940    88626747.850 8      2850.254          49.687
R22  20327691.700   108510599.414 8      3124.332          50.250    20327692.180   108510599.409 8      3124.332          49.562    20327699.960    84397166.456 8      2430.036          50.500    20327699.960    84397168.450 8      2430.036          50.750
G23  23378542.120   122855069.098 7      1196.164          45.500    23378541.380   122855069.100 5      1196.164          32.437    23378549.420    95731246.729 5       932.076          32.312    23378549.800    95731246.733 7       932.076          46.812
R11  19282991.400   103042455.379 8      1564.270          50.500    19282991.100   103042455.388 8      1564.270          49.250    19282999.300    80144163.860 8      1216.654          52.875    19282999.320    80144164.858 8      1216.654          52.812
G16  20568653.980   108089005.480 7      1732.481          47.375    20568652.660   108089005.485 6      1732.481          40.625    20568656.980    84225209.303 6      1349.985          40.062
R10  22403293.320   119422127.685 6     -1544.398          40.750    22403291.880   119422127.688 6     -1544.398          39.625
G21  21459627.740   112771106.027 7      4471.111          47.125    21459626.340   112771106.035 6      4471.111          36.812    21459632.320    87873609.101 6      3483.982          36.875
R23  23757114.140   127084550.844 6      5172.578          41.437    23757113.900   127084550.878 6      5172.578          41.687
R21  20689899.060   110715825.924 8       314.766          49.437    20689899.100   110715825.941 8       314.766          49.125    20689910.280    86112352.422 8       244.818          49.625    20689909.540    86112351.424 8       244.818          49.625
G26  22204720.380   116686589.880 7      -154.604          45.562    22204719.280   116686589.887 7      -154.604          44.125    22204730.960    90924650.594 7      -120.471          43.750    22204731.760    90924653.593 7      -120.471          47.000
R12  21394649.300   114286378.749 8      5817.127          49.062    21394649.560   114286378.761 8      5817.127          48.562    21394660.720    88889452.573 8      4524.432          48.437    21394660.620    88889451.572 8      4524.432          48.875
G10  22283761.200   117101959.244 7      3122.961          46.875    22283759.840   117101959.247 7      3122.961          46.875    22283769.700    91248311.270 7      2433.476          46.625    22283769.880    91248311.277 7      2433.476          47.625
G07  24638394.420   129475636.253 6      4376.289          39.750    24638393.960   129475636.250 4      4376.289          26.562    24638402.380   100890133.400 4      3410.095          26.437    24638402.580   100890140.408 7      3410.095          42.875
G31  25158632.120   132209507.206 6      -769.912          39.562    25158631.180   132209507.210 5      -769.912          33.625    25158646.900   103020443.055 5      -599.931          33.875    25158647.740   103020446.046 6      -599.931          41.375
> 2024 05 09 12 03  2.0000000  0 16
G27  20937839.140   110029087.066 8      2126.402          48.000    20937837.880   110029087.069 8      2126.402          48.875    20937844.560    85736976.167 8      1656.937          48.750    20937845.040    85736977.164 8      1656.937          49.625
G02  23158919.520   121700949.955 7      4988.545          43.250    23158918.040   121700949.970 5      4988.545          33.500    23158926.300    94831928.093 5      3887.178          33.312
G08  21642853.340   113733959.449 7      3657.740          45.625    21642852.280   113733959.449 6      3657.740          37.812    21642860.180    88623893.651 6      2850.187          37.250    21642860.800    88623897.656 8      2850.187          49.875
R22  20327106.500   108507475.328 8      3123.830          49.000    20327106.760   108507475.326 8      3123.830          49.062    20327114.640    84394736.614 8      2429.646          51.000    20327114.780    84394738.612 8      2429.646          50.562
G23  23378314.540   122853873.230 7      1195.608          45.187    23378313.900   122853873.233 5      1195.608          32.562    23378321.960    95730314.878 5       931.643          32.312    23378322.400    95730314.878 7       931.643          46.937
R11  19282698.560   103040891.560 8      1563.458          49.750    19282698.460   103040891.563 8      1563.458          48.437    19282706.700    80142947.547 8      1216.023          52.812    19282706.500    80142948.546 8      1216.023          53.062
G16  20568324.520   108087273.263 7      1732.049          46.875    20568322.980   108087273.268 6      1732.049          40.875    20568327.380    84223859.519 6      1349.649          40.125
R10  22403582.460   119423672.290 6     -1544.667          40.500    22403581.100   119423672.288 6     -1544.667          39.625
G21  21458776.920   112766635.256 7      4470.549          46.562    21458775.620   112766635.264 6      4470.549          36.312    21458781.700    87870125.385 6      3483.545          36.500
R23  23756146.740   127079378.461 6      5172.220          41.437    23756147.000   127079378.486 6      5172.220          41.000
R21  20689840.400   110715511.319 8       314.513          49.437    20689840.540   110715511.339 7       314.513          47.937    20689851.300    86112107.729 8       244.621          49.562    20689850.860    86112106.731 8       244.621          49.750
G26  22204750.060   116686744.669 7      -155.021          44.812    22204748.840   116686744.672 7      -155.021          44.000    22204760.460    90924771.203 7      -120.796          43.875    22204760.600    90924774.202 7      -120.796          47.187
R12  21393560.520   114280561.904 8      5816.696          48.000    21393560.740   114280561.916 8      5816.696          48.062    21393571.640    88884928.367 8      4524.097          48.312    21393571.840    88884927.366 8      4524.097          49.312
G10  22283166.960   117098836.689 7      3122.213          46.625    22283165.700   117098836.697 7      3122.213          46.375    22283175.400    91245878.117 7      2432.893          46.312    22283175.520    91245878.129 7      2432.893          47.562
G07  24637561.860   129471260.332 6      4375.680          38.812    24637561.260   129471260.332 4      4375.680          26.500    24637569.500   100886723.594 4      3409.620          26.437    24637570.180   100886730.616 7      3409.620          42.625
G31  25158778.560   132210276.911 6      -769.600          39.250    25158777.620   132210276.918 5      -769.600          33.625    25158793.240   103021042.819 5      -599.688          33.687    25158793.980   103021045.823 6      -599.688          41.375
> 2024 05 09 12 03  3.0000000  0 16
G27  20937434.540   110026960.808 8      2126.209          48.562    20937433.240   110026960.813 8      2126.209          49.687    20937439.900    85735319.340 8      1656.786          49.187    20937440.320    85735320.337 8      1656.786          49.812
G02  23157970.400   121695961.573 7      4988.288          43.500    23157968.840   121695961.586 5      4988.288          33.562    23157976.960    94828041.050 5      3886.978          33.312
G08  21642157.180   113730301.774 7      3657.771          46.500    21642156.200   113730301.773 6      3657.771          37.500    21642164.000    88621043.512 6      2850.211          37.750    21642164.880    88621047.519 8      2850.211          49.937
R22  20326521.340   108504351.656 8      3123.457          50.187    20326521.640   108504351.657 8      3123.457          49.875    20326529.520    84392307.096 8      2429.355          50.750    20326529.660    84392309.094 8      2429.355          51.062
G23  23378086.860   122852677.883 7      1195.151          44.312    23378086.380   122852677.885 5      1195.151          32.562    23378094.220    95729383.438 5       931.287          32.812    23378094.520    95729383.435 7       931.287          46.750
R11  19282406.020   103039328.536 8      1562.658          50.000    19282406.000   103039328.540 8      1562.658          49.062    19282414.300    80141731.867 8      1215.401          52.562    19282414.060    80141732.867 8      1215.401          53.187
G16  20567994.700   108085541.519 7      1731.541          47.187    20567993.600   108085541.524 6      1731.541          40.875    20567997.780    84222510.105 6      1349.253          40.250
R10  22403872.500   119425217.156 6     -1544.899          40.500    22403872.100   119425217.162 6     -1544.899          39.625
G21  21457926.260   112762164.945 7      4470.098          46.750    21457925.000   112762164.952 6      4470.098          36.687    21457931.020    87866642.026 6      3483.194          36.625
R23  23755180.020   127074206.332 6      5172.036          41.750    23755180.080   127074206.362 6      5172.036          41.000
R21  20689781.540   110715196.839 8       314.397          49.187    20689781.600   110715196.862 8       314.397          48.812    20689792.480    86111863.136 8       244.531          49.937    20689792.140    86111862.136 8       244.531          49.437
G26  22204779.400   116686899.737 7      -155.187          45.812    22204778.220   116686899.748 7      -155.187          44.125    22204790.040    90924892.031 7      -120.925          43.625    22204790.180    90924895.033 7      -120.925          47.187
R12  21392471.840   114274745.535 8      5816.128          48.750    21392471.800   114274745.544 8      5816.128          48.875    21392482.820    88880404.528 8      4523.655          48.625    21392482.840    88880403.528 8      4523.655          49.562
G10  22282572.940   117095714.628 7      3121.811          47.500    22282571.480   117095714.628 7      3121.811          46.750    22282581.300    91243445.336 7      2432.580          46.500    22282581.260    91243445.344 7      2432.580          47.437
G07  24636729.380   129466884.782 6      4375.436          39.625    24636728.640   129466884.785 4      4375.436          26.500    24636736.900   100883314.078 4      3409.431          26.437    24636737.160   100883321.103 7      3409.431          43.000
G31  25158925.080   132211046.461 6      -769.387          38.687    25158924.140   132211046.463 5      -769.387          34.000    25158939.760   103021642.452 5      -599.522          33.687    25158940.160   103021645.449 6      -599.522          41.562
> 2024 05 09 12 03  4.0000000  0 16
G27  20937029.900   110024835.044 8      2125.289          48.000    20937028.700   110024835.046 8      2125.289          49.812    20937035.500    85733662.896 8      1656.069          49.812    20937035.980    85733663.897 8      1656.069          50.000
G02  23157021.120   121690973.896 7      4987.016          43.687    23157019.660   121690973.911 5      4987.016          33.625    23157027.860    94824154.552 5      3885.987          33.562
G08  21641461.360   113726644.584 7      3656.690          46.250    21641460.260   113726644.587 6      3656.690          37.937    21641468.040    88618193.760 6      2849.368          37.500    21641468.840    88618197.771 8      2849.368          49.875
R22  20325936.220   108501228.815 8      3122.178          50.062    20325936.600   108501228.818 8      3122.178          49.250    20325944.520    84389878.221 8      2428.361          50.687    20325944.560    84389880.219 8      2428.361          50.437
G23  23377859.640   122851483.469 7      1193.683          45.000    23377859.000   122851483.466 5      1193.683          33.062    23377867.000    95728452.726 5       930.142          32.812    23377867.020    95728452.732 7       930.142          46.750
R11  19282113.820   103037766.747 8      1560.919          50.125    19282113.640   103037766.757 8      1560.919          48.812    19282121.920    80140517.146 8      1214.048          52.937    19282121.960    80140518.146 8      1214.048          53.437
G16  20567665.540   108083810.605 7      1730.210          47.062    20567664.180   108083810.610 6      1730.210          40.500    20567668.460    84221161.341 6      1348.216          40.312
R10  22404162.480   119426762.681 6     -1546.037          41.000    22404161.980   119426762.697 6     -1546.037          40.062
G21  21457075.720   112757695.487 7      4468.759          46.937    21457074.560   112757695.492 6      4468.759          36.250    21457080.600    87863159.334 6      3482.150          36.625
R23  23754213.160   127069034.884 6      5170.937          41.750    23754212.820   127069034.913 6      5170.937          41.375
R21  20689722.900   110714882.895 8       313.404          49.687    20689722.920   110714882.913 8       313.404          49.125    20689733.960    86111618.943 8       243.758          49.625    20689733.500    86111617.944 8       243.758          49.750
G26  22204809.120   116687055.531 7      -156.431          45.562    22204807.980   116687055.533 7      -156.431          44.312    22204819.700    90925013.416 7      -121.894          44.000    22204819.960    90925016.418 7      -121.894          47.375
R12  21391383.240   114268930.042 8      5814.759          49.375    21391383.120   114268930.043 8      5814.759          48.312    21391393.960    88875881.356 8      4522.590          48.312    21391394.100    88875880.358 8      4522.590          49.187
G10  22281978.940   117092593.452 7      3120.434          47.562    22281977.740   117092593.457 7      3120.434          46.437    22281987.320    91241013.253 7      2431.507          46.375    22281987.640    91241013.263 7      2431.507          47.437
G07  24635896.940   129462510.084 6      4374.103          40.125    24635896.300   129462510.086 4      4374.103          26.500    24635904.380   100879905.224 4      3408.392          26.437    24635904.980   100879912.228 7      3408.392          43.000
G31  25159071.060   132211816.176 6      -770.060          38.062    25159070.660   132211816.173 5      -770.060          34.000    25159086.220   103022242.224 5      -600.047          33.500    25159086.680   103022245.213 7      -600.047          42.000
> 2024 05 09 12 03  5.0000000  0 16
G27  20936625.620   110022709.681 8      2125.291          48.187    20936624.280   110022709.686 8      2125.291          49.625    20936631.020    85732006.774 8      1656.071          49.250    20936631.580    85732007.775 8      1656.071          49.500
G02  23156072.340   121685986.817 7      4986.953          43.687    23156070.560   121685986.832 5      4986.953          33.625    23156078.940    94820268.529 5      3885.937          33.562
G08  21640765.360   113722987.737 7      3656.875          47.375    21640764.560   113722987.736 6      3656.875          38.187    21640772.180    88615344.266 6      2849.513          38.187    21640772.880    88615348.276 8      2849.513          50.000
R22  20325351.460   108498106.699 8      3121.960          50.187    20325351.880   108498106.700 8      3121.960          49.750    20325359.720    84387449.904 8      2428.191          50.375    20325359.660    84387451.902 8      2428.191          50.875
G23  23377632.500   122850289.858 7      1193.420          44.000    23377631.740   122850289.858 5      1193.420          33.062    23377639.780    95727522.638 5       929.938          32.687    23377640.020    95727522.636 7       929.938          46.437
R11  19281821.660   103036206.105 8      1560.203          49.687    19281821.600   103036206.111 8      1560.203          49.375    19281829.780    80139303.305 8      1213.491          52.812    19281829.720    80139304.303 8      1213.491          53.250
G16  20567336.160   108082080.434 7      1729.937          47.250    20567334.820   108082080.442 6      1729.937          40.875    20567339.120    84219813.152 6      1348.003          40.375
R10  22404452.740   119428308.784 6     -1546.155          41.000    22404452.580   119428308.801 6     -1546.155          40.062
G21  21456225.300   112753226.768 7      4468.492          47.062    21456224.180   112753226.775 6      4468.492          36.875    21456230.280    87859677.219 6      3481.941          36.750
R23  23753246.520   127063864.020 6      5170.820          41.750    23753246.140   127063864.048 6      5170.820          41.375
R21  20689664.000   110714569.371 8       313.490          49.625    20689664.540   110714569.383 8       313.490          48.562    20689675.460    86111375.086 8       243.825          49.562    20689674.720    86111374.086 8       243.825          49.187
G26  22204838.880   116687211.879 7      -156.449          46.187    22204837.680   116687211.884 7      -156.449          44.312    22204849.420    90925135.237 7      -121.909          44.062    22204849.480    90925138.241 7      -121.909          47.250
R12  21390294.600   114263115.241 8      5814.660          49.312    21390294.680   114263115.247 8      5814.660          48.750    21390305.360    88871358.739 8      4522.514          48.125    21390305.440    88871357.737 8      4522.514          49.187
G10  22281385.200   117089473.083 7      3120.106          47.937    22281383.760   117089473.088 7      3120.106          46.687    22281393.540    91238581.798 7      2431.252          46.625    22281394.000    91238581.807 7      2431.252          47.500
G07  24635064.600   129458136.084 6      4373.807          40.625    24635064.040   129458136.083 4      4373.807          26.500    24635072.140   100876496.912 4      3408.161          26.562    24635072.500   100876503.915 7      3408.161          42.875
G31  25159218.040   132212585.976 6      -769.720          38.312    25159217.100   132212585.978 5      -769.720          33.625    25159232.520   103022842.068 5      -599.782          33.500    25159233.300   103022845.072 7      -599.782          42.000
> 2024 05 09 12 03  6.0000000  0 16
G27  20936221.200   110020584.553 8      2125.060          48.250    20936219.920   110020584.560 8      2125.060          50.000    20936226.640    85730350.827 8      1655.891          49.312    20936227.040    85730351.827 8      1655.891          49.750
G02  23155123.260   121681000.172 7      4986.547          42.937    23155121.640   121681000.185 5      4986.547          33.812    23155129.940    94816382.834 5      3885.621          33.562
G08  21640069.680   113719331.096 7      3656.668          47.437    21640068.740   113719331.099 6      3656.668          37.812    21640076.300    88612494.934 6      2849.352          37.750    21640077.140    88612498.941 8      2849.352          49.812
R22  20324766.640   108494985.125 8      3121.354          50.312    20324767.000   108494985.126 8      3121.354          49.812    20324774.720    84385022.003 8      2427.720          50.875    20324774.960    84385024.001 8      2427.720          50.500
G23  23377405.320   122849096.894 7      1192.748          44.625    23377404.860   122849096.894 5      1192.748          32.625    23377412.680    95726593.049 5       929.414          32.687    23377413.020    95726593.048 7       929.414          46.875
R11  19281529.800   103034646.389 8      1559.256          50.312    19281529.700   103034646.398 8      1559.256          49.437    19281537.920    80138090.191 8      1212.754          52.562    19281537.820    80138091.191 8      1212.754          53.250
G16  20567007.340   108080350.815 7      1729.471          46.812    20567005.680   108080350.820 6      1729.471          40.312    20567009.960    84218465.399 6      1347.640          40.250
R10  22404742.980   119429855.290 6     -1546.770          41.000    22404742.400   119429855.319 6     -1546.770          40.062
G21  21455374.960   112748758.637 7      4467.894          47.750    21455373.820   112748758.645 6      4467.894          36.500    21455380.060    87856195.563 6      3481.476          36.750
R23  23752280.040   127058693.573 7      5170.124          42.062    23752279.540   127058693.585 6      5170.124          41.375
R21  20689605.640   110714256.125 8       313.110          49.687    20689605.620   110714256.142 8       313.110          48.937    20689616.800    86111131.455 8       243.530          49.500    20689616.260    86111130.454 8       243.530          49.500
G26  22204868.720   116687368.655 7      -156.914          44.625    22204867.580   116687368.657 7      -156.914          44.437    22204879.160    90925257.388 7      -122.271          43.937    22204879.400    90925260.388 7      -122.271          47.250
R12  21389206.000   114257301.000 8      5814.021          48.312    21389206.140   114257300.999 8      5814.021          48.375    21389217.080    88866836.555 7      4522.016          47.500    21389217.180    88866835.556 8      4522.016          48.437
G10  22280791.500   117086353.339 7      3119.577          47.250    22280790.140   117086353.342 7      3119.577          46.750    22280799.980    91236150.825 7      2430.839          46.437    22280800.400    91236150.835 7      2430.839          47.437
G07  24634231.940   129453762.609 6      4373.212          40.937    24634231.840   129453762.606 4      4373.212          26.500    24634239.820   100873089.010 4      3407.698          26.562    24634240.380   100873096.019 7      3407.698          42.937
G31  25159364.460   132213355.710 6      -769.632          39.062    25159363.500   132213355.712 5      -769.632          33.625    25159378.860   103023441.856 5      -599.713          33.312    25159379.560   103023444.844 6      -599.713          41.750
> 2024 05 09 12 03  7.0000000  0 16
G27  20935816.860   110018459.543 8      2125.053          48.000    20935815.460   110018459.542 8      2125.053          49.437    20935822.320    85728694.971 8      1655.886          49.687    20935822.760    85728695.972 8      1655.886          50.000
G02  23154174.320   121676013.861 7      4986.295          43.687    23154172.720   121676013.873 5      4986.295          33.812    23154181.100    94812497.401 5      3885.425          33.562
G08  21639373.820   113715674.530 7      3656.636          46.437    21639372.840   113715674.532 6      3656.636          37.937    21639380.600    88609645.664 6      2849.327          37.625    21639381.320    88609649.673 8      2849.327          50.437
R22  20324182.140   108491863.988 8      3120.984          50.000    20324182.480   108491863.995 8      3120.984          49.000    20324190.000    84382594.474 8      2427.432          50.250    20324190.240    84382596.469 8      2427.432          50.312
G23  23377178.520   122847904.453 7      1192.300          44.312    23377178.060   122847904.456 5      1192.300          32.625    23377185.780    95725663.874 5       929.065          32.687    23377186.020    95725663.873 7       929.065          46.437
R11  19281238.300   103033087.515 8      1558.578          49.437    19281237.980   103033087.527 8      1558.578          49.250    19281246.280    80136877.727 8      1212.227          52.250    19281245.960    80136878.723 8      1212.227          52.500
G16  20566678.040   108078621.672 7      1729.041          46.875    20566676.740   108078621.680 6      1729.041          40.562    20566680.960    84217118.007 6      1347.305          40.125
R10  22405033.060   119431402.051 6     -1546.802          41.062    22405032.980   119431402.062 6     -1546.802          40.312
G21  21454524.960   112744290.966 7      4467.534          46.687    21454523.620   112744290.971 6      4467.534          36.812    21454529.820    87852714.263 6      3481.195          36.750
R23  23751313.380   127053523.351 7      5170.139          42.062    23751313.440   127053523.352 6      5170.139          41.250
R21  20689547.280   110713943.013 8       313.097          48.500    20689547.080   110713943.033 8       313.097          49.125    20689558.220    86110887.921 8       243.520          49.625    20689557.700    86110886.920 8       243.520          49.187
G26  22204898.600   116687525.730 7      -157.108          44.750    22204897.500   116687525.738 7      -157.108          44.375    22204909.000    90925379.783 7      -122.422          43.875    22204909.300    90925382.783 7      -122.422          47.062
R12  21388117.960   114251487.160 7      5813.660          47.687    21388117.380   114251487.169 8      5813.660          48.062    21388128.620    88862314.685 8      4521.735          48.562    21388128.660    88862313.685 8      4521.735          48.687
G10  22280198.000   117083234.132 7      3118.905          46.750    22280196.620   117083234.142 7      3118.905          46.125    22280206.260    91233720.282 7      2430.315          46.375    22280206.660    91233720.288 7      2430.315          47.375
G07  24633399.740   129449389.529 6      4372.906          40.500    24633399.680   129449389.529 4      4372.906          26.500    24633407.720   100869681.415 4      3407.459          26.562    24633408.140   100869688.424 7      3407.459          42.625
G31  25159510.840   132214125.239 6      -769.491          39.437    25159509.940   132214125.241 5      -769.491          33.625    25159525.400   103024041.485 5      -599.604          33.312    25159526.400   103024044.477 6      -599.604          41.750
> 2024 05 09 12 03  8.0000000  0 16
G27  20935412.760   110016334.622 8      2124.756          48.750    20935411.000   110016334.627 8      2124.756          49.437    20935417.900    85727039.191 8      1655.654          49.312    20935418.360    85727040.190 8      1655.654          49.625
G02  23153225.420   121671027.820 7      4985.755          43.062    23153223.760   121671027.830 5      4985.755          33.437    23153232.400    94808612.178 5      3885.004          33.250
G08  21638678.160   113712018.013 7      3656.254          46.562    21638676.880   113712018.015 6      3656.254          38.062    21638684.760    88606796.432 6      2849.029          37.375    21638685.520    88606800.441 8      2849.029          49.812
R22  20323597.560   108488743.244 8      3120.377          50.437    20323597.880   108488743.245 8      3120.377          49.875    20323605.380    84380167.226 8      2426.960          50.625    20323605.680    84380169.222 8      2426.960          50.312
G23  23376951.420   122846712.514 7      1191.568          44.062    23376951.220   122846712.519 5      1191.568          32.750    23376958.980    95724735.093 5       928.495          32.875    23376959.360    95724735.089 7       928.495          46.250
R11  19280946.720   103031529.424 8      1557.578          50.062    19280946.360   103031529.436 8      1557.578          49.187    19280954.620    80135665.878 8      1211.450          52.312    19280954.400    80135666.876 8      1211.450          53.000
G16  20566349.040   108076892.947 7      1728.334          47.000    20566347.720   108076892.954 6      1728.334          40.937    20566351.980    84215770.950 6      1346.754          40.500
R10  22405323.100   119432949.015 6     -1547.161          41.062    22405322.660   119432949.023 6     -1547.161          40.312
G21  21453674.900   112739823.734 7      4466.848          47.187    21453673.700   112739823.744 6      4466.848          37.125    21453679.640    87849233.305 6      3480.661          37.000
R23  23750347.380   127048353.370 6      5169.787          41.750    23750346.360   127048353.376 6      5169.787          41.250
R21  20689488.280   110713629.978 8       312.859          49.437    20689488.660   110713629.995 8       312.859          48.812    20689499.800    86110644.448 8       243.335          49.687    20689499.260    86110643.447 8       243.335          49.437
G26  22204928.660   116687683.066 7      -157.537          45.125    22204927.400   116687683.071 7      -157.537          44.000    22204939.140    90925502.376 7      -122.756          43.687    22204939.020    90925505.376 7      -122.756          47.500
R12  21387029.900   114245673.753 8      5813.074          48.625    21387029.300   114245673.760 8      5813.074          48.375    21387040.480    88857793.142 8      4521.280          48.250    21387040.660    88857792.144 8      4521.280          48.812
G10  22279604.640   117080115.368 7      3118.312          46.937    22279602.960   117080115.375 7      3118.312          46.437    22279612.940    91231290.076 7      2429.853          46.125    22279613.100    91231290.085 7      2429.853          47.250
G07  24632567.940   129445016.835 6      4372.424          39.937    24632567.560   129445016.837 4      4372.424          27.125    24632575.700   100866274.127 4      3407.084          26.562    24632576.020   100866281.132 7      3407.084          42.625
G31  25159657.160   132214894.505 6      -769.289          38.125    25159656.560   132214894.502 5      -769.289          33.625    25159671.680   103024640.905 5      -599.446          33.312    25159672.480   103024643.895 6      -599.446          41.625
> 2024 05 09 12 03  9.0000000  0 16
G27  20935008.340   110014209.937 8      2124.532          49.000    20935006.880   110014209.942 8      2124.532          49.937    20935013.560    85725383.590 8      1655.480          49.937    20935014.040    85725384.590 8      1655.480          50.125
G02  23152276.720   121666042.218 7      4985.366          43.687    23152274.960   121666042.228 5      4985.366          33.437    23152283.560    94804727.306 5      3884.700          33.250
G08  21637982.260   113708361.691 7      3656.148          46.500    21637981.380   113708361.696 6      3656.148          37.687    21637988.940    88603947.352 6      2848.946          37.687    21637989.660    88603951.367 8      2848.946          49.687
R22  20323013.060   108485623.040 8      3119.923          50.625    20323013.300   108485623.043 8      3119.923          49.937    20323020.860    84377740.406 8      2426.607          50.187    20323021.220    84377742.402 8      2426.607          50.750
G23  23376724.900   122845521.245 7      1190.898          43.312    23376724.500   122845521.244 5      1190.898          32.750    23376732.380    95723806.829 5       927.973          32.875    23376732.440    95723806.817 7       927.973          46.375
R11  19280655.240   103029972.290 8      1556.734          50.312    19280655.180   103029972.301 8      1556.734          49.375    19280663.260    80134454.771 8      1210.793          52.500    19280663.100    80134455.770 8      1210.793          52.687
G16  20566020.180   108075164.789 7      1727.918          47.062    20566018.780   108075164.794 6      1727.918          41.312    20566023.220    84214424.332 6      1346.429          41.062
R10  22405613.740   119434496.408 6     -1547.601          41.687    22405612.600   119434496.424 6     -1547.601          40.500
G21  21452824.780   112735357.083 7      4466.441          46.562    21452823.680   112735357.088 6      4466.441          36.687    21452829.680    87845752.795 6      3480.343          36.937
R23  23749380.660   127043183.800 6      5169.424          41.750    23749379.600   127043183.817 6      5169.424          41.250
R21  20689429.840   110713317.197 8       312.673          48.375    20689430.280   110713317.215 8       312.673          48.062    20689441.260    86110401.168 8       243.190          49.375    20689440.780    86110400.167 8       243.190          49.687
G26  22204958.620   116687840.846 7      -157.996          45.625    22204957.400   116687840.856 7      -157.996          44.000    22204969.120    90925625.315 7      -123.114          44.062    22204969.160    90925628.319 7      -123.114          47.250
R12  21385941.540   114239860.936 8      5812.584          49.000    21385941.140   114239860.943 8      5812.584          48.312    21385952.300    88853272.065 8      4520.899          48.312    21385952.340    88853271.066 8      4520.899          48.312
G10  22279010.900   117076997.256 7      3117.801          47.062    22279009.620   117076997.261 7      3117.801          46.562    22279019.500    91228860.374 7      2429.456          46.312    22279019.820    91228860.383 7      2429.456          47.812
G07  24631735.400   129440644.709 6      4371.870          39.812    24631735.540   129440644.711 4      4371.870          27.125    24631743.640   100862867.276 4      3406.652          26.562    24631744.080   100862874.288 7      3406.652          43.000
G31  25159803.000   132215663.740 6      -769.159          38.875    25159802.760   132215663.734 5      -769.159          33.187    25159818.200   103025240.297 5      -599.344          33.312    25159818.680   103025243.284 6      -599.344          41.375
> 2024 05 09 12 03 10.0000000  0 16
G27  20934603.860   110012085.658 8      2124.110          48.500    20934602.620   110012085.665 8      2124.110          49.750    20934609.360    85723728.307 8      1655.151          49.312    20934609.720    85723729.309 8      1655.151          49.937
G02  23151328.220   121661057.223 7      4984.805          43.250    23151326.400   121661057.233 5      4984.805          33.312    23151334.860    94800842.900 5      3884.263          33.312
G08  21637286.780   113704705.739 7      3655.775          46.875    21637285.660   113704705.744 6      3655.775          38.187    21637293.240    88601098.560 6      2848.656          37.875    21637293.980    88601102.567 8      2848.656          49.812
R22  20322428.600   108482503.561 8      3119.198          50.187    20322428.760   108482503.567 8      3119.198          49.937    20322436.540    84375314.145 8      2426.043          50.500    20322436.680    84375316.141 8      2426.043          50.500
G23  23376498.680   122844330.761 7      1190.125          43.500    23376497.760   122844330.766 5      1190.125          32.750    23376505.900    95722879.177 5       927.370          32.437    23376505.620    95722879.178 7       927.370          46.062
R11  19280364.180   103028416.304 8      1555.504          49.875    19280363.920   103028416.318 8      1555.504          49.625    19280372.160    80133244.552 8      1209.836          52.750    19280372.120    80133245.552 8      1209.836          52.562
G16  20565691.320   108073437.385 7      1727.085          46.812    20565690.140   108073437.393 6      1727.085          41.250    20565694.420    84213078.303 6      1345.781          40.500
R10  22405903.960   119436044.350 6     -1548.203          41.687    22405903.120   119436044.361 6     -1548.203          40.500
G21  21451975.160   112730891.196 7      4465.593          47.250    21451973.900   112730891.201 6      4465.593          37.000    21451979.900    87842272.883 6      3479.683          36.687
R23  23748414.660   127038014.805 7      5168.830          42.375    23748414.040   127038014.817 6      5168.830          41.000
R21  20689371.420   110713004.856 8       312.192          49.062    20689371.680   110713004.876 8       312.192          48.375    20689382.960    86110158.231 8       242.816          49.625    20689382.300    86110157.230 8       242.816          49.187
G26  22204988.540   116687999.201 7      -158.564          45.562    22204987.540   116687999.209 7      -158.564          44.875    22204999.200    90925748.699 7      -123.557          44.250    22204999.460    90925751.700 7      -123.557          47.125
R12  21384853.440   114234048.838 8      5811.873          48.812    21384853.100   114234048.842 8      5811.873          48.625    21384864.120    88848751.544 8      4520.346          48.187    21384864.340    88848750.539 8      4520.346          49.000
G10  22278417.920   117073879.945 7      3116.979          47.125    22278416.460   117073879.950 7      3116.979          47.125    22278426.300    91226431.301 7      2428.815          46.500    22278426.360    91226431.309 7      2428.815          47.687
G07  24630903.860   129436273.268 6      4371.122          39.375    24630903.780   129436273.268 4      4371.122          27.125    24630911.840   100859460.960 4      3406.069          26.562    24630912.360   100859467.975 7      3406.069          42.937
G31  25159949.580   132216433.030 6      -769.212          38.875    25159949.060   132216433.021 5      -769.212          33.187    25159964.560   103025839.737 5      -599.386          32.937    25159965.040   103025842.723 6      -599.386          41.375
> 2024 05 09 12 03 11.0000000  0 16
G27  20934199.780   110009961.551 7      2123.954          47.562    20934198.420   110009961.559 8      2123.954          49.250    20934205.080    85722073.158 8      1655.029          48.562    20934205.660    85722074.159 8      1655.029          50.000
G02  23150379.620   121656072.612 7      4984.311          43.250    23150377.760   121656072.622 5      4984.311          33.312    23150386.260    94796958.794 5      3883.879          33.312
G08  21636590.920   113701049.918 7      3655.616          47.687    21636589.980   113701049.915 6      3655.616          38.062    21636597.580    88598249.863 6      2848.532          37.687    21636598.280    88598253.872 8      2848.532          50.062
R22  20321844.120   108479384.600 8      3118.610          50.625    20321844.580   108479384.601 8      3118.610          49.875    20321852.260    84372888.280 8      2425.586          49.625    20321852.500    84372890.280 8      2425.586          49.312
G23  23376272.120   122843140.879 7      1189.528          44.437    23376271.320   122843140.884 5      1189.528          32.125    23376279.260    95721951.992 5       926.905          32.437    23376279.480    95721951.989 7       926.905          45.937
R11  19280073.140   103026861.189 8      1554.538          50.187    19280072.900   103026861.196 8      1554.538          49.312    19280081.200    80132035.018 8      1209.085          50.750    19280081.080    80132036.019 8      1209.085          51.437
G16  20565362.800   108071710.494 7      1726.508          46.812    20565361.500   108071710.501 6      1726.508          40.437    20565365.820    84211732.669 6      1345.331          40.000
R10  22406194.460   119437592.633 6     -1548.612          41.687    22406193.040   119437592.645 6     -1548.612          40.437
G21  21451125.560   112726425.842 7      4464.991          47.750    21451124.020   112726425.850 6      4464.991          36.500    21451130.420    87838793.389 6      3479.214          37.062
R23  23747448.620   127032846.156 7      5168.321          42.375    23747447.260   127032846.171 6      5168.321          41.000
R21  20689313.240   110712692.739 8       311.878          49.000    20689313.360   110712692.759 8       311.878          48.437    20689324.660    86109915.471 8       242.571          49.562    20689324.140    86109914.469 8       242.571          49.187
G26  22205018.840   116688157.927 7      -159.006          45.125    22205017.700   116688157.929 7      -159.006          44.375    22205029.480    90925872.369 7      -123.900          44.000    22205029.740    90925875.373 7      -123.900          47.375
R12  21383765.540   114228237.269 8      5811.196          49.375    21383765.120   114228237.272 8      5811.196          48.625    21383776.140    88844231.434 8      4519.819          48.187    21383776.280    88844230.434 8      4519.819          48.812
G10  22277824.960   117070763.207 7      3116.354          46.375    22277823.380   117070763.207 7      3116.354          46.562    22277833.260    91224002.672 7      2428.328          46.562    22277833.240    91224002.681 7      2428.328          47.562
G07  24630072.040   129431902.313 6      4370.716          40.312    24630071.940   129431902.313 4      4370.716          27.125    24630080.060   100856055.026 4      3405.753          27.000    24630080.760   100856062.018 7      3405.753          43.125
G31  25160096.100   132217202.193 6      -769.204          37.875    25160095.300   132217202.185 5      -769.204          33.062    25160110.760   103026439.082 5      -599.379          32.937    25160112.060   103026442.087 6      -599.379          41.562
> 2024 05 09 12 03 12.0000000  0 16
G27  20933795.440   110007837.789 7      2123.551          47.812    20933794.300   110007837.794 8      2123.551          49.562    20933801.040    85720418.276 8      1654.715          49.250    20933801.720    85720419.277 8      1654.715          50.312
G02  23149430.980   121651088.523 7      4983.867          42.562    23149429.300   121651088.533 5      4983.867          33.500    23149437.740    94793075.097 5      3883.532          33.312
G08  21635895.160   113697394.371 7      3655.434          47.187    21635894.280   113697394.373 6      3655.434          38.187    21635902.040    88595401.386 6      2848.390          37.687    21635902.580    88595405.402 8      2848.390          50.000
R22  20321260.320   108476266.250 8      3118.089          50.375    20321260.280   108476266.248 8      3118.089          49.375    20321268.100    84370462.901 8      2425.180          50.750    20321268.140    84370464.895 8      2425.180          50.625
G23  23376045.700   122841951.736 7      1188.785          44.312    23376044.900   122841951.738 5      1188.785          32.125    23376052.900    95721025.385 5       926.326          32.437    23376053.220    95721025.385 7       926.326          46.375
R11  19279782.020   103025307.103 8      1553.609          50.125    19279782.000   103025307.107 8      1553.609          49.062    19279790.340    80130826.275 8      1208.363          52.812    19279790.100    80130827.275 8      1208.363          53.500
G16  20565034.320   108069984.265 7      1725.947          46.687    20565032.960   108069984.272 6      1725.947          40.562    20565037.340    84210387.553 6      1344.894          40.125
R10  22406484.980   119439141.372 6     -1549.006          41.812    22406484.260   119439141.389 6     -1549.006          40.437
G21  21450276.100   112721961.154 7      4464.401          46.562    21450274.420   112721961.159 6      4464.401          36.562    21450280.840    87835314.413 6      3478.754          36.500
R23  23746482.480   127027677.993 6      5167.969          41.937    23746481.380   127027678.002 6      5167.969          41.000
R21  20689254.820   110712380.991 7       311.572          47.875    20689255.180   110712381.009 8       311.572          48.375    20689266.440    86109672.995 8       242.334          48.437    20689265.720    86109671.996 8       242.334          48.375
G26  22205049.120   116688317.162 7      -159.510          45.500    22205047.960   116688317.167 7      -159.510          44.062    22205059.840    90925996.442 7      -124.294          43.625    22205059.900    90925999.444 7      -124.294          47.375
R12  21382677.820   114222426.305 8      5810.601          48.750    21382677.200   114222426.309 8      5810.601          48.062    21382688.260    88839711.796 7      4519.356          47.562    21382688.560    88839710.798 8      4519.356          48.125
G10  22277232.060   117067647.187 7      3115.660          47.125    22277230.480   117067647.191 7      3115.660          46.062    22277240.260    91221574.608 7      2427.787          45.750    22277240.340    91221574.619 7      2427.787          47.625
G07  24629240.140   129427531.997 6      4369.960          39.812    24629240.240   129427531.997 4      4369.960          27.125    24629248.580   100852649.583 4      3405.164          27.000    24629248.920   100852656.587 7      3405.164          43.125
G31  25160242.760   132217971.370 6      -769.246          38.500    25160241.500   132217971.362 5      -769.246          33.062    25160257.260   103027038.434 5      -599.413          33.000    25160258.780   103027041.436 6      -599.413          41.562
> 2024 05 09 12 03 13.0000000  0 16
G27  20933391.300   110005713.911 7      2123.800          47.437    20933390.160   110005713.916 8      2123.800          49.937    20933396.760    85718763.302 8      1654.909          49.812    20933397.500    85718764.308 8      1654.909          49.625
G02  23148482.420   121646104.524 7      4983.902          43.937    23148480.860   121646104.534 5      4983.902          33.500    23148489.180    94789191.469 5      3883.560          33.312
G08  21635199.600   113693738.714 7      3655.595          46.500    21635198.720   113693738.716 6      3655.595          38.187    21635206.320    88592552.824 6      2848.516          37.812    21635207.080    88592556.837 8      2848.516          50.000
R22  20320676.120   108473148.135 8      3117.857          50.750    20320676.180   108473148.139 8      3117.857          49.875    20320684.040    84368037.703 8      2425.000          50.750    20320683.900    84368039.701 8      2425.000          50.812
G23  23375819.440   122840762.902 7      1188.481          43.500    23375818.480   122840762.907 5      1188.481          32.375    23375826.680    95720099.021 5       926.089          32.125    23375827.400    95720099.024 7       926.089          46.500
R11  19279491.260   103023753.627 8      1553.078          50.437    19279491.320   103023753.633 8      1553.078          48.937    19279499.500    80129618.017 8      1207.950          52.500    19279499.340    80129619.017 8      1207.950          53.187
G16  20564705.960   108068258.280 7      1725.762          47.750    20564704.460   108068258.290 6      1725.762          40.937    20564708.940    84209042.628 6      1344.749          40.437
R10  22406775.540   119440690.173 6     -1548.944          41.812    22406774.800   119440690.181 6     -1548.944          40.437
G21  21449426.440   112717496.712 7      4464.193          46.937    21449424.860   112717496.717 6      4464.193          37.062    21449431.140    87831835.631 6      3478.592          36.875
R23  23745516.840   127022509.908 6      5167.861          41.937    23745515.200   127022509.915 6      5167.861          41.125
R21  20689196.780   110712069.158 8       311.815          49.250    20689196.660   110712069.168 8       311.815          48.125    20689208.200    86109430.452 8       242.523          49.000    20689207.600    86109429.451 8       242.523          49.312
G26  22205079.600   116688476.469 7      -159.418          44.875    22205078.380   116688476.471 7      -159.418          44.625    22205090.060    90926120.563 7      -124.222          44.375    22205090.320    90926123.567 7      -124.222          47.125
R12  21381590.160   114216615.545 8      5810.548          49.187    21381589.660   114216615.549 8      5810.548          48.062    21381600.380    88835192.320 8      4519.315          48.375    21381600.340    88835191.322 8      4519.315          48.250
G10  22276638.980   117064531.468 7      3115.490          46.375    22276637.580   117064531.473 7      3115.490          46.625    22276647.300    91219146.776 7      2427.655          46.437    22276647.500    91219146.780 7      2427.655          47.750
G07  24628408.880   129423161.868 6      4369.911          39.812    24628408.660   129423161.862 4      4369.911          27.062    24628417.080   100849244.285 4      3405.125          27.000    24628417.660   100849251.283 7      3405.125          43.062
G31  25160389.140   132218740.129 6      -768.698          38.062    25160387.680   132218740.124 5      -768.698          32.937    25160403.520   103027637.461 5      -598.985          33.000    25160404.140   103027640.461 6      -598.985          41.687
> 2024 05 09 12 03 14.0000000  0 16
G27  20932987.160   110003590.162 8      2123.634          48.187    20932985.940   110003590.170 8      2123.634          49.437    20932992.780    85717108.437 8      1654.779          49.250    20932993.340    85717109.440 8      1654.779          50.500
G02  23147534.120   121641120.867 7      4983.466          43.375    23147532.440   121641120.877 5      4983.466          33.625    23147540.980    94785308.108 5      3883.220          33.375
G08  21634503.820   113690083.138 7      3655.441          46.687    21634503.200   113690083.137 6      3655.441          37.875    21634510.560    88589704.323 6      2848.396          37.812    21634511.300    88589708.334 8      2848.396          49.812
R22  20320092.020   108470030.450 8      3117.429          50.562    20320092.160   108470030.451 8      3117.429          50.312    20320099.980    84365612.837 8      2424.667          50.687    20320100.000    84365614.832 8      2424.667          50.437
G23  23375593.420   122839574.615 7      1187.870          43.750    23375592.380   122839574.623 5      1187.870          32.375    23375600.620    95719173.081 5       925.613          32.125    23375601.260    95719173.088 7       925.613          46.312
R11  19279200.860   103022200.973 8      1552.143          50.375    19279200.680   103022200.977 8      1552.143          49.562    19279209.060    80128410.401 8      1207.223          53.000    19279208.900    80128411.400 8      1207.223          52.875
G16  20564377.840   108066532.771 8      1725.148          48.187    20564376.220   108066532.781 6      1725.148          41.187    20564380.520    84207698.075 6      1344.271          40.937
R10  22407066.020   119442239.237 6     -1549.321          41.812    22407065.620   119442239.243 6     -1549.321          40.625
G21  21448576.880   112713032.754 7      4463.649          46.187    21448575.480   112713032.759 6      4463.649          36.937    21448581.740    87828357.224 6      3478.168          36.875
R23  23744550.240   127017342.106 6      5167.487          41.937    23744549.360   127017342.113 6      5167.487          41.125
R21  20689138.500   110711757.456 8       311.548          48.250    20689138.440   110711757.471 7       311.548          47.937    20689149.800    86109188.019 8       242.315          49.437    20689149.180    86109187.018 8       242.315          49.250
G26  22205110.080   116688636.093 7      -159.834          45.312    22205108.760   116688636.098 7      -159.834          44.187    22205120.420    90926244.941 7      -124.546          43.937    22205120.520    90926247.949 7      -124.546          47.312
R12  21380502.240   114210805.271 8      5809.976          49.000    21380501.840   114210805.272 8      5809.976          48.312    21380512.740    88830673.216 8      4518.870          48.562    21380512.780    88830672.217 8      4518.870          48.375
G10  22276046.160   117061416.275 7      3114.885          46.187    22276044.700   117061416.283 7      3114.885          46.437    22276054.500    91216719.357 7      2427.183          46.625    22276054.620    91216719.361 7      2427.183          47.375
G07  24627577.380   129418792.164 6      4369.282          39.750    24627577.200   129418792.166 4      4369.282          27.062    24627585.380   100845839.325 4      3404.635          27.000    24627585.880   100845846.337 7      3404.635          43.000
G31  25160535.980   132219508.697 6      -768.622          38.062    25160533.560   132219508.691 5      -768.622          32.937    25160549.900   103028236.341 5      -598.926          32.687    25160550.400   103028239.342 6      -598.926          41.687
> 2024 05 09 12 03 15.0000000  0 16
G27  20932583.140   110001466.624 8      2123.556          48.812    20932581.840   110001466.628 8      2123.556          49.687    20932588.620    85715453.727 8      1654.719          49.687    20932589.280    85715454.731 8      1654.719          49.812
G02  23146585.960   121636137.624 7      4983.055          44.250    23146584.120   121636137.634 5      4983.055          33.625    23146592.680    94781425.068 5      3882.900          33.375
G08  21633808.320   113686427.738 7      3655.243          46.625    21633807.460   113686427.740 6      3655.243          37.750    21633815.000    88586855.964 6      2848.241          37.625    21633815.860    88586859.977 8      2848.241          49.562
R22  20319508.160   108466913.288 8      3116.934          50.250    20319508.140   108466913.291 8      3116.934          49.562    20319516.020    84363188.377 8      2424.282          50.750    20319516.400    84363190.377 8      2424.282          51.125
G23  23375367.480   122838386.940 7      1187.351          43.937    23375366.400   122838386.948 5      1187.351          31.937    23375374.560    95718247.622 5       925.209          32.062    23375374.880    95718247.623 7       925.209          45.875
R11  19278910.540   103020649.251 8      1551.274          50.875    19278910.320   103020649.255 8      1551.274          49.312    19278918.600    80127203.507 8      1206.546          52.625    19278918.440    80127204.505 8      1206.546          52.750
G16  20564049.620   108064807.800 7      1724.658          47.062    20564047.940   108064807.807 6      1724.658          40.812    20564052.320    84206353.938 6      1343.889          40.375
R10  22407356.540   119443788.648 6     -1549.433          41.437    22407356.520   119443788.653 6     -1549.433          40.625
G21  21447727.280   112708569.355 7      4463.140          46.125    21447726.180   112708569.360 6      4463.140          36.750    21447732.220    87824879.254 6      3477.771          37.000
R23  23743584.340   127012174.668 7      5167.145          42.062    23743583.160   127012174.683 6      5167.145          40.625
R21  20689079.960   110711445.962 8       311.368          49.250    20689080.160   110711445.980 8       311.368          48.812    20689091.620    86108945.744 8       242.175          49.125    20689090.700    86108944.743 8       242.175          49.500
G26  22205140.580   116688796.109 7      -160.159          45.562    22205139.140   116688796.114 7      -160.159          44.187    22205150.840    90926369.623 7      -124.799          43.875    22205151.000    90926372.627 7      -124.799          47.375
R12  21379414.400   114204995.534 8      5809.516          49.000    21379414.200   114204995.540 8      5809.516          49.062    21379424.980    88826154.538 8      4518.512          48.187    21379425.320    88826153.539 8      4518.512          49.125
G10  22275453.260   117058301.689 7      3114.344          46.812    22275452.040   117058301.689 7      3114.344          46.687    22275461.820    91214292.403 7      2426.762          46.562    22275461.800    91214292.407 7      2426.762          47.937
G07  24626746.000   129414422.962 6      4368.986          39.937    24626745.820   129414422.967 4      4368.986          27.062    24626753.980   100842434.752 4      3404.404          27.000    24626754.240   100842441.754 7      3404.404          42.937
G31  25160681.200   132220277.164 6      -768.316          37.875    25160679.600   132220277.156 5      -768.316          33.125    25160696.040   103028835.138 5      -598.688          32.687    25160696.980   103028838.130 6      -598.688          41.687
> 2024 05 09 12 03 16.0000000  0 16
G27  20932178.980   109999343.132 8      2123.533          48.687    20932177.720   109999343.140 8      2123.533          49.812    20932184.540    85713799.058 8      1654.701          49.750    20932185.380    85713800.060 8      1654.701          49.937
G02  23145637.940   121631154.608 7      4982.880          43.312    23145636.000   121631154.618 5      4982.880          33.375    23145644.420    94777542.202 5      3882.763          33.250
G08  21633112.820   113682772.309 7      3655.480          47.687    21633111.860   113682772.308 6      3655.480          38.000    21633119.500    88584007.575 6      2848.426          38.187    21633119.960    88584011.589 8      2848.426          50.125
R22  20318923.840   108463796.459 8      3116.687          50.375    20318924.340   108463796.466 8      3116.687          50.062    20318932.220    84360764.177 8      2424.090          50.375    20318932.120    84360766.173 8      2424.090          50.687
G23  23375141.640   122837199.704 7      1187.038          44.500    23375140.360   122837199.712 5      1187.038          31.937    23375148.700    95717322.499 5       924.965          32.062    23375149.160    95717322.500 7       924.965          45.750
R11  19278620.320   103019098.257 8      1550.725          50.375    19278619.880   103019098.263 8      1550.725          49.375    19278628.420    80125997.172 8      1206.119          52.562    19278628.280    80125998.172 8      1206.119          52.937
G16  20563721.280   108063083.181 8      1724.469          48.000    20563719.760   108063083.189 6      1724.469          40.687    20563724.140    84205010.078 6      1343.742          40.375
R10  22407647.440   119445338.274 6     -1549.787          41.437    22407647.020   119445338.288 6     -1549.787          40.500
G21  21446878.040   112704106.322 7      4462.973          46.562    21446876.880   112704106.324 6      4462.973          36.812    21446882.980    87821401.565 6      3477.641          36.937
R23  23742618.320   127007007.415 7      5167.181          42.062    23742617.280   127007007.432 6      5167.181          40.625
R21  20689022.160   110711134.528 8       311.491          49.187    20689022.000   110711134.537 8       311.491          48.687    20689033.480    86108703.511 8       242.271          49.437    20689032.880    86108702.506 8       242.271          49.500
G26  22205171.140   116688956.346 7      -160.347          45.687    22205169.660   116688956.350 7      -160.347          44.687    22205181.260    90926494.474 7      -124.946          44.062    22205181.620    90926497.476 7      -124.946          47.187
R12  21378326.960   114199186.130 8      5809.284          48.750    21378326.880   114199186.134 8      5809.284          48.750    21378337.680    88821636.111 8      4518.332          48.375    21378337.480    88821635.112 8      4518.332          48.625
G10  22274860.620   117055187.521 7      3114.069          46.562    22274859.420   117055187.521 7      3114.069          46.500    22274869.320    91211865.776 7      2426.547          46.250    22274869.140    91211865.776 7      2426.547          47.687
G07  24625914.620   129410054.091 6      4368.745          39.250    24625914.500   129410054.091 4      4368.745          27.062    24625922.760   100839030.435 4      3404.217          27.062    24625923.300   100839037.439 7      3404.217          43.000
G31  25160827.400   132221045.337 6      -767.978          37.562    25160825.760   132221045.337 5      -767.978          33.125    25160842.140   103029433.711 5      -598.425          32.687    25160843.640   103029436.706 6      -598.425          41.687
> 2024 05 09 12 03 17.0000000  0 16
G27  20931774.960   109997219.827 8      2123.246          48.312    20931773.720   109997219.832 8      2123.246          49.750    20931780.460    85712144.533 8      1654.477          49.687    20931781.160    85712145.537 8      1654.477          49.812
G02  23144689.980   121626171.980 7      4982.414          42.875    23144687.840   121626171.990 5      4982.414          33.375    23144696.260    94773659.639 5      3882.401          33.250
G08  21632417.200   113679117.045 7      3655.313          45.937    21632416.240   113679117.045 6      3655.313          38.000    21632423.900    88581159.316 6      2848.296          37.562    21632424.400    88581163.325 8      2848.296          49.812
R22  20318340.340   108460680.157 8      3116.098          50.750    20318340.680   108460680.158 8      3116.098          49.937    20318348.380    84358340.380 8      2423.632          50.875    20318348.440    84358342.376 8      2423.632          51.062
G23  23374915.820   122836013.083 7      1186.354          44.187    23374914.500   122836013.085 5      1186.354          31.750    23374922.980    95716397.855 5       924.431          32.062    23374922.980    95716397.860 7       924.431          46.250
R11  19278330.260   103017548.208 8      1549.646          50.000    19278329.940   103017548.212 8      1549.646          49.000    19278338.260    80124791.574 8      1205.280          52.562    19278338.200    80124792.572 8      1205.280          53.437
G16  20563393.060   108061359.112 7      1723.850          47.250    20563391.660   108061359.117 6      1723.850          40.750    20563396.040    84203666.641 6      1343.260          40.312
R10  22407938.380   119446888.199 6     -1549.970          41.500    22407938.200   119446888.216 6     -1549.970          40.500
G21  21446028.900   112699643.843 7      4462.322          47.562    21446027.680   112699643.848 6      4462.322          36.687    21446033.800    87817924.313 6      3477.134          37.062
R23  23741652.740   127001840.549 7      5166.711          42.250    23741651.840   127001840.556 6      5166.711          40.625
R21  20688963.960   110710823.331 8       311.131          49.375    20688963.720   110710823.349 8       311.131          48.437    20688975.160    86108461.473 8       241.991          49.000    20688974.700    86108460.472 8       241.991          48.937
G26  22205201.440   116689116.958 7      -160.800          43.750    22205200.300   116689116.960 7      -160.800          44.000    22205211.900    90926619.612 7      -125.299          44.250    22205212.140    90926622.620 7      -125.299          47.750
R12  21377239.780   114193377.242 8      5808.701          48.812    21377239.140   114193377.251 8      5808.701          48.437    21377250.060    88817118.089 8      4517.878          48.500    21377249.900    88817117.092 8      4517.878          48.750
G10  22274268.320   117052073.963 7      3113.328          47.125    22274267.060   117052073.962 7      3113.328          46.625    22274276.660    91209439.626 7      2425.970          46.437    22274276.740    91209439.631 7      2425.970          47.437
G07  24625083.400   129405685.693 6      4368.322          39.375    24625083.040   129405685.695 4      4368.322          27.062    24625091.480   100835626.490 4      3403.887          27.062    24625091.920   100835633.493 7      3403.887          43.000
G31  25160973.800   132221813.382 6      -767.786          37.562    25160971.800   132221813.387 5      -767.786          33.125    25160988.380   103030032.179 5      -598.275          32.375    25160989.020   103030035.170 6      -598.275          41.687
> 2024 05 09 12 03 18.0000000  0 16
G27  20931371.040   109995096.735 8      2122.832          48.750    20931369.660   109995096.737 8      2122.832          49.750    20931376.480    85710490.176 8      1654.155          49.250    20931377.040    85710491.179 8      1654.155          50.250
G02  23143741.920   121621189.760 7      4981.883          44.000    23143739.980   121621189.767 5      4981.883          33.562    23143748.280    94769777.396 5      3881.987          33.812
G08  21631721.640   113675461.976 7      3654.827          47.062    21631720.820   113675461.981 6      3654.827          38.375    21631728.360    88578311.208 6      2847.917          37.500    21631729.120    88578315.224 8      2847.917          50.000
R22  20317756.580   108457564.361 8      3115.444          50.187    20317756.900   108457564.359 8      3115.444          50.000    20317764.760    84355916.975 8      2423.123          51.000    20317764.660    84355918.975 8      2423.123          50.687
G23  23374690.140   122834827.074 7      1185.583          44.437    23374688.960   122834827.076 5      1185.583          31.750    23374697.220    95715473.688 5       923.831          31.687    23374697.560    95715473.697 7       923.831          46.312
R11  19278040.480   103015999.059 8      1548.611          50.375    19278039.880   103015999.066 8      1548.611          49.937    19278048.420    80123586.683 8      1204.475          53.250    19278048.320    80123587.685 8      1204.475          53.250
G16  20563065.060   108059635.589 7      1723.100          46.625    20563063.720   108059635.597 6      1723.100          41.250    20563067.980    84202323.632 6      1342.675          40.625
R10  22408229.420   119448438.548 6     -1550.641          41.687    22408228.640   119448438.549 6     -1550.641          40.500
G21  21445179.920   112695181.929 7      4461.523          46.125    21445178.440   112695181.932 6      4461.523          36.625    21445184.740    87814447.501 6      3476.511          36.562
R23  23740686.280   126996674.064 7      5165.903          42.250    23740685.960   126996674.081 6      5165.903          40.875
R21  20688905.780   110710512.352 8       310.725          49.187    20688905.620   110710512.369 7       310.725          47.500    20688917.000    86108219.602 8       241.675          49.187    20688916.600    86108218.599 8       241.675          49.125
G26  22205232.320   116689277.951 7      -161.300          45.000    22205230.880   116689277.956 7      -161.300          44.062    22205242.540    90926745.055 7      -125.688          44.062    22205242.800    90926748.065 7      -125.688          47.312
R12  21376152.340   114187568.921 8      5807.988          48.812    21376151.820   114187568.916 8      5807.988          48.375    21376162.620    88812600.501 8      4517.324          48.562    21376162.640    88812599.503 8      4517.324          49.000
G10  22273675.880   117048960.990 7      3112.557          47.312    22273674.520   117048960.995 7      3112.557          46.312    22273684.340    91207013.933 7      2425.369          46.062    22273684.260    91207013.938 7      2425.369          47.500
G07  24624252.240   129401317.839 6      4367.468          39.312    24624251.880   129401317.844 4      4367.468          27.062    24624260.360   100832222.970 4      3403.222          27.062    24624260.780   100832229.984 7      3403.222          42.937
G31  25161119.540   132222581.369 6      -767.990          37.937    25161117.780   132222581.366 5      -767.990          32.375    25161134.660   103030630.600 5      -598.434          32.375    25161135.760   103030633.581 6      -598.434          41.937
> 2024 05 09 12 03 19.0000000  0 16
G27  20930967.100   109992973.948 8      2122.522          49.375    20930965.800   109992973.955 8      2122.522          49.562    20930972.480    85708836.060 8      1653.913          49.562    20930973.020    85708837.061 8      1653.913          49.812
G02  23142794.120   121616208.054 7      4981.413          43.687    23142792.060   121616208.062 5      4981.413          33.875    23142800.260    94765895.554 5      3881.620          33.812
G08  21631026.280   113671807.165 7      3654.575          47.125    21631025.300   113671807.170 6      3654.575          38.125    21631032.900    88575463.305 6      2847.721          37.375    21631033.860    88575467.317 8      2847.721          49.875
R22  20317173.100   108454449.182 8      3114.827          50.125    20317173.340   108454449.188 8      3114.827          50.125    20317181.300    84353494.069 8      2422.643          50.625    20317181.320    84353496.065 8      2422.643          50.875
G23  23374464.480   122833641.798 7      1184.824          44.687    23374463.320   122833641.803 5      1184.824          31.750    23374471.680    95714550.097 5       923.240          31.687    23374472.020    95714550.101 7       923.240          46.125
R11  19277750.840   103014450.974 8      1547.463          50.125    19277750.300   103014450.978 8      1547.463          49.375    19277758.700    80122382.615 8      1203.582          52.812    19277758.740    80122383.615 8      1203.582          53.125
G16  20562737.280   108057912.707 7      1722.494          47.312    20562735.940   108057912.712 6      1722.494          40.687    20562740.120    84200981.125 6      1342.203          40.062
R10  22408519.920   119449989.326 6     -1551.135          41.687    22408519.820   119449989.340 6     -1551.135          40.750
G21  21444330.980   112690720.654 7      4460.902          46.500    21444329.500   112690720.659 6      4460.902          36.437    21444335.700    87810971.185 6      3476.028          36.625
R23  23739720.640   126991507.995 6      5165.753          41.375    23739720.320   126991508.012 6      5165.753          40.875
R21  20688847.520   110710201.728 8       310.340          49.250    20688847.320   110710201.743 8       310.340          48.250    20688859.100    86107978.002 8       241.376          49.312    20688858.480    86107976.999 8       241.376          49.375
G26  22205263.020   116689439.449 7      -161.820          45.250    22205261.660   116689439.459 7      -161.820          44.125    22205273.340    90926870.894 7      -126.094          44.000    22205273.760    90926873.900 7      -126.094          47.312
R12  21375064.680   114181761.203 8      5807.430          48.625    21375064.380   114181761.201 8      5807.430          48.250    21375075.420    88808083.391 8      4516.890          48.812    21375075.560    88808082.393 8      4516.890          48.937
G10  22273083.620   117045848.732 7      3111.822          46.812    22273082.300   117045848.734 7      3111.822          47.125    22273092.080    91204588.797 7      2424.796          46.750    22273092.400    91204588.802 7      2424.796          47.500
G07  24623421.080   129396950.594 6      4366.754          39.187    24623420.760   129396950.602 4      4366.754          27.062    24623429.320   100828819.928 4      3402.666          27.062    24623429.860   100828826.941 7      3402.666          43.187
G31  25161265.380   132223349.295 6      -767.819          36.750    25161263.700   132223349.292 5      -767.819          32.375    25161280.780   103031228.975 5      -598.300          32.375    25161282.100   103031231.969 6      -598.300          41.875
> 2024 05 09 12 03 20.0000000  0 16
G27  20930563.240   109990851.560 8      2122.406          49.437    20930561.820   109990851.564 8      2122.406          49.937    20930568.660    85707182.245 8      1653.823          49.500    20930569.060    85707183.244 8      1653.823          50.000
G02  23141846.180   121611226.972 7      4980.937          43.750    23141844.160   121611226.974 5      4980.937          33.875    23141852.320    94762014.197 5      3881.250          33.687
G08  21630330.640   113668152.705 7      3654.471          46.312    21630329.780   113668152.705 6      3654.471          38.000    21630337.560    88572615.675 6      2847.640          37.750    21630338.140    88572619.684 8      2847.640          49.937
R22  20316589.480   108451334.729 8      3114.381          50.125    20316589.900   108451334.738 8      3114.381          50.250    20316597.760    84351071.718 8      2422.296          50.375    20316597.540    84351073.718 8      2422.296          51.000
G23  23374239.100   122832457.319 7      1184.347          43.875    23374238.000   122832457.323 5      1184.347          32.000    23374246.180    95713627.130 5       922.868          32.062    23374246.460    95713627.128 7       922.868          46.250
R11  19277461.220   103012903.974 8      1546.603          50.437    19277460.620   103012903.981 8      1546.603          49.187    19277469.180    80121179.390 8      1202.913          52.250    19277469.140    80121180.386 8      1202.913          53.125
G16  20562409.720   108056190.572 7      1721.974          46.687    20562408.200   108056190.574 6      1721.974          40.437    20562412.380    84199639.201 6      1341.798          40.000
R10  22408810.720   119451540.674 6     -1551.451          41.875    22408810.600   119451540.691 6     -1551.451          40.750
G21  21443482.160   112686260.132 7      4460.461          46.437    21443480.740   112686260.137 6      4460.461          36.562    21443486.860    87807495.456 6      3475.684          37.000
R23  23738755.480   126986342.555 6      5165.265          41.375    23738754.940   126986342.562 6      5165.265          40.875
R21  20688789.720   110709891.540 8       310.207          48.812    20688789.640   110709891.549 8       310.207          48.875    20688801.040    86107736.740 8       241.272          49.125    20688800.600    86107735.738 8       241.272          49.312
G26  22205293.860   116689601.535 7      -162.190          45.625    22205292.420   116689601.540 7      -162.190          44.187    22205304.160    90926997.183 7      -126.382          44.062    22205304.440    90927000.188 7      -126.382          47.812
R12  21373977.900   114175954.214 7      5806.839          47.750    21373977.120   114175954.217 8      5806.839          48.500    21373988.420    88803566.848 8      4516.431          48.562    21373988.480    88803565.852 8      4516.431          48.937
G10  22272491.640   117042737.275 7      3111.298          46.500    22272490.220   117042737.278 7      3111.298          46.375    22272500.040    91202164.286 7      2424.388          46.375    22272499.980    91202164.290 7      2424.388          47.750
G07  24622590.340   129392584.038 6      4366.482          39.375    24622589.720   129392584.043 4      4366.482          27.062    24622598.500   100825417.415 4      3402.454          27.062    24622598.760   100825424.407 7      3402.454          43.000
G31  25161411.480   132224117.339 6      -767.812          36.750    25161409.780   132224117.341 5      -767.812          31.937    25161426.960   103031827.450 5      -598.295          31.562    25161427.820   103031830.437 6      -598.295          41.875
> 2024 05 09 12 03 21.0000000  0 16
G27  20930159.340   109988729.216 8      2122.191          48.937    20930158.020   109988729.221 8      2122.191          49.875    20930164.840    85705528.469 8      1653.655          49.562    20930165.380    85705529.474 8      1653.655          49.875
G02  23140897.980   121606246.097 7      4980.558          43.625    23140896.420   121606246.102 5      4980.558          34.062    23140904.500    94758133.001 5      3880.954          33.687
G08  21629635.160   113664498.230 7      3654.361          46.187    21629634.440   113664498.235 6      3654.361          38.187    21629642.140    88569768.034 6      2847.554          37.500    21629642.860    88569772.047 8      2847.554          50.312
R22  20316006.000   108448220.626 8      3113.827          50.375    20316006.600   108448220.632 8      3113.827          50.062    20316014.420    84348649.638 8      2421.865          50.625    20316014.280    84348651.636 8      2421.865          50.937
G23  23374013.760   122831273.299 7      1183.701          42.500    23374012.660   122831273.301 5      1183.701          32.000    23374020.920    95712704.511 5       922.364          32.062    23374021.320    95712704.515 7       922.364          45.875
R11  19277171.880   103011357.722 8      1545.774          50.000    19277171.340   103011357.723 8      1545.774          49.312    19277179.820    80119976.745 8      1202.269          52.812    19277179.800    80119977.744 8      1202.269          52.812
G16  20562081.820   108054468.794 7      1721.489          46.062    20562080.460   108054468.801 6      1721.489          40.375    20562084.840    84198297.557 6      1341.420          39.812
R10  22409102.140   119453092.199 6     -1551.823          41.875    22409102.140   119453092.207 6     -1551.823          40.750
G21  21442633.460   112681799.992 7      4459.902          46.750    21442632.100   112681799.997 6      4459.902          36.937    21442638.200    87804020.024 6      3475.248          37.187
R23  23737790.020   126981177.260 6      5164.992          41.375    23737788.960   126981177.264 6      5164.992          40.812
R21  20688732.020   110709581.374 8       310.054          49.250    20688731.600   110709581.383 8       310.054          48.625    20688743.020    86107495.494 8       241.153          49.312    20688742.840    86107494.493 8       241.153          49.125
G26  22205324.840   116689763.826 7      -162.565          45.750    22205323.300   116689763.837 7      -162.565          44.187    22205334.980    90927123.639 7      -126.674          43.812    22205335.660    90927126.643 7      -126.674          47.687
R12  21372890.580   114170147.580 8      5806.281          48.187    21372889.980   114170147.586 8      5806.281          48.312    21372901.400    88799050.586 8      4515.997          48.437    21372901.780    88799049.588 8      4515.997          49.125
G10  22271899.660   117039626.239 7      3110.661          46.937    22271898.200   117039626.244 7      3110.661          46.187    22271907.980    91199740.106 7      2423.892          46.125    22271907.960    91199740.110 7      2423.892          47.625
G07  24621759.280   129388217.808 6      4365.924          38.750    24621758.920   129388217.805 4      4365.924          27.062    24621767.520   100822015.155 4      3402.019          27.062    24621768.360   100822022.160 7      3402.019          43.000
G31  25161557.960   132224885.089 6      -767.626          36.500    25161555.880   132224885.092 5      -767.626          31.937    25161573.100   103032425.686 5      -598.150          31.562    25161573.720   103032428.668 6      -598.150          41.750
> 2024 05 09 12 03 22.0000000  0 16
G27  20929755.600   109986607.062 8      2122.319          49.500    20929754.100   109986607.062 8      2122.319          49.562    20929760.960    85703874.840 8      1653.755          49.312    20929761.420    85703875.843 8      1653.755          49.250
G02  23139950.080   121601265.613 7      4980.518          43.562    23139948.620   121601265.621 5      4980.518          34.062    23139956.760    94754252.117 5      3880.923          33.562
G08  21628939.880   113660843.934 7      3654.472          46.125    21628939.020   113660843.933 6      3654.472          37.812    21628946.700    88566920.530 6      2847.641          37.687    21628947.480    88566924.539 8      2847.641          50.250
R22  20315422.920   108445107.043 8      3113.554          50.250    20315423.220   108445107.044 8      3113.554          49.312    20315431.200    84346227.954 8      2421.653          51.000    20315431.100    84346229.956 8      2421.653          50.625
G23  23373788.640   122830089.888 7      1183.357          43.250    23373787.300   122830089.891 5      1183.357          32.000    23373795.840    95711782.371 5       922.096          32.062    23373796.020    95711782.367 7       922.096          46.437
R11  19276882.640   103009812.397 8      1545.070          49.687    19276882.120   103009812.398 8      1545.070          49.312    19276890.580    80118774.824 8      1201.721          52.500    19276890.520    80118775.820 8      1201.721          53.187
G16  20561754.440   108052747.567 7      1721.202          47.562    20561753.000   108052747.575 6      1721.202          41.250    20561757.180    84196956.338 6      1341.197          40.625
R10  22409393.320   119454644.037 7     -1551.727          42.250    22409393.040   119454644.046 6     -1551.727          40.750
G21  21441784.780   112677340.403 7      4459.576          47.000    21441783.320   112677340.411 6      4459.576          36.875    21441789.560    87800545.022 6      3474.994          36.875
R23  23736824.260   126976012.306 6      5165.062          41.812    23736823.140   126976012.329 6      5165.062          40.812
R21  20688673.780   110709271.402 8       310.097          49.000    20688673.600   110709271.412 8       310.097          48.312    20688685.160    86107254.405 8       241.186          49.062    20688684.560    86107253.402 8       241.186          49.187
G26  22205355.740   116689926.514 7      -162.662          45.062    22205354.240   116689926.517 7      -162.662          44.500    22205366.000    90927250.393 7      -126.749          43.812    22205366.540    90927253.392 7      -126.749          47.375
R12  21371803.960   114164341.502 7      5806.029          46.375    21371803.280   114164341.506 8      5806.029          48.125    21371814.560    88794534.745 8      4515.801          48.937    21371814.600    88794533.743 8      4515.801          48.812
G10  22271307.920   117036515.810 7      3110.290          47.312    22271306.360   117036515.810 7      3110.290          46.875    22271316.180    91197316.393 7      2423.602          46.687    22271316.240    91197316.395 7      2423.602          47.500
G07  24620928.600   129383852.077 6      4365.793          38.750    24620928.200   129383852.074 4      4365.793          27.062    24620936.640   100818613.291 4      3401.916          26.687    24620936.860   100818620.300 7      3401.916          43.000
G31  25161704.380   132225652.766 6      -767.679          36.500    25161701.920   132225652.768 5      -767.679          31.937    25161719.360   103033023.864 5      -598.192          32.250    25161719.800   103033026.855 6      -598.192          41.750
> 2024 05 09 12 03 23.0000000  0 16
G27  20929351.760   109984485.071 8      2121.777          49.125    20929350.380   109984485.073 8      2121.777          49.687    20929357.180    85702221.342 8      1653.333          49.562    20929357.480    85702222.344 8      1653.333          48.187
G02  23139002.520   121596285.521 7      4979.735          43.562    23139000.900   121596285.529 5      4979.735          33.937    23139008.920    94750371.530 5      3880.313          33.562
G08  21628244.460   113657189.748 7      3654.000          46.250    21628243.640   113657189.747 6      3654.000          37.687    21628251.260    88564073.110 6      2847.273          37.562    21628252.120    88564077.121 7      2847.273          47.750
R22  20314840.060   108441993.908 8      3112.787          51.000    20314840.100   108441993.915 8      3112.787          50.375    20314847.960    84343806.633 8      2421.057          50.500    20314847.960    84343808.636 8      2421.057          50.187
G23  23373563.740   122828907.043 7      1182.374          43.187    23373562.320   122828907.048 5      1182.374          32.000    23373570.660    95710860.671 5       921.331          31.687    23373570.920    95710860.671 7       921.331          46.062
R11  19276593.480   103008267.898 8      1543.944          49.500    19276593.140   103008267.896 8      1543.944          49.250    19276601.720    80117573.545 8      1200.846          52.187    19276601.480    80117574.543 8      1200.846          52.687
G16  20561426.960   108051026.840 7      1720.272          47.187    20561425.680   108051026.850 6      1720.272          40.625    20561429.800    84195615.508 6      1340.471          40.187
R10  22409684.080   119456196.231 7     -1552.614          42.250    22409684.600   119456196.252 6     -1552.614          40.812
G21  21440936.400   112672881.303 7      4458.803          46.562    21440934.720   112672881.311 6      4458.803          36.750    21440940.920    87797070.398 6      3474.392          36.750
R23  23735858.520   126970847.730 6      5164.261          41.812    23735857.760   126970847.732 6      5164.261          40.812
R21  20688615.880   110708961.627 8       309.566          48.625    20688615.780   110708961.639 8       309.566          48.187    20688627.100    86107013.468 8       240.774          49.250    20688626.680    86107012.470 8       240.774          48.937
G26  22205386.900   116690089.531 7      -163.326          44.000    22205385.400   116690089.530 7      -163.326          44.125    22205396.940    90927377.410 7      -127.267          43.562    22205397.440    90927380.416 7      -127.267          47.375
R12  21370717.380   114158535.918 7      5805.166          47.125    21370716.220   114158535.914 8      5805.166          48.312    21370727.860    88790019.289 8      4515.129          48.250    21370728.020    88790018.293 8      4515.129          48.562
G10  22270715.920   117033405.909 7      3109.529          47.125    22270714.540   117033405.911 7      3109.529          46.625    22270724.320    91194893.093 7      2423.010          46.937    22270724.480    91194893.099 7      2423.010          47.500
G07  24620097.660   129379486.811 6      4364.902          38.687    24620097.180   129379486.808 4      4364.902          27.062    24620105.920   100815211.787 4      3401.222          26.687    24620106.020   100815218.800 7      3401.222          42.937
G31  25161849.680   132226420.188 6      -767.538          36.625    25161848.040   132226420.193 5      -767.538          32.437    25161865.320   103033621.848 5      -598.082          32.250    25161865.940   103033624.844 6      -598.082          41.562
> 2024 05 09 12 03 24.0000000  0 16
G27  20928947.860   109982363.232 8      2121.847          48.312    20928946.620   109982363.234 7      2121.847          47.875    20928953.340    85700567.955 7      1653.387          47.437    20928953.820    85700568.957 8      1653.387          49.812
G02  23138054.880   121591305.755 7      4979.684          44.187    23138053.360   121591305.765 5      4979.684          33.937    23138061.280    94746491.199 5      3880.273          33.750
G08  21627549.320   113653535.669 7      3654.176          46.750    21627548.220   113653535.674 6      3654.176          37.812    21627555.920    88561225.778 6      2847.410          37.312    21627556.700    88561229.790 8      2847.410          49.937
R22  20314256.780   108438881.262 8      3112.547          50.562    20314257.140   108438881.266 8      3112.547          50.125    20314264.780    84341385.680 8      2420.870          48.500    20314264.780    84341387.680 8      2420.870          48.625
G23  23373338.520   122827724.752 7      1182.130          44.250    23373337.340   122827724.757 5      1182.130          31.750    23373345.820    95709939.403 5       921.140          31.687    23373345.820    95709939.399 7       921.140          45.312
R11  19276304.680   103006724.318 8      1543.285          49.562    19276304.040   103006724.316 8      1543.285          48.937    19276312.780    80116372.976 8      1200.333          49.625    19276312.420    80116373.974 8      1200.333          50.062
G16  20561099.620   108049306.583 7      1720.105          46.875    20561098.100   108049306.588 6      1720.105          40.000    20561102.420    84194275.046 6      1340.341          39.687
R10  22409975.060   119457748.656 6     -1552.284          41.625    22409975.400   119457748.664 6     -1552.284          40.812
G21  21440087.940   112668422.734 7      4458.402          46.562    21440086.340   112668422.744 6      4458.402          36.562    21440092.500    87793596.195 6      3474.079          36.500
R23  23734893.200   126965683.427 6      5164.158          41.375    23734892.420   126965683.434 6      5164.158          40.687
R21  20688558.140   110708652.078 8       309.563          49.000    20688557.840   110708652.096 8       309.563          48.437    20688569.400    86106772.711 8       240.772          49.375    20688568.780    86106771.708 8       240.772          49.062
G26  22205417.860   116690252.892 7      -163.450          45.437    22205416.540   116690252.899 7      -163.450          44.750    22205428.180    90927504.698 7      -127.364          44.312    22205428.520    90927507.706 7      -127.364          47.312
R12  21369630.220   114152730.764 7      5805.055          47.812    21369629.440   114152730.765 8      5805.055          48.125    21369640.980    88785504.173 8      4515.043          48.500    21369641.080    88785503.173 8      4515.043          49.250
G10  22270124.260   117030296.581 7      3109.163          47.437    22270122.960   117030296.588 7      3109.163          46.250    22270132.640    91192470.244 7      2422.725          46.250    22270132.780    91192470.248 7      2422.725          47.687
G07  24619266.600   129375122.010 6      4364.688          39.000    24619266.560   129375122.012 4      4364.688          26.437    24619275.340   100811810.646 4      3401.055          26.687    24619275.620   100811817.652 7      3401.055          42.750
G31  25161995.880   132227187.525 6      -767.257          36.875    25161994.080   132227187.533 5      -767.257          32.437    25162011.220   103034219.766 5      -597.863          32.250    25162012.260   103034222.749 6      -597.863          41.750
> 2024 05 09 12 03 25.0000000  0 16
G27  20928544.180   109980241.548 8      2121.573          48.000    20928542.840   109980241.556 8      2121.573          49.812    20928549.640    85698914.697 8      1653.174          49.687    20928550.080    85698915.699 8      1653.174          50.000
G02  23137107.700   121586326.367 7      4979.162          43.312    23137105.820   121586326.375 5      4979.162          33.937    23137113.900    94742611.161 5      3879.867          33.750
G08  21626853.940   113649881.738 7      3653.783          45.750    21626852.820   113649881.740 6      3653.783          37.687    21626860.460    88558378.559 6      2847.104          37.750    21626861.240    88558382.568 8      2847.104          50.062
R22  20313673.540   108435769.083 8      3111.851          50.500    20313673.960   108435769.092 8      3111.851          49.500    20313681.780    84338965.099 8      2420.329          50.500    20313681.800    84338967.099 8      2420.329          50.625
G23  23373113.780   122826543.021 7      1181.495          44.312    23373112.400   122826543.028 5      1181.495          31.750    23373120.980    95709018.574 5       920.645          31.875    23373120.960    95709018.572 7       920.645          46.500
R11  19276016.020   103005181.600 8      1542.168          49.125    19276015.340   103005181.601 8      1542.168          49.125    19276024.000    80115173.083 8      1199.464          52.562    19276024.040    80115174.081 8      1199.464          53.812
G16  20560772.060   108047586.836 7      1719.423          46.187    20560770.900   108047586.841 6      1719.423          40.750    20560775.180    84192934.981 6      1339.810          40.312
R10  22410266.520   119459301.435 6     -1552.947          41.625    22410266.800   119459301.444 6     -1552.947          40.812
G21  21439239.960   112663964.670 7      4457.749          46.875    21439237.920   112663964.674 6      4457.749          36.312    21439244.180    87790122.372 6      3473.571          36.312
R23  23733927.820   126960519.442 6      5163.735          41.375    23733926.920   126960519.449 6      5163.735          40.687
R21  20688500.080   110708342.741 8       309.168          49.125    20688499.980   110708342.759 8       309.168          48.250    20688511.540    86106532.109 8       240.464          49.312    20688511.040    86106531.110 8       240.464          48.812
G26  22205448.860   116690416.583 7      -163.887          44.812    22205447.640   116690416.588 7      -163.887          43.937    22205459.320    90927632.240 7      -127.704          43.937    22205459.760    90927635.244 7      -127.704          47.125
R12  21368544.020   114146926.085 7      5804.386          47.437    21368542.860   114146926.078 7      5804.386          47.750    21368554.480    88780989.419 8      4514.523          48.375    21368554.780    88780988.419 8      4514.523          49.250
G10  22269532.700   117027187.817 7      3108.328          47.375    22269531.300   117027187.819 7      3108.328          46.312    22269541.040    91190047.827 7      2422.074          46.187    22269541.240    91190047.835 7      2422.074          47.687
G07  24618436.360   129370757.669 6      4364.097          39.250    24618436.180   129370757.666 4      4364.097          26.437    24618444.720   100808409.856 4      3400.595          26.687    24618445.340   100808416.871 7      3400.595          42.687
G31  25162141.940   132227954.624 6      -766.804          36.875    25162140.240   132227954.626 5      -766.804          32.687    25162157.200   103034817.490 5      -597.509          32.250    25162158.100   103034820.478 6      -597.509          41.750
> 2024 05 09 12 03 26.0000000  0 16
G27  20928140.560   109978120.190 8      2121.382          48.250    20928139.200   109978120.193 8      2121.382          49.187    20928146.020    85697261.689 8      1653.025          48.750    20928146.460    85697262.691 8      1653.025          49.625
G02  23136160.160   121581347.481 7      4978.810          44.437    23136158.280   121581347.486 5      4978.810          33.937    23136166.600    94738731.516 5      3879.592          33.812
G08  21626158.700   113646228.048 7      3653.732          46.312    21626157.600   113646228.051 6      3653.732          37.750    21626165.320    88555531.531 6      2847.064          37.437    21626166.200    88555535.548 8      2847.064          50.187
R22  20313090.620   108432657.526 8      3111.426          50.812    20313091.180   108432657.530 8      3111.426          50.375    20313099.040    84336544.997 8      2419.998          50.500    20313098.840    84336546.997 8      2419.998          50.875
G23  23372888.960   122825362.041 7      1180.804          44.562    23372887.920   122825362.048 5      1180.804          31.750    23372896.240    95708098.329 5       920.107          31.875    23372896.300    95708098.330 7       920.107          46.125
R11  19275727.220   103003639.885 8      1541.357          50.062    19275727.000   103003639.881 8      1541.357          49.062    19275735.560    80113973.971 8      1198.833          53.062    19275735.300    80113974.969 8      1198.833          52.937
G16  20560445.240   108045867.738 7      1718.917          46.562    20560443.740   108045867.745 6      1718.917          40.812    20560448.080    84191595.420 6      1339.416          40.500
R10  22410557.760   119460854.657 6     -1553.243          41.437    22410558.260   119460854.661 6     -1553.243          40.750
G21  21438391.440   112659507.246 7      4457.219          46.812    21438389.620   112659507.251 6      4457.219          36.562    21438396.100    87786649.061 6      3473.157          36.812
R23  23732962.400   126955355.952 6      5163.365          41.375    23732961.360   126955355.956 6      5163.365          40.687
R21  20688442.640   110708033.694 8       309.045          48.812    20688442.320   110708033.708 8       309.045          48.500    20688453.820    86106291.736 8       240.368          49.062    20688453.400    86106290.735 8       240.368          48.875
G26  22205480.120   116690580.777 7      -164.257          45.312    22205478.840   116690580.782 7      -164.257          44.562    22205490.460    90927760.177 7      -127.992          44.375    22205490.880    90927763.183 7      -127.992          47.500
R12  21367457.380   114141122.016 8      5803.880          48.437    21367456.160   114141122.014 8      5803.880          48.125    21367468.060    88776475.151 8      4514.129          48.687    21367468.120    88776474.151 8      4514.129          49.250
G10  22268941.340   117024079.734 7      3107.876          47.312    22268939.800   117024079.737 7      3107.876          46.687    22268949.620    91187625.944 7      2421.721          46.250    22268949.600    91187625.948 7      2421.721          47.125
G07  24617605.980   129366393.908 6      4363.732          39.250    24617605.920   129366393.908 4      4363.732          26.437    24617614.260   100805009.530 4      3400.310          26.687    24617614.660   100805016.540 7      3400.310          42.687
G31  25162288.200   132228721.778 6      -766.877          37.187    25162286.480   132228721.783 5      -766.877          32.687    25162303.340   103035415.266 5      -597.566          32.250    25162304.200   103035418.266 6      -597.566          41.937
> 2024 05 09 12 03 27.0000000  0 16
G27  20927736.800   109975998.959 7      2120.921          47.812    20927735.560   109975998.969 8      2120.921          50.187    20927742.340    85695608.787 8      1652.665          49.562    20927742.780    85695609.787 8      1652.665          49.500
G02  23135212.500   121576368.942 7      4978.165          43.812    23135211.080   121576368.947 5      4978.165          33.937    23135219.140    94734852.137 5      3879.090          34.000
G08  21625463.300   113642574.477 7      3653.342          47.000    21625462.340   113642574.482 6      3653.342          38.125    21625470.120    88552684.592 6      2846.760          37.437    21625470.960    88552688.603 8      2846.760          50.187
R22  20312507.740   108429546.409 8      3110.752          50.312    20312508.240   108429546.408 8      3110.752          50.375    20312516.200    84334125.235 8      2419.473          50.500    20312516.060    84334127.233 8      2419.473          51.062
G23  23372664.280   122824181.592 7      1180.028          43.812    23372663.300   122824181.602 5      1180.028          32.000    23372671.400    95707178.499 5       919.502          31.875    23372671.860    95707178.495 7       919.502          46.500
R11  19275439.060   103002099.038 8      1540.210          49.437    19275438.500   103002099.039 8      1540.210          49.062    19275447.180    80112775.534 8      1197.941          52.375    19275447.200    80112776.534 8      1197.941          53.375
G16  20560118.240   108044149.102 7      1718.197          46.875    20560116.760   108044149.112 6      1718.197          41.187    20560121.020    84190256.225 6      1338.854          40.625
R10  22410849.480   119462408.157 6     -1553.836          41.437    22410849.640   119462408.157 6     -1553.836          40.750
G21  21437543.240   112655050.311 7      4456.531          46.625    21437541.540   112655050.313 6      4456.531          36.500    21437547.880    87783176.125 6      3472.622          36.687
R23  23731996.940   126950192.751 6      5162.843          41.750    23731996.720   126950192.755 6      5162.843          40.687
R21  20688384.900   110707724.742 8       308.684          48.437    20688384.640   110707724.751 8       308.684          48.687    20688396.020    86106051.434 8       240.087          49.500    20688395.640    86106050.436 8       240.087          49.375
G26  22205511.120   116690745.278 7      -164.798          44.875    22205510.140   116690745.288 7      -164.798          44.562    22205521.860    90927888.353 7      -128.414          44.187    22205522.020    90927891.357 7      -128.414          47.125
R12  21366370.740   114135318.424 8      5803.199          48.750    21366369.960   114135318.423 8      5803.199          48.312    21366381.560    88771961.249 8      4513.599          48.500    21366381.480    88771960.248 8      4513.599          48.875
G10  22268349.960   117020972.216 7      3106.936          46.750    22268348.560   117020972.221 7      3106.936          46.562    22268358.300    91185204.508 7      2420.989          46.312    22268358.720    91185204.510 7      2420.989          47.187
G07  24616775.800   129362030.608 6      4363.029          39.062    24616775.420   129362030.610 4      4363.029          26.437    24616784.040   100801609.561 4      3399.763          26.687    24616784.660   100801616.568 7      3399.763          42.937
G31  25162434.280   132229488.740 6      -766.955          38.125    25162432.580   132229488.755 5      -766.955          33.000    25162449.360   103036012.895 5      -597.627          32.625    25162450.140   103036015.886 7      -597.627          42.187
> 2024 05 09 12 03 28.0000000  0 16
G27  20927333.340   109973878.003 8      2120.751          48.250    20927331.980   109973878.010 8      2120.751          50.000    20927338.780    85693956.086 8      1652.533          49.625    20927339.240    85693957.086 8      1652.533          49.625
G02  23134265.480   121571390.852 7      4977.810          43.750    23134263.740   121571390.857 5      4977.810          34.375    23134271.780    94730973.112 5      3878.813          34.000
G08  21624768.000   113638921.134 7      3653.144          47.062    21624767.160   113638921.139 6      3653.144          37.750    21624774.840    88549837.829 6      2846.605          37.375    21624775.600    88549841.844 8      2846.605          49.500
R22  20311925.000   108426435.883 8      3110.132          50.562    20311925.580   108426435.886 8      3110.132          49.625    20311933.340    84331705.941 8      2418.991          50.812    20311933.760    84331707.938 8      2418.991          50.937
G23  23372439.920   122823001.828 7      1179.471          43.062    23372438.740   122823001.838 5      1179.471          32.000    23372446.940    95706259.197 5       919.068          31.812    23372447.040    95706259.191 7       919.068          46.375
R11  19275150.900   103000559.153 8      1539.378          49.875    19275150.180   103000559.151 8      1539.378          49.312    19275159.000    80111577.840 8      1197.294          52.937    19275159.060    80111578.838 8      1197.294          53.000
G16  20559791.160   108042431.079 7      1717.651          47.375    20559789.920   108042431.091 6      1717.651          41.062    20559794.020    84188917.503 6      1338.429          40.437
R10  22411141.240   119463962.058 6     -1554.199          41.687    22411140.860   119463962.056 6     -1554.199          40.750
G21  21436694.940   112650594.004 7      4455.899          46.812    21436693.480   112650594.009 6      4455.899          36.687    21436699.880    87779703.680 6      3472.129          36.375
R23  23731031.680   126945030.004 6      5162.432          41.750    23731031.500   126945030.019 6      5162.432          40.687
R21  20688327.540   110707416.071 8       308.474          48.875    20688326.880   110707416.081 8       308.474          48.187    20688338.320    86105811.353 8       239.924          49.125    20688338.100    86105810.354 8       239.924          49.000
G26  22205542.700   116690910.249 7      -165.209          44.750    22205541.600   116690910.257 7      -165.209          44.625    22205553.260    90928016.894 7      -128.735          44.187    22205553.700    90928019.898 7      -128.735          47.437
R12  21365284.260   114129515.487 8      5802.603          48.437    21365283.520   114129515.488 8      5802.603          48.500    21365295.360    88767447.857 8      4513.136          48.312    21365295.140    88767446.859 8      4513.136          49.062
G10  22267758.640   117017865.329 7      3106.509          46.750    22267757.400   117017865.329 7      3106.509          46.687    22267767.120    91182783.548 7      2420.656          46.687    22267767.660    91182783.555 7      2420.656          47.437
G07  24615945.720   129357667.904 6      4362.317          38.750    24615945.340   129357667.903 4      4362.317          26.437    24615953.760   100798210.049 4      3399.208          26.187    24615954.360   100798217.052 7      3399.208          42.812
G31  25162579.520   132230255.659 6      -766.855          38.125    25162578.740   132230255.672 5      -766.855          33.000    25162595.400   103036610.485 5      -597.549          32.625    25162595.580   103036613.472 7      -597.549          42.187
> 2024 05 09 12 03 29.0000000  0 16
G27  20926929.560   109971757.154 7      2121.071          47.812    20926928.320   109971757.162 8      2121.071          50.187    20926935.100    85692303.475 8      1652.783          49.687    20926935.560    85692304.477 8      1652.783          49.687
G02  23133318.440   121566413.099 7      4977.809          43.500    23133316.640   121566413.101 5      4977.809          34.375    23133324.660    94727094.351 5      3878.812          34.250
G08  21624073.040   113635267.849 7      3653.538          47.437    21624071.920   113635267.852 6      3653.538          37.375    21624079.640    88546991.114 6      2846.913          37.250    21624080.420    88546995.127 8      2846.913          49.937
R22  20311342.400   108423325.777 8      3110.147          50.312    20311342.900   108423325.781 8      3110.147          49.812    20311350.820    84329286.970 8      2419.003          50.312    20311350.960    84329288.968 8      2419.003          50.500
G23  23372215.480   122821822.588 7      1179.290          44.000    23372214.320   122821822.598 5      1179.290          31.937    23372222.600    95705340.306 5       918.928          31.812    23372222.720    95705340.304 7       918.928          45.937
R11  19274862.840   102999020.093 8      1538.905          50.000    19274862.280   102999020.095 8      1538.905          49.687    19274870.960    80110380.795 8      1196.926          52.812    19274870.820    80110381.798 8      1196.926          52.875
G16  20559464.440   108040713.515 7      1717.533          47.187    20559462.900   108040713.528 6      1717.533          40.812    20559467.200    84187579.142 6      1338.337          40.062
R10  22411432.360   119465516.205 6     -1554.016          41.687    22411432.700   119465516.208 6     -1554.016          40.750
G21  21435846.960   112646138.136 7      4455.904          46.500    21435845.600   112646138.144 6      4455.904          36.187    21435851.840    87776231.581 6      3472.133          36.312
R23  23730066.340   126939867.563 6      5162.535          41.687    23730066.800   126939867.569 6      5162.535          40.812
R21  20688269.600   110707107.574 8       308.621          48.875    20688269.080   110707107.589 8       308.621          48.250    20688280.740    86105571.413 8       240.038          49.500    20688280.260    86105570.416 8       240.038          49.250
G26  22205574.240   116691075.512 7      -165.203          45.062    22205573.060   116691075.517 7      -165.203          44.187    22205584.600    90928145.660 7      -128.730          43.562    22205585.440    90928148.662 7      -128.730          47.312
R12  21364198.100   114123713.012 7      5802.515          47.500    21364197.520   114123713.010 7      5802.515          47.875    21364209.260    88762934.821 8      4513.067          48.625    21364209.080    88762933.821 8      4513.067          48.937
G10  22267167.560   117014758.967 7      3106.350          47.437    22267166.300   117014758.967 7      3106.350          46.562    22267175.900    91180363.009 7      2420.533          46.625    22267176.280    91180363.013 7      2420.533          47.437
G07  24615115.460   129353305.575 6      4362.372          38.875    24615115.180   129353305.575 4      4362.372          26.687    24615123.680   100794810.835 4      3399.251          26.187    24615124.160   100794817.833 7      3399.251          43.000
G31  25162725.900   132231022.387 6      -766.357          37.625    25162724.780   132231022.392 5      -766.357          33.375    25162741.340   103037207.923 5      -597.161          33.000    25162741.380   103037210.902 7      -597.161          42.312
> 2024 05 09 12 03 30.0000000  0 16
G27  20926525.900   109969636.369 8      2120.687          48.125    20926524.820   109969636.371 8      2120.687          49.750    20926531.600    85690650.913 8      1652.483          49.500    20926531.960    85690651.913 8      1652.483          49.812
G02  23132371.020   121561435.574 7      4977.347          44.937    23132369.520   121561435.576 5      4977.347          34.625    23132377.440    94723215.764 5      3878.452          34.250
G08  21623377.820   113631614.596 7      3653.179          47.062    21623376.620   113631614.604 6      3653.179          37.937    21623384.380    88544144.425 6      2846.633          37.687    21623385.220    88544148.434 8      2846.633          49.812
R22  20310759.960   108420216.027 8      3109.488          50.312    20310760.380   108420216.033 8      3109.488          50.062    20310768.200    84326868.275 8      2418.490          50.750    20310768.240    84326870.275 8      2418.490          50.875
G23  23371991.260   122820643.812 7      1178.529          44.437    23371990.060   122820643.822 5      1178.529          31.937    23371998.360    95704421.778 5       918.335          31.812    23371998.400    95704421.774 7       918.335          46.000
R11  19274574.840   102997481.798 8      1537.810          49.937    19274574.480   102997481.797 8      1537.810          48.500    19274583.100    80109184.341 8      1196.074          52.437    19274582.960    80109185.342 8      1196.074          53.312
G16  20559137.660   108038996.322 7      1716.969          47.625    20559136.220   108038996.332 6      1716.969          40.687    20559140.420    84186241.063 6      1337.898          40.125
R10  22411724.340   119467070.547 6     -1554.429          41.375    22411724.100   119467070.552 6     -1554.429          40.562
G21  21434999.320   112641682.696 7      4455.124          47.250    21434997.700   112641682.701 6      4455.124          36.437    21435004.100    87772759.808 6      3471.525          36.312
R23  23729101.340   126934705.335 6      5162.072          41.687    23729101.720   126934705.331 6      5162.072          40.812
R21  20688212.020   110706799.177 8       308.330          49.375    20688211.620   110706799.191 7       308.330          47.750    20688223.020    86105331.544 8       239.812          49.562    20688222.660    86105330.547 8       239.812          49.437
G26  22205606.020   116691241.012 7      -165.778          45.125    22205604.500   116691241.019 7      -165.778          44.500    22205616.120    90928274.613 7      -129.178          44.062    22205616.940    90928277.614 7      -129.178          47.437
R12  21363112.100   114117910.852 8      5801.925          48.312    21363111.420   114117910.851 8      5801.925          48.000    21363123.240    88758422.036 8      4512.608          49.000    21363122.840    88758421.036 8      4512.608          49.562
G10  22266576.500   117011653.055 7      3105.603          47.500    22266575.180   117011653.054 7      3105.603          46.187    22266584.880    91177942.817 7      2419.950          46.125    22266584.920    91177942.824 7      2419.950          47.250
G07  24614285.800   129348943.594 6      4361.848          38.437    24614285.160   129348943.588 4      4361.848          26.687    24614293.620   100791411.884 4      3398.843          26.187    24614293.860   100791418.884 7      3398.843          43.000
G31  25162872.060   132231788.790 6      -766.317          38.000    25162870.780   132231788.803 5      -766.317          33.375    25162887.380   103037805.117 5      -597.130          33.000    25162887.600   103037808.113 7      -597.130          42.187
> 2024 05 09 12 03 31.0000000  0 16
G27  20926122.440   109967515.705 8      2120.679          48.937    20926121.240   109967515.707 8      2120.679          49.875    20926128.060    85688998.445 8      1652.477          49.500    20926128.620    85688999.445 8      1652.477          49.937
G02  23131423.660   121556458.398 7      4977.017          44.250    23131422.560   121556458.401 5      4977.017          34.250    23131430.140    94719337.452 5      3878.195          34.437
G08  21622682.320   113627961.435 7      3653.095          46.312    21622681.500   113627961.434 6      3653.095          37.750    21622689.260    88541297.806 6      2846.567          37.437    21622690.100    88541301.815 8      2846.567          49.875
R22  20310177.540   108417106.725 8      3109.122          50.437    20310178.000   108417106.734 8      3109.122          49.625    20310185.780    84324449.931 8      2418.206          50.875    20310186.120    84324451.929 8      2418.206          51.062
G23  23371767.120   122819465.578 7      1178.015          44.312    23371765.920   122819465.588 5      1178.015          32.312    23371774.160    95703503.667 5       917.934          32.187    23371774.340    95703503.671 7       917.934          46.125
R11  19274287.240   102995944.334 8      1537.116          50.125    19274286.460   102995944.332 8      1537.116          49.250    19274295.360    80107988.530 8      1195.535          52.750    19274295.040    80107989.528 8      1195.535          53.000
G16  20558810.980   108037279.625 7      1716.458          47.500    20558809.440   108037279.633 6      1716.458          41.187    20558813.720    84184903.376 6      1337.500          40.625
R10  22412016.180   119468625.192 6     -1554.801          41.375    22412015.220   119468625.195 6     -1554.801          40.562
G21  21434151.660   112637227.724 7      4454.700          45.812    21434149.940   112637227.729 6      4454.700          36.625    21434156.480    87769288.405 6      3471.194          36.250
R23  23728136.980   126929543.385 6      5161.805          41.625    23728136.080   126929543.403 6      5161.805          40.812
R21  20688154.660   110706490.926 8       308.237          48.937    20688153.900   110706490.941 8       308.237          48.125    20688165.560    86105091.793 8       239.740          49.625    20688165.140    86105090.795 8       239.740          48.937
G26  22205637.660   116691406.805 7      -165.849          44.812    22205636.100   116691406.805 7      -165.849          44.312    22205647.740    90928403.788 7      -129.233          43.750    22205648.400    90928406.788 7      -129.233          47.187
R12  21362025.940   114112109.122 7      5801.542          47.937    21362025.620   114112109.118 8      5801.542          48.187    21362037.020    88753909.578 8      4512.310          48.875    21362036.840    88753908.579 8      4512.310          49.750
G10  22265985.620   117008547.673 7      3105.077          47.250    22265984.360   117008547.678 7      3105.077          46.375    22265993.940    91175523.043 7      2419.541          46.562    22265993.960    91175523.056 7      2419.541          47.375
G07  24613455.760   129344582.059 6      4361.296          38.000    24613455.160   129344582.056 4      4361.296          26.687    24613463.820   100788013.287 4      3398.412          26.187    24613463.620   100788020.302 7      3398.412          42.937
G31  25163018.100   132232555.063 6      -766.102          39.250    25163016.820   132232555.073 5      -766.102          34.250    25163033.280   103038402.205 5      -596.962          33.750    25163033.220   103038405.189 7      -596.962          42.187
> 2024 05 09 12 03 32.0000000  0 16
G27  20925719.040   109965395.267 8      2120.488          48.375    20925717.700   109965395.269 8      2120.488          50.000    20925724.540    85687346.156 8      1652.328          49.875    20925724.780    85687347.153 8      1652.328          49.562
G02  23130476.740   121551481.635 7      4976.637          44.125    23130475.560   121551481.638 5      4976.637          34.250    23130483.080    94715459.461 5      3877.899          34.125
G08  21621987.440   113624308.436 7      3653.040          46.687    21621986.340   113624308.438 6      3653.040          37.875    21621994.280    88538451.313 6      2846.525          37.375    21621994.880    88538455.322 8      2846.525          50.062
R22  20309595.280   108413997.963 8      3108.640          50.375    20309595.700   108413997.969 8      3108.640          50.062    20309603.340    84322032.001 8      2417.831          50.562    20309603.500    84322034.001 8      2417.831          50.937
G23  23371542.920   122818287.980 7      1177.340          45.000    23371541.760   122818287.990 5      1177.340          32.312    23371550.040    95702586.058 5       917.408          32.187    23371550.520    95702586.066 7       917.408          46.187
R11  19273999.700   102994407.794 8      1536.201          50.125    19273999.140   102994407.790 8      1536.201          49.625    19274007.840    80106793.441 8      1194.823          52.625    19274007.840    80106794.437 8      1194.823          53.562
G16  20558484.400   108035563.467 7      1715.974          47.312    20558482.940   108035563.475 6      1715.974          40.875    20558487.240    84183566.108 6      1337.123          40.125
R10  22412307.840   119470180.208 6     -1555.074          41.437    22412307.200   119470180.216 6     -1555.074          40.562
G21  21433303.740   112632773.307 7      4454.223          45.937    21433302.300   112632773.314 6      4454.223          36.625    21433308.680    87765817.434 6      3470.823          37.000
R23  23727171.600   126924381.826 6      5161.453          41.625    23727172.020   126924381.836 6      5161.453          40.750
R21  20688097.060   110706182.929 8       307.996          50.000    20688096.540   110706182.936 8       307.996          48.250    20688107.980    86104852.230 8       239.552          49.687    20688107.580    86104851.232 8       239.552          49.125
G26  22205669.540   116691573.030 7      -166.432          45.437    22205667.760   116691573.032 7      -166.432          44.125    22205679.360    90928533.308 7      -129.687          43.875    22205679.900    90928536.312 7      -129.687          47.062
R12  21360939.840   114106307.924 8      5801.001          49.000    21360939.640   114106307.925 8      5801.001          48.625    21360951.060    88749397.541 8      4511.890          49.437    21360950.740    88749396.542 8      4511.890          49.750
G10  22265394.680   117005442.898 7      3104.569          47.437    22265393.460   117005442.903 7      3104.569          46.750    22265403.080    91173103.738 7      2419.145          46.437    22265403.140    91173103.747 7      2419.145          47.500
G07  24612626.340   129340221.026 6      4360.774          38.687    24612625.300   129340221.023 4      4360.774          26.687    24612633.920   100784615.084 4      3398.006          26.187    24612633.960   100784622.100 7      3398.006          43.000
G31  25163164.020   132233321.179 6      -765.817          39.500    25163162.780   132233321.192 5      -765.817          34.250    25163179.100   103038999.173 5      -596.741          34.000    25163179.340   103039002.162 7      -596.741          42.437
> 2024 05 09 12 03 33.0000000  0 16
G27  20925315.680   109963275.010 8      2119.964          49.062    20925314.260   109963275.017 8      2119.964          49.375    20925321.020    85685694.010 8      1651.920          49.625    20925321.520    85685695.011 8      1651.920          49.625
G02  23129529.680   121546505.254 7      4976.001          44.875    23129528.720   121546505.258 5      4976.001          34.625    23129536.020    94711581.769 5      3877.403          34.125
G08  21621292.320   113620655.590 7      3652.610          46.625    21621291.280   113620655.595 6      3652.610          38.125    21621299.100    88535604.942 6      2846.190          37.875    21621299.660    88535608.955 8      2846.190          49.937
R22  20309013.000   108410889.683 8      3107.957          50.500    20309013.340   108410889.684 8      3107.957          50.375    20309021.100    84319614.446 8      2417.300          51.062    20309021.240    84319616.446 8      2417.300          50.750
G23  23371319.100   122817110.952 7      1176.603          44.312    23371317.860   122817110.965 5      1176.603          32.312    23371326.120    95701668.893 5       916.834          31.875    23371326.540    95701668.891 7       916.834          46.437
R11  19273712.080   102992872.144 8      1535.067          50.125    19273711.480   102992872.142 8      1535.067          49.250    19273720.520    80105599.048 8      1193.941          52.500    19273720.200    80105600.046 8      1193.941          53.500
G16  20558157.860   108033847.829 7      1715.190          47.625    20558156.380   108033847.840 6      1715.190          41.250    20558160.720    84182229.249 6      1336.512          40.375
R10  22412599.620   119471735.578 6     -1555.693          41.437    22412598.920   119471735.584 6     -1555.693          40.187
G21  21432456.180   112628319.420 7      4453.514          46.000    21432454.860   112628319.425 6      4453.514          36.312    21432461.140    87762346.877 6      3470.271          36.375
R23  23726207.020   126919220.583 6      5160.926          41.625    23726206.540   126919220.584 6      5160.926          40.750
R21  20688039.340   110705875.120 8       307.540          48.687    20688039.040   110705875.130 8       307.540          48.375    20688050.520    86104612.825 8       239.198          49.187    20688049.960    86104611.826 8       239.198          49.375
G26  22205701.200   116691739.586 7      -166.905          44.875    22205699.380   116691739.591 7      -166.905          44.250    22205711.040    90928663.085 7      -130.056          43.812    22205711.560    90928666.089 7      -130.056          47.437
R12  21359854.040   114100507.270 8      5800.199          48.500    21359853.900   114100507.271 8      5800.199          48.500    21359865.160    88744885.921 8      4511.266          49.062    21359865.040    88744884.925 8      4511.266          49.687
G10  22264804.000   117002338.701 7      3103.777          46.875    22264802.900   117002338.704 7      3103.777          46.500    22264812.340    91170684.882 7      2418.527          46.437    22264812.180    91170684.888 7      2418.527          47.437
G07  24611795.580   129335860.471 6      4360.243          38.687    24611795.480   129335860.470 4      4360.243          26.687    24611804.060   100781217.255 4      3397.592          26.250    24611804.400   100781224.259 7      3397.592          42.937
G31  25163309.800   132234087.216 6      -766.087          39.500    25163308.700   132234087.229 5      -766.087          34.125    25163324.840   103039596.078 5      -596.951          34.000    25163325.360   103039599.070 7      -596.951          42.250
> 2024 05 09 12 03 34.0000000  0 16
G27  20924912.360   109961154.921 8      2120.259          48.187    20924910.820   109961154.928 8      2120.259          49.687    20924917.660    85684041.992 8      1652.150          49.750    20924918.020    85684042.992 8      1652.150          49.875
G02  23128582.800   121541529.250 7      4976.060          44.125    23128581.840   121541529.252 5      4976.060          34.625    23128589.140    94707704.369 5      3877.450          34.375
G08  21620597.180   113617002.881 7      3652.868          46.750    21620596.180   113617002.883 6      3652.868          37.625    21620603.980    88532758.675 6      2846.391          37.437    21620604.620    88532762.686 8      2846.391          50.000
R22  20308430.820   108407781.908 8      3107.783          50.562    20308431.260   108407781.909 8      3107.783          50.125    20308438.840    84317197.290 8      2417.164          50.687    20308438.980    84317199.288 8      2417.164          50.500
G23  23371095.140   122815934.528 7      1176.364          43.750    23371093.920   122815934.536 5      1176.364          31.937    23371102.380    95700752.193 5       916.647          31.875    23371102.640    95700752.195 7       916.647          46.125
R11  19273425.100   102991337.388 8      1534.592          49.375    19273424.420   102991337.387 8      1534.592          49.062    19273433.280    80104405.344 8      1193.572          52.750    19273433.260    80104406.342 8      1193.572          53.062
G16  20557831.560   108032132.709 7      1715.119          47.062    20557830.180   108032132.722 6      1715.119          40.562    20557834.220    84180892.790 6      1336.456          39.812
R10  22412891.420   119473291.281 6     -1555.607          41.562    22412890.800   119473291.284 6     -1555.607          40.187
G21  21431608.580   112623866.056 7      4453.379          46.437    21431607.380   112623866.066 6      4453.379          36.500    21431613.700    87758876.727 6      3470.165          36.625
R23  23725242.480   126914059.666 6      5161.022          40.750    23725242.220   126914059.667 6      5161.022          40.750
R21  20687981.860   110705567.498 8       307.772          49.187    20687981.540   110705567.511 8       307.772          48.187    20687992.920    86104373.566 8       239.378          49.062    20687992.460    86104372.567 8       239.378          49.437
G26  22205732.780   116691906.517 7      -166.921          44.687    22205731.200   116691906.525 7      -166.921          44.312    22205742.820    90928793.158 7      -130.068          44.125    22205743.400    90928796.164 7      -130.068          46.937
R12  21358768.220   114094707.146 8      5800.146          48.937    21358768.220   114094707.144 8      5800.146          48.250    21358779.400    88740374.718 8      4511.225          49.125    21358779.280    88740373.719 8      4511.225          49.812
G10  22264213.500   116999235.083 7      3103.621          46.875    22264212.240   116999235.088 7      3103.621          46.750    22264221.760    91168266.484 7      2418.406          46.375    22264221.740    91168266.490 7      2418.406          47.375
G07  24610966.440   129331500.428 6      4360.059          39.125    24610965.600   129331500.425 4      4360.059          26.687    24610974.240   100777819.813 4      3397.449          26.250    24610974.560   100777826.822 7      3397.449          42.937
G31  25163455.360   132234853.082 6      -765.557          38.625    25163454.640   132234853.093 5      -765.557          34.500    25163470.580   103040192.849 5      -596.538          34.125    25163470.880   103040195.841 7      -596.538          42.562
> 2024 05 09 12 03 35.0000000  0 16
G27  20924508.980   109959035.076 8      2119.559          49.187    20924507.520   109959035.084 8      2119.559          49.375    20924514.200    85682390.163 8      1651.605          49.312    20924514.560    85682391.163 8      1651.605          48.812
G02  23127636.160   121536553.667 7      4975.260          44.437    23127635.220   121536553.672 5      4975.260          34.625    23127642.260    94703827.298 5      3876.826          34.375
G08  21619902.060   113613350.358 7      3652.280          45.875    21619901.080   113613350.357 6      3652.280          37.687    21619908.940    88529912.551 6      2845.933          37.437    21619909.440    88529916.562 8      2845.933          49.625
R22  20307848.860   108404674.656 8      3106.857          50.062    20307849.220   108404674.660 8      3106.857          49.375    20307856.820    84314780.540 8      2416.444          50.687    20307857.020    84314782.538 8      2416.444          50.812
G23  23370871.500   122814758.745 7      1175.249          43.062    23370870.200   122814758.758 5      1175.249          31.937    23370878.720    95699836.001 5       915.778          31.875    23370878.600    95699835.999 7       915.778          46.500
R11  19273138.140   102989803.558 8      1533.221          50.187    19273137.380   102989803.554 8      1533.221          48.812    19273146.180    80103212.364 8      1192.505          52.250    19273146.240    80103213.362 8      1192.505          53.187
G16  20557505.520   108030418.165 7      1714.157          47.500    20557503.840   108030418.172 6      1714.157          40.687    20557508.000    84179556.773 6      1335.707          40.187
R10  22413183.420   119474847.363 6     -1556.496          41.562    22413182.660   119474847.377 6     -1556.496          40.250
G21  21430761.380   112619413.299 7      4452.321          46.500    21430760.060   112619413.309 6      4452.321          36.437    21430766.400    87755407.042 6      3469.341          36.562
R23  23724278.020   126908899.139 6      5160.190          40.750    23724277.360   126908899.141 6      5160.190          40.375
R21  20687924.660   110705260.123 8       307.152          48.687    20687924.320   110705260.132 7       307.152          47.562    20687935.620    86104134.485 8       238.896          49.437    20687935.160    86104133.487 8       238.896          49.250
G26  22205764.400   116692073.848 7      -167.575          45.187    22205763.200   116692073.853 7      -167.575          44.375    22205774.620    90928923.535 7      -130.578          43.875    22205774.980    90928926.537 7      -130.578          47.125
R12  21357682.440   114088907.558 8      5799.188          48.500    21357682.600   114088907.564 8      5799.188          48.062    21357693.820    88735863.933 8      4510.479          49.250    21357693.480    88735862.935 8      4510.479          49.750
G10  22263622.920   116996132.100 7      3102.513          47.125    22263621.860   116996132.102 7      3102.513          46.000    22263631.420    91165848.571 7      2417.542          46.187    22263631.300    91165848.577 7      2417.542          47.375
G07  24610137.180   129327140.898 6      4359.168          39.125    24610136.000   129327140.895 4      4359.168          26.250    24610144.700   100774422.781 4      3396.755          26.250    24610145.360   100774429.781 7      3396.755          42.937
G31  25163601.520   132235618.880 6      -765.873          39.687    25163600.380   132235618.890 5      -765.873          34.500    25163616.240   103040789.567 5      -596.784          34.125    25163616.980   103040792.554 7      -596.784          42.562
> 2024 05 09 12 03 36.0000000  0 16
G27  20924105.320   109956915.439 8      2119.325          48.437    20924104.140   109956915.441 8      2119.325          48.250    20924110.900    85680738.496 8      1651.422          48.375    20924111.320    85680739.491 8      1651.422          50.187
G02  23126689.500   121531578.517 7      4974.734          44.812    23126688.640   121531578.522 5      4974.734          34.562    23126695.400    94699950.564 5      3876.416          34.437
G08  21619207.100   113609698.019 7      3652.011          46.375    21619205.980   113609698.018 6      3652.011          38.000    21619213.840    88527066.572 6      2845.723          37.687    21619214.440    88527070.577 8      2845.723          50.062
R22  20307266.860   108401567.957 8      3106.255          49.875    20307267.340   108401567.960 8      3106.255          49.375    20307274.920    84312364.218 8      2415.976          49.750    20307274.940    84312366.216 8      2415.976          49.875
G23  23370647.940   122813583.583 7      1174.598          42.812    23370646.720   122813583.590 5      1174.598          32.000    23370655.080    95698920.288 5       915.271          31.750    23370654.860    95698920.280 7       915.271          46.437
R11  19272851.200   102988270.660 7      1532.250          47.687    19272850.260   102988270.655 8      1532.250          48.500    19272859.300    80102020.104 8      1191.750          51.562    19272859.220    80102021.102 8      1191.750          51.500
G16  20557179.320   108028704.177 7      1713.540          46.500    20557177.600   108028704.187 6      1713.540          40.812    20557181.800    84178221.196 6      1335.226          40.187
R10  22413475.100   119476403.794 6     -1556.948          41.375    22413474.320   119476403.800 6     -1556.948          40.250
G21  21429914.320   112614961.085 7      4451.680          46.312    21429912.760   112614961.085 6      4451.680          36.375    21429919.220    87751937.781 6      3468.841          36.687
R23  23723312.540   126903738.971 6      5159.801          41.187    23723312.720   126903738.980 6      5159.801          40.375
R21  20687866.940   110704953.015 8       306.723          48.625    20687866.740   110704953.027 7       306.723          47.750    20687878.280    86103895.623 8       238.562          49.562    20687877.400    86103894.627 8       238.562          49.125
G26  22205796.200   116692241.607 7      -168.164          45.187    22205795.140   116692241.612 7      -168.164          44.062    22205806.640    90929054.244 7      -131.037          43.687    22205806.820    90929057.248 7      -131.037          47.250
R12  21356597.160   114083108.528 8      5798.501          49.062    21356597.040   114083108.527 8      5798.501          48.375    21356608.140    88731353.573 8      4509.945          49.312    21356608.160    88731352.576 8      4509.945          49.812
G10  22263032.460   116993029.727 7      3101.775          47.250    22263031.440   116993029.732 7      3101.775          46.937    22263040.920    91163431.141 7      2416.968          46.687    22263041.240    91163431.150 7      2416.968          47.250
G07  24609308.000   129322781.883 6      4358.562          38.875    24609306.760   129322781.883 4      4358.562          26.250    24609314.900   100771026.148 4      3396.282          26.250    24609316.100   100771033.150 7      3396.282          42.625
G31  25163747.160   132236384.560 6      -765.943          39.250    25163746.060   132236384.565 5      -765.943          34.375    25163761.880   103041386.190 5      -596.839          34.250    25163762.720   103041389.188 7      -596.839          42.437
> 2024 05 09 12 03 37.0000000  0 16
G27  20923702.100   109954796.217 8      2119.222          48.875    20923700.900   109954796.227 8      2119.222          50.000    20923707.640    85679087.156 8      1651.341          49.625    20923708.040    85679088.154 8      1651.341          50.062
G02  23125742.620   121526603.985 7      4974.422          45.187    23125741.920   121526603.995 5      4974.422          34.562    23125748.900    94696074.309 5      3876.173          34.562
G08  21618512.200   113606046.066 7      3651.908          46.187    21618511.020   113606046.063 6      3651.908          38.250    21618518.860    88524220.891 6      2845.642          37.937    21618519.740    88524224.898 8      2845.642          49.750
R22  20306684.980   108398461.967 8      3105.832          50.562    20306685.360   108398461.973 8      3105.832          50.062    20306692.980    84309948.451 8      2415.647          51.500    20306693.240    84309950.449 8      2415.647          51.000
G23  23370424.480   122812409.245 7      1174.142          43.750    23370423.280   122812409.255 5      1174.142          32.000    23370431.800    95698005.216 5       914.916          31.750    23370431.540    95698005.206 7       914.916          46.500
R11  19272564.620   102986738.897 8      1531.448          50.000    19272563.580   102986738.890 8      1531.448          49.500    19272572.700    80100828.733 8      1191.126          52.625    19272572.440    80100829.731 8      1191.126          53.000
G16  20556853.360   108026990.944 7      1713.095          46.875    20556851.640   108026990.951 6      1713.095          40.562    20556855.780    84176886.205 6      1334.879          39.875
R10  22413767.020   119477960.764 6     -1557.006          41.375    22413766.980   119477960.775 6     -1557.006          40.250
G21  21429067.280   112610509.626 7      4451.255          46.937    21429065.720   112610509.629 6      4451.255          36.625    21429072.200    87748469.118 6      3468.510          36.562
R23  23722347.740   126898579.407 6      5159.555          41.187    23722347.880   126898579.411 6      5159.555          40.375
R21  20687809.780   110704646.318 8       306.639          49.312    20687809.440   110704646.333 7       306.639          47.937    20687821.020    86103657.080 8       238.497          49.250    20687820.360    86103656.081 8       238.497          49.000
G26  22205828.520   116692409.947 7      -168.425          44.812    22205827.120   116692409.952 7      -168.425          44.437    22205838.620    90929185.408 7      -131.240          43.875    22205838.940    90929188.412 7      -131.240          47.375
R12  21355511.460   114077310.241 8      5798.083          49.062    21355511.480   114077310.240 8      5798.083          48.437    21355522.780    88726843.798 8      4509.620          49.187    21355522.580    88726842.802 8      4509.620          50.000
G10  22262442.280   116989928.152 7      3101.367          47.312    22262441.280   116989928.157 7      3101.367          46.312    22262450.760    91161014.328 7      2416.650          46.312    22262451.080    91161014.334 7      2416.650          47.312
G07  24608478.540   129318423.598 6      4358.063          38.562    24608477.280   129318423.600 4      4358.063          26.250    24608485.540   100767630.082 4      3395.893          26.250    24608486.520   100767637.092 7      3395.893          42.937
G31  25163892.960   132237150.332 6      -765.632          39.062    25163891.800   132237150.339 5      -765.632          34.375    25163907.600   103041982.891 5      -596.596          34.250    25163908.420   103041985.876 7      -596.596          42.437
> 2024 05 09 12 03 38.0000000  0 16
G27  20923298.680   109952677.043 8      2118.876          48.500    20923297.600   109952677.050 8      2118.876          49.937    20923304.380    85677435.848 8      1651.072          49.687    20923305.000    85677436.843 8      1651.072          49.812
G02  23124796.000   121521629.692 7      4973.811          45.062    23124795.240   121521629.699 5      4973.811          34.437    23124802.340    94692198.239 5      3875.697          34.562
G08  21617817.180   113602394.087 7      3651.591          45.812    21617816.040   113602394.087 6      3651.591          37.625    21617823.980    88521375.197 6      2845.396          37.000    21617824.800    88521379.208 8      2845.396          49.812
R22  20306103.080   108395356.330 8      3105.100          50.500    20306103.680   108395356.336 8      3105.100          50.437    20306111.200    84307532.951 8      2415.078          50.250    20306111.260    84307534.951 8      2415.078          50.687
G23  23370200.960   122811235.370 7      1173.263          43.437    23370200.100   122811235.378 5      1173.263          32.000    23370208.300    95697090.506 5       914.231          31.750    23370208.060    95697090.496 7       914.231          46.812
R11  19272278.140   102985207.898 8      1530.243          49.937    19272277.160   102985207.899 8      1530.243          49.312    19272286.240    80099637.952 8      1190.189          52.687    19272286.040    80099638.954 8      1190.189          53.000
G16  20556527.280   108025278.091 7      1712.317          46.875    20556525.720   108025278.101 6      1712.317          41.000    20556529.900    84175551.513 6      1334.273          40.375
R10  22414059.020   119479517.906 6     -1557.551          41.437    22414058.840   119479517.925 6     -1557.551          40.312
G21  21428220.440   112606058.551 7      4450.557          47.125    21428218.860   112606058.556 6      4450.557          36.437    21428224.980    87745000.748 6      3467.967          36.687
R23  23721383.560   126893420.071 6      5158.844          41.187    23721384.060   126893420.067 6      5158.844          40.562
R21  20687752.320   110704339.628 8       306.329          49.375    20687752.360   110704339.643 8       306.329          48.375    20687763.680    86103418.538 8       238.256          49.250    20687763.160    86103417.542 8       238.256          48.875
G26  22205860.480   116692578.513 7      -169.028          44.812    22205859.140   116692578.515 7      -169.028          44.750    22205870.740    90929316.750 7      -131.710          44.437    22205870.580    90929319.749 7      -131.710          47.062
R12  21354426.340   114071512.291 8      5797.432          48.250    21354425.820   114071512.294 7      5797.432          47.937    21354437.300    88722334.287 8      4509.114          49.375    21354437.060    88722333.291 8      4509.114          49.937
G10  22261852.200   116986827.024 7      3100.611          47.000    22261851.140   116986827.027 7      3100.611          46.125    22261860.600    91158597.863 7      2416.061          45.875    22261860.800    91158597.869 7      2416.061          47.562
G07  24607648.880   129314065.631 6      4357.393          39.000    24607648.000   129314065.628 4      4357.393          26.250    24607656.180   100764234.261 4      3395.371          26.250    24607657.380   100764241.264 7      3395.371          42.750
G31  25164038.340   132237915.830 6      -765.738          39.750    25164037.420   132237915.835 5      -765.738          34.375    25164053.340   103042579.375 5      -596.679          34.250    25164054.240   103042582.362 7      -596.679          42.437
> 2024 05 09 12 03 39.0000000  0 16
G27  20922895.740   109950558.199 8      2118.949          48.375    20922894.440   109950558.204 8      2118.949          49.812    20922901.180    85675784.797 8      1651.129          49.687    20922901.900    85675785.794 8      1651.129          49.750
G02  23123849.540   121516655.927 7      4973.764          44.625    23123848.720   121516655.934 5      4973.764          34.625    23123855.680    94688322.584 5      3875.660          34.500
G08  21617122.400   113598742.413 7      3651.789          46.437    21617121.260   113598742.415 6      3651.789          37.687    21617129.040    88518529.735 6      2845.550          37.625    21617129.640    88518533.742 8      2845.550          49.687
R22  20305521.460   108392251.339 8      3104.983          49.250    20305521.960   108392251.342 8      3104.983          49.937    20305529.520    84305117.952 8      2414.987          50.687    20305529.500    84305119.950 8      2414.987          50.687
G23  23369977.420   122810062.207 7      1173.131          44.625    23369976.740   122810062.217 5      1173.131          32.062    23369984.920    95696176.349 5       914.128          31.875    23369985.100    95696176.341 7       914.128          46.437
R11  19271992.100   102983677.920 8      1529.755          49.500    19271990.860   102983677.922 8      1529.755          49.375    19271999.920    80098447.973 8      1189.809          52.437    19271999.580    80098448.976 8      1189.809          52.812
G16  20556201.460   108023565.903 7      1712.154          47.312    20556200.040   108023565.911 6      1712.154          40.937    20556204.000    84174217.336 6      1334.146          40.562
R10  22414351.600   119481075.531 6     -1557.568          41.437    22414351.440   119481075.561 6     -1557.568          40.312
G21  21427373.460   112601608.161 7      4450.319          47.000    21427372.000   112601608.169 6      4450.319          36.937    21427378.240    87741532.916 6      3467.781          36.437
R23  23720419.400   126888261.192 7      5158.946          42.187    23720419.440   126888261.188 6      5158.946          40.562
R21  20687694.840   110704033.309 8       306.440          49.000    20687694.940   110704033.321 7       306.440          47.812    20687706.620    86103180.286 8       238.342          49.000    20687705.800    86103179.286 8       238.342          49.000
G26  22205892.860   116692747.567 7      -168.927          45.187    22205891.320   116692747.572 7      -168.927          44.937    22205902.940    90929448.474 7      -131.632          44.312    22205902.720    90929451.478 7      -131.632          47.375
R12  21353340.740   114065715.008 8      5797.323          48.687    21353340.900   114065715.006 8      5797.323          48.375    21353351.860    88717825.285 8      4509.029          49.187    21353352.000    88717824.289 8      4509.029          49.437
G10  22261262.240   116983726.603 7      3100.444          47.750    22261261.220   116983726.608 7      3100.444          46.937    22261270.660    91156181.952 7      2415.930          46.937    22261270.860    91156181.956 7      2415.930          47.437
G07  24606819.760   129309708.314 6      4357.137          38.687    24606818.720   129309708.311 4      4357.137          26.250    24606826.980   100760838.947 4      3395.171          26.125    24606827.660   100760845.945 7      3395.171          42.750
G31  25164183.980   132238681.307 6      -765.155          39.125    25164183.200   132238681.312 5      -765.155          34.500    25164198.980   103043175.843 5      -596.224          34.375    25164200.020   103043178.834 7      -596.224          42.625
> 2024 05 09 12 03 40.0000000  0 16
G27  20922492.600   109948439.432 7      2118.689          47.812    20922491.300   109948439.440 8      2118.689          49.312    20922497.960    85674133.809 8      1650.926          49.500    20922498.540    85674134.809 8      1650.926          50.250
G02  23122903.140   121511682.461 7      4973.224          44.750    23122902.180   121511682.469 5      4973.224          34.625    23122909.280    94684447.160 5      3875.240          34.500
G08  21616427.520   113595090.781 7      3651.544          46.500    21616426.440   113595090.783 6      3651.544          37.750    21616434.200    88515684.305 6      2845.359          37.375    21616434.720    88515688.320 8      2845.359          49.875
R22  20304939.940   108389146.750 8      3104.261          50.125    20304940.400   108389146.754 8      3104.261          49.437    20304947.860    84302703.274 8      2414.425          50.437    20304947.940    84302705.272 8      2414.425          50.625
G23  23369754.100   122808889.567 7      1172.372          43.812    23369753.600   122808889.572 5      1172.372          32.062    23369761.760    95695262.599 5       913.537          31.875    23369762.060    95695262.595 7       913.537          46.562
R11  19271705.660   102982148.773 8      1528.606          49.562    19271704.860   102982148.775 8      1528.606          48.687    19271713.760    80097258.631 8      1188.916          52.750    19271713.460    80097259.633 8      1188.916          52.937
G16  20555875.860   108021854.152 7      1711.399          46.500    20555874.300   108021854.156 6      1711.399          41.062    20555878.280    84172883.504 6      1333.558          40.687
R10  22414644.220   119482633.412 6     -1557.955          41.437    22414643.700   119482633.415 6     -1557.955          40.500
G21  21426526.660   112597158.208 7      4449.680          45.625    21426525.140   112597158.207 6      4449.680          36.312    21426531.420    87738065.421 6      3467.283          36.687
R23  23719454.980   126883102.586 7      5158.402          42.187    23719454.640   126883102.582 6      5158.402          40.562
R21  20687637.940   110703727.156 8       306.006          49.312    20687638.100   110703727.173 8       306.006          48.312    20687649.160    86102942.167 8       238.005          49.687    20687648.920    86102941.171 8       238.005          49.312
G26  22205924.740   116692916.934 7      -169.634          44.625    22205923.600   116692916.939 7      -169.634          44.000    22205935.180    90929580.441 7      -132.182          43.875    22205934.900    90929583.446 7      -132.182          47.125
R12  21352255.920   114059918.147 8      5796.636          48.125    21352255.380   114059918.148 8      5796.636          48.250    21352266.740    88713316.622 8      4508.495          49.437    21352266.480    88713315.621 8      4508.495          49.750
G10  22260672.560   116980626.703 7      3099.587          47.937    22260671.200   116980626.702 7      3099.587          46.500    22260680.720    91153766.443 7      2415.263          46.562    22260680.680    91153766.447 7      2415.263          47.312
G07  24605990.800   129305351.372 6      4356.706          38.687    24605989.600   129305351.369 4      4356.706          26.250    24605998.120   100757443.923 4      3394.836          26.125    24605998.140   100757450.929 7      3394.836          42.625
G31  25164329.780   132239446.585 6      -765.222          39.375    25164328.780   132239446.593 5      -765.222          34.500    25164344.560   103043772.155 5      -596.277          34.375    25164345.320   103043775.146 7      -596.277          42.437
> 2024 05 09 12 03 41.0000000  0 16
G27  20922089.700   109946320.951 8      2118.214          48.625    20922088.120   109946320.951 8      2118.214          50.187    20922094.820    85672483.039 8      1650.557          49.750    20922095.520    85672484.036 8      1650.557          49.812
G02  23121956.880   121506709.456 7      4972.556          45.062    23121955.700   121506709.463 5      4972.556          34.375    23121962.900    94680572.095 5      3874.719          34.312
G08  21615732.680   113591439.390 7      3651.072          47.250    21615731.680   113591439.392 6      3651.072          37.625    21615739.620    88512839.072 6      2844.991          37.687    21615739.840    88512843.079 8      2844.991          49.812
R22  20304358.660   108386042.728 8      3103.542          50.375    20304358.740   108386042.742 8      3103.542          50.062    20304366.400    84300289.040 8      2413.866          50.625    20304366.340    84300291.036 8      2413.866          50.812
G23  23369531.240   122807717.610 7      1171.382          44.062    23369530.440   122807717.620 5      1171.382          31.875    23369538.860    95694349.382 5       912.765          31.750    23369539.220    95694349.384 7       912.765          46.437
R11  19271419.600   102980620.591 8      1527.507          49.812    19271418.760   102980620.592 8      1527.507          49.125    19271427.800    80096070.040 8      1188.061          52.250    19271427.720    80096071.042 8      1188.061          52.312
G16  20555550.160   108020142.978 7      1710.708          47.375    20555548.620   108020142.986 6      1710.708          40.812    20555552.800    84171550.118 6      1333.019          40.375
R10  22414935.720   119484191.704 6     -1558.608          41.437    22414935.920   119484191.699 6     -1558.608          40.500
G21  21425679.780   112592708.869 7      4448.860          46.625    21425678.320   112592708.871 6      4448.860          36.187    21425684.600    87734598.404 6      3466.644          36.687
R23  23718490.860   126877944.394 6      5157.872          41.500    23718490.780   126877944.388 6      5157.872          40.500
R21  20687580.700   110703421.308 8       305.525          48.937    20687580.980   110703421.323 8       305.525          48.625    20687592.040    86102704.277 8       237.631          49.375    20687591.660    86102703.277 8       237.631          49.250
G26  22205957.220   116693086.714 7      -170.125          45.312    22205955.940   116693086.714 7      -170.125          44.500    22205967.460    90929712.722 7      -132.565          44.375    22205967.740    90929715.728 7      -132.565          47.062
R12  21351170.360   114054121.879 8      5795.803          48.250    21351170.420   114054121.878 8      5795.803          48.125    21351181.380    88708808.405 8      4507.847          48.875    21351181.640    88708807.407 8      4507.847          49.312
G10  22260082.660   116977527.451 7      3098.767          47.562    22260081.540   116977527.456 7      3098.767          46.687    22260090.940    91151351.444 7      2414.623          46.187    22260091.200    91151351.448 7      2414.623          47.437
G07  24605161.740   129300995.000 6      4355.850          38.187    24605160.580   129300995.002 4      4355.850          26.250    24605169.260   100754049.347 4      3394.169          26.125    24605169.740   100754056.358 7      3394.169          42.562
G31  25164475.160   132240211.813 6      -765.364          39.750    25164474.400   132240211.820 5      -765.364          34.187    25164490.180   103044368.432 5      -596.388          33.875    25164490.720   103044371.417 7      -596.388          42.375
> 2024 05 09 12 03 42.0000000  0 16
G27  20921686.580   109944202.681 8      2118.191          49.312    20921685.100   109944202.686 8      2118.191          50.125    20921691.800    85670832.440 8      1650.538          50.062    20921692.300    85670833.440 8      1650.538          49.937
G02  23121010.720   121501736.860 7      4972.480          44.187    23121009.540   121501736.868 5      4972.480          34.625    23121016.680    94676697.355 5      3874.660          34.687
G08  21615037.760   113587788.173 7      3651.140          47.125    21615036.820   113587788.175 6      3651.140          38.062    21615044.780    88509993.965 6      2845.045          37.625    21615045.240    88509997.974 8      2845.045          49.687
R22  20303776.860   108382939.247 8      3103.310          50.375    20303777.380   108382939.259 8      3103.310          50.250    20303785.040    84297875.224 8      2413.686          50.500    20303785.020    84297877.222 8      2413.686          51.312
G23  23369308.420   122806546.263 7      1171.100          44.250    23369307.480   122806546.270 5      1171.100          31.875    23369316.040    95693436.641 5       912.546          31.750    23369316.080    95693436.639 7       912.546          46.437
R11  19271133.740   102979093.347 8      1526.872          49.562    19271132.940   102979093.340 8      1526.872          49.125    19271142.100    80094882.173 8      1187.567          52.437    19271141.860    80094883.175 8      1187.567          53.125
G16  20555224.660   108018432.383 7      1710.366          47.187    20555223.020   108018432.390 6      1710.366          40.625    20555227.280    84170217.184 6      1332.753          40.312
R10  22415228.380   119485750.352 6     -1558.795          41.312    22415228.500   119485750.361 6     -1558.795          40.500
G21  21424832.960   112588260.093 7      4448.509          46.187    21424831.780   112588260.103 6      4448.509          36.750    21424838.040    87731131.827 6      3466.370          36.625
R23  23717526.580   126872786.598 6      5157.620          41.500    23717526.440   126872786.616 6      5157.620          40.500
R21  20687523.280   110703115.669 8       305.587          48.750    20687523.760   110703115.684 7       305.587          47.562    20687535.040    86102466.554 8       237.679          49.250    20687534.380    86102465.557 8       237.679          49.125
G26  22205989.340   116693256.927 7      -170.374          44.062    22205988.380   116693256.932 7      -170.374          44.375    22205999.900    90929845.350 7      -132.759          43.937    22206000.080    90929848.358 7      -132.759          46.750
R12  21350085.820   114048326.145 7      5795.579          47.937    21350085.080   114048326.136 8      5795.579          48.125    21350096.480    88704300.619 8      4507.673          49.125    21350096.640    88704299.620 8      4507.673          49.312
G10  22259492.840   116974428.803 7      3098.439          47.437    22259491.780   116974428.811 7      3098.439          46.812    22259501.340    91148936.919 7      2414.368          46.812    22259501.260    91148936.924 7      2414.368          47.437
G07  24604333.160   129296639.153 6      4355.612          38.062    24604331.640   129296639.156 4      4355.612          26.250    24604340.400   100750655.183 4      3393.984          26.125    24604340.820   100750662.192 7      3393.984          42.562
G31  25164620.720   132240976.946 6      -765.065          39.875    25164620.020   132240976.956 5      -765.065          34.250    25164635.640   103044964.636 5      -596.155          33.875    25164636.500   103044967.627 7      -596.155          42.375
> 2024 05 09 12 03 43.0000000  0 16
G27  20921283.500   109942084.626 8      2117.992          48.500    20921282.040   109942084.625 8      2117.992          50.250    20921288.740    85669181.999 8      1650.383          50.062    20921289.280    85669182.999 8      1650.383          50.312
G02  23120064.780   121496764.695 7      4972.007          45.000    23120063.260   121496764.705 5      4972.007          34.625    23120070.240    94672822.945 5      3874.291          34.687
G08  21614342.920   113584137.153 7      3650.912          46.250    21614342.040   113584137.147 6      3650.912          37.750    21614349.880    88507149.011 6      2844.866          37.312    21614350.460    88507153.014 8      2844.866          49.875
R22  20303195.360   108379836.301 8      3102.676          50.062    20303196.200   108379836.312 8      3102.676          50.000    20303203.720    84295461.821 8      2413.192          50.125    20303204.060    84295463.817 8      2413.192          50.937
G23  23369085.720   122805375.567 7      1170.347          43.625    23369084.800   122805375.572 5      1170.347          32.250    23369093.240    95692524.409 5       911.958          32.062    23369093.200    95692524.405 7       911.958          46.625
R11  19270848.240   102977567.034 8      1525.871          49.687    19270847.160   102977567.030 8      1525.871          49.312    19270856.380    80093695.039 8      1186.789          52.625    19270856.360    80093696.039 8      1186.789          52.875
G16  20554899.100   108016722.344 7      1709.754          46.937    20554897.820   108016722.354 6      1709.754          41.000    20554901.880    84168884.684 6      1332.276          40.312
R10  22415521.460   119487309.387 6     -1559.135          41.312    22415520.900   119487309.390 6     -1559.135          40.500
G21  21423986.560   112583811.897 7      4447.843          46.500    21423985.420   112583811.907 6      4447.843          36.750    21423991.520    87727665.705 6      3465.852          36.500
R23  23716561.780   126867629.185 6      5157.224          41.500    23716561.920   126867629.195 6      5157.224          40.500
R21  20687466.400   110702810.259 8       305.319          49.562    20687466.800   110702810.274 7       305.319          47.937    20687478.000    86102229.011 8       237.471          48.875    20687477.340    86102228.013 8       237.471          49.312
G26  22206021.980   116693427.516 7      -170.745          44.750    22206020.720   116693427.519 7      -170.745          44.312    22206032.420    90929978.268 7      -133.048          44.000    22206032.560    90929981.274 7      -133.048          47.125
R12  21349001.100   114042530.975 8      5794.907          48.250    21349000.100   114042530.979 7      5794.907          47.750    21349011.600    88699793.270 8      4507.150          48.937    21349011.720    88699792.272 8      4507.150          49.187
G10  22258903.260   116971330.789 7      3097.768          47.312    22258902.340   116971330.789 7      3097.768          46.437    22258911.800    91146522.874 7      2413.845          46.125    22258911.720    91146522.880 7      2413.845          47.500
G07  24603504.340   129292283.848 6      4354.951          38.062    24603502.780   129292283.851 4      4354.951          26.250    24603511.520   100747261.439 4      3393.468          26.125    24603511.720   100747268.444 7      3393.468          42.687
G31  25164766.660   132241741.974 6      -764.915          39.500    25164765.620   132241741.979 5      -764.915          34.250    25164781.120   103045560.745 5      -596.038          34.062    25164782.060   103045563.734 7      -596.038          42.625
> 2024 05 09 12 03 44.0000000  0 16
G27  20920880.420   109939966.536 8      2118.067          48.250    20920878.960   109939966.541 8      2118.067          49.875    20920885.700    85667531.544 8      1650.441          49.562    20920886.040    85667532.544 8      1650.441          50.312
G02  23119118.160   121491792.696 7      4971.884          43.937    23119117.100   121491792.704 5      4971.884          34.437    23119124.040    94668948.664 5      3874.195          34.437
G08  21613648.180   113580486.020 7      3651.116          46.750    21613647.180   113580486.017 6      3651.116          37.500    21613655.180    88504303.978 6      2845.025          37.125    21613655.800    88504307.987 8      2845.025          49.500
R22  20302614.300   108376733.602 8      3102.601          49.875    20302614.920   108376733.614 8      3102.601          49.750    20302622.360    84293048.607 8      2413.134          50.687    20302622.420    84293050.605 8      2413.134          50.750
G23  23368862.880   122804205.189 7      1170.269          43.750    23368862.080   122804205.199 5      1170.269          32.250    23368870.440    95691612.424 5       911.898          32.062    23368870.640    95691612.432 7       911.898          46.437
R11  19270562.640   102976041.380 8      1525.327          49.812    19270561.920   102976041.381 8      1525.327          48.562    19270570.960    80092508.423 8      1186.365          52.625    19270570.740    80092509.423 8      1186.365          53.000
G16  20554573.640   108015012.579 7      1709.639          47.500    20554572.420   108015012.592 6      1709.639          41.500    20554576.420    84167552.402 6      1332.186          40.562
R10  22415813.700   119488868.497 6     -1559.034          41.250    22415813.160   119488868.511 6     -1559.034          40.500
G21  21423140.140   112579363.988 7      4447.745          47.000    21423138.920   112579363.995 6      4447.745          36.437    21423145.240    87724199.799 6      3465.776          36.562
R23  23715597.860   126862471.895 6      5157.210          41.250    23715597.820   126862471.904 6      5157.210          40.375
R21  20687409.460   110702504.818 8       305.442          49.437    20687409.780   110702504.830 8       305.442          48.062    20687420.800    86101991.442 8       237.566          49.687    20687420.240    86101990.443 8       237.566          49.000
G26  22206054.520   116693598.250 7      -170.773          45.875    22206053.360   116693598.249 7      -170.773          44.437    22206064.940    90930111.297 7      -133.070          44.062    22206065.100    90930114.307 7      -133.070          47.250
R12  21347915.840   114036736.096 7      5794.742          47.312    21347915.460   114036736.097 8      5794.742          48.187    21347926.580    88695286.146 8      4507.021          48.750    21347927.040    88695285.150 8      4507.021          49.875
G10  22258313.780   116968233.109 7      3097.601          47.750    22258312.840   116968233.114 7      3097.601          46.625    22258322.340    91144109.101 7      2413.715          46.500    22258322.520    91144109.110 7      2413.715          47.562
G07  24602675.880   129287928.740 6      4355.076          38.750    24602673.960   129287928.743 4      4355.076          26.250    24602682.720   100743867.855 4      3393.566          26.125    24602682.500   100743874.851 7      3393.566          42.687
G31  25164911.560   132242506.624 6      -764.414          39.437    25164911.040   132242506.623 5      -764.414          34.000    25164926.580   103046156.568 5      -595.647          34.062    25164927.540   103046159.565 7      -595.647          42.187
> 2024 05 09 12 03 45.0000000  0 16
G27  20920477.280   109937848.470 8      2117.930          48.000    20920475.940   109937848.481 8      2117.930          50.375    20920482.620    85665881.108 8      1650.335          49.875    20920483.040    85665882.105 8      1650.335          50.000
G02  23118172.120   121486820.915 7      4971.546          44.437    23118170.960   121486820.920 5      4971.546          34.437    23118177.980    94665074.551 5      3873.932          34.437
G08  21612953.340   113576834.903 7      3651.020          46.250    21612952.500   113576834.903 6      3651.020          37.437    21612960.340    88501458.950 6      2844.951          37.500    21612961.100    88501462.959 8      2844.951          49.625
R22  20302033.060   108373631.277 8      3102.018          48.750    20302033.600   108373631.286 8      3102.018          50.312    20302041.240    84290635.688 8      2412.681          50.437    20302041.300    84290637.683 8      2412.681          50.437
G23  23368640.100   122803035.321 7      1169.497          43.687    23368639.520   122803035.334 5      1169.497          31.937    23368647.760    95690700.840 5       911.296          32.062    23368648.000    95690700.843 7       911.296          46.625
R11  19270277.420   102974516.486 8      1524.405          49.250    19270276.440   102974516.479 8      1524.405          49.062    19270285.580    80091322.393 8      1185.649          52.250    19270285.400    80091323.397 8      1185.649          53.187
G16  20554248.360   108013303.213 7      1709.152          45.937    20554247.200   108013303.218 6      1709.152          41.000    20554251.160    84166220.422 6      1331.806          40.250
R10  22416106.540   119490427.844 6     -1559.585          41.250    22416105.700   119490427.858 6     -1559.585          40.500
G21  21422293.760   112574916.478 7      4447.225          47.000    21422292.380   112574916.483 5      4447.225          35.875    21422298.820    87720734.211 6      3465.370          36.000
R23  23714633.640   126857314.786 6      5157.005          41.250    23714633.560   126857314.791 6      5157.005          40.375
R21  20687352.220   110702199.433 8       305.250          49.812    20687352.800   110702199.443 8       305.250          48.625    20687363.720    86101753.916 8       237.417          49.375    20687363.260    86101752.917 8       237.417          49.062
G26  22206086.940   116693769.199 7      -171.170          44.375    22206085.840   116693769.209 7      -171.170          44.312    22206097.460    90930244.504 7      -133.379          44.250    22206097.640    90930247.512 7      -133.379          47.687
R12  21346831.320   114030941.573 8      5794.286          48.312    21346830.620   114030941.576 7      5794.286          47.562    21346841.940    88690779.299 8      4506.667          49.000    21346842.220    88690778.304 8      4506.667          49.562
G10  22257724.260   116965135.888 7      3096.977          47.500    22257723.420   116965135.890 7      3096.977          47.062    22257732.960    91141695.682 7      2413.229          46.875    22257733.120    91141695.685 7      2413.229          47.562
G07  24601847.140   129283574.008 6      4354.450          38.437    24601845.240   129283574.008 4      4354.450          26.250    24601854.080   100740474.553 4      3393.078          26.312    24601854.500   100740481.559 7      3393.078          42.312
G31  25165056.840   132243271.029 6      -764.289          39.250    25165056.520   132243271.026 5      -764.289          34.000    25165071.900   103046752.202 5      -595.550          34.062    25165073.400   103046755.185 7      -595.550          42.187
> 2024 05 09 12 03 46.0000000  0 16
G27  20920074.120   109935730.573 8      2117.919          48.250    20920072.920   109935730.583 8      2117.919          49.812    20920079.640    85664230.798 8      1650.326          49.875    20920080.140    85664231.795 8      1650.326          49.875
G02  23117226.120   121481849.496 7      4971.351          44.437    23117224.920   121481849.504 5      4971.351          34.187    23117231.960    94661200.725 5      3873.780          34.375
G08  21612258.660   113573183.901 7      3651.076          47.062    21612257.700   113573183.898 6      3651.076          37.687    21612265.580    88498614.011 6      2844.994          37.375    21612266.140    88498618.020 8      2844.994          50.062
R22  20301452.060   108370529.403 8      3101.725          50.687    20301452.620   108370529.415 8      3101.725          49.812    20301460.100    84288223.121 8      2412.453          50.312    20301460.200    84288225.117 8      2412.453          51.000
G23  23368417.640   122801865.989 7      1169.155          44.187    23368417.080   122801866.004 5      1169.155          31.937    23368425.200    95689789.671 5       911.030          31.625    23368425.200    95689789.665 7       911.030          46.625
R11  19269992.060   102972992.451 8      1523.725          49.500    19269991.280   102972992.449 8      1523.725          48.750    19270000.400    80090137.025 8      1185.119          52.750    19270000.160    80090138.026 8      1185.119          53.312
G16  20553923.240   108011594.346 7      1708.687          46.562    20553921.980   108011594.357 6      1708.687          40.937    20553926.120    84164888.836 6      1331.445          40.562
R10  22416399.000   119491987.444 6     -1559.570          41.250    22416398.460   119491987.444 6     -1559.570          40.500
G21  21421447.500   112570469.470 7      4446.869          46.562    21421446.240   112570469.474 6      4446.869          36.000    21421452.480    87717269.006 6      3465.093          36.125
R23  23713670.140   126852158.036 6      5156.651          41.250    23713669.820   126852158.043 6      5156.651          40.375
R21  20687295.020   110701894.238 8       305.203          48.750    20687295.760   110701894.250 7       305.203          47.062    20687306.760    86101516.540 8       237.380          49.562    20687305.920    86101515.541 8       237.380          49.437
G26  22206119.360   116693940.494 7      -171.366          44.187    22206118.420   116693940.505 7      -171.366          44.375    22206129.920    90930377.973 7      -133.532          43.875    22206130.280    90930380.979 7      -133.532          47.312
R12  21345746.560   114025147.538 7      5793.851          47.750    21345745.740   114025147.547 7      5793.851          47.250    21345757.200    88686272.833 8      4506.328          48.437    21345757.300    88686271.837 8      4506.328          49.187
G10  22257134.980   116962039.222 7      3096.506          46.625    22257134.120   116962039.224 7      3096.506          46.062    22257143.700    91139282.700 7      2412.862          46.312    22257143.840    91139282.704 7      2412.862          47.562
G07  24601018.460   129279219.712 6      4354.125          38.437    24601016.600   129279219.717 4      4354.125          26.312    24601025.560   100737081.601 4      3392.825          26.312    24601025.780   100737088.607 7      3392.825          42.312
G31  25165202.080   132244035.251 6      -763.998          38.937    25165201.940   132244035.242 5      -763.998          33.812    25165217.300   103047347.691 5      -595.323          33.687    25165218.440   103047350.674 7      -595.323          42.312
> 2024 05 09 12 03 47.0000000  0 16
G27  20919671.140   109933612.710 8      2117.696          48.312    20919669.900   109933612.714 8      2117.696          49.875    20919676.540    85662580.507 8      1650.153          49.812    20919677.060    85662581.502 8      1650.153          48.625
G02  23116280.380   121476878.327 7      4970.866          44.250    23116278.840   121476878.335 5      4970.866          34.062    23116285.980    94657327.093 5      3873.402          34.000
G08  21611564.200   113569532.905 7      3650.795          46.562    21611563.060   113569532.899 6      3650.795          38.062    21611570.720    88495769.077 6      2844.776          37.687    21611571.360    88495773.084 8      2844.776          48.500
R22  20300870.940   108367427.871 8      3101.142          50.125    20300871.520   108367427.885 8      3101.142          49.375    20300878.980    84285810.820 8      2411.999          50.687    20300879.080    84285812.818 8      2411.999          50.750
G23  23368195.320   122800697.117 7      1168.467          43.437    23368194.800   122800697.127 5      1168.467          31.937    23368202.600    95688878.859 5       910.494          31.625    23368202.820    95688878.851 7       910.494          46.437
R11  19269706.880   102971469.155 8      1522.720          49.750    19269706.420   102971469.156 8      1522.720          48.625    19269715.440    80088952.238 8      1184.338          52.500    19269715.200    80088953.238 8      1184.338          52.875
G16  20553598.340   108009885.842 7      1708.088          47.250    20553596.920   108009885.850 6      1708.088          40.750    20553600.900    84163557.530 6      1330.978          40.625
R10  22416691.480   119493547.209 6     -1560.121          41.312    22416691.260   119493547.228 6     -1560.121          40.500
G21  21420601.440   112566022.850 7      4446.181          46.000    21420600.000   112566022.855 6      4446.181          36.437    21420606.300    87713804.114 6      3464.557          36.500
R23  23712706.400   126847001.455 6      5156.289          40.875    23712705.820   126847001.454 6      5156.289          40.375
R21  20687238.020   110701589.099 8       304.892          49.687    20687238.860   110701589.114 8       304.892          48.375    20687249.720    86101279.205 7       237.138          47.687    20687248.860    86101278.207 7       237.138          47.937
G26  22206151.980   116694112.008 7      -171.779          45.875    22206151.080   116694112.016 7      -171.779          44.250    22206162.660    90930511.610 7      -133.854          43.875    22206162.840    90930514.613 7      -133.854          47.500
R12  21344662.060   114019353.874 7      5793.247          47.687    21344661.160   114019353.880 7      5793.247          47.937    21344672.720    88681766.650 7      4505.859          47.875    21344672.680    88681765.654 8      4505.859          48.375
G10  22256545.880   116958942.981 7      3095.740          46.500    22256544.860   116958942.989 7      3095.740          45.875    22256554.540    91136870.047 7      2412.265          45.437    22256554.640    91136870.049 7      2412.265          47.375
G07  24600190.120   129274865.763 6      4353.518          38.500    24600188.020   129274865.768 4      4353.518          26.312    24600197.040   100733688.911 4      3392.352          26.312    24600197.180   100733695.915 7      3392.352          42.375
G31  25165347.620   132244799.165 6      -763.795          39.187    25165347.280   132244799.162 5      -763.795          33.812    25165362.540   103047942.955 5      -595.165          33.687    25165363.360   103047945.938 7      -595.165          42.312
> 2024 05 09 12 03 48.0000000  0 16
G27  20919268.080   109931495.201 8      2117.439          48.375    20919266.900   109931495.206 8      2117.439          49.562    20919273.680    85660930.500 8      1649.952          49.437    20919274.240    85660931.497 8      1649.952          50.000
G02  23115334.080   121471907.700 7      4970.497          44.250    23115332.920   121471907.702 5      4970.497          34.062    23115340.040    94653453.878 5      3873.115          34.000
G08  21610869.100   113565882.206 7      3650.626          46.375    21610868.520   113565882.203 6      3650.626          38.187    21610876.100    88492924.378 6      2844.643          37.562    21610876.680    88492928.385 8      2844.643          49.625
R22  20300290.020   108364327.003 8      3100.679          50.312    20300290.620   108364327.018 8      3100.679          49.625    20300298.180    84283399.032 8      2411.640          50.125    20300298.500    84283401.032 8      2411.640          51.000
G23  23367973.100   122799528.980 7      1167.926          44.250    23367972.580   122799528.990 5      1167.926          32.000    23367980.560    95687968.617 5       910.072          31.625    23367980.560    95687968.609 7       910.072          46.375
R11  19269422.420   102969946.928 8      1521.870          49.500    19269421.340   102969946.924 8      1521.870          49.250    19269430.480    80087768.273 8      1183.676          52.250    19269430.320    80087769.271 8      1183.676          52.937
G16  20553273.380   108008178.014 7      1707.583          46.937    20553271.880   108008178.024 6      1707.583          40.812    20553276.060    84162226.752 6      1330.584          40.625
R10  22416984.360   119495107.470 6     -1560.327          41.312    22416983.940   119495107.481 6     -1560.327          40.125
G21  21419755.320   112561576.912 7      4445.721          46.187    21419753.880   112561576.917 6      4445.721          36.437    21419760.300    87710339.750 6      3464.198          36.562
R23  23711742.700   126841845.390 6      5155.897          40.875    23711741.820   126841845.394 6      5155.897          39.812
R21  20687181.180   110701284.319 8       304.719          49.437    20687182.060   110701284.334 8       304.719          48.562    20687192.800    86101042.152 8       237.004          49.000    20687192.080    86101041.153 8       237.004          49.250
G26  22206184.780   116694284.034 7      -172.080          44.687    22206183.840   116694284.045 7      -172.080          44.875    22206195.440    90930645.646 7      -134.088          44.125    22206195.880    90930648.654 7      -134.088          47.687
R12  21343577.440   114013560.889 7      5792.753          47.937    21343576.880   114013560.892 7      5792.753          47.875    21343588.320    88677260.993 8      4505.474          49.250    21343588.400    88677259.997 8      4505.474          49.437
G10  22255956.800   116955847.458 7      3095.383          46.125    22255955.860   116955847.455 7      3095.383          46.500    22255965.380    91134457.943 7      2411.987          46.250    22255965.620    91134457.947 7      2411.987          47.375
G07  24599360.800   129270512.455 6      4353.118          38.250    24599359.520   129270512.457 4      4353.118          26.312    24599368.600   100730296.725 4      3392.040          26.312    24599368.900   100730303.727 7      3392.040          42.375
G31  25165493.140   132245563.170 6      -763.966          38.312    25165492.600   132245563.173 5      -763.966          34.000    25165507.920   103048538.276 5      -595.299          33.437    25165508.820   103048541.266 6      -595.299          41.562
> 2024 05 09 12 03 49.0000000  0 16
G27  20918865.180   109929377.874 7      2117.249          47.875    20918864.020   109929377.878 8      2117.249          50.125    20918870.740    85659280.632 8      1649.805          50.437    20918871.380    85659281.630 8      1649.805          50.125
G02  23114388.460   121466937.479 7      4969.921          44.250    23114387.020   121466937.484 5      4969.921          34.062    23114394.140    94649580.985 5      3872.666          33.937
G08  21610174.640   113562231.659 7      3650.409          46.687    21610173.660   113562231.658 6      3650.409          38.125    21610181.660    88490079.800 6      2844.474          38.312    21610182.080    88490083.807 8      2844.474          50.125
R22  20299709.120   108361226.656 8      3100.039          50.562    20299709.880   108361226.670 8      3100.039          50.000    20299717.400    84280987.649 8      2411.142          50.375    20299717.520    84280989.645 8      2411.142          50.625
G23  23367750.840   122798361.471 7      1167.206          43.875    23367750.560   122798361.479 5      1167.206          32.000    23367758.180    95687058.870 5       909.511          31.875    23367758.520    95687058.857 7       909.511          46.437
R11  19269137.560   102968425.604 8      1520.838          49.375    19269136.800   102968425.600 8      1520.838          49.312    19269145.840    80086585.023 8      1182.874          52.750    19269145.740    80086586.022 8      1182.874          53.625
G16  20552948.520   108006470.726 7      1707.005          47.312    20552946.900   108006470.736 6      1707.005          40.562    20552951.080    84160896.397 6      1330.134          40.187
R10  22417277.640   119496668.070 6     -1560.755          41.500    22417276.640   119496668.078 6     -1560.755          40.125
G21  21418909.420   112557131.520 7      4445.139          46.062    21418907.900   112557131.524 6      4445.139          36.437    21418914.440    87706875.809 6      3463.745          36.000
R23  23710778.600   126836689.672 6      5155.564          40.875    23710777.560   126836689.679 6      5155.564          39.812
R21  20687124.400   110700979.742 8       304.474          49.562    20687124.920   110700979.751 8       304.474          48.875    20687135.800    86100805.252 8       236.813          49.437    20687135.300    86100804.254 8       236.813          49.125
G26  22206217.700   116694456.476 7      -172.658          45.125    22206216.560   116694456.483 7      -172.658          44.562    22206228.140    90930780.008 7      -134.538          44.312    22206228.740    90930783.005 7      -134.538          47.625
R12  21342492.660   114007768.424 7      5792.149          47.562    21342492.620   114007768.422 7      5792.149          47.812    21342503.900    88672755.743 8      4505.004          48.750    21342504.060    88672754.747 8      4505.004          49.250
G10  22255367.880   116952752.576 7      3094.523          47.937    22255367.020   116952752.581 7      3094.523          46.187    22255376.440    91132046.352 7      2411.316          46.500    22255376.540    91132046.357 7      2411.316          47.312
G07  24598532.340   129266159.667 6      4352.456          38.437    24598531.260   129266159.666 4      4352.456          26.312    24598540.160   100726904.942 4      3391.524          26.312    24598540.700   100726911.940 7      3391.524          42.375
G31  25165639.080   132246327.016 6      -763.751          39.187    25165637.700   132246327.011 5      -763.751          33.500    25165653.160   103049133.472 5      -595.131          33.437    25165654.200   103049136.458 6      -595.131          41.937
> 2024 05 09 12 03 50.0000000  0 16
G27  20918462.460   109927260.777 8      2117.049          49.125    20918461.160   109927260.782 8      2117.049          49.562    20918467.840    85657630.949 8      1649.648          49.125    20918468.560    85657631.942 8      1649.648          50.437
G02  23113442.780   121461967.656 7      4969.655          44.812    23113441.240   121461967.660 5      4969.655          34.062    23113448.480    94645708.402 5      3872.459          33.937
G08  21609479.820   113558581.293 7      3650.358          47.437    21609479.060   113558581.295 6      3650.358          37.812    21609486.840    88487235.362 6      2844.434          37.312    21609487.360    88487239.367 8      2844.434          49.812
R22  20299128.740   108358126.813 8      3099.602          50.562    20299129.140   108358126.825 8      3099.602          49.937    20299136.580    84278576.667 8      2410.801          51.000    20299136.680    84278578.665 8      2410.801          50.562
G23  23367528.680   122797194.580 7      1166.570          43.812    23367528.560   122797194.585 5      1166.570          32.000    23367536.060    95686149.604 5       909.016          31.875    23367536.280    95686149.600 7       909.016          46.062
R11  19268852.860   102966905.197 8      1519.994          50.125    19268852.380   102966905.196 8      1519.994          49.812    19268861.320    80085402.487 8      1182.218          52.750    19268861.080    80085403.483 8      1182.218          53.062
G16  20552623.740   108004763.983 8      1706.574          48.000    20552622.140   108004763.993 6      1706.574          40.750    20552626.280    84159566.469 6      1329.798          40.125
R10  22417570.540   119498229.034 6     -1561.066          41.500    22417569.280   119498229.040 6     -1561.066          40.187
G21  21418063.780   112552686.708 7      4444.587          45.937    21418062.020   112552686.718 5      4444.587          35.937    21418068.480    87703412.323 6      3463.314          36.000
R23  23709815.300   126831534.359 6      5155.165          40.812    23709814.000   126831534.355 6      5155.165          39.812
R21  20687067.600   110700675.416 8       304.251          49.687    20687068.140   110700675.431 8       304.251          49.000    20687078.880    86100568.555 8       236.640          49.625    20687078.420    86100567.558 8       236.640          49.250
G26  22206250.800   116694629.301 7      -173.019          45.437    22206249.500   116694629.306 7      -173.019          44.312    22206261.100    90930914.666 7      -134.820          44.125    22206261.480    90930917.670 7      -134.820          47.187
R12  21341408.960   114001976.507 8      5791.672          48.000    21341408.120   114001976.505 7      5791.672          47.750    21341419.660    88668250.923 8      4504.634          49.125    21341419.740    88668249.928 8      4504.634          48.937
G10  22254779.100   116949658.269 7      3094.137          47.750    22254778.160   116949658.271 7      3094.137          46.500    22254787.640    91129635.204 7      2411.016          46.312    22254787.660    91129635.208 7      2411.016          47.375
G07  24597704.020   129261807.375 6      4351.965          38.500    24597703.040   129261807.375 4      4351.965          26.312    24597711.760   100723513.544 4      3391.142          26.312    24597712.340   100723520.553 7      3391.142          42.625
G31  25165784.140   132247090.746 6      -763.599          39.187    25165783.040   132247090.741 5      -763.599          33.500    25165798.600   103049728.583 5      -595.012          33.250    25165799.440   103049731.574 6      -595.012          41.937
> 2024 05 09 12 03 51.0000000  0 16
G27  20918059.540   109925143.723 8      2117.155          49.187    20918058.340   109925143.728 8      2117.155          50.125    20918065.020    85655981.292 8      1649.731          49.875    20918065.580    85655982.292 8      1649.731          50.437
G02  23112497.180   121456998.097 7      4969.550          45.250    23112495.680   121456998.100 5      4969.550          34.250    23112502.780    94641836.019 5      3872.376          34.062
G08  21608785.160   113554930.938 7      3650.502          47.500    21608784.380   113554930.937 6      3650.502          38.125    21608792.280    88484390.927 6      2844.547          37.812    21608792.780    88484394.932 8      2844.547          50.500
R22  20298548.000   108355027.339 8      3099.450          50.437    20298548.620   108355027.356 8      3099.450          49.500    20298556.000    84276165.962 8      2410.684          50.562    20298556.120    84276167.958 8      2410.684          50.562
G23  23367306.880   122796028.138 7      1166.259          43.750    23367306.520   122796028.146 5      1166.259          32.000    23367313.980    95685240.690 5       908.773          31.687    23367314.280    95685240.694 7       908.773          46.250
R11  19268568.540   102965385.541 8      1519.380          49.875    19268567.940   102965385.542 8      1519.380          49.187    19268576.980    80084220.531 8      1181.740          52.562    19268576.640    80084221.528 8      1181.740          52.937
G16  20552299.040   108003057.654 7      1706.246          47.187    20552297.480   108003057.662 6      1706.246          41.375    20552301.560    84158236.858 6      1329.542          40.562
R10  22417863.580   119499790.196 6     -1561.073          41.125    22417862.100   119499790.199 6     -1561.073          40.187
G21  21417217.960   112548242.275 7      4444.471          45.062    21417216.300   112548242.280 5      4444.471          35.937    21417222.900    87699949.129 6      3463.224          36.375
R23  23708851.320   126826379.211 6      5155.108          40.812    23708849.880   126826379.228 6      5155.108          39.812
R21  20687010.720   110700371.144 8       304.380          49.937    20687011.360   110700371.159 8       304.380          48.625    20687022.000    86100331.903 8       236.740          49.375    20687021.620    86100330.902 8       236.740          48.812
G26  22206283.840   116694802.331 7      -173.058          45.375    22206282.520   116694802.338 7      -173.058          44.562    22206294.020    90931049.486 7      -134.850          44.250    22206294.540    90931052.490 7      -134.850          47.312
R12  21340324.880   113996184.951 8      5791.569          48.312    21340324.040   113996184.949 7      5791.569          47.562    21340335.580    88663746.383 8      4504.554          48.437    21340335.820    88663745.389 8      4504.554          48.312
G10  22254190.360   116946564.435 7      3093.740          47.375    22254189.400   116946564.440 7      3093.740          46.250    22254198.900    91127224.425 7      2410.707          46.187    22254199.120    91127224.429 7      2410.707          47.375
G07  24596875.500   129257455.418 6      4352.052          38.687    24596874.840   129257455.417 4      4352.052          26.312    24596883.560   100720122.404 4      3391.209          26.437    24596884.140   100720129.401 7      3391.209          42.625
G31  25165929.520   132247854.224 6      -763.018          38.875    25165928.220   132247854.216 5      -763.018          33.500    25165943.860   103050323.492 5      -594.560          33.250    25165944.460   103050326.486 6      -594.560          41.812
> 2024 05 09 12 03 52.0000000  0 16
G27  20917656.700   109923026.840 8      2116.468          49.562    20917655.480   109923026.848 8      2116.468          50.000    20917662.120    85654331.773 8      1649.196          49.687    20917662.840    85654332.774 8      1649.196          50.187
G02  23111551.480   121452028.886 7      4968.727          44.750    23111550.200   121452028.888 5      4968.727          34.312    23111557.160    94637963.916 5      3871.736          34.062
G08  21608090.640   113551280.716 7      3649.879          46.437    21608089.840   113551280.716 6      3649.879          37.812    21608097.660    88481546.597 6      2844.062          37.437    21608098.200    88481550.604 8      2844.062          50.187
R22  20297967.580   108351928.342 8      3098.526          50.750    20297968.080   108351928.357 8      3098.526          49.500    20297975.460    84273755.627 8      2409.965          51.062    20297975.560    84273757.627 8      2409.965          51.000
G23  23367084.960   122794862.272 7      1165.235          43.750    23367084.720   122794862.282 5      1165.235          32.000    23367092.020    95684332.223 5       907.976          31.687    23367092.460    95684332.221 7       907.976          46.125
R11  19268284.340   102963866.752 8      1518.116          49.750    19268283.780   102963866.756 8      1518.116          49.062    19268292.740    80083039.250 8      1180.757          52.750    19268292.440    80083040.246 8      1180.757          53.062
G16  20551974.360   108001351.807 7      1705.289          47.500    20551972.840   108001351.812 6      1705.289          40.937    20551976.760    84156907.622 6      1328.797          40.312
R10  22418156.400   119501351.702 6     -1562.031          41.125    22418155.140   119501351.700 6     -1562.031          40.187
G21  21416372.480   112543798.375 7      4443.430          45.000    21416370.700   112543798.383 6      4443.430          36.187    21416377.160    87696486.354 6      3462.413          36.125
R23  23707887.540   126821224.411 6      5154.413          40.812    23707885.860   126821224.420 6      5154.413          39.687
R21  20686953.640   110700067.046 8       303.754          49.062    20686954.760   110700067.061 8       303.754          48.937    20686965.360    86100095.378 8       236.253          49.375    20686964.640    86100094.377 8       236.253          49.187
G26  22206316.680   116694975.723 7      -173.828          45.625    22206315.560   116694975.728 7      -173.828          44.625    22206326.960    90931184.589 7      -135.450          44.250    22206327.300    90931187.589 7      -135.450          47.250
R12  21339240.500   113990393.896 7      5790.557          47.937    21339240.000   113990393.895 7      5790.557          47.812    21339251.380    88659242.232 8      4503.766          49.062    21339251.540    88659241.238 8      4503.766          49.312
G10  22253601.620   116943471.156 7      3092.727          47.687    22253600.720   116943471.158 7      3092.727          46.687    22253610.220    91124814.075 7      2409.917          46.625    22253610.160    91124814.083 7      2409.917          47.312
G07  24596048.200   129253103.975 6      4350.931          38.875    24596046.800   129253103.975 4      4350.931          26.625    24596055.600   100716731.666 4      3390.336          26.437    24596056.400   100716738.666 7      3390.336          42.437
G31  25166074.540   132248617.539 6      -763.396          38.500    25166073.440   132248617.533 5      -763.396          33.250    25166088.920   103050918.279 5      -594.854          32.875    25166089.720   103050921.268 6      -594.854          41.687
> 2024 05 09 12 03 53.0000000  0 16
G27  20917253.980   109920910.204 8      2116.560          48.750    20917252.700   109920910.209 8      2116.560          49.437    20917259.360    85652682.444 8      1649.267          49.437    20917260.040    85652683.443 8      1649.267          50.125
G02  23110606.140   121447060.145 7      4968.589          44.750    23110604.540   121447060.147 5      4968.589          34.312    23110611.560    94634092.172 5      3871.628          34.250
G08  21607396.080   113547630.705 7      3649.944          46.750    21607395.280   113547630.708 6      3649.944          38.312    21607403.020    88478702.434 6      2844.112          38.000    21607403.420    88478706.443 8      2844.112          49.687
R22  20297387.140   108348829.912 8      3098.275          50.437    20297387.540   108348829.923 8      3098.275          50.562    20297395.040    84271345.735 8      2409.770          51.000    20297395.120    84271347.735 8      2409.770          50.687
G23  23366863.300   122793697.083 7      1164.818          44.187    23366863.100   122793697.094 5      1164.818          32.000    23366870.380    95683424.284 5       907.650          31.687    23366870.560    95683424.280 7       907.650          46.062
R11  19268000.420   102962348.966 8      1517.362          50.000    19267999.780   102962348.967 8      1517.362          49.375    19268008.760    80081858.739 8      1180.171          52.625    19268008.280    80081859.739 8      1180.171          52.937
G16  20551649.740   107999646.556 7      1705.022          47.562    20551648.320   107999646.561 6      1705.022          40.937    20551652.460    84155578.849 6      1328.588          40.500
R10  22418449.640   119502913.557 6     -1561.906          41.312    22418448.100   119502913.549 6     -1561.906          40.250
G21  21415526.820   112539355.088 7      4442.956          45.062    21415525.080   112539355.095 5      4442.956          35.750    21415531.760    87693024.056 6      3462.044          36.187
R23  23706923.540   126816070.062 6      5154.190          40.562    23706922.840   126816070.061 6      5154.190          39.687
R21  20686897.040   110699763.234 8       303.709          49.437    20686897.860   110699763.257 8       303.709          48.812    20686908.460    86099859.080 8       236.218          49.562    20686908.060    86099858.081 8       236.218          49.625
G26  22206349.780   116695149.557 7      -173.976          44.750    22206348.540   116695149.559 7      -173.976          44.312    22206359.940    90931320.036 7      -135.566          43.875    22206360.340    90931323.038 7      -135.566          47.312
R12  21338156.400   113984603.395 8      5790.193          48.375    21338156.220   113984603.393 8      5790.193          48.312    21338167.360    88654738.511 8      4503.484          49.000    21338167.540    88654737.514 8      4503.484          49.375
G10  22253013.260   116940378.531 7      3092.328          46.687    22253012.240   116940378.533 7      3092.328          46.250    22253021.800    91122404.239 7      2409.607          46.375    22253021.820    91122404.243 7      2409.607          47.625
G07  24595220.140   129248753.055 6      4350.660          38.812    24595218.800   129248753.055 4      4350.660          26.625    24595227.560   100713341.339 4      3390.125          26.437    24595228.700   100713348.345 7      3390.125          42.437
G31  25166219.700   132249380.817 6      -763.148          38.375    25166218.580   132249380.809 5      -763.148          33.250    25166234.200   103051513.033 5      -594.661          32.875    25166235.440   103051516.018 6      -594.661          41.687
> 2024 05 09 12 03 54.0000000  0 16
G27  20916851.120   109918793.906 7      2115.934          47.750    20916849.980   109918793.914 8      2115.934          49.875    20916856.680    85651033.377 8      1648.780          49.812    20916857.500    85651034.376 8      1648.780          50.000
G02  23109660.840   121442091.947 7      4967.703          44.562    23109659.200   121442091.952 5      4967.703          34.312    23109666.280    94630220.855 5      3870.938          34.187
G08  21606701.540   113543980.997 7      3649.308          46.937    21606700.820   113543980.994 6      3649.308          38.312    21606708.640    88475858.507 6      2843.616          37.750    21606709.140    88475862.514 8      2843.616          50.250
R22  20296807.000   108345732.135 8      3097.217          50.375    20296807.240   108345732.144 8      3097.217          50.062    20296814.600    84268936.351 8      2408.947          50.500    20296815.040    84268938.348 8      2408.947          50.625
G23  23366641.700   122792532.631 7      1163.778          43.750    23366641.280   122792532.641 5      1163.778          32.000    23366648.800    95682516.912 5       906.840          31.562    23366648.740    95682516.908 7       906.840          46.125
R11  19267716.540   102960832.222 8      1516.004          49.562    19267716.040   102960832.218 8      1516.004          49.062    19267724.880    80080679.051 8      1179.114          52.562    19267724.720    80080680.049 8      1179.114          53.000
G16  20551325.180   107997941.967 7      1704.114          47.687    20551324.060   107997941.972 6      1704.114          41.062    20551328.000    84154250.600 6      1327.881          40.375
R10  22418742.600   119504475.931 6     -1562.794          41.312    22418741.780   119504475.932 6     -1562.794          40.250
G21  21414681.660   112534912.457 7      4442.078          45.500    21414679.620   112534912.467 6      4442.078          36.375    21414686.240    87689562.270 6      3461.360          36.187
R23  23705960.580   126810916.174 6      5153.452          40.562    23705959.060   126810916.176 6      5153.452          39.687
R21  20686840.360   110699459.789 8       303.050          50.000    20686841.080   110699459.812 8       303.050          48.500    20686851.740    86099623.065 8       235.705          49.062    20686851.380    86099622.068 8       235.705          49.312
G26  22206382.680   116695323.901 7      -174.737          45.000    22206381.780   116695323.901 7      -174.737          44.250    22206393.180    90931455.876 7      -136.158          43.875    22206393.520    90931458.878 7      -136.158          47.000
R12  21337072.680   113978813.553 7      5789.297          47.937    21337072.280   113978813.546 7      5789.297          47.437    21337083.480    88650235.298 8      4502.787          48.750    21337083.860    88650234.300 8      4502.787          49.937
G10  22252425.060   116937286.636 7      3091.295          46.125    22252423.900   116937286.635 7      3091.295          46.250    22252433.360    91119994.968 7      2408.802          46.125    22252433.420    91119994.979 7      2408.802          47.250
G07  24594392.100   129244402.798 6      4349.607          38.937    24594391.040   129244402.803 4      4349.607          26.625    24594399.780   100709951.527 4      3389.304          26.437    24594400.700   100709958.536 7      3389.304          42.562
G31  25166364.840   132250144.106 6      -763.675          38.375    25166363.720   132250144.103 5      -763.675          32.687    25166379.460   103052107.801 5      -595.071          32.875    25166381.060   103052110.785 6      -595.071          41.812
> 2024 05 09 12 03 55.0000000  0 16
G27  20916448.560   109916677.882 8      2115.904          48.125    20916447.360   109916677.890 8      2115.904          50.187    20916454.020    85649384.531 8      1648.756          49.500    20916454.600    85649385.528 8      1648.756          50.500
G02  23108715.440   121437124.218 7      4967.545          44.875    23108714.120   121437124.220 5      4967.545          34.437    23108721.000    94626349.901 5      3870.814          34.187
G08  21606007.040   113540331.498 7      3649.439          46.437    21606006.280   113540331.495 6      3649.439          38.000    21606014.100    88473014.738 6      2843.719          37.562    21606014.600    88473018.749 8      2843.719          49.812
R22  20296226.700   108342634.918 8      3097.003          49.375    20296226.900   108342634.927 8      3097.003          50.000    20296234.460    84266527.409 8      2408.780          50.312    20296234.740    84266529.409 8      2408.780          50.750
G23  23366420.120   122791368.850 7      1163.437          43.687    23366420.020   122791368.858 5      1163.437          31.625    23366427.200    95681610.070 5       906.574          31.562    23366427.400    95681610.066 7       906.574          45.875
R11  19267432.660   102959316.456 8      1515.362          49.625    19267432.340   102959316.446 8      1515.362          49.375    19267441.260    80079500.115 8      1178.615          52.312    19267440.840    80079501.114 8      1178.615          52.937
G16  20551000.980   107996238.000 7      1703.744          46.937    20550999.780   107996238.005 6      1703.744          41.000    20551003.800    84152922.830 6      1327.593          40.500
R10  22419035.820   119506038.711 6     -1562.864          41.375    22419034.820   119506038.704 6     -1562.864          40.312
G21  21413836.400   112530470.454 7      4441.813          45.812    21413834.140   112530470.462 6      4441.813          36.375    21413841.060    87686100.969 6      3461.153          36.437
R23  23704996.820   126805762.717 6      5153.255          40.562    23704995.740   126805762.724 6      5153.255          39.687
R21  20686783.540   110699156.617 8       303.106          49.125    20686784.500   110699156.637 8       303.106          48.437    20686795.160    86099387.260 8       235.749          49.375    20686794.680    86099386.259 8       235.749          49.375
G26  22206416.200   116695498.702 7      -175.003          45.000    22206415.040   116695498.704 7      -175.003          44.875    22206426.500    90931592.078 7      -136.366          44.625    22206426.920    90931595.078 7      -136.366          47.375
R12  21335989.040   113973024.329 7      5788.934          47.875    21335988.480   113973024.330 7      5788.934          47.750    21335999.620    88645732.574 8      4502.504          48.687    21336000.180    88645731.582 8      4502.504          49.562
G10  22251836.680   116934195.401 7      3090.942          47.687    22251835.640   116934195.400 7      3090.942          46.500    22251845.180    91117586.216 7      2408.526          46.562    22251845.080    91117586.222 7      2408.526          47.250
G07  24593564.280   129240053.089 6      4349.484          39.062    24593563.380   129240053.091 4      4349.484          26.625    24593572.200   100706562.142 4      3389.208          26.437    24593573.020   100706569.138 7      3389.208          42.250
G31  25166510.100   132250907.279 6      -763.012          38.375    25166508.740   132250907.278 5      -763.012          32.687    25166524.740   103052702.477 5      -594.555          32.000    25166526.260   103052705.469 6      -594.555          41.812
> 2024 05 09 12 03 56.0000000  0 16
G27  20916045.880   109914561.961 8      2115.928          48.750    20916044.700   109914561.968 8      2115.928          50.125    20916051.360    85647735.759 8      1648.775          50.000    20916051.920    85647736.758 8      1648.775          50.687
G02  23107770.120   121432156.806 7      4967.258          45.062    23107768.900   121432156.809 5      4967.258          34.437    23107775.760    94622479.195 5      3870.591          34.750
G08  21605312.620   113536682.073 7      3649.472          46.625    21605311.820   113536682.078 6      3649.472          37.812    21605319.540    88470171.036 6      2843.744          38.000    21605320.160    88470175.045 8      2843.744          49.625
R22  20295646.420   108339538.129 8      3096.698          49.750    20295646.880   108339538.135 8      3096.698          49.125    20295654.400    84264118.791 8      2408.543          50.187    20295654.760    84264120.788 8      2408.543          50.687
G23  23366198.480   122790205.596 7      1163.010          44.187    23366198.620   122790205.606 5      1163.010          31.625    23366205.660    95680703.634 5       906.242          31.562    23366206.140    95680703.632 7       906.242          45.937
R11  19267149.340   102957801.501 8      1514.639          49.437    19267148.920   102957801.500 8      1514.639          49.187    19267157.720    80078321.816 8      1178.052          52.687    19267157.360    80078322.814 8      1178.052          53.562
G16  20550676.800   107994534.483 7      1703.296          47.000    20550675.720   107994534.494 6      1703.296          40.500    20550679.700    84151595.416 6      1327.244          39.937
R10  22419328.780   119507601.744 6     -1563.057          41.375    22419328.260   119507601.739 6     -1563.057          40.312
G21  21412990.780   112526028.917 7      4441.381          45.562    21412988.980   112526028.924 6      4441.381          36.187    21412995.920    87682640.033 6      3460.816          36.437
R23  23704033.240   126800609.535 6      5153.056          39.562    23704032.860   126800609.539 6      5153.056          39.250
R21  20686726.980   110698853.562 8       303.019          48.625    20686727.880   110698853.582 8       303.019          48.625    20686738.500    86099151.549 8       235.681          49.125    20686737.900    86099150.550 8       235.681          49.250
G26  22206449.440   116695673.786 7      -175.200          45.125    22206448.480   116695673.794 7      -175.200          44.375    22206459.920    90931728.504 7      -136.519          43.937    22206460.260    90931731.508 7      -136.519          47.000
R12  21334905.300   113967235.590 8      5788.489          48.000    21334904.960   113967235.586 7      5788.489          47.625    21334916.180    88641230.224 8      4502.158          48.812    21334916.160    88641229.228 8      4502.158          49.187
G10  22251248.640   116931104.675 7      3090.569          47.375    22251247.460   116931104.680 7      3090.569          46.500    22251256.960    91115177.860 7      2408.235          46.062    22251257.160    91115177.863 7      2408.235          47.125
G07  24592736.640   129235703.796 6      4349.149          39.062    24592735.800   129235703.798 4      4349.149          26.625    24592744.600   100703173.082 4      3388.947          26.437    24592745.340   100703180.089 7      3388.947          42.250
G31  25166654.720   132251670.331 6      -762.930          37.875    25166653.660   132251670.328 5      -762.930          32.375    25166669.960   103053297.057 5      -594.491          32.000    25166671.100   103053300.041 6      -594.491          41.750
> 2024 05 09 12 03 57.0000000  0 16
G27  20915643.380   109912446.183 7      2115.733          47.562    20915642.060   109912446.191 8      2115.733          50.375    20915648.680    85646087.099 8      1648.624          49.625    20915649.300    85646088.101 8      1648.624          50.187
G02  23106824.680   121427189.710 7      4966.979          44.687    23106823.580   121427189.712 5      4966.979          34.875    23106830.720    94618608.733 5      3870.374          34.750
G08  21604618.160   113533032.740 7      3649.439          46.625    21604617.460   113533032.742 6      3649.439          37.687    21604625.180    88467327.398 6      2843.719          37.562    21604625.900    88467331.407 8      2843.719          50.125
R22  20295066.540   108336441.791 8      3096.145          49.437    20295066.740   108336441.800 8      3096.145          50.125    20295074.280    84261710.532 8      2408.112          50.750    20295074.460    84261712.527 8      2408.112          50.875
G23  23365977.300   122789042.885 7      1162.508          43.312    23365977.260   122789042.893 5      1162.508          31.562    23365984.440    95679797.623 5       905.850          31.500    23365984.900    95679797.619 7       905.850          45.562
R11  19266865.820   102956287.384 8      1513.793          50.375    19266865.500   102956287.382 8      1513.793          49.000    19266874.340    80077144.171 8      1177.395          52.250    19266874.040    80077145.171 8      1177.395          52.812
G16  20550352.720   107992831.429 7      1702.841          47.125    20550351.520   107992831.436 6      1702.841          40.687    20550355.540    84150268.354 6      1326.889          40.187
R10  22419621.800   119509165.059 6     -1563.326          41.250    22419621.080   119509165.052 6     -1563.326          40.312
G21  21412145.840   112521587.860 7      4440.917          46.625    21412144.060   112521587.868 6      4440.917          36.312    21412150.820    87679179.467 6      3460.455          36.125
R23  23703069.840   126795456.626 6      5152.904          39.562    23703069.800   126795456.632 6      5152.904          39.250
R21  20686670.520   110698550.655 8       302.933          49.437    20686671.220   110698550.677 8       302.933          49.062    20686681.760    86098915.952 8       235.614          49.062    20686681.500    86098914.953 8       235.614          49.187
G26  22206482.820   116695849.192 7      -175.594          45.437    22206481.880   116695849.199 7      -175.594          44.250    22206493.280    90931865.175 7      -136.826          43.937    22206493.220    90931868.177 7      -136.826          47.562
R12  21333821.680   113961447.298 7      5788.103          47.187    21333821.260   113961447.296 7      5788.103          47.750    21333832.480    88636728.221 8      4501.858          49.312    21333832.760    88636727.227 8      4501.858          49.750
G10  22250660.620   116928014.486 7      3090.021          47.312    22250659.500   116928014.488 7      3090.021          46.937    22250668.860    91112769.918 7      2407.809          46.500    22250669.160    91112769.927 7      2407.809          47.500
G07  24591909.200   129231354.949 6      4348.694          37.375    24591908.320   129231354.951 4      4348.694          26.562    24591916.880   100699784.375 4      3388.593          26.375    24591917.380   100699791.367 7      3388.593          42.437
G31  25166800.000   132252433.157 6      -762.759          37.875    25166798.780   132252433.152 5      -762.759          32.375    25166815.180   103053891.457 5      -594.357          32.000    25166815.920   103053894.445 6      -594.357          41.750
> 2024 05 09 12 03 58.0000000  0 16
G27  20915240.640   109910330.561 8      2115.444          48.312    20915239.480   109910330.571 8      2115.444          50.062    20915246.120    85644438.565 8      1648.398          49.750    20915246.700    85644439.566 8      1648.398          50.375
G02  23105879.720   121422222.997 7      4966.370          43.812    23105878.500   121422222.997 5      4966.370          34.375    23105885.680    94614738.571 5      3869.899          34.437
G08  21603923.780   113529383.556 7      3649.053          46.625    21603922.840   113529383.559 6      3649.053          38.187    21603930.620    88464483.883 6      2843.418          38.250    21603931.440    88464487.890 8      2843.418          50.125
R22  20294486.560   108333345.930 8      3095.505          50.250    20294486.700   108333345.939 8      3095.505          50.187    20294494.360    84259302.636 8      2407.615          50.375    20294494.600    84259304.634 8      2407.615          50.687
G23  23365756.140   122787880.747 7      1161.744          43.437    23365756.000   122787880.752 5      1161.744          31.562    23365763.240    95678892.057 5       905.255          31.500    23365763.740    95678892.057 7       905.255          46.000
R11  19266582.960   102954774.148 8      1512.640          50.000    19266582.520   102954774.146 8      1512.640          49.062    19266591.180    80075967.203 8      1176.497          52.625    19266591.140    80075968.201 8      1176.497          53.250
G16  20550028.760   107991128.866 7      1702.256          47.562    20550027.540   107991128.873 6      1702.256          40.750    20550031.620    84148941.682 6      1326.433          40.437
R10  22419914.900   119510728.681 6     -1563.954          41.250    22419914.320   119510728.687 6     -1563.954          40.250
G21  21411300.860   112517147.318 7      4440.155          45.437    21411299.100   112517147.326 5      4440.155          35.750    21411305.640    87675719.311 5      3459.861          35.875
R23  23702106.120   126790304.067 6      5152.342          39.562    23702105.920   126790304.071 6      5152.342          39.250
R21  20686613.780   110698247.983 8       302.466          48.937    20686614.800   110698248.003 8       302.466          48.437    20686625.420    86098680.536 8       235.252          49.437    20686624.920    86098679.537 8       235.252          49.062
G26  22206516.400   116696024.928 7      -175.987          45.125    22206515.340   116696024.938 7      -175.987          44.312    22206526.720    90932002.104 7      -137.133          43.812    22206526.880    90932005.106 7      -137.133          47.062
R12  21332738.220   113955659.475 7      5787.475          47.875    21332737.740   113955659.479 7      5787.475          47.625    21332748.820    88632226.587 8      4501.369          48.937    21332749.420    88632225.591 8      4501.369          49.312
G10  22250072.660   116924924.853 7      3089.286          47.062    22250071.520   116924924.856 7      3089.286          46.500    22250081.040    91110362.413 7      2407.236          46.625    22250081.300    91110362.417 7      2407.236          47.500
G07  24591082.060   129227006.562 6      4348.118          38.375    24591080.720   129227006.565 4      4348.118          26.562    24591089.460   100696396.024 4      3388.144          26.375    24591090.060   100696403.024 7      3388.144          42.250
G31  25166945.500   132253195.813 6      -762.714          37.562    25166943.560   132253195.810 5      -762.714          32.375    25166960.460   103054485.726 5      -594.323          32.000    25166960.720   103054488.715 6      -594.323          41.250
> 2024 05 09 12 03 59.0000000  0 16
G27  20914838.200   109908215.199 8      2115.488          48.437    20914836.960   109908215.207 8      2115.488          50.187    20914843.540    85642790.227 8      1648.433          50.000    20914844.240    85642791.230 8      1648.433          48.500
G02  23104934.820   121417256.737 7      4966.221          45.437    23104933.500   121417256.739 5      4966.221          34.375    23104940.640    94610868.759 5      3869.783          34.500
G08  21603229.280   113525734.560 7      3649.240          46.062    21603228.500   113525734.562 6      3649.240          38.000    21603236.280    88461640.507 6      2843.564          37.750    21603237.080    88461644.514 7      2843.564          47.250
R22  20293906.840   108330250.625 8      3095.291          50.312    20293906.820   108330250.628 8      3095.291          49.625    20293914.500    84256895.174 8      2407.449          50.500    20293914.780    84256897.172 8      2407.449          50.687
G23  23365535.080   122786719.266 7      1161.401          44.312    23365534.960   122786719.271 5      1161.401          31.562    23365542.260    95677987.009 5       904.988          31.312    23365542.780    95677987.007 7       904.988          46.187
R11  19266299.800   102953261.871 8      1511.999          49.812    19266299.440   102953261.864 8      1511.999          49.250    19266308.080    80074790.981 8      1175.999          53.187    19266307.860    80074791.977 8      1175.999          53.125
G16  20549704.900   107989426.904 7      1701.900          47.312    20549703.720   107989426.912 6      1701.900          41.062    20549707.680    84147615.476 6      1326.156          40.437
R10  22420208.380   119512292.698 6     -1563.901          41.187    22420207.900   119512292.693 6     -1563.901          40.250
G21  21410455.900   112512707.368 7      4439.902          45.500    21410454.180   112512707.373 6      4439.902          36.375    21410460.620    87672259.611 6      3459.664          36.250
R23  23701143.000   126785151.923 6      5152.122          39.562    23701143.200   126785151.954 6      5152.122          39.250
R21  20686557.440   110697945.589 8       302.533          49.437    20686558.260   110697945.604 8       302.533          48.625    20686568.940    86098445.333 8       235.304          49.125    20686568.400    86098444.332 8       235.304          49.125
G26  22206550.140   116696201.100 7      -176.060          45.312    22206548.880   116696201.108 7      -176.060          44.375    22206560.260    90932139.371 7      -137.189          44.312    22206560.620    90932142.373 7      -137.189          47.250
R12  21331654.880   113949872.235 7      5787.208          47.875    21331654.420   113949872.228 7      5787.208          47.562    21331665.500    88627725.394 8      4501.161          48.687    21331665.740    88627724.400 8      4501.161          49.437
G10  22249484.840   116921835.870 7      3088.984          46.375    22249483.700   116921835.872 7      3088.984          46.125    22249493.060    91107955.415 7      2407.001          46.000    22249493.480    91107955.417 7      2407.001          47.437
G07  24590254.220   129222658.738 6      4347.841          39.062    24590253.360   129222658.740 4      4347.841          26.562    24590262.320   100693008.106 4      3387.928          26.375    24590262.520   100693015.111 7      3387.928          42.562
G31  25167090.280   132253958.439 6      -762.425          37.562    25167088.660   132253958.441 5      -762.425          32.000    25167105.340   103055079.978 5      -594.098          32.000    25167106.200   103055082.966 6      -594.098          41.500
> 2024 05 09 12 04  0.0000000  0 16
G27  20914435.640   109906099.895 8      2115.037          49.250    20914434.420   109906099.903 8      2115.037          49.937    20914441.000    85641141.938 8      1648.081          50.062    20914441.700    85641142.937 8      1648.081          50.187
G02  23103989.780   121412290.712 7      4965.639          45.375    23103988.520   121412290.720 5      4965.639          34.562    23103995.740    94606999.142 5      3869.329          34.500
G08  21602535.080   113522085.608 7      3648.696          46.937    21602534.080   113522085.612 6      3648.696          37.687    21602541.880    88458797.169 6      2843.139          37.125    21602542.820    88458801.174 8      2843.139          50.437
R22  20293326.920   108327155.701 8      3094.490          50.625    20293326.900   108327155.705 8      3094.490          49.750    20293334.720    84254488.011 8      2406.825          50.500    20293334.800    84254490.007 8      2406.825          50.750
G23  23365314.280   122785558.268 7      1160.529          44.687    23365313.920   122785558.271 5      1160.529          31.312    23365321.360    95677082.333 5       904.308          31.312    23365321.980    95677082.332 7       904.308          45.125
R11  19266016.800   102951750.361 8      1510.847          49.875    19266016.660   102951750.351 8      1510.847          48.875    19266025.300    80073615.358 8      1175.103          53.125    19266025.000    80073616.356 8      1175.103          53.250
G16  20549381.160   107987725.347 7      1701.098          47.625    20549379.920   107987725.355 6      1701.098          40.875    20549383.960    84146289.583 6      1325.531          40.500
R10  22420501.780   119513856.925 6     -1564.688          41.187    22420501.100   119513856.931 6     -1564.688          40.250
G21  21409611.060   112508267.835 7      4439.037          46.125    21409609.440   112508267.840 5      4439.037          35.750    21409615.940    87668800.233 5      3458.990          35.812
R23  23700180.340   126780000.003 6      5151.466          40.250    23700180.260   126780000.029 6      5151.466          39.250
R21  20686501.100   110697643.238 8       302.042          49.625    20686501.720   110697643.258 8       302.042          48.625    20686512.400    86098210.173 7       234.921          47.312    20686511.680    86098209.174 7       234.921          47.062
G26  22206583.580   116696377.546 7      -176.865          45.125    22206582.520   116696377.554 7      -176.865          43.875    22206593.840    90932276.849 7      -137.817          43.437    22206594.220    90932279.851 7      -137.817          47.125
R12  21330571.380   113944085.369 8      5786.329          48.125    21330570.900   113944085.367 7      5786.329          47.562    21330582.140    88623224.505 7      4500.478          47.375    21330582.540    88623223.510 7      4500.478          47.625
G10  22248897.120   116918747.367 7      3088.029          47.812    22248895.920   116918747.367 7      3088.029          45.812    22248905.380    91105548.787 7      2406.256          45.625    22248905.640    91105548.792 7      2406.256          47.437
G07  24589426.760   129218311.297 6      4346.897          37.937    24589426.100   129218311.299 4      4346.897          26.562    24589435.120   100689620.488 4      3387.193          26.375    24589435.360   100689627.492 7      3387.193          42.562
G31  25167235.380   132254720.784 6      -762.502          37.062    25167233.640   132254720.781 5      -762.502          32.000    25167250.500   103055673.997 5      -594.158          32.000    25167251.920   103055676.983 6      -594.158          41.500
> 2024 05 09 12 04  1.0000000  0 16
G27  20914032.940   109903984.728 8      2115.195          49.187    20914031.940   109903984.738 8      2115.195          50.187    20914038.500    85639493.757 8      1648.204          49.437    20914039.280    85639494.756 8      1648.204          49.937
G02  23103044.900   121407325.064 7      4965.491          45.250    23103043.620   121407325.071 5      4965.491          35.062    23103050.820    94603129.812 5      3869.213          34.687
G08  21601840.820   113518436.763 7      3648.842          46.312    21601839.840   113518436.763 6      3648.842          38.250    21601847.660    88455953.912 6      2843.253          37.812    21601848.280    88455957.917 8      2843.253          50.500
R22  20292747.000   108324061.218 8      3094.326          50.437    20292747.180   108324061.224 8      3094.326          49.250    20292755.060    84252081.195 8      2406.698          50.562    20292755.080    84252083.195 8      2406.698          50.562
G23  23365093.520   122784397.820 7      1160.155          44.625    23365093.260   122784397.825 5      1160.155          31.312    23365100.660    95676178.088 5       904.017          31.312    23365101.060    95676178.088 7       904.017          46.625
R11  19265734.080   102950239.703 8      1510.217          49.750    19265733.980   102950239.696 8      1510.217          49.125    19265742.560    80072440.402 8      1174.614          52.812    19265742.300    80072441.403 8      1174.614          53.250
G16  20549057.540   107986024.269 7      1700.850          47.625    20549056.220   107986024.276 6      1700.850          41.062    20549060.320    84144964.067 6      1325.338          40.375
R10  22420795.380   119515421.424 6     -1564.647          41.187    22420794.660   119515421.424 6     -1564.647          40.000
G21  21408766.240   112503828.770 7      4438.917          45.625    21408764.640   112503828.772 5      4438.917          35.437    21408771.160    87665341.221 5      3458.897          35.562
R23  23699217.280   126774848.410 6      5151.451          40.250    23699217.520   126774848.425 6      5151.451          39.250
R21  20686444.280   110697341.018 8       302.164          49.875    20686445.140   110697341.033 8       302.164          48.625    20686455.980    86097975.107 8       235.017          49.812    20686455.220    86097974.108 8       235.017          49.562
G26  22206617.060   116696554.278 7      -176.858          45.437    22206616.180   116696554.283 7      -176.858          44.937    22206627.500    90932414.558 7      -137.811          44.437    22206627.860    90932417.558 7      -137.811          47.437
R12  21329488.300   113938298.991 7      5786.198          47.250    21329487.620   113938298.990 7      5786.198          47.687    21329498.960    88618723.993 8      4500.376          49.187    21329499.320    88618722.997 8      4500.376          49.687
G10  22248309.660   116915659.388 7      3087.759          47.687    22248308.380   116915659.390 7      3087.759          46.562    22248317.780    91103142.573 7      2406.046          46.375    22248317.980    91103142.576 7      2406.046          47.375
G07  24588599.340   129213964.263 6      4346.901          38.500    24588598.800   129213964.266 4      4346.901          26.562    24588607.960   100686233.185 4      3387.196          26.375    24588608.320   100686240.189 7      3387.196          42.375
G31  25167380.600   132255482.956 6      -762.154          37.187    25167378.480   132255482.956 5      -762.154          32.000    25167395.620   103056267.891 5      -593.886          32.000    25167396.700   103056270.885 6      -593.886          41.312
> 2024 05 09 12 04  2.0000000  0 16
G27  20913630.580   109901869.707 8      2114.914          49.500    20913629.460   109901869.720 8      2114.914          50.000    20913635.960    85637845.687 8      1647.985          49.875    20913636.760    85637846.687 8      1647.985          50.000
G02  23102100.180   121402359.741 7      4965.089          45.375    23102098.840   121402359.748 5      4965.089          35.062    23102106.060    94599260.735 5      3868.900          34.750
G08  21601146.460   113514787.987 7      3648.723          45.812    21601145.440   113514787.987 6      3648.723          38.000    21601153.340    88453110.708 6      2843.161          37.687    21601154.100    88453114.715 8      2843.161          50.125
R22  20292167.280   108320967.191 8      3093.791          49.937    20292167.580   108320967.200 8      3093.791          49.562    20292175.460    84249674.730 8      2406.282          51.125    20292175.420    84249676.725 8      2406.282          50.875
G23  23364872.740   122783237.905 7      1159.649          44.312    23364872.440   122783237.907 5      1159.649          31.312    23364879.820    95675274.256 5       903.623          31.250    23364880.200    95675274.248 7       903.623          45.500
R11  19265451.780   102948729.871 8      1509.366          50.562    19265451.340   102948729.864 8      1509.366          49.625    19265460.000    80071266.088 8      1173.951          52.250    19265459.900    80071267.089 8      1173.951          52.812
G16  20548733.960   107984323.647 7      1700.348          46.875    20548732.580   107984323.660 6      1700.348          40.625    20548736.700    84143638.906 6      1324.946          40.000
R10  22421088.680   119516986.168 6     -1564.818          41.062    22421088.240   119516986.171 6     -1564.818          40.000
G21  21407921.740   112499390.199 7      4438.338          45.875    21407919.920   112499390.204 5      4438.338          35.937    21407926.460    87661882.598 5      3458.445          35.562
R23  23698254.320   126769697.076 6      5151.167          40.250    23698253.720   126769697.088 6      5151.167          39.250
R21  20686388.000   110697038.940 8       301.976          49.187    20686388.780   110697038.950 8       301.976          48.375    20686399.620    86097740.151 8       234.870          49.375    20686398.800    86097739.152 8       234.870          49.625
G26  22206651.080   116696731.341 7      -177.248          45.750    22206649.880   116696731.346 7      -177.248          44.562    22206661.140    90932552.519 7      -138.115          44.187    22206661.700    90932555.519 7      -138.115          47.062
R12  21328405.200   113932513.094 7      5785.683          47.562    21328404.460   113932513.093 7      5785.683          47.875    21328415.680    88614223.853 8      4499.975          49.062    21328416.320    88614222.855 8      4499.975          49.312
G10  22247722.040   116912571.949 8      3087.051          48.062    22247720.900   116912571.951 7      3087.051          46.562    22247730.260    91100736.775 7      2405.494          46.062    22247730.360    91100736.779 7      2405.494          47.500
G07  24587772.200   129209617.682 6      4346.280          38.687    24587771.760   129209617.681 4      4346.280          26.562    24587780.740   100682846.238 4      3386.711          26.375    24587781.640   100682853.236 7      3386.711          42.687
G31  25167525.380   132256244.913 6      -761.808          37.187    25167523.540   132256244.915 5      -761.808          31.875    25167540.640   103056861.616 5      -593.616          32.000    25167541.240   103056864.595 6      -593.616          41.312
> 2024 05 09 12 04  3.0000000  0 16
G27  20913228.260   109899755.018 8      2114.572          49.062    20913227.020   109899755.025 8      2114.572          50.062    20913233.660    85636197.873 8      1647.719          49.750    20913234.120    85636198.875 8      1647.719          50.062
G02  23101155.180   121397394.962 7      4964.495          44.437    23101154.020   121397394.970 5      4964.495          34.937    23101161.440    94595392.077 5      3868.438          34.750
G08  21600452.200   113511139.526 7      3648.373          46.750    21600451.000   113511139.526 6      3648.373          38.187    21600459.000    88450267.751 6      2842.888          38.000    21600459.700    88450271.758 8      2842.888          49.812
R22  20291587.920   108317873.815 8      3093.094          49.937    20291588.100   108317873.816 8      3093.094          49.937    20291596.120    84247268.762 8      2405.740          50.687    20291596.060    84247270.758 8      2405.740          50.562
G23  23364652.020   122782078.736 7      1158.851          44.125    23364651.900   122782078.738 5      1158.851          31.500    23364659.240    95674371.005 5       903.001          31.250    23364659.820    95674371.004 7       903.001          45.937
R11  19265169.500   102947221.105 8      1508.315          50.437    19265169.060   102947221.095 8      1508.315          49.062    19265177.580    80070092.606 8      1173.134          52.250    19265177.480    80070093.608 8      1173.134          53.125
G16  20548410.460   107982623.722 7      1699.645          47.875    20548409.280   107982623.730 6      1699.645          40.937    20548413.220    84142314.283 6      1324.399          40.187
R10  22421382.760   119518551.458 6     -1565.611          41.062    22421382.020   119518551.451 6     -1565.611          40.125
G21  21407077.020   112494952.329 7      4437.570          46.187    21407075.420   112494952.334 5      4437.570          35.812    21407081.820    87658424.520 6      3457.847          36.000
R23  23697291.640   126764546.275 6      5150.650          39.937    23697290.560   126764546.281 6      5150.650          39.250
R21  20686331.480   110696737.282 8       301.463          49.312    20686332.420   110696737.294 8       301.463          48.875    20686343.300    86097505.526 8       234.472          49.687    20686342.660    86097504.525 8       234.472          48.937
G26  22206684.980   116696908.922 7      -177.784          45.000    22206683.720   116696908.927 7      -177.784          44.812    22206694.900    90932690.882 7      -138.533          44.437    22206695.340    90932693.883 7      -138.533          46.937
R12  21327322.160   113926727.855 8      5784.954          48.000    21327321.360   113926727.861 7      5784.954          47.500    21327332.800    88609724.226 8      4499.408          49.062    21327333.180    88609723.228 8      4499.408          49.687
G10  22247134.660   116909485.225 7      3086.400          46.687    22247133.440   116909485.225 7      3086.400          46.687    22247142.900    91098331.536 7      2404.987          46.562    22247142.880    91098331.540 7      2404.987          47.375
G07  24586945.200   129205271.741 6      4345.566          38.875    24586944.660   129205271.743 4      4345.566          26.875    24586953.880   100679459.791 4      3386.155          26.625    24586954.360   100679466.799 7      3386.155          42.687
G31  25167670.440   132257006.911 6      -761.849          37.500    25167668.560   132257006.911 5      -761.849          31.875    25167685.860   103057455.370 5      -593.649          31.687    25167686.300   103057458.352 6      -593.649          41.937
> 2024 05 09 12 04  4.0000000  0 16
G27  20912825.800   109897640.581 8      2114.311          48.500    20912824.660   109897640.591 8      2114.311          50.000    20912831.280    85634550.260 8      1647.515          49.500    20912831.700    85634551.261 8      1647.515          50.312
G02  23100210.800   121392430.617 7      4964.091          44.562    23100209.480   121392430.624 5      4964.091          35.312    23100216.760    94591523.762 5      3868.123          35.000
G08  21599757.900   113507491.271 7      3648.206          46.625    21599756.800   113507491.265 6      3648.206          38.000    21599764.720    88447424.952 6      2842.758          37.625    21599765.440    88447428.955 8      2842.758          50.375
R22  20291008.560   108314780.987 8      3092.503          50.000    20291008.580   108314780.996 8      3092.503          50.250    20291016.580    84244863.235 8      2405.280          50.625    20291016.600    84244865.233 8      2405.280          50.437
G23  23364431.740   122780920.248 7      1158.100          44.250    23364431.360   122780920.253 5      1158.100          31.500    23364438.880    95673468.283 5       902.416          31.250    23364439.060    95673468.279 7       902.416          45.687
R11  19264887.400   102945713.290 8      1507.406          49.625    19264886.820   102945713.283 8      1507.406          49.812    19264895.480    80068919.853 8      1172.427          52.875    19264895.320    80068920.857 8      1172.427          52.937
G16  20548087.180   107980924.372 8      1699.004          48.375    20548085.820   107980924.380 6      1699.004          40.875    20548089.840    84140990.112 6      1323.899          40.500
R10  22421676.540   119520117.066 6     -1565.723          41.062    22421675.860   119520117.061 6     -1565.723          40.125
G21  21406232.700   112490515.038 7      4436.990          46.312    21406230.860   112490515.040 5      4436.990          35.812    21406237.460    87654966.892 5      3457.395          35.687
R23  23696328.920   126759395.861 6      5150.177          39.937    23696328.480   126759395.881 6      5150.177          39.062
R21  20686275.400   110696435.881 8       301.316          49.750    20686276.120   110696435.896 8       301.316          48.625    20686286.840    86097271.103 8       234.357          49.625    20686286.320    86097270.104 8       234.357          49.437
G26  22206718.700   116697086.929 7      -178.200          46.000    22206717.520   116697086.933 7      -178.200          44.687    22206728.720    90932829.582 7      -138.857          44.062    22206729.080    90932832.582 7      -138.857          46.937
R12  21326239.240   113920943.184 7      5784.474          47.500    21326238.720   113920943.174 7      5784.474          47.375    21326249.980    88605225.034 8      4499.035          48.875    21326250.300    88605224.035 8      4499.035          49.062
G10  22246547.460   116906399.153 7      3085.794          47.375    22246546.160   116906399.155 7      3085.794          46.875    22246555.620    91095926.804 7      2404.515          46.750    22246555.920    91095926.809 7      2404.515          47.500
G07  24586118.860   129200926.365 6      4344.893          38.312    24586117.800   129200926.370 4      4344.893          26.875    24586127.200   100676073.786 4      3385.631          26.625    24586126.800   100676080.788 7      3385.631          42.500
G31  25167815.520   132257768.857 6      -762.010          37.625    25167813.760   132257768.862 5      -762.010          32.125    25167831.020   103058049.086 5      -593.774          31.687    25167832.260   103058052.080 6      -593.774          41.750
> 2024 05 09 12 04  5.0000000  0 16
G27  20912423.680   109895526.372 8      2114.082          49.625    20912422.260   109895526.382 8      2114.082          50.000    20912428.960    85632902.825 8      1647.337          50.000    20912429.640    85632903.826 8      1647.337          49.812
G02  23099266.300   121387466.705 7      4963.731          44.375    23099264.800   121387466.710 5      4963.731          35.312    23099272.240    94587655.787 5      3867.842          35.000
G08  21599063.680   113503843.212 7      3647.931          47.062    21599062.660   113503843.209 6      3647.931          37.500    21599070.560    88444582.307 6      2842.544          37.500    21599071.320    88444586.314 8      2842.544          49.812
R22  20290429.200   108311688.697 8      3092.008          49.437    20290429.180   108311688.712 8      3092.008          49.437    20290437.380    84242458.124 8      2404.895          50.812    20290437.620    84242460.119 8      2404.895          50.812
G23  23364211.320   122779762.366 7      1157.629          44.437    23364210.980   122779762.369 5      1157.629          31.312    23364218.460    95672566.034 5       902.049          31.187    23364218.720    95672566.030 7       902.049          45.875
R11  19264604.960   102944206.445 8      1506.351          50.250    19264604.840   102944206.443 8      1506.351          49.625    19264613.400    80067747.864 8      1171.606          52.750    19264613.220    80067748.866 8      1171.606          53.312
G16  20547763.880   107979225.588 7      1698.505          47.062    20547762.500   107979225.600 6      1698.505          41.187    20547766.620    84139666.386 6      1323.511          40.187
R10  22421970.500   119521683.078 6     -1566.233          41.062    22421969.380   119521683.084 6     -1566.233          40.125
G21  21405388.460   112486078.335 7      4436.387          45.875    21405386.620   112486078.342 5      4436.387          35.812    21405393.060    87651509.723 6      3456.925          36.125
R23  23695366.500   126754245.870 6      5149.874          39.937    23695365.380   126754245.879 6      5149.874          39.062
R21  20686218.960   110696134.731 8       301.086          49.437    20686219.900   110696134.749 8       301.086          48.562    20686230.700    86097036.875 8       234.178          49.375    20686230.040    86097035.875 8       234.178          49.625
G26  22206752.860   116697265.337 7      -178.566          45.750    22206751.460   116697265.342 7      -178.566          44.312    22206762.740    90932968.593 7      -139.142          44.125    22206763.280    90932971.593 7      -139.142          47.125
R12  21325156.400   113915159.085 7      5783.857          47.937    21325155.720   113915159.083 7      5783.857          47.812    21325167.180    88600726.296 8      4498.556          49.187    21325167.460    88600725.300 8      4498.556          49.937
G10  22245960.280   116903313.717 7      3085.149          47.312    22245959.100   116903313.722 7      3085.149          46.437    22245968.540    91093522.572 7      2404.012          46.375    22245968.820    91093522.579 7      2404.012          47.062
G07  24585292.600   129196581.484 6      4344.621          38.687    24585290.920   129196581.491 4      4344.621          26.875    24585300.360   100672688.164 4      3385.419          26.625    24585300.160   100672695.164 7      3385.419          42.500
G31  25167960.440   132258530.664 6      -761.742          37.625    25167958.800   132258530.669 5      -761.742          32.125    25167975.820   103058642.694 5      -593.565          32.062    25167976.640   103058645.685 6      -593.565          41.750
> 2024 05 09 12 04  6.0000000  0 16
G27  20912021.220   109893412.232 8      2114.125          49.375    20912020.000   109893412.234 8      2114.125          50.000    20912026.640    85631255.437 8      1647.370          49.500    20912027.080    85631256.440 8      1647.370          50.187
G02  23098321.740   121382503.056 7      4963.545          46.187    23098320.260   121382503.058 5      4963.545          34.937    23098327.760    94583788.012 5      3867.698          35.000
G08  21598369.300   113500195.158 7      3648.036          47.375    21598368.400   113500195.155 6      3648.036          37.812    21598376.380    88441739.670 6      2842.626          37.437    21598377.140    88441743.679 8      2842.626          50.187
R22  20289850.060   108308596.784 8      3091.720          49.750    20289849.980   108308596.796 8      3091.720          50.000    20289858.080    84240053.304 8      2404.671          50.750    20289858.140    84240055.300 8      2404.671          50.687
G23  23363990.920   122778604.968 7      1157.235          44.062    23363990.560   122778604.973 5      1157.235          31.312    23363998.180    95671664.167 5       901.742          31.187    23363998.520    95671664.164 7       901.742          45.937
R11  19264323.140   102942700.369 8      1505.707          50.562    19264323.040   102942700.370 8      1505.707          49.250    19264331.560    80066576.468 8      1171.105          52.875    19264331.380    80066577.470 8      1171.105          53.000
G16  20547440.320   107977527.207 7      1698.180          46.750    20547439.280   107977527.215 6      1698.180          41.000    20547443.240    84138342.972 6      1323.257          40.562
R10  22422263.960   119523249.262 6     -1566.225          41.312    22422263.180   119523249.270 6     -1566.225          39.937
G21  21404544.460   112481642.047 7      4435.973          45.500    21404542.380   112481642.054 6      4435.973          36.562    21404548.900    87648052.876 6      3456.603          36.375
R23  23694403.460   126749096.093 6      5149.802          39.937    23694402.860   126749096.094 6      5149.802          39.062
R21  20686162.980   110695833.619 8       301.107          49.000    20686163.560   110695833.637 8       301.107          48.125    20686174.340    86096802.677 8       234.194          49.500    20686173.860    86096801.678 8       234.194          49.375
G26  22206786.820   116697444.003 7      -178.757          45.750    22206785.420   116697444.010 7      -178.757          44.125    22206796.700    90933107.807 7      -139.291          44.187    22206797.360    90933110.807 7      -139.291          46.937
R12  21324073.480   113909375.402 8      5783.507          48.062    21324073.200   113909375.401 7      5783.507          47.625    21324084.560    88596227.879 8      4498.284          49.000    21324084.920    88596226.882 8      4498.284          50.000
G10  22245373.220   116900228.743 7      3084.767          47.500    22245372.040   116900228.740 7      3084.767          46.500    22245381.460    91091118.693 7      2403.715          46.375    22245381.620    91091118.695 7      2403.715          47.375
G07  24584465.360   129192236.975 6      4344.406          38.312    24584464.220   129192236.977 4      4344.406          26.875    24584473.540   100669302.832 4      3385.251          26.625    24584473.540   100669309.839 7      3385.251          42.437
G31  25168105.020   132259292.261 6      -761.490          38.187    25168103.800   132259292.266 5      -761.490          32.625    25168120.620   103059236.135 5      -593.369          32.062    25168121.540   103059239.123 7      -593.369          42.000
> 2024 05 09 12 04  7.0000000  0 16
G27  20911618.840   109891298.200 8      2113.858          48.750    20911617.760   109891298.205 8      2113.858          50.062    20911624.320    85629608.139 8      1647.162          49.375    20911624.640    85629609.134 8      1647.162          50.250
G02  23097377.040   121377539.722 7      4963.148          45.125    23097375.680   121377539.730 5      4963.148          35.000    23097383.180    94579920.488 5      3867.388          34.687
G08  21597675.200   113496547.181 7      3647.909          46.875    21597674.100   113496547.183 6      3647.909          37.812    21597682.140    88438897.095 6      2842.526          37.187    21597683.000    88438901.106 8      2842.526          50.250
R22  20289271.120   108305505.282 8      3091.251          49.937    20289270.820   108305505.294 8      3091.251          50.000    20289278.960    84237648.801 8      2404.306          50.562    20289278.980    84237650.799 8      2404.306          50.812
G23  23363771.000   122777448.088 7      1156.611          43.750    23363770.440   122777448.093 5      1156.611          31.312    23363777.960    95670762.700 5       901.255          31.187    23363778.440    95670762.698 7       901.255          45.375
R11  19264041.620   102941195.133 8      1504.732          50.062    19264041.460   102941195.129 8      1504.732          49.250    19264049.920    80065405.720 8      1170.347          52.375    19264049.840    80065406.722 8      1170.347          53.250
G16  20547117.240   107975829.282 7      1697.633          47.687    20547116.200   107975829.287 6      1697.633          40.812    20547120.260    84137019.903 6      1322.831          40.312
R10  22422558.120   119524815.752 6     -1566.695          41.312    22422557.340   119524815.747 6     -1566.695          39.937
G21  21403700.320   112477206.187 7      4435.600          46.250    21403698.300   112477206.192 5      4435.600          35.687    21403705.020    87644596.364 5      3456.312          35.562
R23  23693441.060   126743946.594 6      5149.356          39.375    23693440.300   126743946.595 6      5149.356          39.062
R21  20686106.920   110695532.630 8       300.805          48.812    20686107.320   110695532.653 8       300.805          48.937    20686118.160    86096568.577 8       233.960          49.750    20686117.320    86096567.576 8       233.960          49.312
G26  22206820.740   116697622.955 7      -179.136          45.937    22206819.480   116697622.960 7      -179.136          43.812    22206830.680    90933247.241 7      -139.586          43.687    22206831.400    90933250.236 7      -139.586          47.250
R12  21322990.640   113903592.136 7      5782.979          47.937    21322990.500   113903592.143 7      5782.979          47.687    21323001.940    88591729.795 8      4497.873          49.562    21323001.840    88591728.801 8      4497.873          49.375
G10  22244786.440   116897144.279 7      3084.070          47.187    22244785.180   116897144.279 7      3084.070          46.375    22244794.380    91088715.216 7      2403.171          46.125    22244794.560    91088715.222 7      2403.171          47.312
G07  24583638.880   129187892.913 6      4343.720          38.750    24583637.460   129187892.921 4      4343.720          26.875    24583646.800   100665917.851 4      3384.717          26.625    24583646.700   100665924.856 7      3384.717          42.437
G31  25168249.820   132260053.618 6      -761.307          38.812    25168249.060   132260053.628 5      -761.307          32.625    25168265.520   103059829.395 5      -593.226          32.437    25168266.560   103059832.376 6      -593.226          41.750
> 2024 05 09 12 04  8.0000000  0 16
G27  20911216.640   109889184.288 8      2114.016          48.937    20911215.500   109889184.296 8      2114.016          49.562    20911222.080    85627960.935 8      1647.285          49.687    20911222.500    85627961.932 8      1647.285          49.687
G02  23096432.760   121372576.738 7      4963.034          44.562    23096431.140   121372576.746 5      4963.034          35.062    23096438.620    94576053.233 5      3867.299          35.000
G08  21596981.260   113492899.311 7      3648.009          46.500    21596980.080   113492899.314 6      3648.009          37.687    21596987.880    88436054.599 6      2842.605          37.562    21596988.960    88436058.606 8      2842.605          50.562
R22  20288691.760   108302414.237 8      3091.044          49.812    20288691.740   108302414.246 8      3091.044          50.000    20288700.020    84235244.654 8      2404.145          50.437    20288699.880    84235246.650 8      2404.145          50.625
G23  23363550.840   122776291.762 7      1156.257          43.750    23363550.300   122776291.770 5      1156.257          31.250    23363557.860    95669861.667 5       900.980          31.187    23363558.760    95669861.665 7       900.980          45.937
R11  19263760.140   102939690.730 8      1504.184          50.187    19263759.780   102939690.723 8      1504.184          49.437    19263768.440    80064235.627 8      1169.921          52.187    19263768.240    80064236.627 8      1169.921          52.875
G16  20546794.380   107974131.808 7      1697.455          47.562    20546793.240   107974131.816 6      1697.455          41.062    20546797.140    84135697.197 6      1322.692          40.375
R10  22422852.160   119526382.457 6     -1566.648          41.125    22422851.460   119526382.468 6     -1566.648          40.187
G21  21402856.180   112472770.827 7      4435.489          45.187    21402854.200   112472770.832 5      4435.489          35.750    21402860.940    87641140.237 5      3456.225          35.562
R23  23692478.960   126738797.392 6      5149.259          39.375    23692477.520   126738797.393 6      5149.259          38.375
R21  20686050.400   110695231.826 8       300.908          49.250    20686051.340   110695231.846 7       300.908          47.937    20686061.900    86096334.609 8       234.039          49.375    20686061.400    86096333.609 8       234.039          49.312
G26  22206854.700   116697802.223 7      -179.213          45.937    22206853.660   116697802.228 7      -179.213          44.687    22206864.860    90933386.919 7      -139.647          44.312    22206865.300    90933389.919 7      -139.647          47.125
R12  21321908.120   113897809.311 7      5782.831          47.937    21321908.080   113897809.315 8      5782.831          48.187    21321919.500    88587232.045 8      4497.757          49.375    21321919.620    88587231.046 8      4497.757          50.125
G10  22244199.480   116894060.319 8      3083.930          48.250    22244198.200   116894060.322 7      3083.930          46.500    22244207.640    91086312.133 7      2403.063          46.687    22244207.640    91086312.137 7      2403.063          47.375
G07  24582812.200   129183549.271 6      4343.573          38.062    24582811.020   129183549.276 4      4343.573          26.875    24582820.300   100662533.191 4      3384.602          26.375    24582820.440   100662540.198 7      3384.602          42.375
G31  25168395.400   132260814.786 6      -760.881          39.125    25168393.960   132260814.796 5      -760.881          32.625    25168410.460   103060422.503 5      -592.894          32.437    25168411.560   103060425.492 6      -592.894          41.750
> 2024 05 09 12 04  9.0000000  0 16
G27  20910814.620   109887070.547 8      2113.605          49.125    20910813.240   109887070.555 8      2113.605          50.187    20910819.880    85626313.862 8      1646.965          49.625    20910820.360    85626314.861 8      1646.965          50.125
G02  23095488.260   121367614.098 7      4962.474          45.250    23095486.820   121367614.106 5      4962.474          35.062    23095494.120    94572186.245 5      3866.863          35.000
G08  21596287.020   113489251.550 7      3647.662          46.250    21596285.860   113489251.552 6      3647.662          38.125    21596293.880    88433212.187 6      2842.334          37.750    21596294.800    88433216.194 8      2842.334          50.000
R22  20288113.160   108299323.666 8      3090.325          50.375    20288112.780   108299323.667 8      3090.325          49.562    20288121.000    84232840.873 8      2403.586          50.500    20288121.060    84232842.869 8      2403.586          50.812
G23  23363331.240   122775135.996 7      1155.525          43.437    23363330.380   122775136.004 5      1155.525          31.250    23363338.040    95668961.070 5       900.409          31.187    23363338.960    95668961.064 7       900.409          45.750
R11  19263478.920   102938187.176 8      1503.148          50.625    19263478.560   102938187.178 8      1503.148          49.687    19263487.060    80063066.201 8      1169.115          52.812    19263486.960    80063067.201 8      1169.115          53.062
G16  20546471.380   107972434.844 7      1696.699          47.812    20546470.260   107972434.854 6      1696.699          41.187    20546474.260    84134374.885 6      1322.103          40.687
R10  22423146.080   119527949.491 6     -1567.312          41.125    22423145.280   119527949.515 6     -1567.312          40.187
G21  21402012.420   112468335.998 7      4434.561          45.375    21402010.280   112468336.008 5      4434.561          35.625    21402016.920    87637684.534 6      3455.502          36.000
R23  23691515.980   126733648.500 6      5148.677          39.375    23691514.500   126733648.488 6      5148.677          38.375
R21  20685994.320   110694931.211 8       300.525          48.937    20685995.320   110694931.226 8       300.525          48.250    20686005.680    86096100.792 8       233.742          49.500    20686005.260    86096099.793 8       233.742          49.687
G26  22206888.760   116697981.830 7      -179.742          46.125    22206887.860   116697981.829 7      -179.742          44.500    22206898.900    90933526.860 7      -140.058          44.187    22206899.560    90933529.862 7      -140.058          47.187
R12  21320826.040   113892026.969 7      5782.110          47.875    21320825.780   113892026.970 7      5782.110          47.375    21320836.840    88582734.666 8      4497.197          49.062    21320836.880    88582733.669 8      4497.197          49.750
G10  22243612.640   116890976.943 7      3083.158          47.437    22243611.480   116890976.948 7      3083.158          46.687    22243620.800    91083909.502 7      2402.461          46.437    22243620.960    91083909.504 7      2402.461          47.250
G07  24581985.460   129179206.074 6      4343.003          38.437    24581984.600   129179206.079 4      4343.003          26.500    24581993.720   100659148.877 4      3384.158          26.375    24581994.640   100659155.884 7      3384.158          42.500
G31  25168539.860   132261575.797 6      -760.948          38.812    25168539.020   132261575.807 5      -760.948          33.000    25168555.440   103061015.490 5      -592.946          32.437    25168556.760   103061018.487 6      -592.946          41.812
