     3.05           OBSERVATION DATA    MIXED               RINEX VERSION / TYPE
TPS2RIN 1.0.29.3920 TPS-USER            20240511 193439 UTC PGM / RUN BY / DATE
Win64 build Feb 23, 2024 (c) Topcon Positioning Systems     COMMENT
SRC: 20240509_FA10.tps                                      COMMENT
OPT: -S -v 3.05                                             COMMENT
Observer            Agency                                  OBSERVER / AGENCY
O0M3X53SBGM         TPS HIPER_SR        4.8 HSR Jul,08,2022 REC # / TYPE / VERS
FW: 4.8 HSR Jul,08,2022 p3                                  COMMENT
SN: HiPer SR 1212-12575                                     COMMENT
000                 TPSHIPER_SR     NONE                    ANT # / TYPE
        1.8000        0.0000        0.0000                  ANTENNA: DELTA H/E/N
FA10                                                        MARKER NAME
  5391835.4429 -1599182.0047  3002856.1824                  APPROX POSITION XYZ
  2024     5     9    12    33   11.0000000     GPS         TIME OF FIRST OBS
  2024     5     9    12    48   11.0000000     GPS         TIME OF LAST OBS
     1.000                                                  INTERVAL
   901 EPOCHS                                               COMMENT
G   16 C1C L1C D1C S1C C1W L1W D1W S1W C2W L2W D2W S2W C2X  SYS / # / OBS TYPES
       L2X D2X S2X                                          SYS / # / OBS TYPES
R   16 C1C L1C D1C S1C C1P L1P D1P S1P C2P L2P D2P S2P C2C  SYS / # / OBS TYPES
       L2C D2C S2C                                          SYS / # / OBS TYPES
    15                                                      # OF SATELLITES
   G02   901   901   901   901   901   901   901   901   901PRN / # OF OBS
         901   901   901     0     0     0     0            PRN / # OF OBS
   G07   901   901   901   901   901   901   901   901   901PRN / # OF OBS
         901   901   901   901   901   901   901            PRN / # OF OBS
   G08   901   901   901   901   901   901   901   901   901PRN / # OF OBS
         901   901   901   901   901   901   901            PRN / # OF OBS
   G10   901   901   901   901   901   901   901   901   901PRN / # OF OBS
         901   901   901   901   901   901   901            PRN / # OF OBS
   G16   901   901   901   901   901   901   901   901   901PRN / # OF OBS
         901   901   901     0     0     0     0            PRN / # OF OBS
   G21   901   901   901   901   901   901   901   901   901PRN / # OF OBS
         901   901   901     0     0     0     0            PRN / # OF OBS
   G23   595   595   595   595   594   594   594   594   594PRN / # OF OBS
         594   594   594   594   594   594   594            PRN / # OF OBS
   G26   901   901   901   901   901   901   901   901   901PRN / # OF OBS
         901   901   901   901   901   901   901            PRN / # OF OBS
   G27   901   901   901   901   901   901   901   901   901PRN / # OF OBS
         901   901   901   901   901   901   901            PRN / # OF OBS
   R07   901   901   901   901   901   901   901   901   901PRN / # OF OBS
         901   901   901   901   901   901   901            PRN / # OF OBS
   R11   901   901   901   901   901   901   901   901   901PRN / # OF OBS
         901   901   901   901   901   901   901            PRN / # OF OBS
   R12   901   901   901   901   901   901   901   901   901PRN / # OF OBS
         901   901   901   901   901   901   901            PRN / # OF OBS
   R21   780   780   780   780   775   775   775   775   775PRN / # OF OBS
         775   775   775   774   774   774   774            PRN / # OF OBS
   R22   901   901   901   901   901   901   901   901   901PRN / # OF OBS
         901   901   901   901   901   901   901            PRN / # OF OBS
   R23   901   901   901   901   901   901   901   901     0PRN / # OF OBS
           0     0     0     0     0     0     0            PRN / # OF OBS
G L1C                                                       SYS / PHASE SHIFT
G L1W -0.25000                                              SYS / PHASE SHIFT
G L2W  0.00000                                              SYS / PHASE SHIFT
G L2X  0.25000                                              SYS / PHASE SHIFT
R L1C                                                       SYS / PHASE SHIFT
R L1P -0.25000                                              SYS / PHASE SHIFT
R L2P -0.25000                                              SYS / PHASE SHIFT
R L2C                                                       SYS / PHASE SHIFT
  6 R07  5 R11  0 R12 -1 R21  4 R22 -3 R23  3               GLONASS SLOT / FRQ #
                                                            GLONASS COD/PHS/BIS
    18    18  1929     7GPS                                 LEAP SECONDS
                                                            END OF HEADER
> 2024 05 09 12 33 11.0000000  0 15
G02  22456580.360   118010128.468 7      4290.660          45.312    22456578.920   118010128.475 6      4290.660          36.500    22456585.000    91955962.251 6      3343.371          36.437
G26  23253210.660   122196434.700 7      -695.438          43.500    23253210.160   122196434.716 6      -695.438          41.812    23253226.400    95218062.828 6      -541.900          41.750    23253227.180    95218058.819 7      -541.900          46.437
G21  20978005.720   110240167.469 7      3533.943          45.812    20978003.600   110240167.476 6      3533.943          38.125    20978009.500    85901440.568 6      2753.722          38.375
R12  20498025.300   109496770.082 7      4698.947          46.812    20498024.160   109496770.078 7      4698.947          47.375    20498035.420    85164198.970 8      3654.736          48.812    20498035.580    85164199.974 8      3654.736          48.687
G27  21155950.040   111175268.875 7      1822.610          47.500    21155948.920   111175268.885 7      1822.610          47.687    21155956.160    86630100.932 7      1420.216          47.750    21155956.600    86630105.934 8      1420.216          48.187
G16  21026751.320   110496323.137 7       819.374          46.562    21026750.220   110496323.139 6       819.374          38.125    21026754.920    86101048.020 6       638.473          38.500
G07  24181833.580   127076392.632 6      3469.162          41.562    24181831.600   127076392.635 4      3469.162          29.375    24181841.560    99020593.043 4      2703.243          29.125    24181842.760    99020600.041 6      2703.243          41.812
G23  24036541.320   126312869.982 6       230.025          41.687    24036540.160   126312869.989 4       230.025          29.562    24036550.080    98425603.401 4       179.240          29.437    24036551.300    98425663.401 7       179.240          45.250
R11  19910055.000   106393290.517 8        65.916          48.937    19910053.760   106393290.510 8        65.916          49.062    19910063.900    82750374.571 8        51.268          51.500    19910063.900    82750375.574 8        51.268          52.125
R07  24172392.420   129396707.428 6      5699.603          39.062    24172393.640   129396707.467 6      5699.603          37.875    24172418.520   100641997.154 6      4433.024          41.875    24172418.420   100641997.150 6      4433.024          41.625
R23  23005102.420   123061791.707 6      4571.692          39.437    23005098.740   123061791.687 6      4571.692          39.000
R21  21522563.800   115171594.801 6       121.514          40.625    21522564.680   115171594.808 6       121.514          40.562    21522576.260    89577949.585 7        94.511          45.187    21522576.240    89577951.595 7        94.511          44.375
R22  20301230.900   108369354.270 8      2363.431          48.500    20301231.300   108369354.271 8      2363.431          48.750    20301240.920    84287306.389 8      1838.224          51.437    20301240.760    84287309.391 8      1838.224          51.562
G10  22288090.460   117124705.936 7      2050.493          47.437    22288089.340   117124705.941 7      2050.493          47.625    22288098.760    91266040.230 8      1597.787          48.187    22288099.120    91266040.236 8      1597.787          49.250
G08  21321343.540   112044420.258 7      3424.744          43.937    21321342.640   112044420.253 5      3424.744          34.812    21321350.580    87307363.056 5      2668.631          34.687    21321351.340    87307369.076 8      2668.631          48.750
> 2024 05 09 12 33 12.0000000  0 15
G02  22455761.880   118005838.062 7      4290.214          45.750    22455762.480   118005838.070 6      4290.214          36.500    22455768.680    91952619.086 6      3343.024          36.250
G26  23253343.280   122197130.454 7      -695.845          43.937    23253342.580   122197130.459 7      -695.845          42.312    23253358.800    95218604.957 6      -542.217          41.875    23253359.600    95218600.952 7      -542.217          46.562
G21  20977332.240   110236633.914 7      3533.315          47.062    20977331.220   110236633.932 6      3533.315          38.187    20977337.200    85898687.153 6      2753.232          38.312
R12  20497146.700   109492071.647 7      4698.039          47.250    20497144.580   109492071.645 7      4698.039          47.937    20497155.680    85160544.635 8      3654.030          48.500    20497156.960    85160545.637 8      3654.030          49.312
G27  21155604.280   111173446.384 7      1822.472          47.812    21155602.160   111173446.383 7      1822.472          47.437    21155609.420    86628680.803 7      1420.108          47.750    21155608.380    86628685.803 8      1420.108          48.562
G16  21026596.600   110495504.098 7       818.752          47.375    21026594.480   110495504.092 6       818.752          38.625    21026599.220    86100409.807 6       637.988          38.875
G07  24181173.240   127072923.770 7      3468.576          42.937    24181171.880   127072923.773 4      3468.576          29.375    24181181.640    99017890.030 4      2702.787          29.437    24181181.900    99017897.034 6      2702.787          41.812
G23  24036496.020   126312640.331 6       229.618          41.312    24036496.220   126312640.341 4       229.618          29.312    24036506.300    98425424.453 4       178.923          29.125    24036505.960    98425484.440 7       178.923          45.000
R11  19910043.100   106393225.078 8        65.046          49.187    19910041.080   106393225.068 8        65.046          48.437    19910051.460    82750323.674 8        50.591          51.875    19910051.780    82750324.677 8        50.591          51.562
R07  24171326.440   129391007.861 6      5699.557          39.062    24171328.220   129391007.900 6      5699.557          37.875    24171353.600   100637564.174 7      4432.989          42.000    24171352.760   100637564.178 7      4432.989          42.062
R23  23004245.820   123057220.286 6      4571.370          39.500    23004245.280   123057220.279 6      4571.370          39.000
R21  21522541.060   115171473.554 6       121.332          40.625    21522542.060   115171473.561 6       121.332          40.562    21522553.380    89577855.277 7        94.369          44.687    21522552.740    89577857.279 7        94.369          44.375
R22  20300783.660   108366991.233 8      2362.831          48.562    20300789.160   108366991.237 8      2362.831          48.687    20300798.760    84285468.465 8      1837.757          51.562    20300798.960    84285471.465 8      1837.757          51.687
G10  22287699.880   117122655.779 7      2049.799          47.187    22287699.280   117122655.781 7      2049.799          47.250    22287708.880    91264442.705 7      1597.246          47.437    22287708.400    91264442.711 8      1597.246          49.250
G08  21320692.660   112040995.604 7      3424.542          45.250    21320690.960   112040995.609 5      3424.542          34.687    21320698.720    87304694.505 5      2668.475          34.375    21320700.280    87304700.520 8      2668.475          48.937
> 2024 05 09 12 33 13.0000000  0 15
G02  22454947.660   118001548.033 7      4290.015          45.562    22454946.060   118001548.043 6      4290.015          36.250    22454952.220    91949276.204 6      3342.869          36.250
G26  23253475.620   122197826.460 7      -696.048          43.875    23253475.060   122197826.475 7      -696.048          42.437    23253491.220    95219147.289 6      -542.375          41.812    23253491.980    95219143.276 7      -542.375          47.125
G21  20976661.140   110233100.854 7      3532.843          47.062    20976658.940   110233100.864 6      3532.843          38.375    20976665.020    85895934.113 6      2752.865          38.062
R12  20496266.000   109487373.978 7      4697.374          46.750    20496265.120   109487373.976 7      4697.374          47.562    20496276.320    85156890.895 8      3653.513          49.062    20496276.560    85156891.895 8      3653.513          49.437
G27  21155256.500   111171624.066 7      1822.324          47.750    21155255.280   111171624.071 7      1822.324          47.750    21155262.540    86627260.815 8      1419.993          48.000    21155262.980    86627265.819 8      1419.993          48.625
G16  21026439.540   110494685.563 7       818.335          46.375    21026438.700   110494685.568 6       818.335          38.687    21026443.380    86099771.984 6       637.663          38.500
G07  24180513.800   127069455.450 7      3468.256          42.187    24180511.840   127069455.452 4      3468.256          29.312    24180521.580    99015187.446 4      2702.537          29.437    24180522.080    99015194.442 6      2702.537          41.500
G23  24036453.700   126312411.086 6       229.036          40.062    24036452.980   126312411.093 4       229.036          29.312    24036462.860    98425245.812 4       178.469          29.125    24036464.360    98425305.805 7       178.469          45.062
R11  19910030.820   106393160.387 8        64.427          48.625    19910029.060   106393160.377 8        64.427          48.375    19910039.540    82750273.353 8        50.110          51.562    19910039.440    82750274.355 8        50.110          51.875
R07  24170262.740   129385308.182 6      5699.871          39.062    24170263.540   129385308.213 6      5699.871          37.875    24170289.080   100633131.080 7      4433.233          42.187    24170289.140   100633131.074 7      4433.233          42.000
R23  23003392.740   123052649.145 6      4571.015          39.500    23003391.040   123052649.155 6      4571.015          39.000
R21  21522519.020   115171352.229 6       121.529          40.625    21522519.560   115171352.238 6       121.529          40.562    21522530.560    89577760.913 7        94.522          44.500    21522530.820    89577762.923 7        94.522          43.687
R22  20300345.660   108364628.535 8      2362.603          48.062    20300346.060   108364628.536 7      2362.603          47.875    20300355.860    84283630.817 8      1837.580          51.250    20300355.500    84283633.815 8      1837.580          51.750
G10  22287310.280   117120606.270 7      2049.252          47.625    22287309.100   117120606.275 7      2049.252          47.562    22287318.640    91262845.687 7      1596.820          47.500    22287318.840    91262845.691 8      1596.820          49.000
G08  21320040.440   112037571.124 7      3424.576          45.312    21320039.600   112037571.118 5      3424.576          34.687    21320047.160    87302026.070 5      2668.501          34.375    21320047.880    87302032.084 8      2668.501          48.312
> 2024 05 09 12 33 14.0000000  0 15
G02  22454131.200   117997258.239 7      4289.567          46.125    22454129.820   117997258.247 6      4289.567          36.437    22454135.880    91945933.508 6      3342.520          36.250
G26  23253608.240   122198522.489 7      -696.076          43.687    23253607.400   122198522.499 7      -696.076          42.687    23253623.700    95219689.635 7      -542.397          42.062    23253624.300    95219685.626 7      -542.397          45.937
G21  20975988.700   110229568.104 7      3532.484          46.750    20975986.620   110229568.112 6      3532.484          38.187    20975992.660    85893181.323 6      2752.585          37.937
R12  20495387.100   109482676.854 7      4696.803          47.750    20495385.900   109482676.849 7      4696.803          47.312    20495397.120    85153237.574 8      3653.069          49.375    20495397.400    85153238.576 8      3653.069          49.000
G27  21154909.600   111169801.720 8      1822.305          48.125    21154908.500   111169801.727 7      1822.305          46.687    21154915.740    86625840.803 7      1419.978          46.625    21154915.960    86625845.803 7      1419.978          47.500
G16  21026284.100   110493867.312 7       818.035          45.750    21026282.940   110493867.317 6       818.035          38.750    21026287.720    86099134.382 6       637.430          38.062
G07  24179853.740   127065987.455 7      3467.842          42.375    24179852.040   127065987.460 4      3467.842          29.312    24179861.420    99012485.108 4      2702.214          29.437    24179862.020    99012492.113 6      2702.214          41.500
G23  24036410.360   126312182.150 6       228.682          41.312    24036409.500   126312182.160 4       228.682          29.312    24036419.380    98425067.418 4       178.194          29.125    24036420.660    98425127.412 7       178.194          44.937
R11  19910018.760   106393096.241 8        63.786          49.250    19910017.200   106393096.234 8        63.786          48.812    19910027.700    82750223.460 8        49.611          49.187    19910027.660    82750224.460 8        49.611          51.500
R07  24169197.460   129379608.170 6      5700.030          39.062    24169198.860   129379608.204 6      5700.030          37.875    24169224.100   100628697.752 7      4433.357          42.187    24169224.460   100628697.748 6      4433.357          41.625
R23  23002538.320   123048078.173 6      4570.761          40.187    23002537.060   123048078.185 6      4570.761          39.187
R21  21522496.480   115171230.823 6       121.470          41.062    21522497.200   115171230.827 6       121.470          40.875    21522507.920    89577666.478 7        94.476          45.125    21522508.320    89577668.487 7        94.476          44.062
R22  20299902.940   108362265.983 8      2362.409          48.375    20299903.540   108362265.990 8      2362.409          48.937    20299913.420    84281793.279 8      1837.430          48.937    20299912.860    84281796.277 8      1837.430          51.875
G10  22286920.620   117118557.132 7      2048.883          46.937    22286919.020   117118557.134 7      2048.883          47.500    22286928.720    91261248.954 7      1596.532          47.375    22286929.100    91261248.961 7      1596.532          47.750
G08  21319388.580   112034146.564 7      3424.611          44.312    21319388.000   112034146.556 5      3424.611          34.687    21319395.500    87299357.580 5      2668.528          34.500    21319396.120    87299363.590 8      2668.528          49.062
> 2024 05 09 12 33 15.0000000  0 15
G02  22453314.980   117992968.998 7      4289.035          45.812    22453313.480   117992969.003 6      4289.035          36.062    22453319.720    91942591.242 6      3342.105          36.187
G26  23253740.600   122199218.965 7      -696.675          43.437    23253739.880   122199218.975 7      -696.675          42.437    23253756.320    95220232.329 6      -542.864          41.312    23253756.800    95220228.323 7      -542.864          46.812
G21  20975316.700   110226036.042 7      3531.792          46.187    20975314.560   110226036.050 6      3531.792          37.750    20975320.640    85890429.067 6      2752.046          37.750
R12  20494507.620   109477980.651 7      4695.803          47.625    20494506.540   109477980.649 7      4695.803          47.312    20494517.940    85149584.974 7      3652.291          47.562    20494518.180    85149585.974 8      3652.291          49.312
G27  21154562.760   111167979.741 8      1821.868          48.062    21154561.880   111167979.749 7      1821.868          47.750    21154569.000    86624421.075 7      1419.638          47.687    21154569.280    86624426.079 8      1419.638          48.687
G16  21026128.380   110493049.755 7       817.271          46.437    21026127.480   110493049.759 6       817.271          39.000    21026132.160    86098497.322 6       636.834          38.562
G07  24179194.040   127062520.174 7      3467.160          42.500    24179192.220   127062520.179 4      3467.160          29.312    24179201.740    99009783.329 4      2701.683          29.437    24179202.200    99009790.344 6      2701.683          41.187
G23  24036367.040   126311953.890 6       227.845          40.937    24036365.980   126311953.897 4       227.845          29.312    24036375.860    98424889.553 4       177.542          29.125    24036377.020    98424949.544 7       177.542          45.187
R11  19910006.820   106393033.041 8        62.731          49.500    19910004.960   106393033.040 8        62.731          48.562    19910015.760    82750174.304 8        48.791          51.812    19910015.600    82750175.307 8        48.791          49.250
R07  24168132.980   129373908.239 6      5699.898          38.875    24168134.560   129373908.262 6      5699.898          37.875    24168159.440   100624264.458 6      4433.254          41.437    24168159.960   100624264.450 7      4433.254          42.187
R23  23001683.940   123043507.685 6      4570.400          40.187    23001683.100   123043507.697 6      4570.400          39.187
R21  21522473.200   115171109.624 6       121.157          41.062    21522475.140   115171109.649 6       121.157          40.875    21522485.220    89577572.222 7        94.233          44.687    21522485.640    89577574.231 7        94.233          44.625
R22  20299460.600   108359903.979 8      2361.820          48.687    20299461.160   108359903.988 8      2361.820          48.187    20299470.940    84279956.168 8      1836.971          51.375    20299470.300    84279959.167 8      1836.971          49.125
G10  22286530.820   117116508.795 7      2048.030          47.437    22286529.340   117116508.800 7      2048.030          46.250    22286539.000    91259652.850 7      1595.868          46.562    22286539.500    91259652.858 8      1595.868          49.250
G08  21318736.720   112030722.328 7      3424.194          45.812    21318736.260   112030722.319 5      3424.194          34.687    21318743.860    87296689.346 5      2668.203          34.750    21318744.900    87296695.362 8      2668.203          48.812
> 2024 05 09 12 33 16.0000000  0 15
G02  22452498.880   117988680.059 7      4288.703          45.875    22452497.220   117988680.069 6      4288.703          36.625    22452503.480    91939249.220 6      3341.846          36.187
G26  23253873.120   122199915.568 7      -696.790          43.812    23253872.380   122199915.586 6      -696.790          41.812    23253888.900    95220775.124 6      -542.953          41.312    23253889.180    95220771.113 7      -542.953          46.875
G21  20974644.700   110222504.396 7      3531.353          46.687    20974642.340   110222504.403 6      3531.353          37.625    20974648.620    85887677.136 6      2751.704          37.625
R12  20493628.940   109473285.052 7      4695.240          47.062    20493627.800   109473285.053 7      4695.240          47.687    20493638.920    85145932.843 8      3651.854          49.000    20493638.900    85145933.843 8      3651.854          49.375
G27  21154216.240   111166157.826 7      1821.835          47.812    21154215.220   111166157.836 7      1821.835          47.437    21154222.360    86623001.405 7      1419.611          47.625    21154222.740    86623006.409 8      1419.611          48.187
G16  21025972.900   110492232.591 7       816.908          46.500    21025971.800   110492232.596 6       816.908          38.937    21025976.580    86097860.571 6       636.552          38.500
G07  24178534.060   127059053.354 7      3466.488          42.000    24178532.380   127059053.356 4      3466.488          29.312    24178542.020    99007081.913 4      2701.159          29.437    24178542.160    99007088.917 6      2701.159          41.187
G23  24036323.860   126311725.966 6       227.770          41.500    24036322.820   126311725.978 4       227.770          29.125    24036332.580    98424711.942 4       177.483          29.250    24036333.800    98424771.937 7       177.483          45.187
R11  19909994.800   106392970.512 8        62.031          49.000    19909993.500   106392970.508 8        62.031          48.437    19910004.100    82750125.664 8        48.246          51.625    19910004.060    82750126.665 8        48.246          51.875
R07  24167068.320   129368208.124 6      5700.106          38.875    24167069.440   129368208.133 6      5700.106          37.937    24167094.760   100619831.026 7      4433.415          42.125    24167094.980   100619831.024 7      4433.415          42.062
R23  23000829.360   123038937.470 6      4570.092          41.437    23000828.740   123038937.469 6      4570.092          39.187
R21  21522451.240   115170988.398 6       121.312          41.062    21522452.580   115170988.407 6       121.312          41.250    21522463.020    89577477.921 7        94.354          45.437    21522463.140    89577479.927 7        94.354          44.312
R22  20299018.040   108357542.223 8      2361.569          48.312    20299018.760   108357542.229 8      2361.569          48.562    20299028.440    84278119.247 8      1836.776          51.437    20299028.060    84278122.245 8      1836.776          51.500
G10  22286140.900   117114460.982 7      2047.483          47.437    22286139.640   117114460.984 7      2047.483          47.687    22286149.240    91258057.149 7      1595.441          47.687    22286149.500    91258057.155 8      1595.441          49.375
G08  21318085.360   112027298.131 7      3424.105          44.937    21318084.660   112027298.120 5      3424.105          34.687    21318092.140    87294021.139 5      2668.134          34.750    21318093.200    87294027.148 8      2668.134          49.187
> 2024 05 09 12 33 17.0000000  0 15
G02  22451682.820   117984391.676 7      4288.176          46.062    22451681.120   117984391.681 6      4288.176          36.062    22451687.260    91935907.625 6      3341.436          36.375
G26  23254005.480   122200612.577 7      -697.046          44.500    23254004.940   122200612.590 6      -697.046          41.750    23254021.460    95221318.228 6      -543.153          41.812    23254021.940    95221314.219 7      -543.153          46.875
G21  20973972.860   110218973.403 7      3530.806          46.312    20973970.300   110218973.408 6      3530.806          37.875    20973976.640    85884925.714 6      2751.277          37.875
R12  20492750.000   109468590.347 7      4694.363          47.687    20492749.020   109468590.348 7      4694.363          47.750    20492760.180    85142281.409 8      3651.171          48.625    20492759.960    85142282.406 8      3651.171          49.062
G27  21153869.420   111164336.259 7      1821.502          47.437    21153868.460   111164336.267 7      1821.502          47.750    21153875.580    86621582.000 7      1419.352          47.875    21153876.180    86621587.002 8      1419.352          48.437
G16  21025817.720   110491416.082 7       816.259          46.562    21025816.380   110491416.085 6       816.259          38.437    21025821.340    86097224.324 6       636.046          38.375
G07  24177874.480   127055587.164 7      3466.072          42.437    24177872.880   127055587.164 4      3466.072          29.125    24177882.340    99004380.986 4      2700.835          29.187    24177882.300    99004387.996 6      2700.835          41.125
G23  24036280.940   126311498.733 6       226.924          41.875    24036279.780   126311498.745 4       226.924          29.125    24036289.160    98424534.875 4       176.824          29.250    24036290.480    98424594.866 7       176.824          45.187
R11  19909983.140   106392908.856 8        61.366          48.750    19909981.780   106392908.847 8        61.366          48.687    19909992.700    82750077.704 8        47.729          51.625    19909992.520    82750078.706 8        47.729          51.875
R07  24166004.060   129362508.056 6      5700.245          38.875    24166003.840   129362508.063 6      5700.245          37.937    24166029.720   100615397.638 6      4433.524          41.812    24166030.340   100615397.634 7      4433.524          42.062
R23  22999974.640   123034367.696 6      4569.639          41.437    22999975.220   123034367.703 6      4569.639          40.812
R21  21522428.420   115170867.351 6       121.049          41.062    21522429.860   115170867.371 6       121.049          41.250    21522440.280    89577383.777 7        94.149          45.000    21522440.460    89577385.782 7        94.149          45.000
R22  20298575.640   108355180.987 8      2361.057          48.625    20298576.600   108355180.996 8      2361.057          48.437    20298586.140    84276282.735 8      1836.378          51.000    20298585.720    84276285.733 8      1836.378          52.000
G10  22285751.480   117112413.901 7      2046.858          47.812    22285750.000   117112413.903 7      2046.858          47.000    22285759.800    91256462.021 7      1594.954          47.187    22285759.920    91256462.023 8      1594.954          48.875
G08  21317433.920   112023874.194 7      3423.949          44.062    21317432.980   112023874.186 5      3423.949          34.687    21317440.720    87291353.140 5      2668.012          34.375    21317441.620    87291359.154 8      2668.012          48.937
> 2024 05 09 12 33 18.0000000  0 15
G02  22450866.960   117980103.599 7      4287.894          45.562    22450865.220   117980103.607 6      4287.894          36.250    22450871.180    91932566.270 6      3341.216          36.125
G26  23254138.440   122201309.747 7      -697.227          43.062    23254137.560   122201309.762 7      -697.227          42.187    23254154.080    95221861.463 6      -543.294          41.812    23254154.420    95221857.460 7      -543.294          46.250
G21  20973301.260   110215442.855 7      3530.355          45.875    20973298.400   110215442.863 6      3530.355          38.000    20973304.780    85882174.637 6      2750.926          38.062
R12  20491871.140   109463896.319 7      4693.630          47.750    20491870.380   109463896.314 7      4693.630          47.625    20491881.460    85138630.493 8      3650.601          49.000    20491881.440    85138631.497 8      3650.601          48.875
G27  21153522.760   111162514.770 7      1821.410          47.562    21153521.900   111162514.777 7      1821.410          47.750    21153529.120    86620162.658 7      1419.281          47.937    21153529.600    86620167.660 8      1419.281          48.937
G16  21025662.440   110490599.999 7       815.797          46.125    21025661.040   110490599.999 6       815.797          38.625    21025666.220    86096588.413 6       635.686          38.562
G07  24177214.700   127052121.471 6      3465.314          41.375    24177213.440   127052121.468 4      3465.314          29.125    24177222.900    99001680.446 4      2700.245          29.187    24177222.660    99001687.454 6      2700.245          41.125
G23  24036238.000   126311271.839 6       226.758          41.437    24036236.680   126311271.851 4       226.758          29.125    24036245.900    98424358.070 4       176.695          29.250    24036247.460    98424418.066 7       176.695          45.250
R11  19909971.680   106392847.893 8        60.590          48.812    19909970.380   106392847.886 8        60.590          48.625    19909981.260    82750030.286 8        47.125          51.625    19909981.000    82750031.284 8        47.125          52.062
R07  24164939.640   129356807.868 6      5700.263          38.875    24164939.220   129356807.867 6      5700.263          37.937    24164964.840   100610964.159 6      4433.538          41.812    24164965.140   100610964.161 6      4433.538          41.875
R23  22999120.820   123029798.163 7      4569.328          42.062    22999121.020   123029798.186 6      4569.328          40.812
R21  21522405.920   115170746.264 6       120.956          41.250    21522407.840   115170746.276 6       120.956          41.375    21522417.680    89577289.592 7        94.077          45.375    21522417.700    89577291.593 7        94.077          44.687
R22  20298133.600   108352820.021 8      2360.798          48.812    20298134.360   108352820.027 8      2360.798          48.750    20298143.840    84274446.428 8      1836.176          51.250    20298143.420    84274449.426 8      1836.176          51.812
G10  22285361.880   117110367.388 7      2046.179          47.250    22285360.500   117110367.385 8      2046.179          48.062    22285370.200    91254867.333 7      1594.425          47.500    22285370.500    91254867.342 8      1594.425          49.187
G08  21316782.340   112020450.352 7      3423.750          45.250    21316781.340   112020450.346 5      3423.750          34.750    21316789.100    87288685.213 5      2667.857          34.625    21316790.160    87288691.227 8      2667.857          49.000
> 2024 05 09 12 33 19.0000000  0 15
G02  22450051.060   117975816.058 7      4287.225          45.062    22450049.340   117975816.065 6      4287.225          36.437    22450055.480    91929225.331 6      3340.695          36.062
G26  23254271.100   122202007.284 7      -697.639          43.812    23254270.360   122202007.300 6      -697.639          41.875    23254286.940    95222404.984 6      -543.615          41.687    23254287.100    95222400.976 7      -543.615          46.625
G21  20972629.640   110211912.932 7      3529.614          46.562    20972626.920   110211912.942 6      3529.614          38.000    20972633.240    85879424.046 6      2750.348          38.000
R12  20490992.580   109459203.174 8      4692.649          48.000    20490991.880   109459203.175 7      4692.649          47.687    20491003.100    85134980.276 8      3649.838          48.937    20491002.900    85134981.276 8      3649.838          48.937
G27  21153176.060   111160693.587 8      1821.019          48.250    21153175.280   111160693.595 7      1821.019          47.937    21153182.600    86618743.552 7      1418.976          47.812    21153183.120    86618748.554 8      1418.976          48.750
G16  21025507.300   110489784.512 7       815.145          46.937    21025506.020   110489784.514 6       815.145          38.937    21025511.020    86095952.967 6       635.178          38.937
G07  24176555.000   127048656.371 7      3464.740          42.750    24176554.080   127048656.368 4      3464.740          29.125    24176563.600    98998980.366 4      2699.797          29.187    24176563.280    98998987.370 6      2699.797          41.000
G23  24036194.740   126311045.591 7       225.896          42.312    24036193.600   126311045.601 4       225.896          29.125    24036202.980    98424181.769 4       176.023          29.250    24036204.140    98424241.773 7       176.023          45.500
R11  19909960.540   106392787.803 7        59.692          47.937    19909959.120   106392787.791 8        59.692          48.250    19909970.120    82749983.534 8        46.427          51.750    19909969.780    82749984.537 8        46.427          52.000
R07  24163874.760   129351107.619 6      5700.352          39.000    24163873.880   129351107.620 6      5700.352          37.937    24163900.140   100606530.631 6      4433.607          41.687    24163900.520   100606530.632 7      4433.607          42.062
R23  22998266.820   123025229.082 7      4568.774          42.062    22998267.220   123025229.100 6      4568.774          40.812
R21  21522383.560   115170625.246 6       120.921          41.250    21522385.020   115170625.283 6       120.921          41.375    21522394.940    89577195.478 7        94.050          45.062    21522395.120    89577197.482 7        94.050          45.187
R22  20297691.120   108350459.536 7      2360.272          47.437    20297692.240   108350459.537 8      2360.272          48.437    20297701.500    84272610.490 8      1835.767          51.062    20297701.000    84272613.489 8      1835.767          52.000
G10  22284972.620   117108321.579 7      2045.421          47.125    22284971.140   117108321.581 7      2045.421          47.437    22284980.940    91253273.201 7      1593.835          47.750    22284981.400    91253273.207 8      1593.835          49.437
G08  21316130.760   112017026.759 7      3423.364          45.500    21316129.960   112017026.754 5      3423.364          34.625    21316137.520    87286017.477 5      2667.557          34.625    21316138.520    87286023.488 8      2667.557          48.687
> 2024 05 09 12 33 20.0000000  0 15
G02  22449235.520   117971528.971 7      4286.598          46.000    22449233.560   117971528.978 6      4286.598          36.375    22449239.640    91925884.746 6      3340.207          36.437
G26  23254403.980   122202705.153 7      -698.279          43.875    23254403.260   122202705.169 6      -698.279          41.562    23254419.660    95222948.766 6      -544.114          41.500    23254420.400    95222944.761 7      -544.114          46.562
G21  20971957.900   110208383.569 7      3528.926          46.562    20971955.480   110208383.579 6      3528.926          38.250    20971961.700    85876673.897 6      2749.812          38.312
R12  20490114.280   109454510.852 7      4691.645          47.437    20490113.500   109454510.848 7      4691.645          47.750    20490124.620    85131330.690 8      3649.057          48.937    20490124.520    85131331.692 8      3649.057          48.750
G27  21152829.700   111158872.636 7      1820.580          47.687    21152828.760   111158872.643 7      1820.580          47.625    21152835.920    86617324.629 7      1418.634          47.812    21152836.340    86617329.633 8      1418.634          48.187
G16  21025352.260   110488969.595 7       814.438          46.625    21025350.980   110488969.598 6       814.438          38.687    21025355.900    86095317.967 6       634.627          38.625
G07  24175895.620   127045191.876 7      3464.044          43.750    24175894.960   127045191.876 4      3464.044          29.125    24175904.180    98996280.761 4      2699.255          29.187    24175903.940    98996287.770 6      2699.255          41.000
G23  24036151.600   126310819.864 7       225.169          43.187    24036150.660   126310819.879 4       225.169          29.625    24036159.960    98424005.878 4       175.456          29.500    24036161.100    98424065.882 7       175.456          45.187
R11  19909949.420   106392728.520 8        58.607          48.750    19909947.960   106392728.510 8        58.607          48.625    19909958.840    82749937.432 8        45.583          51.812    19909958.760    82749938.434 8        45.583          52.125
R07  24162809.680   129345407.369 6      5699.943          39.000    24162809.240   129345407.379 6      5699.943          38.000    24162835.360   100602097.104 6      4433.289          41.875    24162835.560   100602097.102 7      4433.289          42.375
R23  22997412.680   123020660.362 7      4568.241          42.250    22997413.680   123020660.380 6      4568.241          40.812
R21  21522360.660   115170504.373 6       120.557          41.875    21522363.500   115170504.404 6       120.557          41.500    21522372.700    89577101.464 7        93.767          45.187    21522372.500    89577103.466 7        93.767          45.062
R22  20297249.260   108348099.480 8      2359.583          48.000    20297250.140   108348099.475 8      2359.583          48.312    20297259.320    84270774.885 8      1835.231          51.437    20297258.860    84270777.879 8      1835.231          51.437
G10  22284583.560   117106276.445 7      2044.573          46.750    22284581.900   117106276.453 7      2044.573          47.437    22284591.780    91251679.590 7      1593.174          47.375    22284592.040    91251679.594 8      1593.174          49.187
G08  21315479.340   112013603.340 7      3423.119          44.625    21315478.440   112013603.335 5      3423.119          34.625    21315486.000    87283349.878 5      2667.366          34.187    21315486.940    87283355.887 8      2667.366          48.937
> 2024 05 09 12 33 21.0000000  0 15
G02  22448419.740   117967242.517 7      4286.447          45.312    22448417.720   117967242.522 6      4286.447          36.250    22448423.840    91922544.654 6      3340.089          36.250
G26  23254536.640   122203403.492 7      -698.193          43.562    23254536.020   122203403.500 7      -698.193          42.000    23254552.640    95223492.904 6      -544.046          41.375    23254552.940    95223488.895 7      -544.046          46.687
G21  20971286.660   110204854.981 7      3528.590          46.437    20971283.900   110204854.991 6      3528.590          37.875    20971290.240    85873924.347 6      2749.551          38.500
R12  20489235.760   109449819.511 7      4691.158          47.250    20489235.420   109449819.506 7      4691.158          47.562    20489246.400    85127681.869 8      3648.678          48.312    20489246.240    85127682.871 8      3648.678          48.875
G27  21152483.180   111157052.102 7      1820.722          47.875    21152482.380   111157052.110 7      1820.722          47.625    21152489.440    86615906.028 7      1418.745          47.875    21152489.780    86615911.032 8      1418.745          48.375
G16  21025197.100   110488155.433 7       814.118          46.250    21025195.960   110488155.438 6       814.118          38.562    21025200.860    86094683.550 6       634.378          38.687
G07  24175236.600   127041728.167 7      3463.650          44.250    24175235.860   127041728.166 4      3463.650          29.312    24175244.940    98993581.765 4      2698.948          29.312    24175245.020    98993588.784 6      2698.948          40.875
G23  24036108.820   126310594.864 7       225.050          42.187    24036107.940   126310594.882 4       225.050          29.625    24036117.160    98423830.549 4       175.364          29.500    24036118.400    98423890.549 7       175.364          45.375
R11  19909938.540   106392670.252 8        58.115          48.125    19909937.040   106392670.248 8        58.115          48.062    19909948.000    82749892.104 8        45.201          51.750    19909947.940    82749893.106 8        45.201          51.812
R07  24161744.480   129339707.205 6      5700.308          39.000    24161744.860   129339707.220 6      5700.308          38.000    24161770.920   100597663.645 7      4433.573          42.312    24161770.680   100597663.648 7      4433.573          42.500
R23  22996559.340   123016092.231 7      4568.047          42.625    22996559.900   123016092.259 6      4568.047          41.375
R21  21522337.880   115170383.811 6       120.714          41.875    21522341.000   115170383.828 6       120.714          41.500    21522350.140    89577007.680 7        93.889          45.250    21522350.420    89577009.674 7        93.889          45.250
R22  20296807.280   108345740.008 8      2359.570          49.125    20296808.200   108345740.009 8      2359.570          48.187    20296817.300    84268939.738 8      1835.221          51.437    20296816.680    84268942.733 8      1835.221          51.187
G10  22284194.520   117104232.176 7      2044.194          46.750    22284192.860   117104232.181 7      2044.194          47.250    22284202.780    91250086.649 7      1592.878          47.437    22284202.980    91250086.653 8      1592.878          49.062
G08  21314827.920   112010180.323 7      3423.204          45.000    21314827.140   112010180.315 5      3423.204          34.937    21314834.600    87280682.591 5      2667.431          34.187    21314835.700    87280688.605 8      2667.431          49.125
> 2024 05 09 12 33 22.0000000  0 15
G02  22447604.100   117962956.321 7      4286.180          46.000    22447602.040   117962956.323 6      4286.180          36.250    22447608.360    91919204.761 6      3339.881          36.312
G26  23254669.340   122204101.936 7      -698.520          44.062    23254669.020   122204101.947 6      -698.520          41.812    23254685.600    95224037.140 6      -544.301          41.562    23254686.040    95224033.131 7      -544.301          46.500
G21  20970615.060   110201326.753 7      3528.096          46.437    20970612.460   110201326.763 6      3528.096          38.187    20970618.720    85871175.081 6      2749.166          38.312
R12  20488357.860   109445128.735 7      4690.476          47.375    20488357.280   109445128.728 7      4690.476          47.750    20488368.320    85124033.488 8      3648.148          48.812    20488368.200    85124034.492 8      3648.148          49.000
G27  21152136.960   111155231.616 8      1820.438          48.125    21152135.940   111155231.626 8      1820.438          48.125    21152143.080    86614487.469 8      1418.523          48.062    21152143.320    86614492.471 8      1418.523          48.625
G16  21025042.260   110487341.625 7       813.623          46.125    21025041.020   110487341.630 6       813.623          38.562    21025046.260    86094049.410 6       633.992          38.125
G07  24174577.500   127038264.870 7      3463.068          43.062    24174576.980   127038264.869 4      3463.068          29.312    24174585.860    98990883.088 4      2698.495          29.312    24174586.380    98990890.103 6      2698.495          40.875
G23  24036066.160   126310370.216 6       224.542          41.812    24036065.240   126310370.229 4       224.542          29.625    24036074.480    98423655.491 4       174.968          29.500    24036075.780    98423715.489 7       174.968          45.375
R11  19909927.880   106392612.575 8        57.422          48.562    19909926.340   106392612.571 7        57.422          47.750    19909937.240    82749847.242 8        44.662          51.437    19909936.980    82749848.244 8        44.662          52.000
R07  24160679.240   129334006.784 6      5700.663          39.062    24160680.140   129334006.770 6      5700.663          38.000    24160706.140   100593229.966 7      4433.849          42.125    24160705.840   100593229.964 7      4433.849          42.000
R23  22995705.280   123011524.254 7      4568.029          42.625    22995706.040   123011524.269 6      4568.029          41.375
R21  21522315.080   115170263.144 7       120.679          43.062    21522318.200   115170263.164 6       120.679          41.500    21522327.700    89576913.828 7        93.861          45.562    21522327.600    89576915.828 7        93.861          45.125
R22  20296365.120   108343380.764 8      2359.199          49.000    20296366.200   108343380.767 8      2359.199          48.437    20296375.100    84267104.779 8      1834.932          51.187    20296375.020    84267107.773 8      1834.932          51.812
G10  22283805.840   117102188.372 7      2043.597          47.187    22283804.040   117102188.371 7      2043.597          47.125    22283813.820    91248494.074 7      1592.413          47.187    22283814.160    91248494.082 8      1592.413          49.125
G08  21314176.620   112006757.306 7      3423.056          44.750    21314175.660   112006757.300 5      3423.056          35.062    21314183.280    87278015.307 5      2667.316          34.562    21314184.340    87278021.317 8      2667.316          49.000
> 2024 05 09 12 33 23.0000000  0 15
G02  22446788.440   117958670.417 7      4285.558          45.562    22446786.520   117958670.422 6      4285.558          36.250    22446792.860    91915865.099 6      3339.396          36.375
G26  23254802.500   122204800.504 7      -698.842          43.500    23254802.040   122204800.514 7      -698.842          42.312    23254818.500    95224581.460 6      -544.553          41.937    23254819.120    95224577.451 7      -544.553          46.750
G21  20969943.940   110197798.919 7      3527.425          46.625    20969940.960   110197798.929 6      3527.425          38.437    20969947.400    85868426.121 6      2748.643          38.062
R12  20487479.760   109440438.561 7      4689.648          47.125    20487479.240   109440438.562 7      4689.648          47.625    20487490.420    85120385.583 8      3647.504          49.125    20487490.080    85120386.581 8      3647.504          49.250
G27  21151790.580   111153411.185 7      1820.135          47.937    21151789.460   111153411.195 7      1820.135          47.687    21151796.640    86613068.947 7      1418.287          47.500    21151796.980    86613073.951 8      1418.287          48.812
G16  21024887.580   110486528.177 7       813.105          46.562    21024886.240   110486528.179 6       813.105          39.062    21024891.580    86093415.552 6       633.589          38.437
G07  24173918.760   127034801.922 7      3462.728          43.437    24173918.100   127034801.922 4      3462.728          29.312    24173926.840    98988184.687 4      2698.229          29.312    24173927.220    98988191.698 6      2698.229          40.937
G23  24036023.000   126310145.924 7       223.846          42.187    24036022.640   126310145.936 4       223.846          29.625    24036031.840    98423480.720 4       174.425          29.500    24036033.640    98423540.719 7       174.425          45.437
R11  19909917.320   106392555.569 8        56.458          48.937    19909915.660   106392555.567 8        56.458          48.812    19909926.540    82749802.904 8        43.912          51.875    19909926.360    82749803.906 8        43.912          51.937
R07  24159614.480   129328306.144 6      5700.377          39.062    24159614.760   129328306.151 6      5700.377          38.000    24159641.500   100588796.160 7      4433.626          42.125    24159640.760   100588796.162 7      4433.626          42.187
R23  22994851.820   123006956.526 7      4567.468          42.937    22994851.960   123006956.544 6      4567.468          41.625
R21  21522292.320   115170142.391 7       120.559          43.187    21522295.660   115170142.412 6       120.559          41.750    21522305.120    89576819.901 7        93.768          45.750    21522305.180    89576821.902 7        93.768          45.500
R22  20295923.280   108341021.776 8      2358.615          48.750    20295924.460   108341021.782 8      2358.615          49.125    20295933.340    84265270.010 8      1834.478          51.125    20295932.940    84265273.009 8      1834.478          51.437
G10  22283416.920   117100145.067 7      2042.828          46.562    22283415.120   117100145.067 7      2042.828          47.625    22283425.000    91246901.888 7      1591.814          47.812    22283425.300    91246901.895 8      1591.814          49.125
G08  21313525.240   112003334.305 7      3422.766          44.625    21313524.380   112003334.296 5      3422.766          35.062    21313532.020    87275348.034 5      2667.090          34.750    21313532.980    87275354.049 8      2667.090          49.375
> 2024 05 09 12 33 24.0000000  0 15
G02  22445972.800   117954385.122 7      4285.286          45.437    22445971.080   117954385.124 6      4285.286          36.125    22445977.340    91912525.913 6      3339.184          36.375
G26  23254935.780   122205499.534 7      -699.053          42.750    23254934.980   122205499.547 7      -699.053          42.437    23254951.660    95225126.144 6      -544.717          41.750    23254952.020    95225122.141 7      -544.717          46.750
G21  20969272.620   110194271.823 7      3526.909          45.500    20969269.900   110194271.833 6      3526.909          38.187    20969276.320    85865677.737 6      2748.241          38.500
R12  20486602.000   109435749.396 8      4688.868          48.562    20486601.500   109435749.394 8      4688.868          48.125    20486612.580    85116738.452 8      3646.898          49.312    20486612.440    85116739.452 8      3646.898          49.125
G27  21151444.220   111151591.148 7      1820.085          47.125    21151443.180   111151591.151 8      1820.085          48.187    21151450.380    86611650.737 8      1418.248          48.250    21151450.700    86611655.737 8      1418.248          48.500
G16  21024732.780   110485715.470 7       812.543          46.062    21024731.580   110485715.472 6       812.543          38.812    21024736.840    86092782.270 6       633.150          38.687
G07  24173260.020   127031339.792 7      3461.957          43.062    24173259.360   127031339.789 4      3461.957          29.312    24173268.060    98985486.921 4      2697.629          29.312    24173268.540    98985493.934 6      2697.629          40.937
G23  24035980.700   126309922.311 7       223.487          42.312    24035980.060   126309922.321 4       223.487          29.437    24035989.380    98423306.472 4       174.145          29.625    24035990.880    98423366.476 7       174.145          45.437
R11  19909906.600   106392499.535 8        55.732          49.312    19909905.020   106392499.533 8        55.732          48.437    19909916.100    82749759.317 8        43.347          51.562    19909916.040    82749760.318 8        43.347          52.000
R07  24158549.560   129322605.646 6      5700.522          39.062    24158550.120   129322605.645 6      5700.522          38.000    24158576.320   100584362.430 7      4433.739          42.125    24158576.140   100584362.433 7      4433.739          42.375
R23  22993998.540   123002389.368 7      4567.060          43.437    22993998.420   123002389.386 6      4567.060          41.625
R21  21522269.680   115170021.861 7       120.623          43.187    21522273.140   115170021.889 6       120.623          41.750    21522282.780    89576726.158 7        93.818          45.750    21522282.400    89576728.158 7        93.818          45.062
R22  20295481.260   108338663.340 8      2358.372          50.000    20295482.480   108338663.341 8      2358.372          49.187    20295491.380    84263435.665 8      1834.290          51.312    20295491.080    84263438.661 8      1834.290          51.250
G10  22283028.100   117098102.563 7      2042.351          46.812    22283026.420   117098102.566 7      2042.351          47.562    22283036.220    91245310.329 7      1591.442          47.687    22283036.520    91245310.336 8      1591.442          49.375
G08  21312873.900   111999911.653 7      3422.780          44.875    21312873.020   111999911.645 5      3422.780          35.125    21312880.680    87272681.032 5      2667.101          34.750    21312881.780    87272687.044 8      2667.101          49.000
> 2024 05 09 12 33 25.0000000  0 15
G02  22445157.320   117950100.171 7      4285.007          45.562    22445155.740   117950100.176 6      4285.007          36.250    22445161.940    91909186.994 6      3338.966          36.250
G26  23255068.960   122206198.753 7      -699.104          42.812    23255067.940   122206198.763 6      -699.104          41.375    23255084.660    95225670.978 6      -544.757          41.250    23255085.020    95225666.965 7      -544.757          46.625
G21  20968601.840   110190745.158 7      3526.668          45.875    20968598.920   110190745.163 6      3526.668          38.187    20968605.220    85862929.682 6      2748.053          38.312
R12  20485723.700   109431060.933 7      4688.325          47.562    20485723.460   109431060.932 7      4688.325          47.312    20485734.920    85113091.871 8      3646.475          48.750    20485734.820    85113092.870 8      3646.475          48.875
G27  21151097.960   111149771.230 7      1820.035          47.375    21151096.800   111149771.232 7      1820.035          47.687    21151103.980    86610232.612 8      1418.209          48.000    21151104.660    86610237.614 8      1418.209          48.625
G16  21024578.400   110484903.199 7       812.187          45.687    21024576.960   110484903.199 6       812.187          38.875    21024582.300    86092149.328 6       632.873          38.875
G07  24172601.340   127027878.098 7      3461.579          44.000    24172600.680   127027878.100 4      3461.579          29.250    24172609.180    98982789.495 4      2697.334          29.437    24172609.800    98982796.512 6      2697.334          40.937
G23  24035938.100   126309699.148 7       223.049          43.000    24035937.640   126309699.158 4       223.049          29.437    24035947.080    98423132.571 4       173.804          29.625    24035948.700    98423192.570 7       173.804          45.625
R11  19909896.220   106392444.179 8        55.248          48.562    19909894.800   106392444.175 7        55.248          47.812    19909905.720    82749716.251 8        42.971          51.750    19909905.660    82749717.253 8        42.971          52.062
R07  24157484.680   129316904.989 6      5700.687          39.062    24157485.800   129316904.986 6      5700.687          38.437    24157511.800   100579928.582 7      4433.867          42.312    24157511.120   100579928.589 7      4433.867          42.312
R23  22993144.340   122997822.462 7      4566.990          43.437    22993144.500   122997822.471 7      4566.990          42.125
R21  21522247.400   115169901.304 7       120.695          42.875    21522251.080   115169901.321 6       120.695          41.687    21522260.060    89576632.380 7        93.874          45.687    21522260.360    89576634.383 7        93.874          45.875
R22  20295039.900   108336305.211 8      2358.124          49.125    20295040.880   108336305.209 8      2358.124          48.937    20295049.580    84261601.563 8      1834.097          51.500    20295049.280    84261604.565 8      1834.097          51.187
G10  22282639.540   117096060.630 7      2041.860          47.500    22282637.820   117096060.630 7      2041.860          47.375    22282647.760    91243719.208 7      1591.060          47.000    22282648.040    91243719.221 8      1591.060          48.625
G08  21312222.840   111996489.093 7      3422.669          45.250    21312221.640   111996489.087 5      3422.669          34.687    21312229.360    87270014.104 5      2667.014          34.687    21312230.380    87270020.118 8      2667.014          49.125
> 2024 05 09 12 33 26.0000000  0 15
G02  22444341.860   117945815.481 7      4284.526          45.625    22444340.460   117945815.485 6      4284.526          36.750    22444346.620    91905848.278 6      3338.592          36.187
G26  23255202.080   122206898.070 7      -699.471          42.312    23255201.020   122206898.090 6      -699.471          41.062    23255217.780    95226215.887 6      -545.042          41.125    23255218.240    95226211.885 7      -545.042          46.687
G21  20967930.540   110187218.877 7      3526.067          46.437    20967927.840   110187218.882 6      3526.067          38.875    20967934.220    85860181.933 6      2747.585          38.437
R12  20484846.700   109426373.072 7      4687.515          47.625    20484846.140   109426373.068 8      4687.515          48.000    20484857.220    85109445.758 8      3645.845          48.625    20484856.700    85109446.758 7      3645.845          47.750
G27  21150751.420   111147951.343 7      1819.788          47.312    21150750.500   111147951.350 7      1819.788          47.812    21150757.660    86608814.523 8      1418.016          48.062    21150758.220    86608819.529 8      1418.016          48.312
G16  21024423.800   110484091.270 7       811.718          46.250    21024422.520   110484091.272 6       811.718          38.250    21024427.880    86091516.654 6       632.508          38.375
G07  24171942.560   127024416.798 7      3461.038          43.562    24171942.000   127024416.797 4      3461.038          29.250    24171950.480    98980092.378 4      2696.913          29.437    24171951.320    98980099.389 6      2696.913          40.937
G23  24035895.940   126309476.298 7       222.613          43.125    24035895.260   126309476.306 4       222.613          29.437    24035904.580    98422958.919 4       173.464          29.625    24035905.840    98423018.921 7       173.464          45.125
R11  19909886.220   106392389.449 8        54.435          48.562    19909884.580   106392389.448 8        54.435          48.312    19909895.460    82749673.681 8        42.338          51.437    19909894.980    82749674.679 8        42.338          52.000
R07  24156420.100   129311204.041 6      5701.131          39.875    24156420.700   129311204.040 6      5701.131          38.437    24156446.800   100575494.516 7      4434.213          42.500    24156446.280   100575494.522 7      4434.213          42.312
R23  22992291.160   122993255.764 7      4566.569          43.500    22992290.740   122993255.784 7      4566.569          42.125
R21  21522224.620   115169780.650 7       120.731          43.125    21522227.960   115169780.668 6       120.731          41.687    21522237.480    89576538.535 7        93.902          45.687    21522237.160    89576540.537 7        93.902          44.625
R22  20294598.300   108333947.274 8      2357.814          48.812    20294599.160   108333947.280 8      2357.814          49.375    20294607.800    84259767.622 8      1833.856          50.937    20294607.360    84259770.621 8      1833.856          51.125
G10  22282250.960   117094019.162 7      2041.229          47.125    22282249.280   117094019.169 7      2041.229          47.312    22282259.100    91242128.458 7      1590.568          47.125    22282259.380    91242128.462 8      1590.568          48.687
G08  21311571.460   111993066.517 7      3422.593          45.125    21311570.380   111993066.509 5      3422.593          34.687    21311578.160    87267347.162 5      2666.956          34.375    21311578.880    87267353.172 8      2666.956          49.437
> 2024 05 09 12 33 27.0000000  0 15
G02  22443526.740   117941531.316 7      4283.954          45.125    22443525.220   117941531.318 6      4283.954          36.437    22443531.340    91902509.968 6      3338.146          36.125
G26  23255335.240   122207597.780 7      -699.856          42.625    23255334.300   122207597.791 6      -699.856          41.812    23255351.040    95226761.094 6      -545.342          40.937    23255351.260    95226757.085 7      -545.342          45.937
G21  20967259.700   110183693.224 7      3525.374          45.500    20967256.760   110183693.234 6      3525.374          38.687    20967263.360    85857434.673 6      2747.045          37.937
R12  20483969.220   109421686.038 8      4686.646          48.125    20483968.620   109421686.034 7      4686.646          47.562    20483979.700    85105800.286 7      3645.169          47.875    20483979.420    85105801.288 8      3645.169          48.812
G27  21150405.240   111146131.750 7      1819.525          45.937    21150404.220   111146131.757 7      1819.525          46.250    21150411.360    86607396.658 7      1417.812          46.562    21150411.900    86607401.658 8      1417.812          48.187
G16  21024269.360   110483279.979 7       810.967          46.500    21024268.120   110483279.986 6       810.967          38.687    21024273.500    86090884.481 6       631.922          38.062
G07  24171284.080   127020956.136 7      3460.440          43.437    24171283.600   127020956.136 4      3460.440          29.250    24171292.000    98977395.759 4      2696.447          29.437    24171292.480    98977402.774 6      2696.447          40.875
G23  24035853.520   126309254.057 7       222.025          42.937    24035852.960   126309254.062 4       222.025          29.812    24035862.140    98422785.742 4       173.007          29.625    24035863.740    98422845.740 7       173.007          44.937
R11  19909876.020   106392335.595 8        53.431          48.812    19909874.540   106392335.596 7        53.431          47.500    19909885.340    82749631.792 8        41.558          49.687    19909885.120    82749632.793 8        41.558          51.750
R07  24155355.040   129305503.157 6      5701.002          39.875    24155356.360   129305503.156 6      5701.002          38.437    24155382.140   100571060.491 7      4434.112          42.250    24155381.380   100571060.510 6      4434.112          41.875
R23  22991436.980   122988689.505 7      4566.121          42.937    22991437.240   122988689.517 7      4566.121          42.125
R21  21522201.860   115169660.200 7       120.457          43.125    21522205.940   115169660.217 6       120.457          41.312    21522214.840    89576444.845 7        93.689          45.812    21522214.560    89576446.845 7        93.689          45.375
R22  20294156.320   108331589.823 8      2357.281          48.937    20294157.560   108331589.829 8      2357.281          48.187    20294166.140    84257934.047 8      1833.441          48.812    20294165.860    84257937.044 8      1833.441          51.312
G10  22281862.620   117091978.434 7      2040.401          47.062    22281860.940   117091978.439 7      2040.401          47.250    22281870.740    91240538.279 7      1589.923          47.437    22281871.040    91240538.283 8      1589.923          48.812
G08  21310920.200   111989644.212 7      3422.273          44.687    21310919.060   111989644.206 5      3422.273          34.750    21310926.860    87264680.433 5      2666.706          34.375    21310927.840    87264686.445 8      2666.706          49.312
> 2024 05 09 12 33 28.0000000  0 15
G02  22442711.380   117937247.637 7      4283.652          45.500    22442710.100   117937247.641 5      4283.652          35.750    22442716.160    91899172.038 5      3337.911          35.937
G26  23255468.580   122208297.819 7      -700.040          43.062    23255467.320   122208297.832 6      -700.040          41.500    23255484.260    95227306.565 6      -545.486          41.375    23255484.140    95227302.564 7      -545.486          46.500
G21  20966588.420   110180168.190 7      3524.957          45.687    20966586.080   110180168.198 6      3524.957          38.437    20966592.560    85854687.892 6      2746.720          38.500
R12  20483091.780   109416999.860 8      4685.955          48.187    20483091.060   109416999.858 8      4685.955          48.000    20483102.600    85102155.484 8      3644.631          48.125    20483102.320    85102156.492 8      3644.631          49.062
G27  21150059.040   111144312.446 7      1819.429          47.375    21150058.080   111144312.454 7      1819.429          47.750    21150065.180    86605979.019 8      1417.737          48.062    21150065.720    86605984.021 8      1417.737          48.312
G16  21024114.960   110482469.285 7       810.552          46.250    21024113.860   110482469.292 6       810.552          38.812    21024119.200    86090252.769 6       631.599          38.437
G07  24170625.380   127017496.129 7      3459.848          43.625    24170625.300   127017496.131 4      3459.848          29.812    24170633.740    98974699.649 4      2695.986          29.812    24170633.600    98974706.668 6      2695.986          40.875
G23  24035811.200   126309032.403 7       221.576          42.687    24035810.780   126309032.407 4       221.576          29.812    24035820.020    98422613.022 4       172.656          29.750    24035821.480    98422673.022 7       172.656          45.125
R11  19909865.940   106392282.559 8        52.848          49.312    19909864.660   106392282.563 8        52.848          48.437    19909875.480    82749590.540 8        41.104          51.250    19909875.360    82749591.540 8        41.104          51.625
R07  24154290.220   129299802.249 6      5701.274          39.875    24154290.740   129299802.254 6      5701.274          38.437    24154317.120   100566626.453 7      4434.324          42.562    24154316.280   100566626.464 7      4434.324          42.125
R23  22990583.480   122984123.668 7      4565.881          42.937    22990583.520   122984123.677 7      4565.881          42.062
R21  21522178.880   115169539.870 7       120.557          42.937    21522183.280   115169539.901 6       120.557          41.312    21522192.460    89576351.261 7        93.767          45.625    21522192.320    89576353.261 7        93.767          45.312
R22  20293714.900   108329232.839 8      2357.026          48.875    20293716.080   108329232.846 8      2357.026          49.312    20293724.540    84256100.838 8      1833.243          51.312    20293724.080    84256103.834 8      1833.243          51.500
G10  22281474.260   117089938.416 7      2039.838          47.500    22281472.720   117089938.419 7      2039.838          47.250    22281482.600    91238948.652 7      1589.484          47.625    22281482.780    91238948.657 8      1589.484          48.500
G08  21310268.780   111986222.138 7      3422.213          44.500    21310267.780   111986222.135 5      3422.213          34.937    21310275.640    87262013.884 5      2666.660          34.562    21310276.540    87262019.894 8      2666.660          49.437
> 2024 05 09 12 33 29.0000000  0 15
G02  22441896.520   117932964.362 7      4282.959          46.187    22441894.920   117932964.370 6      4282.959          36.375    22441901.040    91895834.428 6      3337.371          36.062
G26  23255601.820   122208998.090 7      -700.445          43.875    23255600.600   122208998.105 6      -700.445          41.562    23255617.480    95227852.213 6      -545.801          41.187    23255617.320    95227848.211 7      -545.801          46.250
G21  20965917.680   110176643.670 7      3524.235          46.812    20965915.480   110176643.672 6      3524.235          38.812    20965921.760    85851941.512 6      2746.157          38.750
R12  20482214.700   109412314.434 7      4685.040          46.687    20482213.920   109412314.432 7      4685.040          47.187    20482225.300    85098511.266 8      3643.920          48.562    20482225.120    85098512.268 8      3643.920          49.000
G27  21149712.940   111142493.318 7      1818.980          47.312    21149711.960   111142493.326 7      1818.980          47.437    21149718.960    86604561.515 7      1417.387          47.250    21149719.620    86604566.515 8      1417.387          48.375
G16  21023960.980   110481659.066 7       809.999          46.812    21023959.780   110481659.068 6       809.999          38.375    21023965.060    86089621.424 6       631.168          38.562
G07  24169967.500   127014036.626 7      3459.190          44.312    24169966.980   127014036.631 4      3459.190          29.812    24169975.400    98972003.935 4      2695.473          29.812    24169975.740    98972010.954 6      2695.473          41.250
G23  24035769.320   126308811.205 7       220.950          42.625    24035768.680   126308811.213 4       220.950          29.812    24035777.920    98422440.661 4       172.168          29.750    24035779.180    98422500.656 7       172.168          45.750
R11  19909856.080   106392230.292 8        51.911          48.812    19909854.920   106392230.294 8        51.911          48.250    19909865.840    82749549.880 8        40.375          51.812    19909865.760    82749550.882 8        40.375          51.812
R07  24153224.820   129294101.237 6      5701.079          39.750    24153226.420   129294101.257 6      5701.079          38.937    24153251.680   100562192.345 7      4434.173          42.625    24153251.760   100562192.358 7      4434.173          42.437
R23  22989730.000   122979558.139 7      4565.343          43.312    22989730.300   122979558.159 7      4565.343          42.062
R21  21522156.720   115169419.588 7       120.175          42.937    21522161.040   115169419.611 6       120.175          41.500    21522170.040    89576257.701 7        93.470          45.937    21522169.720    89576259.701 7        93.470          45.375
R22  20293273.340   108326876.200 8      2356.448          48.500    20293274.540   108326876.203 8      2356.448          48.875    20293283.160    84254267.896 8      1832.793          50.875    20293282.540    84254270.892 8      1832.793          51.562
G10  22281086.320   117087898.992 7      2039.077          47.687    22281084.740   117087898.997 7      2039.077          47.375    22281094.440    91237359.495 7      1588.891          47.312    22281094.880    91237359.499 8      1588.891          48.437
G08  21309617.540   111982800.191 7      3421.868          44.125    21309616.540   111982800.190 5      3421.868          34.937    21309624.340    87259347.435 5      2666.390          34.562    21309625.420    87259353.451 8      2666.390          49.562
> 2024 05 09 12 33 30.0000000  0 15
G02  22441081.520   117928681.466 7      4282.484          45.625    22441080.120   117928681.471 6      4282.484          36.125    22441086.020    91892497.109 6      3337.001          36.062
G26  23255735.140   122209698.607 7      -700.823          43.812    23255734.020   122209698.622 6      -700.823          41.937    23255750.780    95228398.059 6      -546.096          41.625    23255750.880    95228394.060 7      -546.096          46.375
G21  20965247.160   110173119.635 7      3523.665          46.375    20965244.900   110173119.643 6      3523.665          38.812    20965251.280    85849195.509 6      2745.713          38.687
R12  20481337.520   109407629.791 7      4684.097          47.812    20481336.860   109407629.784 7      4684.097          47.812    20481348.120    85094867.655 8      3643.186          48.500    20481348.120    85094868.655 8      3643.186          49.000
G27  21149366.800   111140674.353 8      1818.679          48.125    21149365.680   111140674.364 7      1818.679          47.312    21149372.800    86603144.139 7      1417.152          47.625    21149373.260    86603149.139 8      1417.152          48.125
G16  21023806.960   110480849.359 7       809.341          45.875    21023805.520   110480849.364 6       809.341          38.625    21023811.020    86088990.477 6       630.655          38.500
G07  24169309.240   127010577.654 7      3458.557          43.937    24169308.720   127010577.656 4      3458.557          29.812    24169317.140    98969308.632 4      2694.980          29.812    24169317.780    98969315.641 6      2694.980          41.250
G23  24035727.260   126308590.496 7       220.372          42.687    24035726.720   126308590.501 4       220.372          29.812    24035735.820    98422268.676 4       171.719          29.750    24035737.100    98422328.675 7       171.719          45.562
R11  19909846.620   106392178.795 8        50.975          49.062    19909845.540   106392178.799 8        50.975          48.187    19909856.140    82749509.818 8        39.647          52.250    19909856.080    82749510.820 8        39.647          51.937
R07  24152159.720   129288400.142 6      5700.962          39.750    24152161.640   129288400.149 6      5700.962          38.937    24152186.980   100557758.150 7      4434.082          42.625    24152186.780   100557758.156 7      4434.082          42.562
R23  22988876.320   122974992.944 7      4564.859          43.312    22988876.340   122974992.964 7      4564.859          42.062
R21  21522134.520   115169299.323 7       119.993          42.625    21522138.460   115169299.354 6       119.993          41.500    21522147.720    89576164.163 7        93.328          46.062    21522147.340    89576166.163 7        93.328          45.437
R22  20292831.780   108324519.915 8      2355.987          48.812    20292832.800   108324519.921 8      2355.987          49.000    20292841.640    84252435.232 8      1832.435          51.625    20292841.540    84252438.230 8      1832.435          51.625
G10  22280698.500   117085860.167 7      2038.438          47.437    22280696.640   117085860.167 7      2038.438          47.250    22280706.360    91235770.798 7      1588.393          47.000    22280706.700    91235770.802 8      1588.393          48.500
G08  21308966.320   111979378.385 7      3421.722          44.125    21308965.320   111979378.376 5      3421.722          34.500    21308973.280    87256681.091 5      2666.277          34.437    21308974.480    87256687.101 8      2666.277          49.437
> 2024 05 09 12 33 31.0000000  0 15
G02  22440266.120   117924398.888 7      4282.329          46.000    22440265.260   117924398.893 6      4282.329          36.125    22440271.280    91889160.035 6      3336.880          36.062
G26  23255868.060   122210399.271 7      -700.634          43.687    23255867.360   122210399.276 7      -700.634          42.062    23255884.120    95228944.006 6      -545.949          41.312    23255883.980    95228940.006 7      -545.949          46.187
G21  20964576.680   110169596.026 7      3523.397          46.687    20964574.280   110169596.036 6      3523.397          38.437    20964580.700    85846449.843 6      2745.504          38.687
R12  20480460.760   109402945.792 7      4683.626          47.562    20480459.680   109402945.779 7      4683.626          47.562    20480471.200    85091224.542 8      3642.820          48.812    20480471.260    85091225.542 8      3642.820          49.187
G27  21149020.700   111138855.462 8      1818.874          48.062    21149019.520   111138855.467 7      1818.874          47.812    21149026.680    86601726.817 7      1417.304          47.812    21149027.140    86601731.817 8      1417.304          48.062
G16  21023653.100   110480040.052 7       809.066          46.062    21023651.620   110480040.060 6       809.066          39.062    21023657.000    86088359.849 6       630.441          38.625
G07  24168651.220   127007119.110 7      3458.327          44.312    24168650.760   127007119.107 5      3458.327          30.312    24168658.920    98966613.661 4      2694.800          29.812    24168659.000    98966620.673 6      2694.800          41.375
G23  24035685.640   126308370.166 7       220.173          42.937    24035684.820   126308370.168 4       220.173          29.937    24035693.820    98422096.985 4       171.563          29.750    24035695.340    98422156.981 7       171.563          45.625
R11  19909837.140   106392127.955 8        50.488          49.062    19909836.160   106392127.951 8        50.488          48.250    19909846.600    82749470.268 8        39.269          52.187    19909846.600    82749471.268 8        39.269          51.937
R07  24151094.460   129282698.816 6      5701.298          39.750    24151095.740   129282698.823 6      5701.298          38.937    24151122.180   100553323.783 7      4434.343          42.562    24151121.780   100553323.796 7      4434.343          42.875
R23  22988023.060   122970427.971 7      4564.823          42.687    22988022.800   122970427.989 7      4564.823          42.062
R21  21522112.560   115169179.020 7       120.342          42.625    21522115.880   115169179.029 6       120.342          41.250    21522125.220    89576070.573 7        93.599          46.000    21522125.180    89576072.573 7        93.599          45.250
R22  20292390.800   108322163.898 7      2355.920          47.312    20292391.460   108322163.904 8      2355.920          49.062    20292400.140    84250602.774 8      1832.382          50.937    20292399.960    84250605.772 8      1832.382          51.125
G10  22280310.640   117083821.876 7      2038.026          47.625    22280308.880   117083821.873 7      2038.026          47.062    22280318.440    91234182.515 7      1588.072          47.312    22280318.660    91234182.517 8      1588.072          48.500
G08  21308315.280   111975956.647 7      3421.645          44.625    21308314.140   111975956.642 5      3421.645          34.812    21308322.160    87254014.802 5      2666.217          34.437    21308323.260    87254020.816 8      2666.217          49.250
> 2024 05 09 12 33 32.0000000  0 15
G02  22439451.300   117920116.573 7      4281.952          46.125    22439450.280   117920116.578 5      4281.952          35.875    22439456.220    91885823.172 5      3336.586          35.937
G26  23256001.620   122211100.051 7      -700.984          43.562    23256000.580   122211100.059 7      -700.984          42.125    23256017.640    95229490.059 6      -546.221          41.625    23256017.860    95229486.056 7      -546.221          46.375
G21  20963906.240   110166072.816 7      3522.743          47.125    20963903.820   110166072.829 6      3522.743          38.687    20963910.260    85843704.487 6      2744.994          38.562
R12  20479584.160   109398262.366 7      4682.926          47.312    20479583.060   109398262.357 7      4682.926          47.625    20479594.340    85087581.880 8      3642.276          48.687    20479594.640    85087582.880 8      3642.276          48.812
G27  21148674.580   111137036.639 7      1818.576          47.750    21148673.560   111137036.644 7      1818.576          47.500    21148680.640    86600309.551 7      1417.072          47.500    21148680.960    86600314.549 7      1417.072          47.875
G16  21023499.040   110479231.113 7       808.541          46.937    21023497.720   110479231.121 6       808.541          39.062    21023503.100    86087729.504 6       630.032          38.562
G07  24167992.760   127003660.981 7      3457.641          44.437    24167992.680   127003660.978 5      3457.641          30.312    24168000.920    98963919.009 5      2694.266          30.250    24168000.960    98963926.032 6      2694.266          41.375
G23  24035643.440   126308150.211 7       219.484          43.625    24035642.960   126308150.216 4       219.484          29.937    24035652.000    98421925.594 4       171.026          29.750    24035653.720    98421985.592 7       171.026          45.437
R11  19909827.560   106392077.732 8        49.724          49.125    19909826.680   106392077.728 8        49.724          48.125    19909837.320    82749431.197 8        38.675          51.375    19909837.080    82749432.199 8        38.675          52.000
R07  24150028.660   129276997.263 6      5701.263          40.437    24150030.780   129276997.281 6      5701.263          38.937    24150056.840   100548889.246 7      4434.316          42.375    24150056.680   100548889.257 7      4434.316          42.875
R23  22987169.620   122965863.212 7      4564.340          42.687    22987169.280   122965863.227 6      4564.340          41.937
R21  21522089.960   115169058.596 7       120.288          42.812    21522093.280   115169058.598 6       120.288          41.250    21522102.780    89575976.908 7        93.558          46.375    21522102.440    89575978.912 7        93.558          45.812
R22  20291949.240   108319808.107 8      2355.440          48.625    20291950.160   108319808.113 8      2355.440          48.812    20291958.760    84248770.498 8      1832.009          51.250    20291958.760    84248773.497 8      1832.009          51.000
G10  22279922.680   117081784.054 7      2037.424          47.687    22279921.100   117081784.057 7      2037.424          47.250    22279930.720    91232594.604 7      1587.603          46.937    22279930.900    91232594.610 8      1587.603          48.000
G08  21307664.120   111972534.883 7      3421.538          44.375    21307663.020   111972534.880 5      3421.538          34.812    21307671.140    87251348.493 5      2666.134          34.562    21307672.020    87251354.516 8      2666.134          49.125
> 2024 05 09 12 33 33.0000000  0 15
G02  22438636.580   117915834.838 7      4281.575          46.187    22438635.520   117915834.841 6      4281.575          36.125    22438641.400    91882486.757 6      3336.292          36.062
G26  23256134.820   122211801.246 7      -701.130          44.312    23256134.060   122211801.254 6      -701.130          41.500    23256150.980    95230036.432 6      -546.335          40.812    23256151.360    95230032.432 7      -546.335          46.500
G21  20963236.060   110162550.264 7      3522.363          47.125    20963233.520   110162550.274 6      3522.363          38.875    20963240.000    85840959.639 6      2744.699          38.625
R12  20478707.560   109393579.852 7      4682.233          47.687    20478706.300   109393579.845 7      4682.233          47.437    20478717.740    85083939.929 8      3641.737          48.687    20478718.160    85083940.927 8      3641.737          48.687
G27  21148328.580   111135218.163 7      1818.378          46.875    21148327.440   111135218.168 7      1818.378          47.125    21148334.420    86598892.558 7      1416.918          47.312    21148334.940    86598897.558 8      1416.918          48.375
G16  21023345.400   110478422.839 7       808.167          46.687    21023343.840   110478422.849 6       808.167          38.937    21023349.380    86087099.678 6       629.740          38.812
G07  24167334.900   127000203.539 7      3457.201          44.687    24167334.780   127000203.536 5      3457.201          30.312    24167342.940    98961224.898 5      2693.923          30.250    24167343.720    98961231.927 6      2693.923          41.187
G23  24035601.800   126307930.868 7       219.077          42.812    24035601.240   126307930.876 4       219.077          29.937    24035610.260    98421754.678 4       170.709          29.750    24035612.120    98421814.676 7       170.709          45.500
R11  19909818.580   106392028.448 8        48.875          49.312    19909817.480   106392028.443 8        48.875          48.125    19909828.140    82749392.862 8        38.014          51.812    19909827.840    82749393.865 8        38.014          51.937
R07  24148963.480   129271295.775 6      5701.572          40.437    24148966.320   129271295.782 6      5701.572          38.937    24148991.680   100544454.747 7      4434.556          42.500    24148991.600   100544454.759 7      4434.556          42.812
R23  22986316.740   122961298.930 6      4564.159          41.875    22986316.140   122961298.944 6      4564.159          41.937
R21  21522067.440   115168938.360 7       120.189          43.187    21522070.940   115168938.372 6       120.189          41.125    21522080.440    89575883.391 7        93.480          46.187    21522080.120    89575885.389 7        93.480          45.437
R22  20291507.860   108317452.831 7      2355.126          47.500    20291508.640   108317452.835 8      2355.126          48.875    20291517.640    84246938.613 8      1831.764          51.375    20291517.500    84246941.610 8      1831.764          51.375
G10  22279534.860   117079747.024 7      2036.766          47.187    22279533.260   117079747.024 7      2036.766          47.000    22279543.140    91231007.305 7      1587.090          47.312    22279543.260    91231007.312 8      1587.090          48.375
G08  21307012.880   111969113.445 7      3421.452          43.937    21307011.900   111969113.448 5      3421.452          34.812    21307019.900    87248682.443 5      2666.066          34.562    21307020.740    87248688.459 8      2666.066          49.375
> 2024 05 09 12 33 34.0000000  0 15
G02  22437822.040   117911553.595 7      4281.068          46.187    22437820.980   117911553.597 6      4281.068          36.187    22437826.740    91879150.724 6      3335.897          36.312
G26  23256268.720   122212502.815 7      -701.612          43.562    23256267.440   122212502.825 6      -701.612          41.562    23256284.620    95230583.090 6      -546.711          40.937    23256284.740    95230579.092 7      -546.711          46.250
G21  20962565.560   110159028.341 7      3521.714          47.375    20962563.420   110159028.352 6      3521.714          38.750    20962569.960    85838215.282 6      2744.193          38.250
R12  20477831.440   109388898.235 7      4681.228          47.562    20477830.080   109388898.220 7      4681.228          47.437    20477841.320    85080298.665 8      3640.955          48.812    20477841.580    85080299.663 8      3640.955          48.812
G27  21147982.620   111133399.952 7      1818.125          47.312    21147981.260   111133399.955 7      1818.125          47.500    21147988.460    86597475.767 7      1416.721          47.750    21147988.860    86597480.771 7      1416.721          47.750
G16  21023191.540   110477615.185 7       807.438          46.500    21023190.220   110477615.195 6       807.438          38.937    21023195.640    86086470.337 6       629.173          38.562
G07  24166676.980   126996746.718 7      3456.665          43.812    24166677.120   126996746.721 5      3456.665          30.312    24166685.260    98958531.274 5      2693.505          30.250    24166685.620    98958538.290 6      2693.505          41.875
G23  24035560.280   126307712.143 7       218.409          42.625    24035559.760   126307712.151 4       218.409          29.875    24035568.740    98421584.237 4       170.189          29.750    24035570.040    98421644.232 7       170.189          45.562
R11  19909809.720   106391980.031 8        48.040          49.125    19909808.560   106391980.032 8        48.040          48.187    19909819.040    82749355.201 8        37.365          51.812    19909818.920    82749356.203 8        37.365          51.875
R07  24147898.640   129265594.299 6      5701.429          40.437    24147901.160   129265594.322 6      5701.429          38.937    24147926.620   100540020.276 7      4434.445          42.625    24147926.840   100540020.283 7      4434.445          43.000
R23  22985463.840   122956735.112 7      4563.619          42.750    22985462.900   122956735.138 6      4563.619          41.812
R21  21522044.900   115168818.271 7       119.943          43.187    21522048.000   115168818.286 6       119.943          41.125    21522058.080    89575789.986 7        93.289          46.000    21522057.660    89575791.987 7        93.289          45.750
R22  20291066.740   108315098.015 8      2354.699          48.062    20291067.500   108315098.023 8      2354.699          48.312    20291076.400    84245107.097 8      1831.433          51.000    20291076.260    84245110.094 8      1831.433          51.187
G10  22279147.400   117077710.706 7      2035.995          47.437    22279145.820   117077710.708 7      2035.995          46.875    22279155.520    91229420.568 7      1586.489          47.000    22279155.760    91229420.576 8      1586.489          48.187
G08  21306362.060   111965692.265 7      3421.108          43.750    21306360.680   111965692.265 5      3421.108          34.812    21306368.800    87246016.584 5      2665.799          34.062    21306369.940    87246022.602 8      2665.799          49.250
> 2024 05 09 12 33 35.0000000  0 15
G02  22437007.360   117907272.562 7      4280.775          45.562    22437006.500   117907272.567 6      4280.775          36.437    22437012.120    91875814.856 6      3335.669          36.125
G26  23256402.040   122213204.438 7      -701.914          43.375    23256400.860   122213204.451 6      -701.914          41.437    23256418.000    95231129.802 6      -546.946          41.062    23256418.140    95231125.805 7      -546.946          46.500
G21  20961895.180   110155506.740 7      3521.289          47.312    20961893.260   110155506.747 6      3521.289          38.562    20961899.760    85835471.179 6      2743.862          38.625
R12  20476955.000   109384217.166 7      4680.660          47.562    20476953.560   109384217.154 7      4680.660          47.500    20476964.920    85076657.835 8      3640.514          48.375    20476965.100    85076658.835 8      3640.514          48.687
G27  21147636.720   111131581.742 7      1818.016          46.500    21147635.420   111131581.746 8      1818.016          48.062    21147642.620    86596058.981 7      1416.636          47.812    21147642.800    86596063.983 8      1416.636          48.250
G16  21023038.020   110476807.840 7       807.012          46.312    21023036.660   110476807.845 6       807.012          38.937    21023042.060    86085841.232 6       628.841          38.750
G07  24166019.060   126993290.277 7      3456.125          44.437    24166019.420   126993290.279 5      3456.125          30.312    24166027.540    98955837.944 5      2693.085          30.250    24166028.020    98955844.967 6      2693.085          41.875
G23  24035518.540   126307493.689 7       218.118          43.312    24035518.240   126307493.694 4       218.118          29.875    24035527.180    98421414.008 4       169.962          29.750    24035528.620    98421474.004 7       169.962          45.500
R11  19909800.840   106391932.178 8        47.385          49.125    19909799.700   106391932.185 8        47.385          48.500    19909810.060    82749317.982 8        36.855          51.812    19909810.020    82749318.984 8        36.855          51.937
R07  24146833.620   129259892.545 6      5701.613          40.250    24146835.940   129259892.558 6      5701.613          38.937    24146861.640   100535585.566 7      4434.588          42.125    24146861.620   100535585.575 7      4434.588          43.062
R23  22984610.720   122952171.418 7      4563.365          42.750    22984610.060   122952171.443 6      4563.365          41.812
R21  21522022.820   115168698.038 7       120.010          42.187    21522025.800   115168698.055 6       120.010          41.125    21522035.560    89575696.472 7        93.341          45.812    21522035.260    89575698.465 7        93.341          45.687
R22  20290625.420   108312743.382 8      2354.394          48.437    20290626.460   108312743.386 8      2354.394          49.000    20290635.360    84243275.708 8      1831.195          51.312    20290635.160    84243278.705 8      1831.195          50.937
G10  22278759.960   117075674.808 7      2035.516          46.875    22278758.440   117075674.807 7      2035.516          47.687    22278768.220    91227834.152 7      1586.116          47.750    22278768.200    91227834.162 8      1586.116          48.062
G08  21305710.920   111962271.008 7      3421.117          43.312    21305709.620   111962271.008 5      3421.117          34.500    21305717.540    87243350.676 5      2665.805          34.000    21305718.620    87243356.683 8      2665.805          49.000
> 2024 05 09 12 33 36.0000000  0 15
G02  22436192.700   117902992.052 7      4280.490          46.187    22436191.880   117902992.054 6      4280.490          36.000    22436197.680    91872479.393 5      3335.446          35.750
G26  23256535.220   122213906.406 7      -701.995          43.500    23256534.420   122213906.416 6      -701.995          41.125    23256551.580    95231676.771 6      -547.009          40.687    23256551.780    95231672.770 7      -547.009          46.687
G21  20961225.300   110151985.756 7      3520.955          46.625    20961223.260   110151985.766 6      3520.955          38.437    20961229.840    85832727.555 6      2743.601          38.625
R12  20476078.620   109379536.962 7      4680.080          47.500    20476077.440   109379536.952 7      4680.080          47.500    20476088.520    85073017.685 8      3640.062          48.375    20476089.020    85073018.679 8      3640.062          48.750
G27  21147290.660   111129763.815 8      1818.019          48.062    21147289.440   111129763.817 7      1818.019          47.562    21147296.700    86594642.413 7      1416.638          47.625    21147297.040    86594647.415 7      1416.638          47.937
G16  21022884.600   110476001.103 7       806.613          46.875    21022883.080   110476001.108 6       806.613          39.250    21022888.480    86085212.601 6       628.530          39.062
G07  24165361.640   126989834.473 7      3455.655          44.812    24165361.740   126989834.476 5      3455.655          30.312    24165370.060    98953145.113 5      2692.718          30.375    24165370.620    98953152.123 6      2692.718          41.625
G23  24035477.440   126307275.833 7       217.701          43.187    24035476.540   126307275.841 4       217.701          29.875    24035485.740    98421244.245 4       169.637          29.937    24035487.180    98421304.246 7       169.637          45.500
R11  19909792.160   106391885.212 8        46.763          50.312    19909791.060   106391885.214 8        46.763          48.500    19909801.260    82749281.449 8        36.371          52.250    19909801.040    82749282.449 8        36.371          51.812
R07  24145768.780   129254190.736 6      5702.086          40.250    24145771.400   129254190.753 6      5702.086          38.937    24145796.380   100531150.831 7      4434.956          42.125    24145796.620   100531150.846 7      4434.956          42.750
R23  22983757.440   122947608.170 7      4563.229          42.875    22983757.020   122947608.190 7      4563.229          42.000
R21  21522000.160   115168577.959 7       120.175          42.187    21522003.280   115168577.982 6       120.175          41.312    21522013.020    89575603.077 7        93.469          46.187    21522012.820    89575605.077 7        93.469          45.937
R22  20290184.760   108310389.201 8      2354.211          48.187    20290185.520   108310389.204 8      2354.211          49.500    20290194.340    84241444.674 8      1831.053          51.562    20290194.300    84241447.669 8      1831.053          51.437
G10  22278372.780   117073639.638 7      2035.009          47.437    22278371.120   117073639.637 7      2035.009          46.937    22278380.880    91226248.301 7      1585.721          46.875    22278380.420    91226248.309 8      1585.721          48.500
G08  21305060.380   111958850.035 7      3420.921          42.937    21305058.360   111958850.032 5      3420.921          34.500    21305066.660    87240684.979 5      2665.653          34.000    21305067.640    87240690.988 8      2665.653          48.875
> 2024 05 09 12 33 37.0000000  0 15
G02  22435378.160   117898711.881 7      4280.232          46.437    22435377.460   117898711.880 6      4280.232          36.250    22435383.060    91869144.197 5      3335.246          35.750
G26  23256669.000   122214608.568 7      -702.159          43.375    23256667.920   122214608.575 6      -702.159          40.875    23256685.320    95232223.892 6      -547.137          40.687    23256685.460    95232219.891 7      -547.137          46.375
G21  20960555.500   110148465.242 7      3520.450          47.000    20960553.420   110148465.255 6      3520.450          38.750    20960559.740    85829984.302 6      2743.207          38.812
R12  20475202.680   109374857.428 7      4679.433          47.687    20475201.500   109374857.416 7      4679.433          47.750    20475212.420    85069378.046 8      3639.559          48.812    20475212.940    85069379.039 8      3639.559          48.375
G27  21146944.500   111127946.006 8      1817.943          48.062    21146943.620   111127946.013 7      1817.943          47.125    21146950.660    86593225.940 7      1416.579          47.437    21146951.000    86593230.942 8      1416.579          48.250
G16  21022730.940   110475194.794 7       806.324          46.812    21022729.700   110475194.796 6       806.324          39.500    21022735.160    86084584.304 6       628.304          39.125
G07  24164704.220   126986379.125 7      3455.319          44.687    24164704.340   126986379.127 5      3455.319          30.312    24164712.640    98950452.627 5      2692.456          30.375    24164713.460    98950459.638 6      2692.456          41.625
G23  24035435.860   126307058.383 7       217.500          42.625    24035435.200   126307058.388 4       217.500          29.875    24035444.360    98421074.803 4       169.480          29.937    24035445.940    98421134.800 7       169.480          45.687
R11  19909783.220   106391838.936 8        46.067          49.125    19909782.300   106391838.940 8        46.067          48.437    19909792.620    82749245.452 8        35.830          51.750    19909792.440    82749246.452 8        35.830          51.937
R07  24144703.640   129248488.794 6      5702.298          40.687    24144705.660   129248488.804 6      5702.298          38.937    24144731.180   100526715.976 7      4435.120          42.437    24144731.520   100526715.978 7      4435.120          42.312
R23  22982904.320   122943045.196 7      4563.035          43.062    22982904.180   122943045.216 7      4563.035          42.375
R21  21521977.780   115168457.857 7       120.288          43.125    21521980.140   115168457.875 6       120.288          41.312    21521990.940    89575509.664 7        93.558          46.312    21521990.540    89575511.664 7        93.558          45.812
R22  20289744.000   108308035.340 7      2353.899          47.875    20289744.320   108308035.346 8      2353.899          48.375    20289753.420    84239613.893 8      1830.810          51.062    20289753.240    84239616.892 8      1830.810          51.312
G10  22277985.440   117071605.003 7      2034.598          46.687    22277983.760   117071605.003 7      2034.598          47.375    22277993.700    91224662.876 7      1585.401          47.125    22277993.160    91224662.882 8      1585.401          48.250
G08  21304409.040   111955429.102 7      3421.070          43.750    21304407.420   111955429.099 5      3421.070          34.500    21304415.780    87238019.318 5      2665.769          34.625    21304416.740    87238025.330 8      2665.769          49.000
> 2024 05 09 12 33 38.0000000  0 15
G02  22434563.720   117894432.133 7      4279.396          46.625    22434562.980   117894432.130 6      4279.396          36.437    22434568.560    91865809.330 6      3334.595          36.187
G26  23256802.800   122215310.982 7      -702.722          42.687    23256801.740   122215310.990 6      -702.722          41.375    23256819.000    95232771.207 6      -547.575          40.937    23256819.340    95232767.213 7      -547.575          46.312
G21  20959885.700   110144945.241 7      3519.643          46.937    20959883.720   110144945.253 6      3519.643          38.875    20959890.100    85827241.443 6      2742.579          38.687
R12  20474326.860   109370178.645 7      4678.294          47.000    20474325.340   109370178.636 7      4678.294          47.375    20474336.360    85065738.990 8      3638.673          48.312    20474336.840    85065739.986 7      3638.673          47.625
G27  21146598.720   111126128.423 8      1817.334          48.250    21146597.820   111126128.425 7      1817.334          47.625    21146604.820    86591809.634 7      1416.105          47.937    21146605.320    86591814.640 7      1416.105          47.187
G16  21022577.540   110474389.029 7       805.399          46.437    21022576.380   110474389.031 6       805.399          39.000    21022581.820    86083956.433 6       627.583          38.750
G07  24164046.740   126982924.330 7      3454.419          45.062    24164046.920   126982924.330 5      3454.419          30.687    24164055.160    98947760.579 5      2691.755          30.375    24164055.920    98947767.598 6      2691.755          41.687
G23  24035394.420   126306841.465 7       216.554          42.812    24035393.840   126306841.468 4       216.554          29.812    24035403.060    98420905.772 4       168.743          29.937    24035404.360    98420965.768 7       168.743          45.562
R11  19909774.740   106391793.426 8        45.019          49.562    19909773.920   106391793.430 7        45.019          47.875    19909784.140    82749210.049 8        35.015          51.500    19909784.020    82749211.050 8        35.015          52.125
R07  24143638.780   129242786.786 6      5702.007          40.687    24143640.340   129242786.793 6      5702.007          38.937    24143666.520   100522281.075 7      4434.895          42.187    24143666.020   100522281.071 7      4434.895          42.500
R23  22982051.400   122938482.574 7      4562.428          43.062    22982051.260   122938482.583 7      4562.428          42.375
R21  21521955.060   115168337.805 7       119.866          43.125    21521957.900   115168337.823 6       119.866          41.000    21521968.440    89575416.289 7        93.229          46.000    21521968.180    89575418.289 7        93.229          45.375
R22  20289303.220   108305681.839 8      2353.236          48.375    20289303.760   108305681.845 8      2353.236          49.125    20289312.420    84237783.393 8      1830.295          51.187    20289312.300    84237786.389 8      1830.295          51.500
G10  22277598.480   117069571.021 7      2033.508          46.312    22277596.920   117069571.028 7      2033.508          47.000    22277606.600    91223077.954 7      1584.552          46.937    22277606.360    91223077.963 8      1584.552          48.312
G08  21303758.060   111952008.336 7      3420.650          42.625    21303756.760   111952008.328 5      3420.650          34.312    21303764.640    87235353.785 5      2665.441          34.625    21303765.760    87235359.796 8      2665.441          49.437
> 2024 05 09 12 33 39.0000000  0 15
G02  22433749.500   117890152.836 7      4279.274          46.375    22433748.700   117890152.839 6      4279.274          36.375    22433754.180    91862474.818 6      3334.499          36.375
G26  23256936.220   122216013.709 7      -702.699          42.500    23256935.440   122216013.719 6      -702.699          41.312    23256952.680    95233318.778 6      -547.558          41.187    23256952.660    95233314.778 7      -547.558          46.187
G21  20959216.140   110141425.825 7      3519.302          46.750    20959214.040   110141425.840 6      3519.302          38.812    20959220.280    85824499.044 6      2742.314          38.750
R12  20473451.100   109365500.685 7      4677.735          47.000    20473449.600   109365500.672 7      4677.735          47.187    20473460.680    85062100.579 7      3638.239          47.875    20473461.280    85062101.572 7      3638.239          46.937
G27  21146253.100   111124311.040 8      1817.491          48.250    21146251.940   111124311.045 7      1817.491          47.625    21146258.900    86590393.495 7      1416.226          47.625    21146259.460    86590398.501 8      1416.226          48.375
G16  21022424.160   110473583.816 7       805.127          46.812    21022423.160   110473583.815 6       805.127          38.625    21022428.680    86083328.990 6       627.371          38.250
G07  24163389.240   126979470.148 7      3454.063          45.250    24163389.660   126979470.148 5      3454.063          30.687    24163397.900    98945069.007 5      2691.478          30.812    24163398.520    98945076.022 6      2691.478          41.687
G23  24035353.700   126306625.071 7       216.312          42.937    24035352.700   126306625.076 4       216.312          29.812    24035361.900    98420737.149 4       168.555          29.937    24035363.180    98420797.151 7       168.555          45.187
R11  19909766.500   106391748.745 8        44.434          49.000    19909765.880   106391748.749 8        44.434          49.062    19909775.720    82749175.297 8        34.560          49.375    19909775.660    82749176.298 8        34.560          52.187
R07  24142573.700   129237084.736 6      5702.402          40.687    24142575.440   129237084.737 6      5702.402          38.937    24142601.080   100517846.134 7      4435.202          42.062    24142600.860   100517846.142 7      4435.202          42.000
R23  22981198.680   122933920.345 7      4562.265          43.062    22981197.980   122933920.365 7      4562.265          42.562
R21  21521933.000   115168217.861 7       120.089          42.875    21521935.240   115168217.876 6       120.089          41.000    21521946.040    89575322.990 7        93.402          46.125    21521945.520    89575324.990 7        93.402          44.937
R22  20288862.260   108303328.776 7      2352.993          47.750    20288862.700   108303328.777 8      2352.993          48.750    20288871.740    84235953.228 8      1830.106          48.937    20288871.700    84235956.227 8      1830.106          51.187
G10  22277211.660   117067537.703 7      2033.160          46.187    22277209.920   117067537.703 7      2033.160          46.562    22277219.680    91221493.549 7      1584.281          46.812    22277219.420    91221493.559 8      1584.281          48.375
G08  21303107.140   111948587.787 7      3420.707          42.375    21303105.720   111948587.784 5      3420.707          34.312    21303113.800    87232688.423 5      2665.486          33.937    21303114.560    87232694.437 8      2665.486          48.687
> 2024 05 09 12 33 40.0000000  0 15
G02  22432935.340   117885873.958 7      4278.676          46.187    22432934.600   117885873.960 6      4278.676          36.312    22432940.120    91859140.631 6      3334.033          36.250
G26  23257070.280   122216716.696 7      -703.138          42.562    23257069.060   122216716.704 6      -703.138          41.625    23257086.540    95233866.546 6      -547.899          41.125    23257086.320    95233862.548 7      -547.899          46.562
G21  20958546.360   110137906.919 7      3518.671          46.812    20958544.480   110137906.932 6      3518.671          39.000    20958550.660    85821757.039 6      2741.821          38.500
R12  20472575.360   109360823.507 7      4676.788          47.312    20472574.100   109360823.495 7      4676.788          46.875    20472585.160    85058462.774 8      3637.502          48.187    20472585.560    85058463.767 8      3637.502          48.625
G27  21145907.100   111122493.857 8      1817.174          48.437    21145906.060   111122493.864 7      1817.174          47.687    21145913.120    86588977.508 7      1415.980          47.937    21145913.640    86588982.518 8      1415.980          48.562
G16  21022271.120   110472779.102 7       804.467          45.812    21022270.080   110472779.109 6       804.467          39.187    21022275.660    86082701.942 6       626.857          38.812
G07  24162732.260   126976016.486 7      3453.449          45.687    24162732.520   126976016.483 5      3453.449          30.687    24162740.720    98942377.838 5      2690.999          30.812    24162741.340    98942384.852 6      2690.999          41.375
G23  24035312.620   126306409.147 7       215.742          43.125    24035311.620   126306409.149 4       215.742          29.812    24035320.900    98420568.898 4       168.111          29.687    24035322.220    98420628.904 7       168.111          45.500
R11  19909758.340   106391704.812 8        43.594          49.812    19909757.720   106391704.818 8        43.594          49.125    19909767.500    82749141.115 8        33.906          51.875    19909767.220    82749142.113 8        33.906          52.187
R07  24141508.280   129231382.580 6      5702.301          40.750    24141509.660   129231382.603 6      5702.301          39.312    24141535.520   100513411.137 7      4435.123          42.375    24141535.640   100513411.143 7      4435.123          42.562
R23  22980345.920   122929358.440 7      4561.760          42.500    22980345.300   122929358.476 7      4561.760          42.562
R21  21521910.800   115168097.965 7       119.852          42.875    21521912.600   115168097.985 6       119.852          41.250    21521923.760    89575229.731 7        93.219          46.250    21521923.140    89575231.734 7        93.219          45.875
R22  20288421.580   108300976.044 8      2352.521          48.375    20288421.960   108300976.047 8      2352.521          48.375    20288430.880    84234123.330 8      1829.739          51.500    20288430.700    84234126.330 8      1829.739          51.500
G10  22276824.940   117065505.006 7      2032.406          47.250    22276823.100   117065505.008 7      2032.406          47.187    22276832.920    91219909.633 7      1583.693          47.187    22276832.800    91219909.639 8      1583.693          48.250
G08  21302456.540   111945167.402 7      3420.212          43.375    21302454.820   111945167.404 5      3420.212          34.187    21302462.900    87230023.193 5      2665.100          33.875    21302464.020    87230029.204 8      2665.100          48.875
> 2024 05 09 12 33 41.0000000  0 15
G02  22432121.340   117881595.463 7      4278.361          46.125    22432120.540   117881595.465 6      4278.361          36.312    22432125.820    91855806.739 6      3333.788          36.437
G26  23257203.960   122217419.920 7      -703.243          42.687    23257203.040   122217419.922 6      -703.243          41.500    23257220.280    95234414.494 6      -547.982          41.187    23257220.220    95234410.498 7      -547.982          46.687
G21  20957876.960   110134388.518 7      3518.228          46.375    20957875.020   110134388.531 6      3518.228          38.750    20957881.300    85819015.428 6      2741.477          38.625
R12  20471699.980   109356147.109 7      4676.046          46.625    20471698.640   109356147.089 7      4676.046          47.125    20471709.600    85054825.569 8      3636.925          48.375    20471710.040    85054826.563 8      3636.925          48.500
G27  21145561.560   111120676.868 7      1816.956          47.812    21145560.280   111120676.870 7      1816.956          47.500    21145567.360    86587561.669 7      1415.810          47.812    21145568.040    86587566.677 8      1415.810          48.437
G16  21022118.040   110471974.879 7       804.063          46.250    21022117.060   110471974.886 6       804.063          39.375    21022122.580    86082075.269 6       626.542          39.312
G07  24162075.220   126972563.334 7      3453.029          45.250    24162075.460   126972563.334 5      3453.029          30.937    24162083.500    98939687.070 5      2690.672          30.812    24162083.880    98939694.085 6      2690.672          41.375
G23  24035271.360   126306193.724 7       215.304          43.750    24035270.580   126306193.727 4       215.304          29.812    24035279.860    98420401.035 4       167.769          29.687    24035281.480    98420461.028 7       167.769          45.750
R11  19909750.040   106391661.654 8        42.828          50.250    19909749.600   106391661.657 8        42.828          49.000    19909759.540    82749107.541 8        33.311          51.937    19909759.160    82749108.537 8        33.311          51.937
R07  24140443.200   129225680.366 6      5702.327          40.750    24140444.860   129225680.371 6      5702.327          39.312    24140470.460   100508976.075 7      4435.143          42.250    24140470.640   100508976.077 7      4435.143          42.687
R23  22979493.360   122924796.883 7      4561.492          42.500    22979492.700   122924796.911 7      4561.492          43.000
R21  21521888.260   115167978.082 6       119.926          41.687    21521889.260   115167978.088 6       119.926          41.250    21521901.220    89575136.479 7        93.275          46.500    21521900.940    89575138.477 7        93.275          46.062
R22  20287980.780   108298623.672 8      2352.285          48.000    20287981.220   108298623.676 8      2352.285          48.187    20287990.280    84232293.707 8      1829.555          50.937    20287990.160    84232296.710 8      1829.555          51.812
G10  22276438.100   117063472.912 7      2031.878          46.812    22276436.420   117063472.914 7      2031.878          46.687    22276446.180    91218326.181 7      1583.282          46.437    22276446.000    91218326.190 8      1583.282          48.000
G08  21301805.740   111941747.112 7      3420.389          43.125    21301803.900   111941747.109 5      3420.389          34.375    21301812.000    87227358.032 5      2665.238          33.875    21301813.180    87227364.040 8      2665.238          48.750
> 2024 05 09 12 33 42.0000000  0 15
G02  22431307.140   117877317.470 7      4277.748          46.750    22431306.420   117877317.475 6      4277.748          36.250    22431311.720    91852473.242 6      3333.310          36.375
G26  23257337.980   122218123.477 7      -703.743          42.437    23257336.840   122218123.487 6      -703.743          41.250    23257354.260    95234962.710 6      -548.371          41.375    23257354.340    95234958.716 7      -548.371          46.562
G21  20957207.620   110130870.739 8      3517.500          48.625    20957205.740   110130870.750 6      3517.500          38.812    20957211.820    85816274.302 6      2740.909          39.375
R12  20470824.620   109351471.523 7      4675.109          47.812    20470823.340   109351471.508 8      4675.109          48.125    20470834.220    85051189.008 7      3636.196          47.750    20470834.740    85051190.004 8      3636.196          48.687
G27  21145215.800   111118860.128 8      1816.565          48.250    21145214.680   111118860.136 8      1816.565          48.000    21145221.680    86586146.034 7      1415.506          47.875    21145222.060    86586151.038 8      1415.506          48.062
G16  21021965.200   110471171.268 7       803.311          46.687    21021964.020   110471171.276 6       803.311          39.312    21021969.720    86081449.079 6       625.956          38.812
G07  24161418.220   126969110.839 7      3452.220          44.437    24161418.480   126969110.836 5      3452.220          30.937    24161426.420    98936996.812 5      2690.042          30.937    24161427.140    98937003.826 6      2690.042          41.375
G23  24035230.600   126305978.870 7       214.549          43.500    24035229.660   126305978.875 4       214.549          29.937    24035239.000    98420233.613 4       167.181          29.687    24035240.780    98420293.613 7       167.181          45.875
R11  19909742.120   106391619.310 8        41.922          50.000    19909741.740   106391619.319 8        41.922          49.750    19909751.520    82749074.607 8        32.606          51.687    19909751.400    82749075.607 8        32.606          51.687
R07  24139378.580   129219978.134 6      5702.287          40.750    24139379.400   129219978.135 6      5702.287          39.312    24139405.460   100504540.999 7      4435.112          42.250    24139405.240   100504541.001 7      4435.112          42.812
R23  22978640.760   122920235.746 7      4560.861          42.937    22978640.320   122920235.776 7      4560.861          42.875
R21  21521866.160   115167858.357 6       119.726          41.687    21521866.960   115167858.358 6       119.726          41.250    21521878.900    89575043.353 7        93.120          46.187    21521878.560    89575045.355 7        93.120          46.125
R22  20287540.360   108296271.781 8      2351.603          49.312    20287540.820   108296271.784 8      2351.603          49.437    20287549.680    84230464.461 8      1829.024          51.187    20287549.440    84230467.461 8      1829.024          51.250
G10  22276051.560   117061441.523 7      2031.011          47.562    22276049.800   117061441.528 7      2031.011          47.500    22276059.660    91216743.285 7      1582.606          47.125    22276059.280    91216743.291 7      1582.606          47.812
G08  21301154.820   111938327.093 7      3419.913          43.750    21301153.020   111938327.088 5      3419.913          34.375    21301161.300    87224693.080 5      2664.867          34.000    21301162.280    87224699.090 8      2664.867          48.687
> 2024 05 09 12 33 43.0000000  0 15
G02  22430493.040   117873039.958 7      4277.369          46.937    22430492.540   117873039.963 6      4277.369          36.500    22430497.740    91849140.120 6      3333.015          36.437
G26  23257471.780   122218827.376 7      -703.864          42.312    23257470.760   122218827.386 6      -703.864          41.375    23257488.320    95235511.187 6      -548.465          40.937    23257488.260    95235507.188 7      -548.465          46.187
G21  20956538.200   110127353.544 8      3517.080          48.312    20956536.420   110127353.552 6      3517.080          39.437    20956542.520    85813533.628 6      2740.582          38.937
R12  20469949.520   109346796.733 8      4674.565          48.375    20469948.280   109346796.723 8      4674.565          48.375    20469959.040    85047553.065 7      3635.772          47.562    20469959.520    85047554.060 7      3635.772          47.937
G27  21144870.120   111117043.654 8      1816.555          49.250    21144868.920   111117043.657 7      1816.555          47.937    21144876.120    86584730.591 8      1415.497          48.250    21144876.400    86584735.593 8      1415.497          48.437
G16  21021812.340   110470368.225 7       802.933          46.000    21021811.220   110470368.233 6       802.933          39.062    21021816.860    86080823.327 6       625.662          38.750
G07  24160761.320   126965658.945 7      3451.764          45.312    24160761.580   126965658.945 5      3451.764          30.937    24160769.480    98934307.023 5      2689.686          30.937    24160770.140    98934314.054 6      2689.686          41.375
G23  24035189.960   126305764.580 7       214.177          43.562    24035188.840   126305764.585 4       214.177          29.937    24035198.200    98420066.632 4       166.891          29.875    24035200.000    98420126.632 7       166.891          45.750
R11  19909734.500   106391577.808 8        41.251          50.500    19909734.320   106391577.817 8        41.251          49.937    19909743.780    82749042.319 8        32.084          51.875    19909743.620    82749043.318 8        32.084          51.875
R07  24138313.180   129214275.866 6      5702.356          41.250    24138313.480   129214275.894 6      5702.356          39.312    24138339.600   100500105.914 7      4435.165          42.500    24138340.040   100500105.910 7      4435.165          42.875
R23  22977788.120   122915674.999 7      4560.741          44.625    22977788.020   122915675.016 7      4560.741          42.875
R21  21521843.300   115167738.754 6       119.779          41.812    21521843.440   115167738.772 6       119.779          41.250    21521856.700    89574950.335 7        93.161          46.375    21521856.280    89574952.335 7        93.161          46.125
R22  20287099.480   108293920.308 8      2351.438          49.437    20287100.180   108293920.312 8      2351.438          49.187    20287109.100    84228635.534 8      1828.896          51.250    20287109.180    84228638.536 8      1828.896          51.000
G10  22275665.100   117059410.838 7      2030.493          47.937    22275663.580   117059410.848 7      2030.493          47.687    22275673.120    91215160.937 7      1582.203          47.375    22275672.940    91215160.941 8      1582.203          48.000
G08  21300503.840   111934907.287 7      3419.882          43.187    21300502.280   111934907.281 5      3419.882          34.000    21300510.380    87222028.294 5      2664.843          34.000    21300511.240    87222034.303 8      2664.843          48.812
> 2024 05 09 12 33 44.0000000  0 15
G02  22429679.220   117868762.879 7      4276.777          46.562    22429678.520   117868762.889 6      4276.777          36.687    22429683.860    91845807.337 6      3332.554          36.062
G26  23257605.980   122219531.564 7      -704.248          42.437    23257604.780   122219531.569 6      -704.248          41.625    23257622.360    95236059.880 6      -548.765          40.750    23257622.200    95236055.877 7      -548.765          46.750
G21  20955869.060   110123836.911 8      3516.303          48.062    20955867.280   110123836.921 6      3516.303          39.000    20955873.340    85810793.394 6      2739.976          39.375
R12  20469074.660   109342122.723 8      4673.588          49.125    20469073.480   109342122.711 8      4673.588          48.312    20469084.120    85043917.728 8      3635.013          48.125    20469084.500    85043918.721 7      3635.013          47.687
G27  21144524.380   111115227.406 8      1816.221          48.125    21144523.240   111115227.409 7      1816.221          47.937    21144530.480    86583315.333 7      1415.237          47.750    21144530.740    86583320.335 8      1415.237          48.375
G16  21021659.660   110469565.718 7       802.274          46.375    21021658.540   110469565.731 6       802.274          39.250    21021664.200    86080197.999 6       625.149          39.375
G07  24160104.820   126962207.622 7      3451.060          44.937    24160104.940   126962207.622 5      3451.060          30.812    24160112.680    98931617.676 5      2689.137          30.937    24160113.120    98931624.694 6      2689.137          41.375
G23  24035149.160   126305550.818 7       213.449          42.375    24035148.080   126305550.826 4       213.449          29.937    24035157.600    98419900.063 4       166.324          29.875    24035158.920    98419960.060 7       166.324          45.875
R11  19909726.780   106391537.105 8        40.289          50.375    19909726.700   106391537.115 8        40.289          49.937    19909736.120    82749010.653 8        31.336          51.687    19909736.160    82749011.653 8        31.336          51.812
R07  24137248.300   129208573.577 6      5702.368          41.250    24137248.260   129208573.600 6      5702.368          39.875    24137274.680   100495670.796 7      4435.175          42.750    24137274.660   100495670.794 7      4435.175          42.562
R23  22976935.540   122911114.629 7      4560.113          44.562    22976935.080   122911114.647 7      4560.113          43.687
R21  21521821.440   115167619.227 6       119.581          41.812    21521821.120   115167619.234 6       119.581          41.250    21521834.500    89574857.357 7        93.007          46.687    21521833.720    89574859.362 7        93.007          46.125
R22  20286659.200   108291569.244 8      2350.827          49.875    20286659.980   108291569.251 8      2350.827          49.812    20286668.660    84226806.928 8      1828.421          51.250    20286668.420    84226809.931 8      1828.421          51.000
G10  22275278.860   117057380.810 7      2029.670          47.812    22275277.240   117057380.815 7      2029.670          47.500    22275286.840    91213579.089 7      1581.561          46.875    22275286.640    91213579.099 7      1581.561          47.875
G08  21299853.220   111931487.652 7      3419.526          43.937    21299851.640   111931487.646 5      3419.526          34.000    21299859.620    87219363.643 5      2664.566          33.937    21299860.760    87219369.654 8      2664.566          48.437
> 2024 05 09 12 33 45.0000000  0 15
G02  22428865.160   117864486.208 7      4276.396          46.437    22428864.580   117864486.215 6      4276.396          36.312    22428870.080    91842474.868 6      3332.257          36.062
G26  23257740.080   122220236.015 6      -704.653          41.875    23257738.780   122220236.017 6      -704.653          41.812    23257756.340    95236608.782 6      -549.080          41.250    23257756.460    95236604.784 7      -549.080          46.937
G21  20955199.900   110120320.796 7      3515.780          47.500    20955198.160   110120320.801 6      3515.780          39.250    20955204.340    85808053.562 6      2739.569          39.000
R12  20468199.700   109337449.490 7      4672.702          47.437    20468198.740   109337449.478 7      4672.702          47.375    20468209.200    85040282.985 7      3634.324          47.625    20468209.880    85040283.980 8      3634.324          48.375
G27  21144178.820   111113411.358 8      1815.862          48.312    21144177.680   111113411.360 7      1815.862          47.750    21144184.860    86581900.228 8      1414.957          48.000    21144185.360    86581905.233 8      1414.957          48.375
G16  21021507.040   110468763.758 7       801.598          46.687    21021505.800   110468763.768 6       801.598          39.187    21021511.660    86079573.089 6       624.622          38.937
G07  24159447.800   126958756.858 7      3450.384          45.187    24159448.360   126958756.855 5      3450.384          30.812    24159455.960    98928928.765 5      2688.611          30.812    24159456.600    98928935.781 6      2688.611          41.312
G23  24035108.800   126305337.537 7       212.875          42.875    24035107.640   126305337.547 5       212.875          30.062    24035117.120    98419733.864 4       165.877          29.875    24035118.700    98419793.871 7       165.877          45.687
R11  19909719.360   106391497.177 8        39.466          50.187    19909719.000   106391497.184 8        39.466          48.875    19909728.700    82748979.598 8        30.696          51.750    19909728.560    82748980.598 8        30.696          51.937
R07  24136182.880   129202871.183 6      5702.411          41.250    24136183.420   129202871.196 6      5702.411          39.875    24136209.700   100491235.599 7      4435.209          42.562    24136209.420   100491235.589 7      4435.209          42.687
R23  22976083.440   122906554.610 7      4559.726          44.562    22976082.540   122906554.622 7      4559.726          43.500
R21  21521798.780   115167499.735 6       119.475          41.812    21521798.320   115167499.745 6       119.475          41.250    21521812.080    89574764.419 7        92.925          45.687    21521811.360    89574766.425 7        92.925          46.000
R22  20286219.000   108289218.538 8      2350.422          48.937    20286219.660   108289218.550 8      2350.422          49.000    20286228.200    84224978.605 8      1828.106          51.312    20286228.240    84224981.606 8      1828.106          51.187
G10  22274892.520   117055351.389 7      2029.036          47.375    22274891.000   117055351.391 7      2029.036          47.625    22274900.660    91211997.722 7      1581.067          47.187    22274900.520    91211997.728 7      1581.067          47.937
G08  21299202.460   111928068.179 7      3419.275          43.187    21299200.900   111928068.173 5      3419.275          34.312    21299209.020    87216699.119 5      2664.371          34.062    21299210.160    87216705.130 8      2664.371          48.750
> 2024 05 09 12 33 46.0000000  0 15
G02  22428051.520   117860209.923 7      4276.055          46.250    22428050.980   117860209.933 6      4276.055          36.312    22428056.400    91839142.700 6      3331.991          36.125
G26  23257874.040   122220940.665 7      -704.836          42.250    23257872.960   122220940.672 6      -704.836          41.312    23257890.320    95237157.852 6      -549.223          40.937    23257890.440    95237153.856 7      -549.223          46.687
G21  20954530.680   110116805.167 7      3515.354          47.625    20954529.160   110116805.172 6      3515.354          38.875    20954535.320    85805314.111 6      2739.237          38.812
R12  20467325.140   109332776.997 7      4672.070          46.875    20467324.100   109332776.985 7      4672.070          47.375    20467334.580    85036648.825 8      3633.833          48.250    20467334.960    85036649.825 8      3633.833          48.000
G27  21143833.360   111111595.452 8      1815.787          48.562    21143832.100   111111595.454 7      1815.787          47.687    21143839.260    86580485.234 7      1414.899          47.687    21143839.580    86580490.239 7      1414.899          47.937
G16  21021354.360   110467962.244 7       801.203          46.500    21021353.200   110467962.257 6       801.203          39.187    21021359.140    86078948.531 6       624.314          39.312
G07  24158791.420   126955306.578 7      3449.986          45.687    24158791.960   126955306.580 5      3449.986          30.812    24158799.420    98926240.235 5      2688.301          30.812    24158799.900    98926247.255 6      2688.301          41.312
G23  24035068.300   126305124.695 7       212.679          43.187    24035067.240   126305124.703 5       212.679          30.062    24035076.660    98419568.011 4       165.724          29.875    24035078.380    98419628.010 7       165.724          46.062
R11  19909712.120   106391457.989 8        38.797          50.062    19909711.760   106391457.996 8        38.797          48.875    19909721.400    82748949.108 8        30.175          51.312    19909721.040    82748950.106 8        30.175          51.500
R07  24135117.860   129197168.675 6      5702.447          40.437    24135118.640   129197168.690 6      5702.447          39.875    24135144.120   100486800.309 7      4435.237          42.875    24135144.260   100486800.303 7      4435.237          42.750
R23  22975231.200   122901994.895 7      4559.572          42.437    22975230.100   122901994.899 7      4559.572          43.500
R21  21521776.480   115167380.240 6       119.568          40.250    21521775.800   115167380.263 6       119.568          40.500    21521790.000    89574671.476 7        92.997          46.437    21521789.360    89574673.478 7        92.997          46.187
R22  20285778.960   108286868.176 8      2350.185          48.500    20285779.380   108286868.188 8      2350.185          49.062    20285787.940    84223150.546 8      1827.921          51.187    20285787.880    84223153.549 8      1827.921          51.625
G10  22274506.540   117053322.559 7      2028.539          47.500    22274505.100   117053322.564 7      2028.539          46.812    22274514.640    91210416.819 7      1580.680          47.000    22274514.580    91210416.824 8      1580.680          48.062
G08  21298551.800   111924648.830 7      3419.155          43.500    21298550.080   111924648.822 5      3419.155          34.312    21298558.320    87214034.687 5      2664.277          34.062    21298559.300    87214040.702 8      2664.277          48.437
> 2024 05 09 12 33 47.0000000  0 15
G02  22427237.720   117855933.969 7      4275.766          46.562    22427237.380   117855933.974 6      4275.766          36.375    22427242.960    91835810.782 6      3331.766          36.062
G26  23258008.400   122221645.481 7      -704.808          42.750    23258007.240   122221645.491 6      -704.808          41.000    23258024.600    95237707.041 6      -549.201          40.937    23258024.640    95237703.051 7      -549.201          46.250
G21  20953861.860   110113289.968 7      3514.919          47.000    20953860.160   110113289.981 6      3514.919          38.937    20953866.360    85802574.999 6      2738.898          39.625
R12  20466450.500   109328105.204 7      4671.424          47.062    20466449.460   109328105.194 7      4671.424          47.062    20466459.960    85033015.211 7      3633.330          47.875    20466460.160    85033016.206 8      3633.330          48.312
G27  21143487.620   111109779.664 7      1815.643          47.687    21143486.700   111109779.666 7      1815.643          47.687    21143493.720    86579070.337 7      1414.787          47.562    21143493.780    86579075.341 7      1414.787          47.750
G16  21021201.980   110467161.161 7       800.764          46.812    21021200.860   110467161.177 6       800.764          38.937    21021206.760    86078324.314 6       623.972          38.875
G07  24158134.960   126951856.776 7      3449.464          45.437    24158135.380   126951856.776 5      3449.464          30.625    24158142.820    98923552.079 5      2687.894          30.812    24158143.620    98923559.102 6      2687.894          41.000
G23  24035027.940   126304912.295 7       212.192          43.125    24035026.780   126304912.297 5       212.192          30.062    24035036.260    98419402.499 5       165.344          30.250    24035037.960    98419462.499 7       165.344          46.187
R11  19909704.780   106391419.459 8        38.133          50.500    19909704.740   106391419.465 8        38.133          48.437    19909714.200    82748919.134 8        29.659          51.750    19909713.820    82748920.132 8        29.659          51.875
R07  24134052.480   129191465.947 6      5702.885          40.437    24134053.140   129191465.954 6      5702.885          39.875    24134078.560   100482364.847 7      4435.577          42.562    24134078.840   100482364.839 7      4435.577          42.562
R23  22974379.060   122897435.430 7      4559.275          43.812    22974377.560   122897435.447 7      4559.275          42.687
R21  21521754.040   115167260.742 6       119.347          40.250    21521753.160   115167260.771 6       119.347          40.500    21521767.680    89574578.542 7        92.825          46.875    21521766.980    89574580.542 7        92.825          46.812
R22  20285338.540   108284518.094 8      2349.878          48.875    20285338.980   108284518.101 8      2349.878          48.812    20285347.460    84221322.698 8      1827.683          51.000    20285347.760    84221325.703 8      1827.683          51.125
G10  22274120.640   117051294.278 7      2027.970          47.187    22274119.020   117051294.280 7      2027.970          46.687    22274128.580    91208836.343 7      1580.236          46.687    22274128.640    91208836.347 8      1580.236          48.062
G08  21297900.960   111921229.515 7      3419.205          43.187    21297899.320   111921229.509 5      3419.205          34.437    21297907.560    87211370.288 5      2664.316          33.937    21297908.480    87211376.305 8      2664.316          48.875
> 2024 05 09 12 33 48.0000000  0 15
G02  22426424.120   117851658.488 7      4275.164          46.562    22426423.800   117851658.490 6      4275.164          36.250    22426429.220    91832479.242 6      3331.297          36.625
G26  23258142.760   122222350.672 7      -705.412          42.875    23258141.320   122222350.683 6      -705.412          41.437    23258158.880    95238256.526 6      -549.672          41.062    23258158.880    95238252.530 7      -549.672          46.375
G21  20953193.100   110109775.385 7      3514.242          47.062    20953191.400   110109775.398 6      3514.242          39.000    20953197.540    85799836.361 6      2738.370          39.125
R12  20465575.860   109323434.241 7      4670.401          47.812    20465575.120   109323434.226 7      4670.401          47.437    20465585.460    85029382.240 7      3632.534          47.812    20465586.060    85029383.237 8      3632.534          48.500
G27  21143142.100   111107964.122 7      1815.370          47.500    21143141.180   111107964.125 7      1815.370          47.250    21143148.260    86577655.629 7      1414.574          47.875    21143148.440    86577660.629 7      1414.574          47.687
G16  21021049.760   110466360.678 7       800.072          46.500    21021048.580   110466360.690 6       800.072          39.562    21021054.500    86077700.554 6       623.433          38.500
G07  24157478.740   126948407.576 7      3448.879          44.875    24157478.980   126948407.575 5      3448.879          30.625    24157486.440    98920864.391 5      2687.439          30.812    24157486.780    98920871.405 6      2687.439          41.000
G23  24034987.460   126304700.448 7       211.368          42.937    24034986.480   126304700.451 5       211.368          30.375    24034996.080    98419237.422 5       164.703          30.250    24034997.460    98419297.430 7       164.703          46.062
R11  19909697.600   106391381.775 8        37.156          49.625    19909697.600   106391381.779 8        37.156          48.875    19909707.220    82748889.818 8        28.899          51.687    19909706.920    82748890.816 8        28.899          52.125
R07  24132986.620   129185763.248 6      5702.659          40.437    24132988.420   129185763.255 6      5702.659          39.437    24133013.340   100477929.411 7      4435.401          42.625    24133013.260   100477929.407 7      4435.401          43.062
R23  22973526.660   122892876.403 7      4558.674          44.000    22973525.380   122892876.420 7      4558.674          42.937
R21  21521732.040   115167141.325 6       119.192          40.250    21521731.720   115167141.350 6       119.192          40.500    21521745.300    89574485.655 7        92.705          46.625    21521744.500    89574487.655 7        92.705          46.125
R22  20284898.560   108282168.461 8      2349.280          48.812    20284898.680   108282168.462 8      2349.280          48.750    20284907.520    84219495.206 8      1827.218          51.062    20284907.440    84219498.211 8      1827.218          51.562
G10  22273734.640   117049266.699 7      2027.124          47.000    22273733.220   117049266.699 7      2027.124          46.562    22273742.780    91207256.407 7      1579.578          47.062    22273742.900    91207256.413 7      1579.578          47.625
G08  21297250.560   111917810.465 7      3418.723          43.125    21297248.700   111917810.460 5      3418.723          34.000    21297256.960    87208706.097 5      2663.940          33.937    21297257.840    87208712.111 8      2663.940          48.750
> 2024 05 09 12 33 49.0000000  0 15
G02  22425610.800   117847383.501 7      4274.839          45.437    22425610.240   117847383.505 6      4274.839          36.375    22425615.820    91829148.089 6      3331.044          36.125
G26  23258276.700   122223056.164 7      -705.557          42.937    23258275.680   122223056.174 6      -705.557          41.500    23258293.340    95238806.245 6      -549.785          40.875    23258293.200    95238802.251 7      -549.785          46.562
G21  20952524.240   110106261.390 7      3513.786          47.187    20952522.780   110106261.400 6      3513.786          39.562    20952528.840    85797098.185 6      2738.015          39.500
R12  20464701.700   109318764.061 7      4669.852          47.312    20464700.860   109318764.043 7      4669.852          47.812    20464711.360    85025749.875 8      3632.107          48.312    20464711.820    85025750.873 8      3632.107          48.000
G27  21142796.940   111106148.849 8      1815.289          48.062    21142795.720   111106148.854 8      1815.289          48.000    21142802.860    86576241.127 8      1414.511          48.000    21142802.980    86576246.129 7      1414.511          47.687
G16  21020897.720   110465560.759 7       799.708          46.562    21020896.320   110465560.774 6       799.708          38.812    21020902.200    86077077.235 6       623.149          38.937
G07  24156822.840   126944958.996 7      3448.457          45.062    24156822.780   126944958.995 5      3448.457          30.625    24156830.140    98918177.177 5      2687.109          30.625    24156830.660    98918184.198 6      2687.109          41.000
G23  24034947.500   126304489.130 7       211.208          42.875    24034946.340   126304489.135 5       211.208          30.375    24034955.980    98419072.759 5       164.577          30.250    24034957.380    98419132.765 7       164.577          46.375
R11  19909690.520   106391344.890 8        36.639          49.750    19909690.580   106391344.896 8        36.639          48.875    19909700.240    82748861.134 8        28.497          51.812    19909699.960    82748862.132 8        28.497          52.062
R07  24131921.580   129180060.478 6      5702.896          40.187    24131922.820   129180060.503 6      5702.896          39.437    24131948.100   100473493.933 7      4435.586          42.375    24131948.160   100473493.937 7      4435.586          42.625
R23  22972673.860   122888317.774 7      4558.451          44.000    22972672.400   122888317.794 7      4558.451          42.937
R21  21521710.020   115167022.044 6       119.215          40.250    21521709.260   115167022.059 6       119.215          40.000    21521723.140    89574392.867 7        92.723          46.062    21521722.420    89574394.865 7        92.723          46.312
R22  20284458.180   108279819.234 8      2349.107          48.750    20284458.800   108279819.245 8      2349.107          48.312    20284467.340    84217668.031 8      1827.083          51.187    20284467.360    84217671.038 8      1827.083          51.312
G10  22273348.940   117047239.792 7      2026.674          47.250    22273347.560   117047239.795 7      2026.674          46.875    22273357.160    91205677.001 7      1579.226          46.937    22273357.220    91205677.003 8      1579.226          48.125
G08  21296599.580   111914391.592 7      3418.899          43.125    21296598.040   111914391.586 5      3418.899          34.000    21296606.300    87206042.044 5      2664.077          33.500    21296607.220    87206048.056 8      2664.077          48.937
> 2024 05 09 12 33 50.0000000  0 15
G02  22424797.520   117843108.968 7      4274.396          46.187    22424796.700   117843108.976 6      4274.396          36.812    22424802.340    91825817.287 6      3330.698          36.437
G26  23258410.920   122223761.980 7      -706.003          43.250    23258409.980   122223761.988 6      -706.003          41.000    23258427.500    95239356.212 6      -550.132          40.687    23258427.440    95239352.220 7      -550.132          45.750
G21  20951855.720   110102747.973 7      3513.164          47.750    20951854.280   110102747.983 6      3513.164          39.062    20951860.200    85794360.456 6      2737.531          39.375
R12  20463827.740   109314094.709 7      4669.003          47.437    20463826.780   109314094.694 7      4669.003          47.375    20463837.300    85022118.159 7      3631.447          47.687    20463837.840    85022119.161 7      3631.447          47.875
G27  21142451.440   111104333.839 7      1814.928          47.750    21142450.360   111104333.838 7      1814.928          47.500    21142457.460    86574826.829 7      1414.230          47.500    21142457.720    86574831.831 7      1414.230          46.625
G16  21020745.500   110464761.418 7       799.126          46.687    21020744.160   110464761.431 6       799.126          38.812    21020750.180    86076454.366 6       622.696          38.437
G07  24156166.720   126941511.014 7      3447.809          44.750    24156166.540   126941511.019 5      3447.809          30.562    24156173.980    98915490.441 5      2686.604          30.625    24156174.520    98915497.451 6      2686.604          41.000
G23  24034907.320   126304278.406 7       210.507          43.250    24034906.460   126304278.411 5       210.507          30.375    24034915.700    98418908.556 5       164.031          30.250    24034917.340    98418968.556 7       164.031          46.000
R11  19909683.800   106391308.863 8        35.652          50.437    19909683.920   106391308.864 8        35.652          49.062    19909693.520    82748833.102 8        27.729          52.125    19909693.280    82748834.100 8        27.729          48.375
R07  24130856.220   129174357.709 6      5702.773          40.187    24130857.960   129174357.732 6      5702.773          39.437    24130882.640   100469058.436 7      4435.490          42.375    24130882.540   100469058.430 7      4435.490          42.937
R23  22971821.660   122883759.550 7      4558.121          43.312    22971820.580   122883759.580 7      4558.121          42.562
R21  21521687.440   115166902.875 6       119.156          39.375    21521687.220   115166902.885 6       119.156          40.000    21521700.660    89574300.174 7        92.677          46.625    21521700.100    89574302.170 7        92.677          45.937
R22  20284018.140   108277470.462 8      2348.635          48.312    20284018.680   108277470.474 8      2348.635          48.437    20284027.300    84215841.211 8      1826.716          51.125    20284027.280    84215844.216 8      1826.716          48.437
G10  22272963.440   117045213.585 7      2025.947          47.437    22272961.900   117045213.584 7      2025.947          45.437    22272971.620    91204098.134 7      1578.660          45.375    22272971.420    91204098.134 7      1578.660          47.812
G08  21295948.980   111910972.976 7      3418.442          42.562    21295947.420   111910972.975 5      3418.442          34.250    21295955.740    87203378.192 5      2663.721          33.500    21295956.660    87203384.199 8      2663.721          48.750
> 2024 05 09 12 33 51.0000000  0 15
G02  22423984.220   117838834.782 7      4273.971          46.375    22423983.340   117838834.790 6      4273.971          36.062    22423989.020    91822486.755 6      3330.367          36.312
G26  23258545.440   122224467.942 7      -706.153          42.625    23258544.320   122224467.960 6      -706.153          40.250    23258561.800    95239906.304 6      -550.249          40.625    23258561.980    95239902.310 7      -550.249          46.687
G21  20951187.280   110099234.987 8      3512.726          48.812    20951185.880   110099235.000 6      3512.726          39.437    20951191.780    85791623.066 6      2737.189          39.625
R12  20462954.120   109309426.022 7      4668.392          47.125    20462952.760   109309426.012 7      4668.392          47.000    20462963.360    85018486.966 8      3630.972          48.375    20462963.360    85018487.966 7      3630.972          45.875
G27  21142105.840   111102518.907 7      1814.870          47.500    21142104.920   111102518.907 7      1814.870          47.625    21142112.080    86573412.594 8      1414.184          48.000    21142112.480    86573417.594 8      1414.184          48.000
G16  21020593.140   110463962.500 7       798.696          46.437    21020592.080   110463962.515 6       798.696          38.875    21020598.040    86075831.828 6       622.360          38.687
G07  24155510.720   126938063.501 7      3447.262          44.187    24155510.380   126938063.506 5      3447.262          30.562    24155517.860    98912804.064 5      2686.178          30.625    24155518.180    98912811.075 6      2686.178          41.187
G23  24034866.760   126304068.073 7       210.052          43.312    24034866.340   126304068.081 5       210.052          30.125    24034875.800    98418744.656 5       163.677          30.187    24034877.320    98418804.658 7       163.677          46.187
R11  19909677.180   106391273.498 8        35.036          49.875    19909677.300   106391273.502 8        35.036          48.812    19909686.920    82748805.596 8        27.250          51.750    19909686.640    82748806.597 8        27.250          52.187
R07  24129790.840   129168654.746 6      5703.046          40.187    24129792.560   129168654.777 6      5703.046          39.687    24129817.200   100464622.794 7      4435.702          42.250    24129817.280   100464622.792 7      4435.702          42.062
R23  22970970.380   122879201.614 7      4557.764          43.437    22970968.400   122879201.637 7      4557.764          43.062
R21  21521664.720   115166783.651 6       119.300          39.375    21521664.880   115166783.673 6       119.300          40.000    21521678.320    89574207.445 7        92.789          46.437    21521677.760    89574209.446 7        92.789          45.250
R22  20283578.120   108275121.971 7      2348.354          47.500    20283578.880   108275121.983 8      2348.354          49.562    20283587.360    84214014.607 8      1826.497          51.125    20283587.580    84214017.609 8      1826.497          51.625
G10  22272577.960   117043187.900 7      2025.446          47.437    22272576.540   117043187.900 7      2025.446          46.625    22272586.140    91202519.678 7      1578.270          46.750    22272586.000    91202519.681 7      1578.270          47.875
G08  21295298.940   111907554.397 7      3418.508          43.250    21295296.920   111907554.388 5      3418.508          34.250    21295305.160    87200714.362 5      2663.772          33.875    21295306.260    87200720.371 8      2663.772          48.750
> 2024 05 09 12 33 52.0000000  0 15
G02  22423170.880   117834561.006 7      4273.524          46.625    22423170.240   117834561.014 6      4273.524          36.312    22423175.720    91819156.546 6      3330.019          36.062
G26  23258679.960   122225174.182 7      -706.444          42.500    23258678.840   122225174.197 6      -706.444          40.687    23258696.280    95240456.604 6      -550.476          40.687    23258696.040    95240452.606 7      -550.476          46.750
G21  20950518.860   110095722.532 7      3512.155          47.875    20950517.540   110095722.545 6      3512.155          39.500    20950523.380    85788886.092 6      2736.744          39.062
R12  20462079.760   109304758.149 7      4667.451          47.437    20462078.840   109304758.137 7      4667.451          47.187    20462089.380    85014856.397 7      3630.239          47.687    20462089.960    85014857.403 8      3630.239          48.375
G27  21141760.880   111100704.181 8      1814.604          48.312    21141759.620   111100704.180 7      1814.604          47.687    21141766.720    86571998.519 7      1413.977          47.812    21141766.900    86572003.519 7      1413.977          47.812
G16  21020441.540   110463164.121 7       798.005          46.375    21020440.100   110463164.134 6       798.005          39.375    21020446.120    86075209.713 6       621.822          38.687
G07  24154854.740   126934616.542 7      3446.600          44.062    24154854.380   126934616.544 5      3446.600          30.562    24154861.880    98910118.114 5      2685.662          30.687    24154862.780    98910125.133 6      2685.662          41.187
G23  24034826.840   126303858.224 7       209.500          43.312    24034826.520   126303858.226 5       209.500          30.125    24034835.980    98418581.131 5       163.247          30.187    24034837.740    98418641.141 7       163.247          46.187
R11  19909670.940   106391238.927 8        34.137          49.812    19909671.020   106391238.936 8        34.137          49.062    19909680.380    82748778.699 8        26.551          51.875    19909680.360    82748779.700 8        26.551          51.875
R07  24128725.520   129162951.737 6      5702.926          40.937    24128726.960   129162951.760 6      5702.926          39.687    24128752.180   100460187.116 7      4435.609          42.375    24128751.780   100460187.116 7      4435.609          42.437
R23  22970117.960   122874644.012 7      4557.270          43.937    22970116.320   122874644.043 7      4557.270          43.062
R21  21521642.680   115166664.514 6       118.959          39.375    21521642.220   115166664.526 6       118.959          40.125    21521656.060    89574114.773 7        92.524          45.875    21521655.540    89574116.773 7        92.524          46.437
R22  20283138.400   108272773.849 8      2347.937          48.625    20283138.700   108272773.863 8      2347.937          48.187    20283147.460    84212188.295 8      1826.173          51.125    20283147.600    84212191.296 8      1826.173          51.312
G10  22272192.880   117041162.854 7      2024.696          47.312    22272191.100   117041162.853 7      2024.696          47.000    22272200.860    91200941.724 7      1577.685          47.000    22272200.700    91200941.720 8      1577.685          48.437
G08  21294647.920   111904135.959 7      3418.405          43.187    21294646.400   111904135.956 5      3418.405          34.000    21294654.700    87198050.646 5      2663.692          34.000    21294655.620    87198056.664 8      2663.692          48.875
> 2024 05 09 12 33 53.0000000  0 15
G02  22422357.540   117830287.662 7      4273.239          46.625    22422357.060   117830287.669 6      4273.239          36.312    22422362.620    91815826.671 6      3329.796          36.062
G26  23258814.320   122225880.656 7      -706.321          42.750    23258813.380   122225880.671 6      -706.321          41.000    23258830.820    95241007.089 6      -550.380          40.375    23258830.680    95241003.099 7      -550.380          46.562
G21  20949850.280   110092210.613 8      3511.774          48.187    20949849.220   110092210.620 6      3511.774          39.250    20949855.080    85786149.530 6      2736.447          39.625
R12  20461206.320   109300091.025 7      4666.912          46.562    20461205.200   109300091.007 7      4666.912          47.375    20461215.580    85011226.411 7      3629.820          47.562    20461216.260    85011227.415 7      3629.820          47.687
G27  21141415.400   111098889.654 8      1814.577          48.125    21141414.340   111098889.653 8      1814.577          48.000    21141421.360    86570584.604 8      1413.956          48.187    21141421.700    86570589.606 7      1413.956          47.437
G16  21020289.540   110462366.238 7       797.775          46.812    21020288.180   110462366.249 6       797.775          38.750    21020294.300    86074587.984 6       621.643          38.812
G07  24154198.700   126931170.119 7      3446.278          44.437    24154198.340   126931170.118 5      3446.278          30.562    24154205.980    98907432.588 5      2685.411          30.687    24154207.140    98907439.594 6      2685.411          41.000
G23  24034786.780   126303648.874 7       209.218          43.125    24034786.480   126303648.879 5       209.218          30.125    24034796.240    98418417.999 5       163.027          30.187    24034798.100    98418478.013 7       163.027          46.562
R11  19909664.480   106391205.126 8        33.547          50.062    19909664.620   106391205.132 8        33.547          48.437    19909674.060    82748752.405 8        26.092          52.000    19909674.000    82748753.405 8        26.092          52.125
R07  24127659.840   129157248.602 6      5703.336          40.937    24127661.900   129157248.630 6      5703.336          39.687    24127686.540   100455751.342 7      4435.928          43.000    24127686.260   100455751.340 7      4435.928          42.875
R23  22969266.340   122870086.756 7      4557.149          43.937    22969264.300   122870086.779 7      4557.149          42.812
R21  21521619.660   115166545.353 6       119.267          39.625    21521619.720   115166545.384 6       119.267          40.125    21521633.560    89574022.107 7        92.763          46.500    21521633.120    89574024.106 7        92.763          46.062
R22  20282698.260   108270426.110 7      2347.604          47.687    20282698.720   108270426.117 8      2347.604          49.000    20282707.580    84210362.275 8      1825.914          50.937    20282707.860    84210365.275 8      1825.914          51.312
G10  22271807.500   117039138.433 7      2024.255          47.875    22271805.980   117039138.432 7      2024.255          47.250    22271815.560    91199364.251 7      1577.342          46.625    22271815.540    91199364.254 8      1577.342          48.250
G08  21293997.640   111900717.708 7      3418.358          42.812    21293995.980   111900717.703 5      3418.358          34.375    21294004.240    87195387.076 5      2663.656          34.000    21294005.160    87195393.086 8      2663.656          48.812
> 2024 05 09 12 33 54.0000000  0 15
G02  22421544.400   117826014.750 7      4272.660          46.187    22421543.880   117826014.758 6      4272.660          36.187    22421549.320    91812497.131 6      3329.346          36.125
G26  23258948.720   122226587.479 7      -706.969          42.375    23258947.900   122226587.484 6      -706.969          41.562    23258965.220    95241557.842 6      -550.885          41.250    23258965.540    95241553.848 7      -550.885          46.750
G21  20949182.180   110088699.251 8      3510.997          48.187    20949181.020   110088699.258 6      3510.997          39.625    20949187.080    85783413.405 6      2735.842          39.500
R12  20460332.840   109295424.723 7      4665.816          46.312    20460331.700   109295424.705 7      4665.816          46.625    20460342.060    85007597.065 7      3628.968          47.625    20460342.360    85007598.071 7      3628.968          47.562
G27  21141070.140   111097075.350 8      1814.121          48.000    21141069.160   111097075.355 7      1814.121          47.625    21141076.060    86569170.861 7      1413.601          47.500    21141076.260    86569175.865 7      1413.601          47.500
G16  21020137.900   110461568.910 7       797.066          46.625    21020136.500   110461568.918 6       797.066          39.437    21020142.580    86073966.687 6       621.090          38.937
G07  24153543.200   126927724.276 7      3445.515          44.250    24153542.740   126927724.276 5      3445.515          30.500    24153550.260    98904747.516 5      2684.817          30.687    24153551.380    98904754.518 6      2684.817          41.000
G23  24034747.140   126303440.062 7       208.462          42.687    24034746.760   126303440.070 5       208.462          30.125    24034756.380    98418255.289 5       162.438          30.000    24034758.240    98418315.295 7       162.438          46.875
R11  19909658.360   106391172.123 8        32.545          48.937    19909658.380   106391172.129 8        32.545          48.750    19909667.900    82748726.741 8        25.313          52.000    19909667.620    82748727.739 8        25.313          51.687
R07  24126594.600   129151545.430 6      5703.363          41.000    24126597.160   129151545.450 6      5703.363          40.000    24126621.300   100451315.531 7      4435.949          42.875    24126621.000   100451315.536 7      4435.949          42.625
R23  22968414.400   122865529.853 7      4556.656          43.125    22968412.700   122865529.878 7      4556.656          43.062
R21  21521597.780   115166426.343 6       118.893          39.625    21521597.720   115166426.368 6       118.893          40.375    21521611.480    89573929.531 7        92.473          46.625    21521611.000    89573931.531 7        92.473          46.062
R22  20282258.320   108268078.759 8      2347.067          48.625    20282259.060   108268078.771 7      2347.067          47.687    20282267.760    84208536.559 8      1825.496          51.437    20282268.040    84208539.558 8      1825.496          51.000
G10  22271422.320   117037114.669 7      2023.399          47.250    22271420.880   117037114.671 7      2023.399          46.562    22271430.480    91197787.296 7      1576.675          46.375    22271430.600    91197787.295 7      1576.675          47.875
G08  21293347.180   111897299.663 7      3417.834          42.812    21293345.400   111897299.660 5      3417.834          34.375    21293353.840    87192723.666 5      2663.247          33.812    21293354.840    87192729.675 8      2663.247          48.187
> 2024 05 09 12 33 55.0000000  0 15
G02  22420731.540   117821742.309 7      4272.250          46.000    22420730.580   117821742.317 6      4272.250          36.250    22420736.440    91809167.961 6      3329.026          36.125
G26  23259083.500   122227294.581 7      -707.235          42.750    23259082.460   122227294.588 6      -707.235          40.875    23259099.600    95242108.816 6      -551.092          40.687    23259099.760    95242104.824 7      -551.092          46.812
G21  20948514.100   110085188.448 8      3510.561          48.312    20948513.020   110085188.458 6      3510.561          39.687    20948518.840    85780677.717 6      2735.502          39.500
R12  20459459.340   109290759.206 7      4665.162          47.000    20459458.140   109290759.194 7      4665.162          47.250    20459468.640    85003968.334 7      3628.459          47.750    20459469.200    85003969.340 8      3628.459          48.000
G27  21140724.960   111095261.288 8      1813.947          48.187    21140723.840   111095261.290 7      1813.947          47.937    21140730.900    86567757.304 8      1413.465          48.187    21140731.160    86567762.309 7      1413.465          47.937
G16  21019986.480   110460772.150 7       796.533          46.500    21019984.920   110460772.155 6       796.533          38.937    21019990.940    86073345.831 6       620.675          38.375
G07  24152887.400   126924279.038 7      3444.988          44.187    24152886.900   126924279.038 5      3444.988          30.500    24152894.740    98902062.913 5      2684.407          30.687    24152895.740    98902069.911 6      2684.407          40.812
G23  24034707.620   126303231.792 6       207.968          41.812    24034706.960   126303231.794 5       207.968          30.187    24034716.700    98418092.996 5       162.053          30.000    24034718.660    98418152.998 7       162.053          46.562
R11  19909652.400   106391139.946 8        31.860          50.312    19909652.300   106391139.950 8        31.860          48.937    19909661.880    82748701.710 8        24.780          51.687    19909661.420    82748702.706 8        24.780          52.312
R07  24125528.940   129145842.201 6      5703.359          41.000    24125531.340   129145842.235 6      5703.359          40.000    24125556.080   100446879.695 7      4435.946          42.875    24125555.620   100446879.691 7      4435.946          42.562
R23  22967562.500   122860973.342 7      4556.385          43.812    22967560.520   122860973.363 7      4556.385          43.062
R21  21521575.440   115166307.418 6       118.863          39.625    21521575.660   115166307.449 6       118.863          40.375    21521589.260    89573837.034 7        92.449          46.500    21521588.960    89573839.030 7        92.449          46.125
R22  20281819.060   108265731.827 8      2346.781          48.000    20281819.200   108265731.836 8      2346.781          48.625    20281828.160    84206711.163 8      1825.274          51.125    20281828.120    84206714.162 8      1825.274          51.500
G10  22271037.360   117035091.585 8      2022.823          48.062    22271035.920   117035091.590 7      2022.823          46.937    22271045.540    91196210.868 7      1576.226          46.687    22271045.820    91196210.868 8      1576.226          48.187
G08  21292696.680   111893881.772 7      3417.858          43.250    21292694.980   111893881.769 5      3417.858          34.125    21292703.560    87190060.374 5      2663.266          33.812    21292704.300    87190066.384 8      2663.266          48.187
> 2024 05 09 12 33 56.0000000  0 15
G02  22419918.560   117817470.396 7      4271.332          46.625    22419917.660   117817470.401 6      4271.332          36.375    22419923.400    91805839.199 6      3328.311          36.250
G26  23259218.260   122228002.051 7      -708.054          42.437    23259217.180   122228002.066 6      -708.054          41.375    23259234.360    95242660.081 6      -551.730          40.875    23259234.700    95242656.085 7      -551.730          46.375
G21  20947846.420   110081678.289 8      3509.499          48.500    20947845.140   110081678.302 6      3509.499          39.125    20947850.940    85777942.528 6      2734.674          39.562
R12  20458585.940   109286094.558 7      4663.876          47.500    20458584.840   109286094.548 7      4663.876          47.250    20458595.440    85000340.278 7      3627.459          47.500    20458595.980    85000341.284 7      3627.459          47.500
G27  21140379.760   111093447.510 8      1813.345          48.062    21140378.720   111093447.515 7      1813.345          47.937    21140385.740    86566343.971 7      1412.996          47.937    21140386.080    86566348.971 7      1412.996          47.937
G16  21019834.680   110459976.012 7       795.478          46.562    21019833.300   110459976.017 6       795.478          39.062    21019839.580    86072725.460 6       619.853          38.812
G07  24152232.100   126920834.407 7      3444.072          43.500    24152231.300   126920834.407 5      3444.072          30.500    24152239.200    98899378.784 5      2683.693          30.250    24152240.100    98899385.793 6      2683.693          40.812
G23  24034668.440   126303024.092 7       207.115          42.437    24034667.340   126303024.097 5       207.115          30.187    24034677.260    98417931.152 5       161.388          30.000    24034679.140    98417991.154 7       161.388          46.125
R11  19909646.440   106391108.653 8        30.473          49.812    19909646.640   106391108.660 8        30.473          49.250    19909656.000    82748677.365 8        23.701          52.062    19909655.700    82748678.369 8        23.701          52.187
R07  24124463.260   129140138.978 6      5702.882          41.000    24124466.040   129140139.012 6      5702.882          40.000    24124490.780   100442443.853 7      4435.575          43.000    24124490.420   100442443.849 7      4435.575          42.812
R23  22966711.100   122856417.292 7      4555.475          43.562    22966708.820   122856417.310 7      4555.475          42.687
R21  21521552.760   115166188.621 6       118.378          39.812    21521552.340   115166188.665 6       118.378          40.375    21521567.040    89573744.643 7        92.071          46.562    21521566.380    89573746.641 7        92.071          46.125
R22  20281379.480   108263385.383 7      2345.855          47.875    20281379.520   108263385.392 8      2345.855          49.125    20281388.460    84204886.149 8      1824.554          51.187    20281388.640    84204889.148 8      1824.554          50.812
G10  22270652.420   117033069.237 7      2021.656          47.812    22270651.040   117033069.237 7      2021.656          46.750    22270660.760    91194635.008 7      1575.317          46.812    22270660.900    91194635.006 8      1575.317          48.250
G08  21292046.580   111890464.175 7      3417.170          42.875    21292044.600   111890464.172 5      3417.170          34.125    21292053.220    87187397.316 5      2662.730          33.875    21292054.020    87187403.321 8      2662.730          48.437
> 2024 05 09 12 33 57.0000000  0 15
G02  22419105.680   117813199.051 7      4271.229          45.687    22419104.900   117813199.056 6      4271.229          36.000    22419110.540    91802510.876 6      3328.230          36.000
G26  23259352.900   122228709.925 6      -707.997          41.812    23259351.820   122228709.940 6      -707.997          40.937    23259369.240    95243211.659 6      -551.686          40.625    23259369.300    95243207.669 7      -551.686          46.437
G21  20947178.720   110078168.806 8      3509.271          48.000    20947177.260   110078168.821 6      3509.271          39.375    20947183.120    85775207.868 6      2734.497          39.000
R12  20457713.020   109281430.831 7      4663.401          47.312    20457711.720   109281430.824 7      4663.401          47.562    20457722.380    84996712.939 8      3627.090          48.062    20457723.080    84996713.949 7      3627.090          47.687
G27  21140034.680   111091634.105 7      1813.401          47.875    21140033.600   111091634.107 7      1813.401          47.812    21140040.740    86564930.924 7      1413.039          47.500    21140040.820    86564935.926 7      1413.039          47.750
G16  21019683.320   110459180.528 7       795.299          46.000    21019682.000   110459180.536 6       795.299          39.187    21019688.260    86072105.602 6       619.713          38.812
G07  24151576.420   126917390.520 7      3443.723          43.500    24151576.000   126917390.522 5      3443.723          30.250    24151583.760    98896695.234 5      2683.421          30.250    24151584.520    98896702.234 6      2683.421          41.000
G23  24034628.820   126302817.059 6       206.927          41.687    24034627.900   126302817.064 5       206.927          30.187    24034637.940    98417769.828 5       161.242          30.000    24034639.680    98417829.830 7       161.242          46.312
R11  19909640.640   106391078.269 8        30.070          50.187    19909640.760   106391078.273 8        30.070          48.937    19909650.340    82748653.733 8        23.388          51.500    19909650.220    82748654.733 8        23.388          51.812
R07  24123397.960   129134435.865 6      5703.195          41.687    24123401.020   129134435.888 6      5703.195          39.875    24123425.220   100438008.090 7      4435.818          43.187    24123425.320   100438008.088 7      4435.818          43.312
R23  22965859.640   122851861.724 7      4555.457          43.562    22965857.060   122851861.749 7      4555.457          43.062
R21  21521530.720   115166070.089 6       118.690          39.812    21521530.740   115166070.117 6       118.690          40.125    21521544.920    89573652.439 7        92.314          46.062    21521544.040    89573654.437 7        92.314          46.125
R22  20280939.940   108261039.460 7      2345.833          47.750    20280939.900   108261039.463 8      2345.833          48.250    20280949.080    84203061.540 8      1824.537          51.187    20280949.200    84203064.539 8      1824.537          50.937
G10  22270267.680   117031047.664 7      2021.251          47.000    22270266.420   117031047.664 7      2021.251          47.187    22270276.040    91193059.759 7      1575.001          47.062    22270276.200    91193059.755 8      1575.001          48.187
G08  21291396.400   111887046.857 7      3417.412          43.062    21291394.380   111887046.854 5      3417.412          34.125    21291402.940    87184734.469 5      2662.919          33.875    21291403.440    87184740.476 8      2662.919          48.562
> 2024 05 09 12 33 58.0000000  0 15
G02  22418293.040   117808927.992 7      4270.865          45.125    22418292.140   117808928.002 6      4270.865          36.437    22418297.740    91799182.784 5      3327.946          35.875
G26  23259487.560   122229417.949 7      -708.121          42.187    23259486.740   122229417.954 6      -708.121          41.125    23259504.020    95243763.342 6      -551.783          41.000    23259504.240    95243759.345 7      -551.783          46.625
G21  20946510.840   110074659.740 7      3508.791          47.187    20946509.500   110074659.748 6      3508.791          39.937    20946515.320    85772473.529 6      2734.123          39.687
R12  20456840.100   109276767.776 7      4662.613          47.312    20456838.840   109276767.767 7      4662.613          47.562    20456849.340    84993086.115 7      3626.477          47.562    20456849.780    84993087.123 7      3626.477          47.625
G27  21139689.680   111089820.771 8      1813.191          48.375    21139688.600   111089820.768 8      1813.191          48.062    21139695.620    86563517.932 8      1412.876          48.000    21139695.500    86563522.934 8      1412.876          48.187
G16  21019532.080   110458385.444 7       794.881          45.937    21019530.740   110458385.451 6       794.881          39.500    21019536.860    86071486.054 6       619.388          38.812
G07  24150921.160   126913947.053 7      3443.141          43.750    24150920.680   126913947.052 5      3443.141          30.250    24150928.540    98894012.011 5      2682.967          30.250    24150928.980    98894019.021 6      2682.967          41.000
G23  24034589.380   126302610.416 7       206.359          42.312    24034588.460   126302610.420 5       206.359          30.125    24034598.700    98417608.797 5       160.799          30.125    24034600.060    98417668.801 7       160.799          46.375
R11  19909635.260   106391048.539 8        29.343          49.562    19909635.440   106391048.540 8        29.343          48.812    19909644.820    82748630.599 8        22.822          51.875    19909644.380    82748631.599 8        22.822          52.000
R07  24122332.560   129128732.543 6      5703.375          41.687    24122335.160   129128732.576 6      5703.375          39.875    24122359.700   100433572.179 7      4435.958          42.937    24122360.040   100433572.179 7      4435.958          42.937
R23  22965008.020   122847306.388 7      4555.116          43.687    22965005.620   122847306.421 7      4555.116          43.062
R21  21521508.360   115165951.480 6       118.504          39.812    21521508.660   115165951.503 6       118.504          40.125    21521522.740    89573560.174 7        92.170          46.000    21521522.020    89573562.177 7        92.170          45.875
R22  20280500.780   108258693.779 8      2345.499          48.000    20280500.480   108258693.788 8      2345.499          48.937    20280509.600    84201237.124 8      1824.277          50.812    20280509.680    84201240.122 8      1824.277          51.000
G10  22269883.160   117029026.594 7      2020.727          47.187    22269881.860   117029026.596 7      2020.727          47.250    22269891.540    91191484.896 7      1574.593          47.125    22269891.760    91191484.888 8      1574.593          48.625
G08  21290746.000   111883629.605 7      3417.252          43.187    21290744.120   111883629.604 5      3417.252          34.125    21290752.760    87182071.671 5      2662.794          33.875    21290753.460    87182077.678 8      2662.794          48.687
> 2024 05 09 12 33 59.0000000  0 15
G02  22417480.400   117804657.372 7      4270.359          45.312    22417479.220   117804657.379 6      4270.359          36.437    22417485.200    91795855.033 5      3327.553          35.875
G26  23259622.640   122230126.228 7      -708.363          42.437    23259621.600   122230126.238 6      -708.363          40.875    23259638.720    95244315.233 6      -551.971          41.187    23259639.040    95244311.239 7      -551.971          46.687
G21  20945843.080   110071151.211 7      3508.165          47.750    20945841.940   110071151.221 6      3508.165          39.562    20945847.600    85769739.606 6      2733.635          39.812
R12  20455967.100   109272105.486 7      4661.782          46.437    20455965.860   109272105.482 7      4661.782          47.625    20455976.520    84989459.896 7      3625.830          47.875    20455977.220    84989460.906 7      3625.830          47.875
G27  21139344.660   111088007.621 7      1813.030          47.937    21139343.420   111088007.626 7      1813.030          47.312    21139350.580    86562105.090 7      1412.751          47.250    21139350.680    86562110.096 7      1412.751          47.812
G16  21019380.920   110457590.901 7       794.241          46.812    21019379.320   110457590.908 6       794.241          39.000    21019385.700    86070866.925 6       618.889          38.937
G07  24150265.900   126910504.122 7      3442.657          44.125    24150265.460   126910504.121 5      3442.657          30.250    24150273.440    98891329.201 5      2682.590          30.437    24150273.820    98891336.209 6      2682.590          40.937
G23  24034549.900   126302404.266 7       205.842          42.937    24034549.080   126302404.263 5       205.842          30.125    24034559.400    98417448.156 5       160.396          30.125    24034560.900    98417508.158 7       160.396          46.437
R11  19909629.620   106391019.587 8        28.525          49.875    19909629.920   106391019.588 8        28.525          49.062    19909639.260    82748608.073 8        22.186          51.562    19909639.200    82748609.071 8        22.186          52.062
R07  24121266.880   129123029.199 6      5703.300          41.000    24121270.260   129123029.238 6      5703.300          39.875    24121294.540   100429136.236 7      4435.900          42.687    24121294.320   100429136.241 7      4435.900          43.500
R23  22964156.300   122842751.421 7      4554.685          43.250    22964153.540   122842751.449 7      4554.685          42.875
R21  21521486.240   115165832.865 6       118.490          39.812    21521486.380   115165832.896 6       118.490          40.125    21521500.520    89573467.923 7        92.159          46.000    21521499.980    89573469.921 7        92.159          45.562
R22  20280061.380   108256348.499 7      2345.028          47.437    20280061.120   108256348.508 8      2345.028          48.000    20280070.320    84199413.015 8      1823.911          51.062    20280070.560    84199416.012 8      1823.911          51.062
G10  22269498.840   117027006.169 7      2020.013          46.500    22269497.340   117027006.169 7      2020.013          46.687    22269506.960    91189910.537 7      1574.036          47.000    22269507.340    91189910.531 8      1574.036          48.562
G08  21290095.740   111880212.505 7      3417.056          43.312    21290093.920   111880212.504 5      3417.056          33.937    21290102.400    87179409.000 5      2662.641          33.625    21290103.080    87179415.011 8      2662.641          48.437
> 2024 05 09 12 34  0.0000000  0 15
G02  22416667.860   117800387.188 7      4269.849          45.687    22416666.540   117800387.195 5      4269.849          35.875    22416672.660    91792527.619 5      3327.155          35.875
G26  23259757.240   122230834.819 7      -708.840          42.687    23259756.540   122230834.832 6      -708.840          41.250    23259773.620    95244867.370 6      -552.343          40.562    23259773.620    95244863.372 7      -552.343          46.500
G21  20945175.720   110067643.241 8      3507.515          48.812    20945174.220   110067643.251 6      3507.515          39.562    20945180.080    85767006.125 6      2733.128          39.437
R12  20455094.560   109267444.011 7      4660.882          47.187    20455093.460   109267443.996 7      4660.882          47.500    20455103.860    84985834.301 7      3625.130          47.687    20455104.340    84985835.308 7      3625.130          47.562
G27  21138999.660   111086194.725 7      1812.615          47.750    21138998.460   111086194.728 7      1812.615          47.937    21139005.640    86560692.442 7      1412.427          47.625    21139005.560    86560697.448 7      1412.427          47.875
G16  21019230.160   110456796.897 7       793.545          46.375    21019228.320   110456796.909 6       793.545          39.187    21019234.580    86070248.219 6       618.347          38.750
G07  24149610.860   126907061.782 7      3441.940          44.000    24149610.320   126907061.784 5      3441.940          30.250    24149618.260    98888646.858 5      2682.031          30.437    24149619.100    98888653.867 6      2682.031          40.937
G23  24034511.220   126302198.626 7       205.351          42.750    24034509.960   126302198.625 5       205.351          30.125    24034520.420    98417287.915 5       160.014          30.125    24034521.700    98417347.923 7       160.014          46.312
R11  19909624.520   106390991.420 8        27.589          49.625    19909624.600   106390991.422 8        27.589          49.562    19909634.080    82748586.165 8        21.458          51.750    19909633.740    82748587.163 8        21.458          51.937
R07  24120201.280   129117325.783 6      5703.216          41.000    24120204.720   129117325.830 6      5703.216          40.250    24120228.860   100424700.253 7      4435.835          43.000    24120229.000   100424700.249 7      4435.835          42.937
R23  22963304.720   122838196.828 7      4554.259          42.875    22963302.320   122838196.851 7      4554.259          43.375
R21  21521464.640   115165714.365 6       118.437          38.500    21521464.080   115165714.378 6       118.437          39.687    21521478.200    89573375.738 7        92.117          46.187    21521477.920    89573377.736 7        92.117          45.875
R22  20279622.080   108254003.603 7      2344.593          46.875    20279621.860   108254003.609 8      2344.593          48.437    20279631.060    84197589.205 8      1823.572          50.812    20279631.060    84197592.206 8      1823.572          51.187
G10  22269114.340   117024986.396 7      2019.235          46.125    22269113.060   117024986.398 7      2019.235          46.937    22269122.680    91188336.692 7      1573.430          47.062    22269122.740    91188336.687 8      1573.430          48.375
G08  21289445.720   111876795.626 7      3416.523          43.500    21289443.820   111876795.615 5      3416.523          33.937    21289452.120    87176746.490 5      2662.226          33.625    21289453.100    87176752.497 8      2662.226          48.687
> 2024 05 09 12 34  1.0000000  0 15
G02  22415855.540   117796117.655 7      4269.251          45.812    22415854.040   117796117.665 6      4269.251          36.125    22415860.220    91789200.714 6      3326.689          36.062
G26  23259892.240   122231543.923 7      -709.478          42.562    23259891.520   122231543.934 6      -709.478          41.500    23259908.580    95245419.900 6      -552.840          40.875    23259908.900    95245415.906 7      -552.840          46.437
G21  20944508.460   110064136.030 8      3506.751          48.750    20944506.720   110064136.040 6      3506.751          39.500    20944512.740    85764273.235 6      2732.533          39.687
R12  20454221.860   109262783.526 7      4659.883          47.500    20454221.180   109262783.516 7      4659.883          47.875    20454231.200    84982209.482 7      3624.353          47.562    20454232.020    84982210.490 7      3624.353          47.375
G27  21138654.700   111084382.243 7      1812.247          47.875    21138653.620   111084382.245 7      1812.247          47.750    21138660.640    86559280.118 7      1412.140          47.687    21138660.820    86559285.118 8      1412.140          48.062
G16  21019079.040   110456003.649 7       792.754          46.687    21019077.380   110456003.657 6       792.754          39.437    21019083.600    86069630.098 6       617.730          38.750
G07  24148956.060   126903620.235 7      3441.181          44.125    24148955.480   126903620.238 5      3441.181          30.312    24148963.440    98885965.130 5      2681.440          30.437    24148964.100    98885972.140 6      2681.440          40.937
G23  24034472.020   126301993.761 7       204.344          42.000    24034470.760   126301993.766 5       204.344          30.125    24034481.540    98417128.276 5       159.229          30.125    24034483.180    98417188.286 7       159.229          46.687
R11  19909619.180   106390964.288 8        26.563          50.250    19909619.440   106390964.294 8        26.563          49.125    19909628.960    82748565.064 8        20.660          51.125    19909628.840    82748566.064 8        20.660          52.187
R07  24119135.860   129111622.512 6      5703.227          41.000    24119138.260   129111622.551 6      5703.227          40.250    24119163.400   100420264.371 7      4435.843          42.937    24119163.600   100420264.375 7      4435.843          43.562
R23  22962453.060   122833642.827 7      4553.670          42.875    22962451.260   122833642.853 7      4553.670          43.375
R21  21521442.540   115165596.195 6       117.848          38.500    21521441.940   115165596.218 6       117.848          39.687    21521455.620    89573283.831 7        91.660          46.000    21521455.660    89573285.829 7        91.660          45.375
R22  20279183.100   108251659.348 7      2343.816          46.500    20279182.740   108251659.354 8      2343.816          48.375    20279191.840    84195765.898 8      1822.968          50.937    20279191.880    84195768.896 8      1822.968          51.312
G10  22268730.200   117022967.496 7      2018.392          46.875    22268728.880   117022967.498 7      2018.392          47.125    22268738.500    91186763.523 7      1572.773          46.812    22268738.380    91186763.517 8      1572.773          48.562
G08  21288795.580   111873379.104 7      3416.193          43.000    21288793.540   111873379.101 5      3416.193          34.062    21288801.980    87174084.273 5      2661.969          33.937    21288802.980    87174090.283 8      2661.969          48.562
> 2024 05 09 12 34  2.0000000  0 15
G02  22415043.020   117791848.567 7      4269.004          45.687    22415041.680   117791848.580 6      4269.004          36.062    22415047.860    91785874.154 6      3326.496          36.125
G26  23260027.200   122232253.272 7      -709.346          42.875    23260026.540   122232253.277 6      -709.346          41.125    23260043.600    95245972.623 6      -552.737          40.812    23260043.560    95245968.626 7      -552.737          46.437
G21  20943840.860   110060629.353 8      3506.552          48.750    20943839.460   110060629.363 6      3506.552          39.500    20943845.480    85761540.762 6      2732.378          39.375
R12  20453349.600   109258123.819 7      4659.394          46.875    20453348.940   109258123.809 7      4659.394          47.437    20453358.820    84978585.265 7      3623.973          47.937    20453359.560    84978586.271 7      3623.973          47.500
G27  21138309.820   111082569.978 7      1812.308          47.562    21138308.740   111082569.983 7      1812.308          47.750    21138315.860    86557867.962 7      1412.188          47.750    21138316.220    86557872.964 8      1412.188          48.250
G16  21018928.040   110455210.916 7       792.558          47.000    21018926.480   110455210.924 6       792.558          39.375    21018932.880    86069012.384 6       617.578          39.187
G07  24148301.100   126900179.249 7      3440.829          43.937    24148300.520   126900179.254 5      3440.829          30.312    24148308.660    98883283.841 5      2681.166          30.437    24148308.900    98883290.848 6      2681.166          40.687
G23  24034433.320   126301789.366 6       204.249          41.562    24034431.980   126301789.371 4       204.249          29.812    24034442.620    98416969.008 4       159.155          29.937    24034444.040    98417029.014 7       159.155          46.750
R11  19909614.260   106390937.951 8        26.056          50.000    19909614.760   106390937.955 8        26.056          48.437    19909624.080    82748544.574 8        20.266          51.937    19909623.940    82748545.572 8        20.266          52.125
R07  24118070.760   129105919.144 6      5703.615          40.687    24118073.220   129105919.199 6      5703.615          40.250    24118098.040   100415828.422 7      4436.145          43.437    24118098.240   100415828.422 7      4436.145          43.437
R23  22961601.420   122829089.206 7      4553.508          43.750    22961599.820   122829089.231 7      4553.508          43.000
R21  21521421.200   115165478.059 6       118.340          38.500    21521420.040   115165478.068 6       118.340          39.687    21521433.940    89573191.935 7        92.042          45.812    21521433.540    89573193.929 7        92.042          45.187
R22  20278743.980   108249315.453 8      2343.822          48.312    20278743.600   108249315.457 8      2343.822          48.437    20278752.740    84193942.864 8      1822.973          51.375    20278752.960    84193945.865 8      1822.973          51.437
G10  22268346.100   117020949.228 7      2018.087          47.187    22268344.780   117020949.231 7      2018.087          46.625    22268354.520    91185190.845 7      1572.535          46.812    22268354.520    91185190.839 8      1572.535          48.000
G08  21288145.360   111869962.747 7      3416.421          43.250    21288143.340   111869962.747 5      3416.421          33.937    21288151.820    87171422.182 5      2662.146          33.937    21288152.640    87171428.185 8      2662.146          48.062
> 2024 05 09 12 34  3.0000000  0 15
G02  22414230.640   117787579.928 7      4268.326          46.000    22414229.520   117787579.935 6      4268.326          36.187    22414235.580    91782547.942 6      3325.968          36.062
G26  23260162.180   122232962.914 7      -709.855          43.250    23260161.540   122232962.924 6      -709.855          41.187    23260178.540    95246525.579 6      -553.134          40.812    23260178.880    95246521.582 7      -553.134          46.437
G21  20943173.860   110057123.248 8      3505.765          48.625    20943172.340   110057123.256 6      3505.765          39.812    20943178.180    85758808.730 6      2731.765          39.437
R12  20452477.560   109253464.891 7      4658.442          47.500    20452477.000   109253464.892 7      4658.442          47.812    20452486.600    84974961.661 7      3623.233          47.812    20452487.360    84974962.669 7      3623.233          47.000
G27  21137965.040   111080757.939 7      1811.878          47.687    21137963.920   111080757.942 7      1811.878          47.625    21137971.040    86556455.981 7      1411.853          47.562    21137971.320    86556460.986 7      1411.853          47.875
G16  21018777.500   110454418.736 7       791.886          46.437    21018775.740   110454418.743 6       791.886          39.562    21018781.980    86068395.096 6       617.054          39.250
G07  24147646.620   126896738.829 7      3440.180          44.062    24147645.680   126896738.834 5      3440.180          30.312    24147654.060    98880602.991 5      2680.660          30.312    24147653.960    98880609.998 6      2680.660          40.687
G23  24034394.660   126301585.508 7       203.481          42.375    24034393.100   126301585.515 4       203.481          29.812    24034403.860    98416810.153 4       158.556          29.937    24034405.280    98416870.157 7       158.556          46.375
R11  19909609.620   106390912.417 8        24.996          50.375    19909609.980   106390912.418 8        24.996          49.125    19909619.280    82748524.709 8        19.441          51.625    19909619.120    82748525.710 8        19.441          50.437
R07  24117005.760   129100215.771 6      5703.241          40.687    24117007.880   129100215.813 6      5703.241          39.875    24117032.980   100411392.455 7      4435.854          43.437    24117032.980   100411392.457 7      4435.854          43.750
R23  22960750.660   122824535.953 7      4553.021          43.875    22960748.380   122824535.960 7      4553.021          43.500
R21  21521398.880   115165359.998 6       118.148          38.500    21521397.080   115165360.021 6       118.148          39.687    21521411.760    89573100.116 7        91.893          45.375    21521411.300    89573102.112 7        91.893          45.625
R22  20278304.980   108246971.964 8      2343.264          48.437    20278304.660   108246971.967 8      2343.264          48.687    20278313.740    84192120.154 8      1822.539          51.375    20278313.660    84192123.155 8      1822.539          50.000
G10  22267962.120   117018931.623 7      2017.236          46.562    22267960.940   117018931.625 7      2017.236          46.625    22267970.440    91183618.683 7      1571.872          46.187    22267970.720    91183618.677 8      1571.872          48.687
G08  21287495.220   111866546.585 7      3416.034          43.062    21287493.180   111866546.588 5      3416.034          33.937    21287501.600    87168760.241 5      2661.844          33.687    21287502.500    87168766.245 8      2661.844          48.500
> 2024 05 09 12 34  4.0000000  0 15
G02  22413418.340   117783311.575 7      4268.125          45.187    22413417.120   117783311.583 6      4268.125          36.125    22413423.280    91779221.961 5      3325.812          35.812
G26  23260296.840   122233672.725 7      -709.910          43.375    23260296.700   122233672.730 6      -709.910          41.125    23260313.640    95247078.659 6      -553.176          40.812    23260314.080    95247074.659 7      -553.176          46.562
G21  20942506.700   110053617.556 8      3505.478          48.125    20942505.320   110053617.561 6      3505.478          39.750    20942510.960    85756077.024 6      2731.541          39.500
R12  20451605.560   109248806.642 7      4657.960          46.937    20451605.140   109248806.640 7      4657.960          47.312    20451614.660    84971338.581 7      3622.857          47.375    20451615.240    84971339.583 7      3622.857          47.250
G27  21137620.420   111078945.995 7      1811.866          47.187    21137619.020   111078945.995 7      1811.866          47.875    21137626.260    86555044.071 8      1411.843          48.187    21137626.320    86555049.075 7      1411.843          47.937
G16  21018626.680   110453626.962 7       791.632          47.000    21018625.060   110453626.969 6       791.632          39.562    21018631.380    86067778.125 6       616.856          39.562
G07  24146992.160   126893298.886 7      3439.585          44.062    24146991.040   126893298.891 5      3439.585          30.125    24146999.380    98877922.511 5      2680.196          30.312    24146999.460    98877929.516 6      2680.196          40.500
G23  24034355.840   126301382.035 7       203.318          42.312    24034354.420   126301382.043 4       203.318          29.812    24034365.040    98416651.597 4       158.430          29.937    24034366.720    98416711.590 7       158.430          46.687
R11  19909605.040   106390887.515 8        24.564          49.625    19909605.360   106390887.516 8        24.564          48.937    19909614.700    82748505.331 8        19.105          51.812    19909614.440    82748506.331 8        19.105          52.125
R07  24115940.720   129094512.120 6      5703.763          40.687    24115942.540   129094512.167 6      5703.763          39.875    24115967.180   100406956.286 7      4436.260          43.125    24115967.560   100406956.282 7      4436.260          43.125
R23  22959899.800   122819982.915 7      4552.958          43.437    22959897.120   122819982.927 7      4552.958          43.125
R21  21521376.740   115165241.937 6       117.976          38.812    21521375.120   115165241.968 6       117.976          39.875    21521389.600    89573008.289 7        91.759          45.750    21521389.120    89573010.285 7        91.759          45.562
R22  20277865.800   108244628.744 7      2343.054          47.562    20277865.880   108244628.748 8      2343.054          48.562    20277874.760    84190297.652 8      1822.375          51.000    20277874.800    84190300.653 8      1822.375          50.812
G10  22267578.300   117016914.528 7      2016.879          46.750    22267577.060   117016914.530 7      2016.879          47.250    22267586.620    91182046.923 7      1571.594          46.875    22267586.840    91182046.917 8      1571.594          48.687
G08  21286845.020   111863130.489 7      3416.045          42.812    21286843.080   111863130.486 5      3416.045          34.062    21286851.660    87166098.346 5      2661.853          33.687    21286852.100    87166104.353 8      2661.853          49.187
> 2024 05 09 12 34  5.0000000  0 15
G02  22412606.100   117779043.653 7      4267.532          44.687    22412604.840   117779043.666 6      4267.532          36.125    22412611.160    91775896.310 5      3325.349          35.812
G26  23260432.080   122234382.793 7      -710.391          42.937    23260431.940   122234382.801 6      -710.391          41.062    23260448.940    95247631.947 6      -553.551          41.000    23260449.100    95247627.945 7      -553.551          46.562
G21  20941839.660   110050112.395 7      3504.719          47.937    20941838.320   110050112.402 6      3504.719          40.000    20941844.060    85753345.730 6      2730.950          39.625
R12  20450733.620   109244149.181 7      4656.941          47.625    20450733.400   109244149.179 7      4656.941          47.312    20450742.680    84967716.107 7      3622.065          47.125    20450743.460    84967717.111 7      3622.065          47.437
G27  21137275.680   111077134.227 7      1811.533          47.562    21137274.300   111077134.235 7      1811.533          47.937    21137281.440    86553632.308 7      1411.584          47.812    21137281.880    86553637.314 7      1411.584          47.937
G16  21018476.040   110452835.724 7       790.800          47.000    21018474.580   110452835.729 6       790.800          39.375    21018480.880    86067161.573 6       616.208          39.125
G07  24146337.640   126889859.455 7      3438.993          44.062    24146336.580   126889859.457 5      3438.993          30.125    24146344.800    98875242.433 5      2679.735          30.312    24146345.060    98875249.436 6      2679.735          40.500
G23  24034317.060   126301179.070 7       202.512          43.437    24034315.700   126301179.078 4       202.512          29.812    24034326.460    98416493.438 4       157.802          29.875    24034328.120    98416553.440 7       157.802          46.500
R11  19909600.180   106390863.388 8        23.543          49.750    19909600.640   106390863.392 8        23.543          48.750    19909610.120    82748486.564 8        18.311          51.937    19909610.020    82748487.566 8        18.311          51.687
R07  24114875.460   129088808.420 6      5703.727          40.062    24114877.760   129088808.443 6      5703.727          39.875    24114901.780   100402520.050 7      4436.232          43.187    24114902.380   100402520.048 7      4436.232          43.687
R23  22959048.960   122815430.235 7      4552.349          43.437    22959046.000   122815430.252 7      4552.349          43.125
R21  21521354.240   115165123.879 6       117.791          38.812    21521352.920   115165123.913 6       117.791          39.875    21521367.280    89572916.464 7        91.616          45.562    21521367.200    89572918.456 7        91.616          45.375
R22  20277426.820   108242285.887 7      2342.544          47.875    20277427.240   108242285.894 8      2342.544          48.687    20277435.940    84188475.426 8      1821.979          51.000    20277435.920    84188478.429 8      1821.979          51.687
G10  22267194.820   117014898.081 7      2015.942          47.125    22267193.380   117014898.083 7      2015.942          47.000    22267202.940    91180475.666 7      1570.864          46.562    22267203.340    91180475.656 8      1570.864          48.437
G08  21286195.000   111859714.553 7      3415.622          43.250    21286193.100   111859714.550 5      3415.622          34.062    21286201.560    87163436.578 5      2661.524          33.937    21286202.120    87163442.581 8      2661.524          48.250
> 2024 05 09 12 34  6.0000000  0 15
G02  22411794.000   117774776.126 7      4267.302          45.250    22411792.660   117774776.131 6      4267.302          36.187    22411799.060    91772570.961 5      3325.170          35.875
G26  23260567.500   122235093.093 7      -710.509          42.125    23260567.200   122235093.103 6      -710.509          41.187    23260584.000    95248185.415 6      -553.643          40.875    23260583.960    95248181.417 7      -553.643          46.750
G21  20941172.860   110046607.743 8      3504.328          48.750    20941171.180   110046607.751 6      3504.328          39.437    20941177.060    85750614.832 6      2730.645          39.687
R12  20449861.880   109239492.473 7      4656.189          47.875    20449861.520   109239492.477 7      4656.189          47.687    20449870.820    84964094.227 7      3621.480          47.437    20449871.640    84964095.231 7      3621.480          47.125
G27  21136930.960   111075322.656 7      1811.421          47.500    21136929.560   111075322.658 7      1811.421          47.750    21136936.860    86552220.688 8      1411.497          48.062    21136937.100    86552225.694 8      1411.497          48.250
G16  21018325.780   110452044.962 7       790.463          46.250    21018324.200   110452044.973 6       790.463          39.500    21018330.320    86066545.397 6       615.946          39.125
G07  24145683.260   126886420.559 7      3438.563          44.312    24145682.180   126886420.562 5      3438.563          30.125    24145690.300    98872562.772 5      2679.400          30.312    24145690.500    98872569.781 6      2679.400          40.312
G23  24034278.100   126300976.565 7       202.184          43.187    24034277.200   126300976.569 4       202.184          29.937    24034288.020    98416335.638 4       157.546          29.875    24034289.000    98416395.645 7       157.546          46.312
R11  19909595.940   106390840.004 8        22.922          49.937    19909596.380   106390840.008 8        22.922          49.000    19909605.780    82748468.378 8        17.828          51.875    19909605.660    82748469.378 8        17.828          51.812
R07  24113809.580   129083104.627 6      5703.828          40.062    24113811.300   129083104.663 6      5703.828          40.125    24113836.320   100398083.779 7      4436.311          43.250    24113836.600   100398083.783 7      4436.311          43.937
R23  22958197.520   122810877.876 7      4552.179          44.187    22958195.260   122810877.888 7      4552.179          42.875
R21  21521332.260   115165005.858 6       117.882          38.812    21521331.400   115165005.908 6       117.882          39.875    21521345.160    89572824.678 7        91.686          45.750    21521345.060    89572826.672 7        91.686          45.125
R22  20276988.120   108239943.396 7      2342.302          46.937    20276988.480   108239943.405 8      2342.302          48.062    20276997.120    84186653.491 8      1821.790          51.375    20276996.960    84186656.494 8      1821.790          50.875
G10  22266811.100   117012882.231 7      2015.509          47.062    22266809.740   117012882.231 7      2015.509          46.562    22266819.220    91178904.874 7      1570.527          46.875    22266819.540    91178904.868 8      1570.527          48.250
G08  21285545.000   111856298.733 7      3415.723          43.125    21285543.120   111856298.727 5      3415.723          33.937    21285551.340    87160774.900 5      2661.602          33.937    21285552.480    87160780.905 8      2661.602          48.500
> 2024 05 09 12 34  7.0000000  0 15
G02  22410981.840   117770509.158 7      4266.727          45.437    22410980.640   117770509.165 6      4266.727          36.000    22410987.060    91769246.057 5      3324.723          35.875
G26  23260703.020   122235803.800 7      -710.836          42.312    23260702.480   122235803.802 6      -710.836          41.000    23260719.380    95248739.192 6      -553.898          40.562    23260719.160    95248735.198 7      -553.898          46.562
G21  20940505.940   110043103.728 8      3503.829          48.562    20940504.560   110043103.738 6      3503.829          39.500    20940510.320    85747884.435 6      2730.256          40.125
R12  20448990.520   109234836.636 7      4655.482          47.250    20448990.240   109234836.639 7      4655.482          47.375    20448999.260    84960473.016 7      3620.931          47.312    20449000.040    84960474.020 7      3620.931          47.250
G27  21136586.240   111073511.419 7      1811.051          47.687    21136584.840   111073511.418 8      1811.051          48.125    21136592.120    86550809.332 7      1411.209          47.812    21136592.500    86550814.336 8      1411.209          48.000
G16  21018175.400   110451254.860 7       789.852          46.375    21018173.760   110451254.873 6       789.852          39.062    21018179.940    86065929.728 6       615.469          38.375
G07  24145028.980   126882982.342 7      3438.022          44.375    24145027.920   126882982.342 5      3438.022          30.125    24145035.920    98869883.638 5      2678.978          30.187    24145036.240    98869890.647 6      2678.978          40.312
G23  24034239.880   126300774.690 7       201.635          42.500    24034238.740   126300774.692 4       201.635          29.937    24034249.620    98416178.330 4       157.118          29.875    24034250.800    98416238.332 7       157.118          46.375
R11  19909591.880   106390817.558 8        22.035          49.937    19909592.020   106390817.562 8        22.035          48.812    19909601.560    82748450.912 8        17.139          51.937    19909601.360    82748451.912 8        17.139          52.062
R07  24112744.100   129077400.927 6      5703.731          40.062    24112746.240   129077400.974 6      5703.731          40.125    24112771.000   100393647.572 7      4436.235          43.375    24112771.300   100393647.575 7      4436.235          43.750
R23  22957346.260   122806325.995 7      4551.756          44.312    22957344.500   122806326.007 7      4551.756          43.187
R21  21521310.060   115164888.003 6       117.995          38.812    21521309.620   115164888.045 6       117.995          39.250    21521323.040    89572733.001 7        91.774          46.000    21521323.000    89572734.997 7        91.774          45.687
R22  20276549.020   108237601.399 7      2341.867          46.500    20276549.940   108237601.405 8      2341.867          48.812    20276558.440    84184831.936 8      1821.452          51.375    20276558.480    84184834.940 8      1821.452          51.187
G10  22266427.580   117010867.148 7      2014.816          47.375    22266426.260   117010867.153 7      2014.816          46.750    22266435.900    91177334.679 7      1569.986          47.187    22266435.980    91177334.671 8      1569.986          48.062
G08  21284895.120   111852883.230 7      3415.363          44.250    21284893.200   111852883.222 5      3415.363          33.937    21284901.380    87158113.463 5      2661.322          33.750    21284902.420    87158119.470 7      2661.322          47.875
> 2024 05 09 12 34  8.0000000  0 15
G02  22410169.920   117766242.626 7      4266.298          45.687    22410168.660   117766242.639 5      4266.298          35.937    22410175.040    91765921.493 5      3324.388          35.750
G26  23260838.060   122236514.761 7      -710.941          42.937    23260837.740   122236514.771 6      -710.941          41.312    23260854.580    95249293.180 6      -553.980          41.125    23260854.580    95249289.179 7      -553.980          46.312
G21  20939839.160   110039600.296 7      3503.134          47.875    20939837.840   110039600.303 6      3503.134          39.625    20939843.720    85745154.492 6      2729.715          39.375
R12  20448119.300   109230181.613 7      4654.642          47.125    20448118.980   109230181.614 7      4654.642          47.625    20448127.960    84956852.445 7      3620.277          47.750    20448128.640    84956853.449 7      3620.277          47.187
G27  21136241.560   111071700.376 7      1810.954          46.750    21136240.380   111071700.376 7      1810.954          47.125    21136247.560    86549398.128 7      1411.133          47.625    21136247.760    86549403.132 8      1411.133          48.437
G16  21018025.140   110450465.299 7       789.302          46.437    21018023.380   110450465.312 6       789.302          39.250    21018029.760    86065314.484 6       615.041          39.187
G07  24144375.040   126879544.708 7      3437.401          45.125    24144373.700   126879544.710 5      3437.401          30.125    24144381.680    98867204.964 5      2678.494          30.187    24144382.100    98867211.971 6      2678.494          40.312
G23  24034201.780   126300573.343 7       201.091          42.062    24034200.500   126300573.351 4       201.091          29.937    24034211.320    98416021.437 4       156.695          29.875    24034212.480    98416081.441 7       156.695          46.687
R11  19909587.820   106390795.921 8        21.287          49.625    19909587.960   106390795.922 8        21.287          48.625    19909597.520    82748434.077 8        16.556          51.812    19909597.300    82748435.077 8        16.556          52.062
R07  24111678.420   129071697.177 6      5703.805          40.437    24111680.860   129071697.224 6      5703.805          40.125    24111705.380   100389211.326 7      4436.293          43.562    24111705.900   100389211.324 7      4436.293          44.125
R23  22956495.380   122801774.479 7      4551.365          44.000    22956493.500   122801774.493 7      4551.365          43.375
R21  21521288.000   115164770.290 6       117.639          38.000    21521287.340   115164770.310 6       117.639          39.250    21521301.040    89572641.430 7        91.497          45.875    21521301.020    89572643.428 7        91.497          44.500
R22  20276110.660   108235259.818 8      2341.369          48.062    20276111.280   108235259.822 8      2341.369          48.687    20276119.800    84183010.706 8      1821.065          50.812    20276119.840    84183013.709 8      1821.065          51.625
G10  22266044.260   117008852.715 7      2014.174          46.687    22266043.020   117008852.720 7      2014.174          47.312    22266052.540    91175764.995 7      1569.486          47.375    22266052.580    91175764.989 8      1569.486          48.187
G08  21284245.280   111849467.867 7      3415.348          43.625    21284243.460   111849467.864 5      3415.348          33.687    21284251.440    87155452.147 5      2661.311          33.625    21284252.140    87155458.157 8      2661.311          48.062
> 2024 05 09 12 34  9.0000000  0 15
G02  22409358.260   117761976.441 7      4266.223          45.125    22409356.880   117761976.451 5      4266.223          35.937    22409363.380    91762597.195 6      3324.329          36.000
G26  23260973.440   122237225.959 7      -711.024          43.125    23260973.100   122237225.964 6      -711.024          41.625    23260989.960    95249847.340 6      -554.045          41.250    23260990.260    95249843.337 7      -554.045          46.625
G21  20939172.620   110036097.302 8      3502.890          48.437    20939171.180   110036097.310 6      3502.890          39.062    20939177.180    85742424.886 6      2729.525          39.250
R12  20447248.020   109225527.303 8      4654.102          48.250    20447247.540   109225527.302 7      4654.102          47.312    20447256.620    84953232.422 7      3619.857          47.562    20447257.580    84953233.426 7      3619.857          47.562
G27  21135897.120   111069889.462 7      1811.053          47.437    21135895.680   111069889.467 7      1811.053          47.812    21135902.920    86547987.030 7      1411.210          47.750    21135903.280    86547992.032 8      1411.210          48.375
G16  21017875.060   110449676.197 7       788.928          46.937    21017873.140   110449676.210 6       788.928          39.562    21017879.560    86064699.597 6       614.749          39.125
G07  24143720.720   126876107.555 7      3437.038          45.250    24143719.580   126876107.555 5      3437.038          30.125    24143727.680    98864526.655 5      2678.211          30.187    24143728.180    98864533.665 6      2678.211          40.062
G23  24034163.540   126300372.425 7       200.849          42.875    24034162.300   126300372.432 5       200.849          30.312    24034173.020    98415864.873 5       156.506          30.125    24034174.480    98415924.869 7       156.506          46.812
R11  19909583.620   106390774.961 8        20.765          49.812    19909584.140   106390774.967 8        20.765          49.625    19909593.460    82748417.778 8        16.150          51.812    19909593.480    82748418.774 8        16.150          52.000
R07  24110612.880   129065993.301 6      5704.087          40.437    24110615.320   129065993.340 6      5704.087          40.125    24110639.960   100384774.966 7      4436.512          43.437    24110640.140   100384774.964 7      4436.512          43.500
R23  22955644.940   122797223.227 7      4551.372          44.187    22955642.940   122797223.252 7      4551.372          43.375
R21  21521266.400   115164652.462 6       118.100          38.000    21521265.100   115164652.498 6       118.100          39.250    21521278.880    89572549.790 7        91.856          45.937    21521278.580    89572551.788 7        91.856          45.000
R22  20275672.080   108232918.528 7      2341.216          47.687    20275672.740   108232918.532 8      2341.216          48.937    20275681.180    84181189.701 8      1820.946          51.437    20275681.300    84181192.699 8      1820.946          51.250
G10  22265661.060   117006838.848 7      2013.730          46.937    22265659.820   117006838.853 7      2013.730          46.562    22265669.200    91174195.746 7      1569.140          46.687    22265669.480    91174195.738 8      1569.140          48.375
G08  21283595.580   111846052.646 7      3415.172          43.937    21283593.560   111846052.643 5      3415.172          33.687    21283601.420    87152790.942 5      2661.173          33.625    21283602.140    87152796.949 8      2661.173          48.187
> 2024 05 09 12 34 10.0000000  0 15
G02  22408546.620   117757710.537 7      4265.801          45.062    22408544.940   117757710.545 6      4265.801          36.062    22408551.580    91759273.117 6      3324.000          36.000
G26  23261108.980   122237937.276 7      -711.447          43.187    23261108.480   122237937.286 6      -711.447          41.812    23261125.260    95250401.602 6      -554.374          41.312    23261125.500    95250397.602 7      -554.374          46.062
G21  20938506.040   110032594.687 8      3502.469          48.312    20938504.640   110032594.694 6      3502.469          39.625    20938510.620    85739695.576 6      2729.197          39.687
R12  20446376.740   109220873.592 7      4653.346          47.625    20446376.440   109220873.599 7      4653.346          47.875    20446385.560    84949612.877 7      3619.269          47.000    20446386.580    84949613.881 7      3619.269          47.437
G27  21135552.560   111068078.603 7      1810.899          46.625    21135551.080   111068078.610 7      1810.899          47.500    21135558.360    86546575.967 7      1411.090          47.875    21135558.660    86546580.973 8      1411.090          48.500
G16  21017724.780   110448887.451 7       788.518          46.375    21017723.120   110448887.458 6       788.518          39.375    21017729.340    86064084.983 6       614.430          39.187
G07  24143066.680   126872670.791 7      3436.533          44.562    24143065.580   126872670.798 5      3436.533          30.125    24143073.740    98861848.663 4      2677.818          29.812    24143074.320    98861855.684 6      2677.818          40.062
G23  24034125.440   126300171.845 7       200.373          42.062    24034124.420   126300171.850 5       200.373          30.312    24034135.020    98415708.571 5       156.135          30.125    24034136.140    98415768.577 7       156.135          46.312
R11  19909579.900   106390754.636 8        19.984          50.250    19909580.280   106390754.637 8        19.984          48.937    19909589.660    82748401.962 8        15.543          51.500    19909589.680    82748402.958 8        15.543          52.062
R07  24109547.520   129060289.130 6      5704.343          40.437    24109549.840   129060289.166 6      5704.343          39.875    24109574.460   100380338.386 7      4436.712          43.687    24109574.920   100380338.384 7      4436.712          43.500
R23  22954794.060   122792672.243 7      4550.802          43.687    22954792.360   122792672.257 7      4550.802          43.687
R21  21521244.880   115164534.637 6       117.997          38.000    21521243.800   115164534.646 6       117.997          39.250    21521256.740    89572458.123 7        91.775          45.375    21521256.580    89572460.125 7        91.775          44.187
R22  20275233.360   108230577.460 7      2340.907          47.625    20275234.140   108230577.458 8      2340.907          49.062    20275242.660    84179368.863 8      1820.705          50.750    20275242.740    84179371.866 8      1820.705          51.250
G10  22265277.940   117004825.463 7      2013.119          46.125    22265276.600   117004825.465 7      2013.119          46.562    22265286.080    91172626.870 7      1568.664          46.875    22265286.140    91172626.864 8      1568.664          48.187
G08  21282945.400   111842637.404 7      3415.178          43.562    21282943.540   111842637.401 5      3415.178          33.625    21282951.620    87150129.714 5      2661.178          33.687    21282952.160    87150135.718 8      2661.178          48.312
> 2024 05 09 12 34 11.0000000  0 15
G02  22407734.880   117753444.996 7      4265.469          45.625    22407733.240   117753445.006 6      4265.469          36.062    22407739.820    91755949.324 6      3323.742          36.000
G26  23261243.980   122238648.763 7      -711.436          42.937    23261243.840   122238648.773 6      -711.436          41.000    23261260.700    95250955.991 6      -554.366          41.187    23261260.720    95250951.995 7      -554.366          46.625
G21  20937839.640   110029092.576 8      3501.985          48.375    20937838.200   110029092.581 6      3501.985          40.062    20937844.000    85736966.660 6      2728.819          39.687
R12  20445505.760   109216220.570 7      4652.834          46.812    20445505.460   109216220.576 7      4652.834          47.625    20445514.520    84945993.860 7      3618.871          47.312    20445515.440    84945994.864 7      3618.871          47.500
G27  21135207.840   111066267.917 7      1810.736          46.437    21135206.440   111066267.920 7      1810.736          47.687    21135213.640    86545165.041 7      1410.963          47.625    21135214.300    86545170.043 8      1410.963          48.500
G16  21017574.840   110448099.153 7       788.229          44.875    21017573.080   110448099.158 6       788.229          39.562    21017579.480    86063470.720 6       614.204          39.000
G07  24142412.760   126869234.534 7      3436.146          43.875    24142411.640   126869234.541 4      3436.146          29.812    24142420.000    98859171.058 4      2677.516          29.812    24142420.800    98859178.075 6      2677.516          40.000
G23  24034087.500   126299971.712 7       200.083          42.500    24034086.220   126299971.717 5       200.083          30.312    24034096.940    98415552.619 5       155.909          30.125    24034098.140    98415612.625 7       155.909          46.625
R11  19909576.440   106390734.990 8        19.438          49.875    19909576.580   106390734.994 8        19.438          48.812    19909585.980    82748386.682 8        15.119          51.687    19909585.860    82748387.678 8        15.119          51.750
R07  24108482.040   129054584.831 6      5704.499          40.812    24108484.140   129054584.878 6      5704.499          39.875    24108508.500   100375901.713 7      4436.832          43.812    24108509.140   100375901.716 7      4436.832          43.875
R23  22953943.540   122788121.518 7      4550.687          44.250    22953941.400   122788121.524 7      4550.687          43.687
R21  21521222.960   115164416.758 6       117.982          38.000    21521221.200   115164416.775 6       117.982          39.312    21521234.660    89572366.448 7        91.764          45.437    21521234.720    89572368.452 7        91.764          44.750
R22  20274795.140   108228236.696 7      2340.770          47.500    20274795.660   108228236.697 8      2340.770          48.812    20274804.160    84177548.273 8      1820.599          51.125    20274804.160    84177551.274 8      1820.599          51.375
G10  22264894.920   117002812.632 7      2012.805          46.375    22264893.560   117002812.634 7      2012.805          46.750    22264903.020    91171058.433 7      1568.420          46.625    22264903.360    91171058.429 8      1568.420          48.312
G08  21282295.720   111839222.245 7      3415.325          44.000    21282293.800   111839222.242 5      3415.325          33.625    21282301.760    87147468.552 5      2661.292          33.687    21282302.340    87147474.557 8      2661.292          48.187
> 2024 05 09 12 34 12.0000000  0 15
G02  22406923.180   117749179.999 7      4264.737          45.000    22406921.520   117749180.006 6      4264.737          36.062    22406928.280    91752625.952 6      3323.172          36.000
G26  23261379.720   122239360.663 7      -712.012          43.562    23261379.440   122239360.673 6      -712.012          41.187    23261396.180    95251510.704 6      -554.815          40.625    23261396.160    95251506.703 7      -554.815          46.375
G21  20937173.540   110025591.096 8      3501.218          48.500    20937171.820   110025591.101 6      3501.218          39.687    20937177.800    85734238.232 6      2728.222          39.875
R12  20444634.760   109211568.456 7      4651.782          46.750    20444634.320   109211568.460 7      4651.782          47.437    20444643.780    84942375.547 7      3618.053          47.562    20444644.640    84942376.543 8      3618.053          48.062
G27  21134863.140   111064457.513 7      1810.358          47.437    21134862.060   111064457.513 7      1810.358          47.687    21134869.280    86543754.332 7      1410.668          47.437    21134869.880    86543759.336 8      1410.668          48.312
G16  21017425.000   110447311.518 7       787.274          45.312    21017423.100   110447311.531 6       787.274          39.250    21017429.600    86062856.982 6       613.460          38.750
G07  24141759.040   126865798.954 7      3435.259          44.562    24141757.800   126865798.962 4      3435.259          29.812    24141766.280    98856493.981 4      2676.825          29.812    24141766.260    98856500.994 6      2676.825          40.000
G23  24034049.260   126299772.202 7       199.259          42.125    24034048.320   126299772.207 5       199.259          30.312    24034058.900    98415397.153 5       155.267          30.125    24034060.060    98415457.155 7       155.267          46.687
R11  19909573.020   106390716.228 8        18.412          50.125    19909573.100   106390716.232 8        18.412          49.000    19909582.560    82748372.085 8        14.321          51.500    19909582.340    82748373.081 8        14.321          52.312
R07  24107416.580   129048880.564 6      5704.335          40.812    24107419.220   129048880.595 6      5704.335          39.875    24107443.060   100371465.051 7      4436.705          43.500    24107443.180   100371465.053 7      4436.705          43.625
R23  22953093.060   122783571.256 7      4550.124          44.187    22953090.840   122783571.265 7      4550.124          43.812
R21  21521201.380   115164299.047 6       117.696          38.125    21521199.320   115164299.073 6       117.696          39.312    21521212.560    89572274.893 7        91.541          45.812    21521212.640    89572276.897 7        91.541          45.000
R22  20274356.620   108225896.442 7      2340.111          47.187    20274357.320   108225896.448 8      2340.111          48.750    20274365.680    84175728.075 8      1820.086          51.250    20274365.800    84175731.076 8      1820.086          51.250
G10  22264511.980   117000800.600 7      2011.683          47.000    22264510.740   117000800.602 7      2011.683          46.625    22264520.220    91169490.613 7      1567.546          46.750    22264520.500    91169490.609 8      1567.546          48.250
G08  21281646.080   111835807.408 7      3414.769          44.125    21281643.860   111835807.405 5      3414.769          33.687    21281652.000    87144807.640 5      2660.859          33.562    21281652.520    87144813.647 8      2660.859          48.062
> 2024 05 09 12 34 13.0000000  0 15
G02  22406111.700   117744915.443 7      4264.341          45.375    22406109.940   117744915.448 5      4264.341          35.625    22406116.740    91749302.921 5      3322.863          35.500
G26  23261515.280   122240072.843 7      -712.286          42.250    23261514.940   122240072.851 6      -712.286          41.062    23261531.660    95252065.634 6      -555.028          40.875    23261531.240    95252061.627 7      -555.028          46.250
G21  20936507.320   110022090.189 8      3500.548          48.750    20936505.620   110022090.199 6      3500.548          40.125    20936511.520    85731510.259 6      2727.700          40.062
R12  20443763.900   109206917.205 7      4650.762          47.437    20443763.740   109206917.219 7      4650.762          47.312    20443772.880    84938757.909 7      3617.259          47.375    20443774.020    84938758.911 7      3617.259          47.625
G27  21134518.640   111062647.356 7      1810.091          47.562    21134517.580   111062647.358 7      1810.091          47.437    21134524.760    86542343.824 7      1410.461          47.500    21134525.440    86542348.822 8      1410.461          48.750
G16  21017275.200   110446524.435 7       786.667          45.625    21017273.420   110446524.445 6       786.667          39.000    21017279.880    86062243.670 6       612.987          38.812
G07  24141105.320   126862363.940 7      3434.748          44.875    24141104.080   126862363.947 4      3434.748          29.812    24141112.720    98853817.342 4      2676.427          29.812    24141113.000    98853824.359 6      2676.427          40.500
G23  24034011.460   126299573.213 7       198.770          42.500    24034010.420   126299573.215 5       198.770          30.062    24034021.160    98415242.090 4       154.886          29.937    24034022.360    98415302.096 7       154.886          46.562
R11  19909569.580   106390698.297 8        17.538          50.187    19909569.900   106390698.298 8        17.538          49.062    19909579.200    82748358.135 8        13.641          52.312    19909579.180    82748359.133 8        13.641          51.437
R07  24106351.260   129043176.313 6      5704.088          40.750    24106353.300   129043176.355 6      5704.088          39.312    24106377.440   100367028.413 7      4436.513          43.000    24106377.720   100367028.418 7      4436.513          43.812
R23  22952242.360   122779021.413 7      4549.586          44.187    22952240.560   122779021.425 7      4549.586          43.937
R21  21521179.180   115164181.495 6       117.428          38.125    21521177.120   115164181.520 6       117.428          39.312    21521190.540    89572183.463 7        91.333          44.812    21521190.680    89572185.468 7        91.333          44.437
R22  20273918.040   108223556.614 8      2339.591          49.062    20273919.000   108223556.618 8      2339.591          48.437    20273927.460    84173908.208 8      1819.682          51.375    20273927.400    84173911.206 8      1819.682          51.312
G10  22264129.200   116998789.201 7      2010.981          47.250    22264127.920   116998789.208 7      2010.981          47.062    22264137.500    91167923.294 7      1566.998          47.062    22264137.600    91167923.288 8      1566.998          48.375
G08  21280996.180   111832392.770 7      3414.481          43.250    21280994.140   111832392.762 5      3414.481          33.687    21281002.220    87142146.879 5      2660.634          33.562    21281003.060    87142152.884 8      2660.634          48.500
> 2024 05 09 12 34 14.0000000  0 15
G02  22405300.440   117740651.373 7      4263.761          45.125    22405298.580   117740651.381 6      4263.761          36.750    22405305.120    91745980.272 6      3322.411          36.312
G26  23261650.940   122240785.366 7      -712.892          42.625    23261650.660   122240785.376 6      -712.892          41.562    23261667.360    95252620.836 6      -555.500          40.875    23261667.000    95252616.835 7      -555.500          46.375
G21  20935841.160   110018589.868 8      3499.892          48.062    20935839.700   110018589.878 6      3499.892          40.062    20935845.580    85728782.740 6      2727.188          39.250
R12  20442893.300   109202266.768 7      4649.873          47.250    20442893.120   109202266.782 7      4649.873          47.312    20442902.560    84935140.911 7      3616.568          47.125    20442903.440    84935141.911 7      3616.568          47.750
G27  21134174.400   111060837.466 7      1809.692          47.812    21134173.120   111060837.468 7      1809.692          47.750    21134180.460    86540933.518 7      1410.149          47.250    21134180.980    86540938.516 8      1410.149          48.812
G16  21017125.800   110445737.921 7       786.012          45.687    21017123.800   110445737.932 6       786.012          39.562    21017130.100    86061630.803 6       612.477          38.375
G07  24140451.680   126858929.556 7      3433.917          43.937    24140450.540   126858929.561 4      3433.917          29.812    24140459.100    98851141.201 4      2675.780          29.875    24140459.740    98851148.214 6      2675.780          40.500
G23  24033973.840   126299374.790 7       198.017          42.750    24033972.780   126299374.795 5       198.017          30.062    24033983.480    98415087.475 4       154.299          29.937    24033984.580    98415147.481 7       154.299          46.500
R11  19909566.220   106390681.184 8        16.536          49.937    19909566.780   106390681.185 8        16.536          49.562    19909576.060    82748344.820 8        12.861          50.250    19909575.940    82748345.816 8        12.861          51.750
R07  24105285.920   129037472.027 6      5704.096          40.750    24105287.580   129037472.050 6      5704.096          39.312    24105311.820   100362591.742 7      4436.519          43.687    24105311.840   100362591.747 7      4436.519          44.312
R23  22951391.820   122774471.954 7      4549.161          44.937    22951390.160   122774471.968 7      4549.161          43.937
R21  21521157.680   115164064.028 6       117.358          38.125    21521155.380   115164064.024 6       117.358          38.875    21521168.760    89572092.077 7        91.279          45.687    21521168.660    89572094.079 7        91.279          44.750
R22  20273480.100   108221217.195 8      2339.085          48.250    20273480.780   108221217.207 8      2339.085          48.562    20273489.120    84172088.662 8      1819.289          50.437    20273489.020    84172091.658 8      1819.289          51.000
G10  22263746.500   116996778.498 7      2010.185          47.062    22263745.240   116996778.500 7      2010.185          46.812    22263754.820    91166356.510 7      1566.378          46.687    22263754.840    91166356.502 7      1566.378          47.625
G08  21280346.420   111828978.326 7      3414.143          44.562    21280344.300   111828978.323 5      3414.143          34.062    21280352.500    87139486.275 5      2660.371          34.062    21280353.100    87139492.279 8      2660.371          48.062
> 2024 05 09 12 34 15.0000000  0 15
G02  22404489.060   117736387.685 7      4263.477          45.000    22404487.100   117736387.695 5      4263.477          35.687    22404493.760    91742657.925 5      3322.190          35.812
G26  23261786.600   122241498.093 7      -712.855          43.750    23261786.280   122241498.095 6      -712.855          41.312    23261802.960    95253176.189 6      -555.471          41.062    23261802.800    95253172.191 7      -555.471          46.500
G21  20935175.340   110015090.067 7      3499.393          47.687    20935173.800   110015090.077 6      3499.393          39.562    20935179.560    85726055.624 6      2726.799          39.500
R12  20442022.820   109197617.074 7      4649.216          47.562    20442022.660   109197617.086 7      4649.216          47.250    20442032.200    84931524.476 7      3616.057          47.625    20442032.800    84931525.478 8      3616.057          48.187
G27  21133830.000   111059027.742 7      1809.511          47.312    21133828.700   111059027.750 7      1809.511          47.687    21133836.080    86539523.344 7      1410.009          47.562    21133836.860    86539528.344 8      1410.009          48.937
G16  21016976.300   110444951.892 7       785.684          45.562    21016974.080   110444951.904 6       785.684          39.187    21016980.580    86061018.310 6       612.221          39.125
G07  24139798.540   126855495.679 7      3433.500          43.437    24139796.980   126855495.684 4      3433.500          29.937    24139805.580    98848465.457 4      2675.454          29.875    24139806.540    98848472.464 6      2675.454          40.500
G23  24033936.320   126299176.825 7       197.696          43.312    24033935.020   126299176.833 5       197.696          30.062    24033945.800    98414933.213 4       154.049          29.937    24033947.120    98414993.223 7       154.049          46.250
R11  19909563.160   106390664.822 8        15.913          50.125    19909563.720   106390664.823 8        15.913          49.187    19909572.980    82748332.086 8        12.377          51.500    19909572.720    82748333.084 8        12.377          50.437
R07  24104220.420   129031767.677 6      5704.202          40.750    24104221.780   129031767.714 6      5704.202          39.312    24104246.160   100358155.030 7      4436.601          43.687    24104246.280   100358155.034 7      4436.601          43.437
R23  22950541.540   122769922.817 7      4548.905          43.750    22950540.220   122769922.835 7      4548.905          43.750
R21  21521135.820   115163946.550 6       117.331          38.125    21521133.340   115163946.552 6       117.331          38.875    21521146.480    89572000.706 7        91.257          44.750    21521146.800    89572002.712 7        91.257          44.625
R22  20273041.620   108218878.145 7      2338.780          47.437    20273042.780   108218878.148 8      2338.780          48.312    20273050.920    84170269.398 8      1819.051          50.937    20273051.040    84170272.394 8      1819.051          50.062
G10  22263363.980   116994768.402 7      2009.668          46.875    22263362.780   116994768.402 7      2009.668          46.625    22263372.280    91164790.196 7      1565.975          46.437    22263372.440    91164790.190 8      1565.975          48.500
G08  21279696.580   111825564.022 7      3414.091          44.062    21279694.660   111825564.019 5      3414.091          33.875    21279702.700    87136825.787 5      2660.331          34.062    21279703.500    87136831.788 8      2660.331          48.375
> 2024 05 09 12 34 16.0000000  0 15
G02  22403677.720   117732124.353 7      4263.409          44.562    22403675.860   117732124.363 5      4263.409          35.687    22403682.380    91739335.846 5      3322.137          35.812
G26  23261922.580   122242211.031 7      -712.927          42.500    23261921.920   122242211.041 6      -712.927          41.062    23261938.500    95253731.713 6      -555.528          40.750    23261938.580    95253727.712 7      -555.528          46.375
G21  20934509.540   110011590.683 7      3499.349          47.937    20934507.860   110011590.691 6      3499.349          39.312    20934513.580    85723328.830 6      2726.766          39.812
R12  20441152.520   109192968.039 7      4648.869          47.187    20441152.160   109192968.051 8      4648.869          48.062    20441161.940    84927908.569 7      3615.787          47.812    20441162.620    84927909.573 8      3615.787          48.187
G27  21133485.760   111057218.110 7      1809.845          47.437    21133484.400   111057218.115 7      1809.845          47.625    21133491.700    86538113.239 7      1410.269          47.687    21133492.520    86538118.239 8      1410.269          49.000
G16  21016826.460   110444166.309 7       785.576          46.312    21016824.820   110444166.319 6       785.576          39.500    21016831.120    86060406.165 6       612.137          38.875
G07  24139145.380   126852062.276 7      3433.258          44.312    24139143.620   126852062.286 4      3433.258          29.937    24139152.360    98845790.078 4      2675.266          29.875    24139153.100    98845797.088 6      2675.266          40.312
G23  24033898.940   126298979.273 7       197.608          42.250    24033897.380   126298979.278 5       197.608          30.500    24033908.300    98414779.275 5       153.981          30.312    24033909.420    98414839.281 7       153.981          46.437
R11  19909560.240   106390649.117 8        15.583          49.875    19909560.800   106390649.118 8        15.583          48.687    19909569.920    82748319.871 8        12.120          52.187    19909569.860    82748320.869 8        12.120          51.812
R07  24103154.180   129026063.124 6      5704.875          40.750    24103156.080   129026063.155 6      5704.875          39.312    24103180.260   100353718.155 7      4437.125          43.562    24103180.960   100353718.157 7      4437.125          43.937
R23  22949691.100   122765373.927 7      4548.975          44.750    22949690.060   122765373.948 7      4548.975          44.187
R21  21521113.800   115163828.995 6       117.741          38.125    21521111.200   115163829.007 6       117.741          38.875    21521124.500    89571909.282 7        91.576          45.375    21521124.700    89571911.289 7        91.576          44.187
R22  20272603.560   108216539.372 8      2338.764          48.500    20272604.600   108216539.381 8      2338.764          49.312    20272612.840    84168450.352 8      1819.039          51.312    20272612.660    84168453.351 8      1819.039          51.375
G10  22262981.640   116992758.843 7      2009.416          46.875    22262980.320   116992758.848 7      2009.416          46.437    22262989.940    91163224.311 7      1565.779          46.375    22262989.900    91163224.305 8      1565.779          48.250
G08  21279046.920   111822149.776 7      3414.440          44.375    21279044.960   111822149.767 5      3414.440          33.875    21279053.020    87134165.335 5      2660.602          33.437    21279053.920    87134171.340 8      2660.602          48.125
> 2024 05 09 12 34 17.0000000  0 15
G02  22402866.740   117727861.513 7      4262.677          45.062    22402864.620   117727861.523 6      4262.677          36.187    22402871.080    91736014.153 6      3321.566          36.062
G26  23262058.460   122242924.283 7      -713.281          43.187    23262057.580   122242924.294 6      -713.281          41.562    23262074.140    95254287.478 6      -555.803          41.375    23262074.500    95254283.473 7      -555.803          46.250
G21  20933843.460   110008091.938 8      3498.483          48.750    20933842.080   110008091.949 6      3498.483          39.437    20933847.740    85720602.535 6      2726.091          39.625
R12  20440282.220   109188319.868 7      4647.809          47.187    20440281.800   109188319.877 7      4647.809          47.250    20440291.960    84924293.326 7      3614.963          47.875    20440292.660    84924294.326 8      3614.963          48.000
G27  21133141.400   111055408.799 8      1809.206          48.000    21133140.120   111055408.801 8      1809.206          48.000    21133147.440    86536703.386 8      1409.771          48.125    21133148.380    86536708.382 8      1409.771          49.062
G16  21016677.000   110443381.327 7       784.767          45.937    21016675.380   110443381.337 6       784.767          39.062    21016681.740    86059794.487 6       611.507          39.375
G07  24138492.140   126848629.490 7      3432.622          44.375    24138490.280   126848629.494 4      3432.622          29.937    24138499.180    98843115.175 4      2674.771          29.875    24138500.140    98843122.192 6      2674.771          40.312
G23  24033861.360   126298782.330 7       196.631          43.437    24033859.980   126298782.337 5       196.631          30.500    24033870.960    98414625.813 5       153.219          30.312    24033872.040    98414685.819 7       153.219          45.875
R11  19909556.980   106390634.274 8        14.479          49.625    19909557.800   106390634.276 8        14.479          48.687    19909567.240    82748308.327 8        11.262          51.937    19909567.200    82748309.327 8        11.262          51.500
R07  24102088.060   129020358.595 6      5704.622          40.750    24102090.920   129020358.636 6      5704.622          39.312    24102114.780   100349281.305 7      4436.928          43.875    24102115.060   100349281.312 7      4436.928          44.000
R23  22948841.260   122760825.473 7      4548.397          44.875    22948839.860   122760825.488 7      4548.397          43.937
R21  21521091.680   115163711.606 6       117.339          38.125    21521089.140   115163711.626 6       117.339          38.875    21521102.860    89571817.988 7        91.264          45.500    21521102.920    89571819.994 7        91.264          44.562
R22  20272165.600   108214201.063 7      2338.028          47.687    20272166.520   108214201.072 8      2338.028          48.812    20272174.760    84166631.670 8      1818.466          51.500    20272175.020    84166634.673 8      1818.466          51.625
G10  22262599.340   116990750.006 7      2008.527          46.562    22262598.020   116990750.005 7      2008.527          47.312    22262607.620    91161658.979 7      1565.086          47.125    22262608.000    91161658.976 8      1565.086          48.312
G08  21278397.280   111818735.797 7      3413.933          44.687    21278395.220   111818735.789 5      3413.933          34.250    21278403.300    87131505.094 5      2660.207          33.437    21278404.260    87131511.091 8      2660.207          48.250
> 2024 05 09 12 34 18.0000000  0 15
G02  22402055.600   117723599.290 7      4261.942          44.187    22402053.680   117723599.298 5      4261.942          35.812    22402060.060    91732692.943 5      3320.994          35.875
G26  23262193.980   122243638.020 7      -713.956          42.875    23262193.460   122243638.032 6      -713.956          41.437    23262210.100    95254843.621 6      -556.329          40.625    23262210.440    95254839.621 7      -556.329          46.312
G21  20933177.980   110004593.906 7      3497.742          47.562    20933176.520   110004593.913 6      3497.742          39.562    20933182.080    85717876.793 6      2725.513          39.562
R12  20439412.320   109183672.684 7      4646.767          47.437    20439412.280   109183672.693 7      4646.767          46.875    20439422.140    84920678.848 7      3614.152          47.875    20439422.680    84920679.848 8      3614.152          48.062
G27  21132797.080   111053599.848 7      1808.813          47.750    21132795.900   111053599.850 7      1808.813          47.437    21132803.160    86535293.810 8      1409.465          48.062    21132804.300    86535298.806 8      1409.465          49.062
G16  21016528.040   110442597.063 7       783.921          46.312    21016526.200   110442597.070 6       783.921          39.625    21016532.560    86059183.368 6       610.847          38.937
G07  24137838.840   126845197.471 7      3431.694          44.500    24137837.180   126845197.470 4      3431.694          29.937    24137846.240    98840440.871 4      2674.047          29.312    24137847.160    98840447.887 6      2674.047          40.687
G23  24033823.920   126298586.057 7       195.948          42.437    24033822.680   126298586.062 5       195.948          30.500    24033833.640    98414472.869 5       152.687          30.312    24033834.620    98414532.867 7       152.687          46.500
R11  19909554.640   106390620.408 8        13.421          50.000    19909555.200   106390620.406 8        13.421          49.125    19909564.620    82748297.531 8        10.439          52.000    19909564.580    82748298.531 8        10.439          52.312
R07  24101022.380   129014654.143 6      5704.615          40.750    24101024.980   129014654.179 6      5704.615          39.312    24101049.120   100344844.505 7      4436.923          43.625    24101049.580   100344844.510 7      4436.923          43.687
R23  22947990.600   122756277.562 7      4547.717          44.375    22947989.400   122756277.585 7      4547.717          43.937
R21  21521069.720   115163594.481 6       117.134          38.125    21521066.940   115163594.510 6       117.134          38.937    21521080.920    89571726.897 7        91.104          45.000    21521081.520    89571728.902 7        91.104          45.062
R22  20271727.260   108211863.307 8      2337.534          48.437    20271728.580   108211863.316 8      2337.534          49.312    20271736.820    84164813.415 8      1818.082          51.687    20271736.920    84164816.414 8      1818.082          51.437
G10  22262217.120   116988741.991 7      2007.617          46.375    22262215.840   116988741.993 7      2007.617          46.937    22262225.480    91160094.293 7      1564.377          46.812    22262225.760    91160094.287 8      1564.377          48.062
G08  21277747.540   111815322.163 7      3413.529          44.312    21277745.720   111815322.152 5      3413.529          34.250    21277753.660    87128845.115 5      2659.893          34.125    21277754.520    87128851.118 8      2659.893          48.250
> 2024 05 09 12 34 19.0000000  0 15
G02  22401244.620   117719337.415 7      4261.546          44.437    22401242.560   117719337.422 6      4261.546          36.125    22401249.000    91729372.002 6      3320.685          36.187
G26  23262329.900   122244351.935 7      -714.068          42.937    23262329.400   122244351.942 6      -714.068          41.250    23262346.020    95255399.902 6      -556.417          41.437    23262346.240    95255395.902 7      -556.417          45.812
G21  20932512.620   110001096.325 7      3497.317          47.312    20932510.880   110001096.332 6      3497.317          39.437    20932516.640    85715151.406 6      2725.182          39.687
R12  20438543.000   109179026.203 7      4645.964          47.625    20438542.360   109179026.207 7      4645.964          47.500    20438552.380    84917064.916 7      3613.528          47.875    20438552.640    84917065.914 8      3613.528          48.000
G27  21132453.060   111051791.041 7      1808.633          47.687    21132451.720   111051791.048 8      1808.633          48.437    21132459.020    86533884.354 7      1409.325          47.812    21132459.940    86533889.350 8      1409.325          48.750
G16  21016378.760   110441813.235 7       783.465          46.562    21016377.040   110441813.245 6       783.465          39.875    21016383.380    86058572.593 6       610.493          39.500
G07  24137185.760   126841765.938 7      3431.172          44.437    24137184.140   126841765.940 4      3431.172          29.375    24137193.220    98837766.951 4      2673.640          29.312    24137194.020    98837773.959 6      2673.640          40.687
G23  24033786.660   126298390.204 7       195.512          42.250    24033785.460   126298390.209 5       195.512          30.375    24033796.280    98414320.257 5       152.347          30.312    24033797.140    98414380.255 7       152.347          46.562
R11  19909552.280   106390607.249 8        12.657          50.375    19909553.000   106390607.252 8        12.657          49.250    19909562.300    82748287.298 8         9.844          51.750    19909562.240    82748288.301 8         9.844          52.250
R07  24099956.860   129008949.547 6      5704.505          40.250    24099959.400   129008949.586 6      5704.505          39.312    24099983.140   100340407.595 7      4436.837          43.437    24099983.940   100340407.606 7      4436.837          43.375
R23  22947140.740   122751729.948 7      4547.335          45.437    22947139.400   122751729.952 7      4547.335          44.312
R21  21521048.080   115163477.410 6       117.029          38.125    21521044.500   115163477.409 6       117.029          38.937    21521059.240    89571635.819 7        91.023          45.562    21521059.480    89571637.823 7        91.023          45.125
R22  20271289.720   108209525.868 8      2337.195          49.250    20271290.860   108209525.880 8      2337.195          48.875    20271298.840    84162995.407 8      1817.819          51.250    20271298.840    84162998.406 8      1817.819          51.062
G10  22261835.320   116986734.536 7      2007.078          47.687    22261833.960   116986734.533 7      2007.078          47.312    22261843.500    91158530.044 7      1563.957          47.250    22261843.660    91158530.038 8      1563.957          48.187
G08  21277097.780   111811908.618 7      3413.437          44.937    21277096.140   111811908.610 5      3413.437          33.937    21277104.060    87126185.212 5      2659.821          33.625    21277105.140    87126191.217 8      2659.821          48.562
> 2024 05 09 12 34 20.0000000  0 15
G02  22400433.560   117715075.946 7      4260.976          45.250    22400431.600   117715075.953 6      4260.976          36.187    22400438.160    91726051.382 5      3320.241          35.937
G26  23262465.900   122245066.128 7      -714.604          43.500    23262465.320   122245066.133 6      -714.604          41.187    23262481.860    95255956.398 6      -556.834          41.125    23262482.060    95255952.392 7      -556.834          45.812
G21  20931846.800   109997599.285 7      3496.528          47.687    20931845.360   109997599.293 6      3496.528          39.687    20931851.060    85712426.442 6      2724.567          39.937
R12  20437673.160   109174380.438 7      4645.122          46.937    20437672.440   109174380.439 7      4645.122          47.062    20437682.720    84913451.547 7      3612.873          47.812    20437683.300    84913452.545 8      3612.873          48.187
G27  21132108.900   111049982.415 7      1808.298          47.062    21132107.660   111049982.418 7      1808.298          47.437    21132114.940    86532475.029 7      1409.063          47.687    21132115.580    86532480.025 8      1409.063          49.312
G16  21016229.460   110441029.919 7       782.748          46.937    21016228.000   110441029.930 6       782.748          39.375    21016234.300    86057962.215 6       609.933          39.062
G07  24136532.540   126838334.925 7      3430.436          43.812    24136531.060   126838334.932 4      3430.436          29.375    24136540.280    98835093.435 4      2673.067          29.312    24136541.080    98835100.449 6      2673.067          40.875
G23  24033749.400   126298194.843 7       194.816          42.062    24033748.340   126298194.848 5       194.816          30.375    24033759.120    98414168.021 5       151.805          30.125    24033759.980    98414228.025 7       151.805          46.375
R11  19909549.820   106390594.883 8        11.681          49.812    19909550.580   106390594.879 8        11.681          48.937    19909559.980    82748277.671 8         9.085          51.937    19909559.900    82748278.669 8         9.085          51.812
R07  24098891.420   129003244.803 6      5704.597          40.250    24098893.200   129003244.848 6      5704.597          39.562    24098917.420   100335970.577 7      4436.909          43.437    24098918.040   100335970.573 7      4436.909          43.250
R23  22946290.660   122747182.623 7      4546.890          46.062    22946289.480   122747182.637 7      4546.890          44.375
R21  21521025.700   115163360.310 6       116.822          38.125    21521022.900   115163360.312 6       116.822          38.937    21521037.240    89571544.741 7        90.861          45.312    21521037.420    89571546.752 7        90.861          45.000
R22  20270851.980   108207188.788 8      2336.659          48.500    20270852.780   108207188.802 8      2336.659          48.625    20270861.120    84161177.682 8      1817.402          51.437    20270861.140    84161180.678 8      1817.402          51.375
G10  22261453.260   116984727.698 7      2006.278          47.062    22261452.080   116984727.700 7      2006.278          46.437    22261461.580    91156966.274 7      1563.333          46.687    22261461.860    91156966.273 8      1563.333          48.437
G08  21276448.480   111808495.233 7      3412.998          44.500    21276446.680   111808495.228 5      3412.998          33.937    21276454.600    87123525.436 5      2659.479          33.625    21276455.840    87123531.443 8      2659.479          48.062
> 2024 05 09 12 34 21.0000000  0 15
G02  22399622.700   117710814.882 7      4260.979          44.500    22399620.780   117710814.892 5      4260.979          35.875    22399627.300    91722731.080 5      3320.243          35.812
G26  23262602.040   122245780.542 7      -714.502          43.000    23262601.340   122245780.555 6      -714.502          41.625    23262617.840    95256513.077 6      -556.755          41.062    23262617.980    95256509.076 7      -556.755          46.125
G21  20931181.440   109994102.761 8      3496.293          48.375    20931180.200   109994102.768 6      3496.293          39.750    20931185.520    85709701.885 6      2724.384          40.062
R12  20436803.280   109169735.492 7      4644.597          47.625    20436803.280   109169735.499 7      4644.597          47.437    20436813.240    84909838.810 7      3612.464          47.562    20436813.520    84909839.806 8      3612.464          48.187
G27  21131764.740   111048173.997 7      1808.399          47.687    21131763.520   111048174.002 7      1808.399          47.687    21131770.760    86531065.870 7      1409.142          47.875    21131771.760    86531070.870 8      1409.142          49.000
G16  21016080.800   110440247.119 7       782.620          46.062    21016079.040   110440247.126 6       782.620          39.687    21016085.240    86057352.235 6       609.834          39.187
G07  24135879.920   126834904.477 7      3430.271          43.687    24135878.380   126834904.485 4      3430.271          29.375    24135887.540    98832420.356 4      2672.938          29.312    24135888.460    98832427.355 6      2672.938          40.875
G23  24033712.460   126297999.984 7       194.668          42.312    24033711.220   126297999.989 5       194.668          30.375    24033721.840    98414016.177 5       151.689          30.125    24033722.820    98414076.177 7       151.689          46.375
R11  19909547.840   106390583.282 8        11.346          49.937    19909548.320   106390583.275 8        11.346          48.687    19909557.920    82748268.641 8         8.825          51.875    19909557.400    82748269.643 8         8.825          52.250
R07  24097825.700   128997540.052 6      5704.809          40.250    24097827.480   128997540.102 6      5704.809          39.562    24097851.680   100331533.552 7      4437.073          43.375    24097852.460   100331533.556 7      4437.073          43.250
R23  22945440.540   122742635.653 7      4546.915          44.750    22945439.700   122742635.670 7      4546.915          43.937
R21  21521003.660   115163243.293 6       117.037          37.812    21521000.560   115163243.299 6       117.037          38.937    21521015.600    89571453.728 7        91.029          45.125    21521015.580    89571455.736 7        91.029          45.437
R22  20270414.200   108204852.099 7      2336.581          47.500    20270415.240   108204852.111 8      2336.581          48.500    20270423.220    84159360.247 8      1817.341          51.250    20270423.320    84159363.248 8      1817.341          51.375
G10  22261071.300   116982721.502 7      2005.994          46.375    22261070.300   116982721.501 7      2005.994          46.625    22261079.720    91155403.002 7      1563.112          46.875    22261080.140    91155403.003 7      1563.112          47.875
G08  21275799.280   111805082.001 7      3413.193          44.437    21275797.140   111805081.993 5      3413.193          33.937    21275805.100    87120865.772 5      2659.631          33.625    21275806.320    87120871.778 8      2659.631          48.312
> 2024 05 09 12 34 22.0000000  0 15
G02  22398812.000   117706554.212 7      4260.299          44.875    22398809.940   117706554.220 5      4260.299          35.875    22398816.500    91719411.084 5      3319.714          35.812
G26  23262737.660   122246495.190 7      -714.924          43.500    23262737.300   122246495.198 6      -714.924          41.250    23262753.940    95257069.931 6      -557.084          41.000    23262753.840    95257065.930 7      -557.084          46.250
G21  20930516.300   109990606.712 8      3495.604          48.312    20930514.960   109990606.719 6      3495.604          40.187    20930520.220    85706977.691 6      2723.847          39.937
R12  20435934.000   109165091.271 7      4643.680          47.687    20435933.960   109165091.272 7      4643.680          47.312    20435943.780    84906226.636 7      3611.751          47.750    20435944.180    84906227.638 8      3611.751          48.187
G27  21131420.740   111046365.719 7      1807.998          47.500    21131419.340   111046365.723 7      1807.998          47.625    21131426.700    86529656.824 7      1408.830          47.625    21131427.420    86529661.820 8      1408.830          49.250
G16  21015931.960   110439464.781 7       781.959          46.187    21015930.180   110439464.788 6       781.959          40.000    21015936.560    86056742.617 6       609.318          39.312
G07  24135227.240   126831474.510 7      3429.581          44.375    24135225.680   126831474.520 4      3429.581          29.375    24135234.960    98829747.655 4      2672.401          29.312    24135236.440    98829754.659 6      2672.401          41.000
G23  24033675.200   126297805.545 7       193.975          42.250    24033674.380   126297805.550 5       193.975          30.375    24033684.860    98413864.666 5       151.149          30.125    24033685.860    98413924.676 7       151.149          46.312
R11  19909545.700   106390572.376 8        10.383          49.375    19909546.140   106390572.372 8        10.383          49.187    19909555.920    82748260.156 8         8.076          51.875    19909555.640    82748261.157 8         8.076          52.062
R07  24096759.400   128991835.161 6      5704.937          40.062    24096762.180   128991835.192 6      5704.937          39.562    24096785.900   100327096.394 7      4437.173          43.750    24096786.680   100327096.398 7      4437.173          43.375
R23  22944590.480   122738088.967 7      4546.402          45.375    22944589.800   122738088.987 7      4546.402          44.312
R21  21520982.340   115163126.278 6       116.758          37.812    21520978.360   115163126.290 6       116.758          38.375    21520993.560    89571362.714 7        90.812          45.437    21520993.720    89571364.723 7        90.812          44.937
R22  20269976.640   108202515.704 8      2336.079          49.250    20269977.480   108202515.710 8      2336.079          48.750    20269985.500    84157543.055 8      1816.951          51.062    20269985.840    84157546.054 8      1816.951          51.000
G10  22260689.800   116980715.873 7      2005.210          46.687    22260688.560   116980715.872 7      2005.210          46.750    22260698.060    91153840.175 7      1562.502          46.687    22260698.420    91153840.169 8      1562.502          48.500
G08  21275149.340   111801668.890 7      3412.732          44.125    21275147.520   111801668.884 5      3412.732          33.937    21275155.580    87118206.207 5      2659.271          33.625    21275157.080    87118212.216 8      2659.271          48.562
> 2024 05 09 12 34 23.0000000  0 15
G02  22398001.500   117702294.113 7      4260.105          45.500    22397999.400   117702294.120 5      4260.105          35.625    22398005.740    91716091.526 5      3319.562          35.437
G26  23262873.940   122247210.259 7      -715.045          43.250    23262873.360   122247210.269 6      -715.045          41.562    23262889.960    95257627.111 6      -557.178          41.312    23262890.220    95257623.106 7      -557.178          45.937
G21  20929850.980   109987111.351 8      3495.309          48.875    20929849.700   109987111.361 6      3495.309          39.687    20929855.220    85704254.036 6      2723.617          39.937
R12  20435064.560   109160447.966 7      4643.165          47.875    20435065.020   109160447.977 7      4643.165          47.062    20435074.520    84902615.186 7      3611.351          47.625    20435075.080    84902616.188 8      3611.351          48.375
G27  21131076.760   111044557.795 7      1808.080          47.250    21131075.400   111044557.799 8      1808.080          48.375    21131082.680    86528248.050 7      1408.893          47.875    21131083.240    86528253.046 8      1408.893          49.062
G16  21015783.020   110438683.131 7       781.619          46.437    21015781.400   110438683.141 6       781.619          39.437    21015787.860    86056133.539 6       609.054          39.312
G07  24134574.940   126828045.269 7      3429.240          44.312    24134573.320   126828045.279 4      3429.240          29.375    24134582.500    98827075.514 4      2672.135          29.312    24134583.520    98827082.521 6      2672.135          41.000
G23  24033638.360   126297611.776 6       193.743          41.812    24033637.500   126297611.786 5       193.743          30.125    24033648.040    98413713.677 5       150.969          30.125    24033648.780    98413773.681 7       150.969          46.125
R11  19909543.680   106390562.420 8         9.789          49.687    19909544.060   106390562.414 8         9.789          48.312    19909554.100    82748252.407 8         7.614          51.375    19909553.800    82748253.409 8         7.614          51.812
R07  24095693.780   128986130.388 6      5705.012          40.062    24095695.960   128986130.430 6      5705.012          39.562    24095720.300   100322659.355 7      4437.232          43.750    24095721.080   100322659.363 7      4437.232          43.062
R23  22943740.880   122733542.792 7      4546.344          44.875    22943740.260   122733542.814 7      4546.344          44.312
R21  21520960.480   115163009.456 6       117.147          37.812    21520957.300   115163009.452 6       117.147          38.375    21520972.100    89571271.842 7        91.115          45.750    21520972.040    89571273.846 7        91.115          45.187
R22  20269538.960   108200179.848 8      2335.905          49.062    20269540.040   108200179.855 8      2335.905          49.500    20269547.960    84155726.277 8      1816.815          51.625    20269548.160    84155729.275 8      1816.815          51.312
G10  22260308.300   116978711.043 7      2004.742          46.875    22260307.120   116978711.040 7      2004.742          46.625    22260316.640    91152277.969 7      1562.137          46.875    22260316.920    91152277.965 8      1562.137          48.312
G08  21274500.040   111798256.059 7      3412.985          43.750    21274497.960   111798256.049 5      3412.985          33.812    21274506.180    87115546.859 5      2659.469          33.500    21274507.620    87115552.872 8      2659.469          48.562
> 2024 05 09 12 34 24.0000000  0 15
G02  22397190.820   117698034.257 7      4259.602          45.937    22397188.920   117698034.268 6      4259.602          36.062    22397195.060    91712772.156 5      3319.171          35.687
G26  23263009.960   122247925.401 7      -715.394          42.375    23263009.360   122247925.414 6      -715.394          41.687    23263026.080    95258184.354 6      -557.450          41.312    23263026.220    95258180.351 7      -557.450          46.187
G21  20929186.000   109983616.358 8      3494.650          48.937    20929184.640   109983616.366 6      3494.650          40.187    20929190.120    85701530.661 6      2723.104          40.250
R12  20434195.480   109155805.245 7      4642.268          47.750    20434195.820   109155805.254 7      4642.268          46.812    20434205.560    84899004.186 7      3610.653          47.500    20434205.900    84899005.186 8      3610.653          48.000
G27  21130732.680   111042749.910 7      1807.652          47.250    21130731.400   111042749.912 8      1807.652          48.125    21130738.780    86526839.302 7      1408.560          47.937    21130739.040    86526844.300 8      1408.560          48.875
G16  21015634.560   110437901.831 7       780.868          46.312    21015632.660   110437901.841 6       780.868          39.812    21015639.080    86055524.731 6       608.468          39.250
G07  24133922.320   126824616.405 7      3428.549          44.375    24133920.800   126824616.415 4      3428.549          29.375    24133929.880    98824403.673 4      2671.597          29.312    24133931.000    98824410.673 6      2671.597          40.875
G23  24033601.440   126297418.341 7       193.096          42.437    24033600.680   126297418.351 5       193.096          30.125    24033611.360    98413562.944 5       150.464          30.125    24033611.920    98413622.948 7       150.464          46.000
R11  19909542.120   106390553.021 8         8.976          49.750    19909542.160   106390553.019 8         8.976          49.125    19909552.340    82748245.098 8         6.981          51.375    19909551.960    82748246.099 8         6.981          51.937
R07  24094628.240   128980425.377 6      5704.811          40.062    24094630.480   128980425.430 6      5704.811          39.062    24094654.420   100318222.130 7      4437.075          43.250    24094655.260   100318222.138 7      4437.075          43.750
R23  22942891.320   122728996.798 7      4545.762          44.937    22942890.600   122728996.829 7      4545.762          44.687
R21  21520938.580   115162892.559 6       116.636          37.812    21520934.400   115162892.568 6       116.636          38.375    21520950.320    89571180.928 7        90.717          45.250    21520950.100    89571182.937 7        90.717          45.187
R22  20269101.260   108197844.182 8      2335.396          48.187    20269102.340   108197844.194 8      2335.396          48.687    20269110.480    84153909.647 8      1816.419          51.125    20269110.580    84153912.648 8      1816.419          51.375
G10  22259926.980   116976706.662 7      2004.003          46.750    22259925.780   116976706.661 7      2004.003          46.562    22259935.220    91150716.114 7      1561.561          46.437    22259935.580    91150716.110 8      1561.561          48.500
G08  21273850.840   111794843.261 7      3412.576          44.687    21273848.680   111794843.250 5      3412.576          34.187    21273856.760    87112887.535 5      2659.150          33.937    21273857.940    87112893.545 8      2659.150          48.812
> 2024 05 09 12 34 25.0000000  0 15
G02  22396380.100   117693774.833 7      4259.159          45.500    22396378.280   117693774.841 5      4259.159          35.937    22396384.600    91709453.124 5      3318.825          35.812
G26  23263145.940   122248640.837 7      -715.688          43.250    23263145.600   122248640.847 6      -715.688          41.250    23263162.320    95258741.818 6      -557.679          40.875    23263162.440    95258737.818 7      -557.679          46.000
G21  20928520.920   109980121.904 8      3494.089          49.625    20928519.780   109980121.912 6      3494.089          39.687    20928525.160    85698807.708 6      2722.667          39.750
R12  20433326.700   109151163.286 7      4641.508          47.625    20433326.720   109151163.303 8      4641.508          48.000    20433336.580    84895393.781 7      3610.062          47.375    20433337.020    84895394.788 8      3610.062          48.312
G27  21130388.820   111040942.201 7      1807.583          46.875    21130387.420   111040942.206 8      1807.583          48.250    21130394.680    86525430.698 8      1408.506          48.125    21130395.240    86525435.698 8      1408.506          48.625
G16  21015486.060   110437121.035 7       780.489          45.687    21015484.180   110437121.042 6       780.489          39.687    21015490.460    86054916.313 6       608.173          39.375
G07  24133269.980   126821188.115 7      3427.883          44.250    24133268.400   126821188.125 4      3427.883          29.375    24133277.680    98821732.278 4      2671.078          29.312    24133278.440    98821739.284 6      2671.078          40.875
G23  24033564.780   126297225.392 7       192.681          42.000    24033563.980   126297225.402 5       192.681          30.125    24033574.680    98413412.590 5       150.141          30.125    24033575.460    98413472.600 7       150.141          46.000
R11  19909540.500   106390544.415 8         8.158          49.562    19909540.520   106390544.408 8         8.158          48.062    19909550.800    82748238.394 8         6.345          51.375    19909550.560    82748239.397 8         6.345          51.875
R07  24093562.700   128974720.315 6      5704.860          40.125    24093564.100   128974720.362 6      5704.860          39.062    24093588.600   100313784.860 7      4437.113          43.125    24093589.620   100313784.876 7      4437.113          43.125
R23  22942041.660   122724451.161 7      4545.398          45.250    22942041.120   122724451.189 7      4545.398          44.375
R21  21520917.100   115162775.659 6       116.762          37.812    21520912.060   115162775.669 6       116.762          38.375    21520928.660    89571090.006 7        90.815          45.625    21520928.400    89571092.013 7        90.815          45.375
R22  20268663.800   108195508.900 8      2335.087          48.437    20268664.900   108195508.909 8      2335.087          48.812    20268672.820    84152093.315 8      1816.179          51.500    20268673.120    84152096.315 8      1816.179          51.812
G10  22259545.600   116974702.911 7      2003.404          46.375    22259544.420   116974702.916 7      2003.404          46.687    22259553.980    91149154.752 7      1561.094          46.562    22259553.940    91149154.754 8      1561.094          48.062
G08  21273201.420   111791430.588 7      3412.527          44.312    21273199.320   111791430.575 5      3412.527          34.187    21273207.400    87110228.306 5      2659.112          33.937    21273208.620    87110234.325 8      2659.112          48.937
> 2024 05 09 12 34 26.0000000  0 15
G02  22395569.360   117689515.929 7      4258.843          46.000    22395567.880   117689515.937 5      4258.843          35.750    22395573.940    91706134.504 5      3318.579          35.812
G26  23263282.440   122249356.647 7      -715.945          43.500    23263281.880   122249356.651 6      -715.945          41.625    23263298.460    95259299.573 6      -557.879          41.312    23263298.660    95259295.571 7      -557.879          45.937
G21  20927856.080   109976628.086 8      3493.610          48.750    20927855.120   109976628.094 6      3493.610          40.062    20927860.220    85696085.256 6      2722.293          39.812
R12  20432457.860   109146522.240 7      4640.809          47.937    20432458.120   109146522.257 7      4640.809          47.562    20432467.820    84891784.079 7      3609.518          47.875    20432468.260    84891785.083 7      3609.518          47.625
G27  21130044.700   111039134.840 7      1807.341          46.812    21130043.620   111039134.845 8      1807.341          48.000    21130050.740    86524022.363 8      1408.318          48.125    21130051.160    86524027.363 8      1408.318          48.625
G16  21015337.400   110436340.888 7       779.944          45.312    21015335.780   110436340.898 6       779.944          39.687    21015342.140    86054308.408 6       607.749          39.437
G07  24132617.560   126817760.468 7      3427.414          43.625    24132616.060   126817760.475 4      3427.414          29.375    24132625.420    98819061.382 4      2670.712          29.312    24132626.080    98819068.395 6      2670.712          40.625
G23  24033528.700   126297033.068 7       192.218          42.250    24033527.320   126297033.078 5       192.218          30.125    24033538.100    98413262.725 5       149.781          30.125    24033538.880    98413322.727 7       149.781          46.250
R11  19909539.000   106390536.688 8         7.434          49.500    19909538.700   106390536.681 8         7.434          48.875    19909549.400    82748232.382 8         5.782          51.937    19909549.100    82748233.385 8         5.782          52.312
R07  24092496.800   128969015.259 6      5705.172          40.125    24092498.460   128969015.290 6      5705.172          39.062    24092522.860   100309347.577 7      4437.356          43.375    24092523.780   100309347.587 7      4437.356          42.875
R23  22941191.740   122719906.012 7      4544.912          44.500    22941191.440   122719906.038 7      4544.912          44.250
R21  21520894.600   115162658.920 6       116.824          37.250    21520891.340   115162658.946 6       116.824          38.375    21520906.760    89570999.222 7        90.863          45.375    21520906.740    89571001.226 7        90.863          45.062
R22  20268226.600   108193174.120 8      2334.694          49.437    20268227.400   108193174.129 8      2334.694          49.437    20268235.320    84150277.379 8      1815.873          51.125    20268235.760    84150280.379 8      1815.873          51.312
G10  22259164.520   116972699.928 7      2002.798          46.562    22259163.220   116972699.928 7      2002.798          47.125    22259172.720    91147593.984 7      1560.622          46.687    22259172.960    91147593.982 7      1560.622          47.937
G08  21272551.820   111788018.202 7      3412.421          44.750    21272550.060   111788018.188 5      3412.421          34.375    21272558.020    87107569.308 5      2659.030          34.062    21272559.160    87107575.327 8      2659.030          48.625
> 2024 05 09 12 34 27.0000000  0 15
G02  22394759.180   117685257.506 7      4257.925          45.250    22394757.560   117685257.513 5      4257.925          35.750    22394763.700    91702816.254 5      3317.863          35.437
G26  23263418.400   122250072.740 7      -716.575          43.375    23263418.160   122250072.747 6      -716.575          41.187    23263434.760    95259857.552 6      -558.370          40.750    23263434.680    95259853.551 7      -558.370          46.187
G21  20927191.240   109973134.838 8      3492.707          49.500    20927190.340   109973134.846 6      3492.707          39.937    20927195.400    85693363.244 6      2721.590          40.125
R12  20431589.300   109141882.033 7      4639.487          47.875    20431589.680   109141882.047 7      4639.487          47.562    20431599.260    84888175.025 8      3608.490          48.000    20431599.420    84888176.031 7      3608.490          47.812
G27  21129700.860   111037327.688 7      1806.722          46.812    21129699.680   111037327.698 8      1806.722          48.000    21129706.980    86522614.195 7      1407.835          47.937    21129707.380    86522619.195 8      1407.835          48.687
G16  21015189.060   110435561.288 7       779.058          45.750    21015187.400   110435561.293 6       779.058          40.250    21015193.660    86053700.919 6       607.058          39.625
G07  24131965.500   126814333.410 7      3426.489          44.062    24131964.020   126814333.420 4      3426.489          29.375    24131973.380    98816390.947 4      2669.992          29.375    24131973.380    98816397.960 6      2669.992          40.625
G23  24033491.980   126296841.277 6       191.221          41.812    24033490.760   126296841.287 5       191.221          30.000    24033501.660    98413113.278 5       149.003          30.125    24033501.980    98413173.278 7       149.003          46.187
R11  19909537.940   106390529.778 8         6.165          49.500    19909537.400   106390529.772 8         6.165          48.687    19909548.140    82748227.000 8         4.795          51.687    19909547.940    82748228.000 8         4.795          52.062
R07  24091430.960   128963310.186 6      5704.691          40.125    24091433.560   128963310.212 6      5704.691          39.062    24091457.140   100304910.290 7      4436.982          43.187    24091458.020   100304910.311 7      4436.982          42.875
R23  22940341.900   122715361.223 7      4544.257          44.375    22940341.860   122715361.251 7      4544.257          44.687
R21  21520872.500   115162542.349 6       116.071          37.250    21520868.980   115162542.370 6       116.071          38.125    21520884.920    89570908.543 7        90.277          45.250    21520884.800    89570910.548 7        90.277          45.312
R22  20267789.320   108190839.759 8      2333.843          49.562    20267790.180   108190839.770 8      2333.843          49.000    20267797.980    84148461.760 8      1815.211          51.062    20267798.280    84148464.765 8      1815.211          51.312
G10  22258783.500   116970697.586 7      2001.791          45.750    22258782.100   116970697.594 7      2001.791          47.000    22258791.740    91146033.722 7      1559.837          47.000    22258792.120    91146033.722 8      1559.837          48.312
G08  21271902.500   111784606.034 7      3411.712          43.687    21271900.860   111784606.023 5      3411.712          34.375    21271908.940    87104910.479 5      2658.477          34.062    21271909.920    87104916.497 8      2658.477          48.375
> 2024 05 09 12 34 28.0000000  0 15
G02  22393948.900   117680999.537 7      4257.933          45.625    22393947.280   117680999.542 5      4257.933          35.687    22393953.540    91699498.356 5      3317.870          35.687
G26  23263554.980   122250789.169 7      -716.561          42.875    23263554.520   122250789.174 6      -716.561          41.312    23263571.080    95260415.794 6      -558.359          41.187    23263570.900    95260411.790 7      -558.359          46.062
G21  20926526.740   109969642.181 7      3492.539          47.562    20926525.660   109969642.189 6      3492.539          39.937    20926530.780    85690641.694 6      2721.459          39.937
R12  20430720.640   109137242.649 7      4639.129          47.500    20430720.880   109137242.660 7      4639.129          47.687    20430730.760    84884566.617 8      3608.212          48.000    20430731.060    84884567.621 8      3608.212          48.187
G27  21129356.840   111035520.786 7      1807.020          46.625    21129355.960   111035520.794 8      1807.020          48.000    21129363.080    86521206.219 8      1408.068          48.000    21129363.660    86521211.221 8      1408.068          48.687
G16  21015040.780   110434782.273 7       778.842          45.812    21015039.080   110434782.278 6       778.842          39.687    21015045.360    86053093.891 6       606.890          39.187
G07  24131313.520   126810906.966 7      3426.298          44.187    24131311.940   126810906.971 4      3426.298          29.375    24131321.380    98813720.989 4      2669.843          29.375    24131321.360    98813727.995 6      2669.843          40.750
G23  24033455.480   126296650.031 6       191.107          41.562    24033454.240   126296650.038 5       191.107          30.000    24033465.100    98412964.251 4       148.915          29.937    24033465.620    98413024.257 7       148.915          46.375
R11  19909536.800   106390523.711 8         5.729          49.187    19909536.040   106390523.704 8         5.729          48.125    19909547.080    82748222.283 8         4.456          51.250    19909546.760    82748223.283 8         4.456          52.312
R07  24090365.420   128957605.073 6      5705.296          40.000    24090367.440   128957605.080 6      5705.296          39.000    24090391.740   100300472.967 7      4437.452          43.625    24090392.280   100300472.980 7      4437.452          42.437
R23  22939492.300   122710816.845 7      4544.366          44.750    22939492.180   122710816.878 7      4544.366          44.187
R21  21520850.720   115162425.830 6       116.638          37.250    21520847.520   115162425.842 6       116.638          38.125    21520863.420    89570817.915 7        90.718          46.000    21520862.800    89570819.909 7        90.718          45.500
R22  20267352.180   108188505.809 8      2333.879          49.312    20267352.840   108188505.823 8      2333.879          48.750    20267360.840    84146646.470 8      1815.240          51.125    20267360.900    84146649.475 8      1815.240          51.250
G10  22258402.680   116968695.962 7      2001.437          46.437    22258401.300   116968695.964 7      2001.437          46.562    22258410.840    91144474.012 7      1559.561          46.625    22258411.180    91144474.012 8      1559.561          48.375
G08  21271253.160   111781194.060 7      3411.995          45.375    21271251.740   111781194.049 5      3411.995          34.312    21271259.560    87102251.801 5      2658.697          33.875    21271260.480    87102257.812 8      2658.697          48.500
> 2024 05 09 12 34 29.0000000  0 15
G02  22393138.780   117676741.921 7      4257.631          45.625    22393136.980   117676741.923 6      4257.631          36.125    22393143.300    91696180.735 6      3317.634          36.062
G26  23263691.480   122251505.754 7      -716.497          43.875    23263690.920   122251505.759 6      -716.497          41.375    23263707.360    95260974.153 6      -558.309          40.875    23263707.120    95260970.153 7      -558.309          45.937
G21  20925862.180   109966149.963 8      3492.175          48.187    20925861.100   109966149.973 6      3492.175          40.437    20925866.240    85687920.485 6      2721.176          39.750
R12  20429852.440   109132603.972 7      4638.429          47.875    20429852.400   109132603.984 7      4638.429          47.062    20429862.220    84880958.755 7      3607.667          47.500    20429862.780    84880959.759 8      3607.667          48.375
G27  21129013.160   111033714.034 7      1806.814          47.312    21129012.240   111033714.044 8      1806.814          48.187    21129019.240    86519798.360 8      1407.907          48.250    21129019.680    86519803.364 8      1407.907          48.375
G16  21014892.820   110434003.682 7       778.459          46.250    21014890.980   110434003.687 6       778.459          39.875    21014897.360    86052487.195 6       606.591          39.437
G07  24130661.660   126807481.009 7      3425.755          44.687    24130660.080   126807481.016 4      3425.755          29.375    24130669.360    98811051.410 4      2669.419          29.375    24130669.380    98811058.422 6      2669.419          40.750
G23  24033419.100   126296459.213 6       190.696          41.125    24033417.720   126296459.220 5       190.696          30.000    24033428.900    98412815.555 4       148.594          29.937    24033429.380    98412875.559 7       148.594          46.250
R11  19909535.860   106390518.314 8         5.243          48.437    19909534.820   106390518.304 8         5.243          48.375    19909546.060    82748218.073 8         4.078          52.312    19909545.940    82748219.075 8         4.078          52.437
R07  24089299.680   128951899.797 6      5705.485          40.000    24089301.380   128951899.815 6      5705.485          39.000    24089325.640   100296035.534 7      4437.599          43.625    24089326.580   100296035.545 7      4437.599          42.937
R23  22938642.580   122706272.777 7      4543.979          44.812    22938643.040   122706272.816 7      4543.979          44.062
R21  21520829.680   115162309.326 6       116.523          37.250    21520825.440   115162309.333 6       116.523          38.125    21520841.720    89570727.290 7        90.629          45.000    21520841.360    89570729.297 7        90.629          45.250
R22  20266915.040   108186172.166 8      2333.648          48.687    20266915.560   108186172.180 8      2333.648          48.375    20266923.620    84144831.412 8      1815.059          50.937    20266923.660    84144834.417 8      1815.059          51.187
G10  22258021.780   116966694.868 7      2001.034          46.375    22258020.500   116966694.873 7      2001.034          46.562    22258030.040    91142914.718 7      1559.247          46.750    22258030.260    91142914.716 8      1559.247          48.125
G08  21270603.680   111777782.184 7      3411.852          44.375    21270602.660   111777782.178 5      3411.852          34.312    21270610.260    87099593.198 5      2658.586          33.875    21270611.360    87099599.217 8      2658.586          48.500
> 2024 05 09 12 34 30.0000000  0 15
G02  22392328.780   117672484.856 7      4256.511          46.125    22392326.900   117672484.863 6      4256.511          36.562    22392333.220    91692863.546 5      3316.762          35.937
G26  23263827.640   122252222.764 7      -717.471          42.937    23263827.300   122252222.771 6      -717.471          41.187    23263843.800    95261532.848 6      -559.068          41.125    23263843.940    95261528.848 7      -559.068          45.937
G21  20925197.720   109962658.434 8      3490.952          48.937    20925196.660   109962658.441 6      3490.952          40.125    20925201.860    85685199.812 6      2720.223          40.062
R12  20428984.300   109127966.201 7      4636.931          47.437    20428984.040   109127966.207 7      4636.931          47.812    20428993.960    84877351.598 7      3606.502          47.875    20428994.480    84877352.602 8      3606.502          48.187
G27  21128669.540   111031907.608 7      1805.946          47.062    21128668.460   111031907.610 8      1805.946          48.375    21128675.620    86518390.747 8      1407.231          48.187    21128675.860    86518395.751 8      1407.231          48.750
G16  21014744.760   110433225.756 7       777.282          47.062    21014743.020   110433225.763 6       777.282          40.062    21014749.340    86051881.016 6       605.674          39.562
G07  24130009.440   126804055.719 7      3424.621          44.562    24130008.340   126804055.724 4      3424.621          29.875    24130017.440    98808382.353 4      2668.536          29.375    24130017.700    98808389.355 6      2668.536          40.750
G23  24033382.560   126296269.012 7       189.548          42.062    24033381.480   126296269.022 4       189.548          29.625    24033392.640    98412667.347 4       147.700          29.937    24033393.280    98412727.353 7       147.700          46.250
R11  19909534.860   106390513.849 8         3.715          48.812    19909533.760   106390513.831 8         3.715          48.562    19909545.300    82748214.592 8         2.889          52.000    19909545.000    82748215.592 8         2.889          52.500
R07  24088234.140   128946194.615 6      5704.863          40.000    24088235.520   128946194.646 6      5704.863          39.000    24088259.460   100291598.179 7      4437.116          43.500    24088260.940   100291598.193 7      4437.116          42.937
R23  22937793.520   122701729.164 7      4543.053          45.000    22937793.840   122701729.203 7      4543.053          44.000
R21  21520808.380   115162192.967 6       115.895          37.250    21520803.760   115162192.966 6       115.895          38.125    21520820.160    89570636.774 7        90.141          45.625    21520819.460    89570638.776 7        90.141          45.187
R22  20266477.920   108183839.046 8      2332.495          48.937    20266478.600   108183839.055 8      2332.495          49.125    20266486.460    84143016.757 8      1814.163          51.562    20266486.900    84143019.756 8      1814.163          51.500
G10  22257641.020   116964694.560 7      1999.612          47.437    22257639.780   116964694.567 7      1999.612          46.812    22257649.400    91141356.037 7      1558.139          46.812    22257649.720    91141356.039 8      1558.139          48.437
G08  21269954.500   111774370.586 7      3411.165          44.312    21269953.520   111774370.578 5      3411.165          34.437    21269960.980    87096934.810 5      2658.051          34.312    21269961.880    87096940.819 8      2658.051          48.000
> 2024 05 09 12 34 31.0000000  0 15
G02  22391518.800   117668228.193 7      4256.456          44.750    22391516.900   117668228.203 5      4256.456          35.750    22391523.160    91689546.670 5      3316.719          35.937
G26  23263963.960   122252939.992 7      -717.261          43.000    23263963.940   122252940.000 6      -717.261          41.687    23263980.360    95262091.713 6      -558.905          41.062    23263980.300    95262087.715 7      -558.905          45.562
G21  20924533.600   109959167.390 8      3490.844          48.375    20924532.420   109959167.395 6      3490.844          39.812    20924537.580    85682479.519 6      2720.138          39.937
R12  20428116.180   109123329.143 7      4636.761          47.312    20428115.860   109123329.149 7      4636.761          47.937    20428125.800    84873744.999 7      3606.370          47.937    20428126.560    84873746.007 8      3606.370          48.375
G27  21128325.660   111030101.344 7      1806.214          47.875    21128324.780   111030101.349 8      1806.214          48.500    21128331.820    86516983.269 8      1407.440          48.375    21128332.480    86516988.273 8      1407.440          48.875
G16  21014596.900   110432448.323 7       777.138          46.687    21014595.100   110432448.331 6       777.138          39.625    21014601.260    86051275.226 6       605.562          39.375
G07  24129358.040   126800630.949 7      3424.607          44.625    24129356.600   126800630.954 4      3424.607          29.875    24129365.800    98805713.701 4      2668.525          29.750    24129366.400    98805720.705 6      2668.525          41.062
G23  24033346.580   126296079.297 6       189.488          41.125    24033345.320   126296079.302 4       189.488          29.625    24033356.380    98412519.515 4       147.653          29.625    24033357.400    98412579.515 7       147.653          46.062
R11  19909534.320   106390510.122 8         3.415          49.562    19909533.220   106390510.109 8         3.415          48.687    19909544.620    82748211.689 8         2.656          51.687    19909544.360    82748212.689 8         2.656          52.437
R07  24087168.260   128940489.323 6      5705.468          40.437    24087169.620   128940489.359 6      5705.468          39.187    24087194.020   100287160.731 7      4437.586          43.437    24087195.120   100287160.738 7      4437.586          43.125
R23  22936944.220   122697185.888 7      4543.130          44.937    22936944.360   122697185.922 7      4543.130          44.187
R21  21520785.840   115162076.607 6       116.446          37.250    21520782.340   115162076.617 6       116.446          38.000    21520798.160    89570546.287 7        90.569          46.000    21520797.700    89570548.285 7        90.569          45.375
R22  20266041.000   108181506.251 8      2332.606          50.125    20266041.580   108181506.263 8      2332.606          48.937    20266049.400    84141202.363 8      1814.249          51.312    20266049.660    84141205.360 8      1814.249          51.312
G10  22257260.500   116962694.845 7      1999.472          46.937    22257259.280   116962694.850 7      1999.472          46.875    22257268.900    91139797.818 7      1558.030          46.937    22257269.340    91139797.824 8      1558.030          48.250
G08  21269305.500   111770959.130 7      3411.400          44.062    21269304.280   111770959.122 5      3411.400          34.312    21269311.800    87094276.534 5      2658.234          34.187    21269312.680    87094282.548 8      2658.234          48.750
