     3.05           OBSERVATION DATA    MIXED               RINEX VERSION / TYPE
TPS2RIN 1.0.29.3920 TPS-USER            20240511 193645 UTC PGM / RUN BY / DATE
Win64 build Feb 23, 2024 (c) Topcon Positioning Systems     COMMENT
SRC: 20240509_FA11.tps                                      COMMENT
OPT: -S -v 3.05                                             COMMENT
Observer            Agency                                  OBSERVER / AGENCY
O0M3X53SBGM         TPS HIPER_SR        4.8 HSR Jul,08,2022 REC # / TYPE / VERS
FW: 4.8 HSR Jul,08,2022 p3                                  COMMENT
SN: HiPer SR 1212-12575                                     COMMENT
000                 TPSHIPER_SR     NONE                    ANT # / TYPE
        1.8000        0.0000        0.0000                  ANTENNA: DELTA H/E/N
FA11                                                        MARKER NAME
  5391357.2437 -1597909.7414  3004519.5306                  APPROX POSITION XYZ
  2024     5     9    13     2   47.0000000     GPS         TIME OF FIRST OBS
  2024     5     9    13    17   47.0000000     GPS         TIME OF LAST OBS
     1.000                                                  INTERVAL
   901 EPOCHS                                               COMMENT
G   16 C1C L1C D1C S1C C1W L1W D1W S1W C2W L2W D2W S2W C2X  SYS / # / OBS TYPES
       L2X D2X S2X                                          SYS / # / OBS TYPES
R   16 C1C L1C D1C S1C C1P L1P D1P S1P C2P L2P D2P S2P C2C  SYS / # / OBS TYPES
       L2C D2C S2C                                          SYS / # / OBS TYPES
    16                                                      # OF SATELLITES
   G02   901   901   901   901   901   901   901   901   901PRN / # OF OBS
         901   901   901     0     0     0     0            PRN / # OF OBS
   G03   783   783   783   783   783   783   783   783   783PRN / # OF OBS
         783   783   783   783   783   783   783            PRN / # OF OBS
   G07   901   901   901   901   901   901   901   901   901PRN / # OF OBS
         901   901   901   901   901   901   901            PRN / # OF OBS
   G08   901   901   901   901   901   901   901   901   901PRN / # OF OBS
         901   901   901   901   901   901   901            PRN / # OF OBS
   G10   901   901   901   901   901   901   901   901   901PRN / # OF OBS
         901   901   901   901   901   901   901            PRN / # OF OBS
   G16   901   901   901   901   901   901   901   901   901PRN / # OF OBS
         901   901   901     0     0     0     0            PRN / # OF OBS
   G21   901   901   901   901   901   901   901   901   901PRN / # OF OBS
         901   901   901     0     0     0     0            PRN / # OF OBS
   G23   674   674   674   674   674   674   674   674   674PRN / # OF OBS
         674   674   674   674   674   674   674            PRN / # OF OBS
   G26   901   901   901   901   901   901   901   901   901PRN / # OF OBS
         901   901   901   901   901   901   901            PRN / # OF OBS
   G27   901   901   901   901   901   901   901   901   901PRN / # OF OBS
         901   901   901   901   901   901   901            PRN / # OF OBS
   R07   901   901   901   901   901   901   901   901   901PRN / # OF OBS
         901   901   901   901   901   901   901            PRN / # OF OBS
   R11   901   901   901   901   901   901   901   901   901PRN / # OF OBS
         901   901   901   901   901   901   901            PRN / # OF OBS
   R12   901   901   901   901   901   901   901   901   901PRN / # OF OBS
         901   901   901   901   901   901   901            PRN / # OF OBS
   R21   901   901   901   901   901   901   901   901   901PRN / # OF OBS
         901   901   901   901   901   901   901            PRN / # OF OBS
   R22   901   901   901   901   901   901   901   901   901PRN / # OF OBS
         901   901   901   901   901   901   901            PRN / # OF OBS
   R23   901   901   901   901   901   901   901   901     0PRN / # OF OBS
           0     0     0     0     0     0     0            PRN / # OF OBS
G L1C                                                       SYS / PHASE SHIFT
G L1W -0.25000                                              SYS / PHASE SHIFT
G L2W  0.00000                                              SYS / PHASE SHIFT
G L2X  0.25000                                              SYS / PHASE SHIFT
R L1C                                                       SYS / PHASE SHIFT
R L1P -0.25000                                              SYS / PHASE SHIFT
R L2P -0.25000                                              SYS / PHASE SHIFT
R L2C                                                       SYS / PHASE SHIFT
  6 R07  5 R11  0 R12 -1 R21  4 R22 -3 R23  3               GLONASS SLOT / FRQ #
                                                            GLONASS COD/PHS/BIS
    18    18  1929     7GPS                                 LEAP SECONDS
                                                            END OF HEADER
> 2024 05 09 13 02 47.0000000  0 15
G10  22377901.180   117596659.429 7       989.075          47.875    22377900.360   117596659.434 7       989.075          46.500    22377910.060    91633800.045 7       770.707          45.875    22377910.100    91633803.043 8       770.707          48.125
R07  22879785.740   122477286.717 7      5645.450          42.562    22879785.840   122477286.746 6      5645.450          40.687    22879810.680    95260224.431 7      4390.905          44.437    22879811.600    95260225.432 7      4390.905          44.375
G26  24154517.320   126932844.310 6     -1029.212          41.062    24154515.760   126932844.312 6     -1029.212          38.062    24154536.760    98908781.507 6      -801.983          37.875    24154536.760    98908785.504 7      -801.983          43.937
G27  21197836.500   111395385.846 7      1478.650          46.875    21197834.960   111395385.851 8      1478.650          49.250    21197843.780    86801622.673 8      1152.195          48.437    21197843.560    86801626.680 8      1152.195          50.062
G23  24690473.800   129749311.085 6      -501.652          37.812    24690472.360   129749311.096 4      -501.652          24.562    24690483.460   101103390.672 4      -390.898          24.812    24690483.780   101103403.665 7      -390.898          43.187
R23  22184425.820   118671725.767 7      4024.711          45.125    22184425.700   118671725.787 7      4024.711          44.062
R21  22084452.260   118178365.908 7       138.588          45.250    22084454.700   118178365.926 7       138.588          44.625    22084467.740    91916566.936 7       107.791          47.562    22084467.440    91916563.939 7       107.791          47.500
G07  23772744.560   124926602.653 6      2524.378          41.875    23772743.320   124926602.655 4      2524.378          29.875    23772752.980    97345442.091 4      1967.048          29.750    23772753.620    97345450.095 6      1967.048          41.937
G16  21498372.280   112974703.979 7       -22.120          46.750    21498370.680   112974703.989 6       -22.120          38.687    21498377.900    88032259.061 6       -17.236          38.750
G02  21729552.860   114189603.889 7      3591.425          47.250    21729551.140   114189603.894 6      3591.425          37.187    21729556.120    88978930.036 6      2798.513          37.625
G08  20811059.600   109362856.384 8      3144.305          48.187    20811058.500   109362856.378 8      3144.305          48.812    20811066.180    85217837.289 8      2450.107          48.812    20811067.040    85217841.288 8      2450.107          50.000
R11  20695049.520   110588061.186 8     -1084.982          49.437    20695048.440   110588061.188 8     -1084.982          48.687    20695062.140    86012979.226 8      -843.875          50.312    20695061.960    86012981.228 8      -843.875          51.125
G21  20535257.700   107913510.308 8      2677.087          48.187    20535256.140   107913510.312 6      2677.087          39.312    20535261.980    84088464.493 6      2086.041          39.812
R22  20209962.440   107882172.532 8      1844.249          49.500    20209962.720   107882172.530 8      1844.249          48.875    20209971.240    83908393.331 8      1434.416          50.062    20209971.520    83908393.332 8      1434.416          50.312
R12  19777495.520   105647835.439 8      3213.268          49.937    19777495.380   105647835.448 8      3213.268          50.125    19777505.720    82170578.402 8      2499.209          50.125    19777506.000    82170587.406 8      2499.209          50.437
> 2024 05 09 13 02 48.0000000  0 15
G10  22377712.700   117595670.807 7       988.472          46.562    22377712.340   117595670.817 7       988.472          46.437    22377721.760    91633029.691 7       770.238          46.250    22377721.980    91633032.694 8       770.238          48.312
R07  22878731.420   122471641.669 6      5645.020          41.500    22878731.280   122471641.686 6      5645.020          40.687    22878756.100    95255833.835 7      4390.571          44.250    22878757.000    95255834.837 7      4390.571          44.000
G26  24154712.860   126933874.008 6     -1029.589          41.062    24154711.640   126933874.013 6     -1029.589          38.000    24154732.680    98909583.867 6      -802.277          37.750    24154732.560    98909587.862 7      -802.277          43.750
G27  21197555.180   111393907.502 7      1478.426          47.937    21197553.660   111393907.510 8      1478.426          48.625    21197562.460    86800470.716 8      1152.020          48.312    21197562.180    86800474.721 8      1152.020          49.562
G23  24690569.100   129749813.312 6      -502.142          37.812    24690568.000   129749813.319 4      -502.142          24.562    24690579.060   101103782.013 4      -391.279          24.812    24690579.260   101103794.998 7      -391.279          43.000
R23  22183673.660   118667701.547 7      4024.253          45.125    22183673.380   118667701.564 7      4024.253          44.187
R21  22084426.740   118178227.609 7       138.518          45.625    22084428.820   118178227.629 7       138.518          44.625    22084441.660    91916459.366 7       107.736          47.437    22084441.640    91916456.361 7       107.736          47.500
G07  23772264.240   124924078.701 7      2523.854          42.562    23772263.000   124924078.706 4      2523.854          29.875    23772272.720    97343475.374 4      1966.640          29.812    23772273.340    97343483.388 6      1966.640          41.875
G16  21498376.280   112974726.544 7       -22.669          47.500    21498374.920   112974726.552 6       -22.669          38.625    21498382.260    88032276.634 6       -17.664          38.687
G02  21728869.420   114186012.895 7      3590.990          47.000    21728867.860   114186012.900 6      3590.990          37.687    21728872.780    88976131.857 6      2798.174          38.125
G08  20810461.400   109359712.396 8      3144.084          48.250    20810460.180   109359712.396 8      3144.084          48.687    20810467.960    85215387.433 8      2449.935          48.562    20810468.980    85215391.432 8      2449.935          49.812
R11  20695252.780   110589146.649 8     -1085.520          49.750    20695251.560   110589146.647 8     -1085.520          48.500    20695265.240    86013823.460 8      -844.293          50.062    20695265.020    86013825.460 8      -844.293          51.000
G21  20534748.400   107910833.692 8      2676.529          48.125    20534746.780   107910833.694 6      2676.529          39.625    20534752.400    84086378.821 6      2085.607          39.750
R22  20209617.060   107880328.675 8      1843.927          49.812    20209617.460   107880328.676 8      1843.927          49.000    20209625.760    83906959.239 8      1434.165          50.500    20209625.780    83906959.235 8      1434.165          50.250
R12  19776894.360   105644622.860 8      3212.249          49.812    19776893.940   105644622.869 8      3212.249          50.250    19776904.320    82168079.727 8      2498.416          50.250    19776904.600    82168088.731 8      2498.416          50.000
> 2024 05 09 13 02 49.0000000  0 15
G10  22377524.920   117594682.505 7       987.912          47.375    22377524.260   117594682.510 7       987.912          46.375    22377533.580    91632259.580 7       769.801          46.062    22377534.080    91632262.579 8       769.801          48.562
R07  22877676.620   122465996.508 6      5645.009          41.500    22877676.780   122465996.525 6      5645.009          40.812    22877701.320    95251443.163 7      4390.563          43.750    22877702.080    95251444.160 7      4390.563          43.750
G26  24154908.680   126934903.540 7     -1029.689          42.062    24154907.580   126934903.543 6     -1029.689          38.312    24154928.580    98910386.092 6      -802.355          38.250    24154928.940    98910390.091 7      -802.355          43.812
G27  21197273.900   111392429.119 8      1478.229          48.250    21197272.340   111392429.124 8      1478.229          48.687    21197281.120    86799318.727 8      1151.867          48.250    21197280.980    86799322.732 8      1151.867          50.375
G23  24690664.660   129750315.570 6      -502.434          37.750    24690663.520   129750315.585 4      -502.434          24.562    24690674.600   101104173.381 4      -391.507          24.812    24690675.140   101104186.384 7      -391.507          43.187
R23  22182921.520   118663677.324 7      4023.966          45.125    22182921.220   118663677.341 7      4023.966          44.500
R21  22084400.800   118178088.959 7       138.477          45.625    22084403.300   118178088.993 7       138.477          44.687    22084416.020    91916351.537 7       107.704          47.125    22084415.900    91916348.535 7       107.704          47.312
G07  23771783.840   124921555.031 7      2523.306          42.562    23771782.820   124921555.030 4      2523.306          29.875    23771792.520    97341508.873 4      1966.212          29.812    23771792.680    97341516.889 6      1966.212          41.875
G16  21498380.460   112974749.272 7       -23.112          47.250    21498379.220   112974749.285 6       -23.112          38.437    21498386.540    88032294.340 6       -18.010          38.187
G02  21728186.220   114182422.037 8      3590.491          48.437    21728184.600   114182422.042 6      3590.491          37.437    21728189.480    88973333.790 6      2797.785          37.375
G08  20809863.000   109356568.335 8      3143.931          48.250    20809861.840   109356568.342 8      3143.931          48.437    20809869.680    85212937.521 8      2449.816          48.375    20809870.620    85212941.524 8      2449.816          49.687
R11  20695455.720   110590232.387 8     -1086.098          50.062    20695454.880   110590232.390 8     -1086.098          48.625    20695468.260    86014667.921 8      -844.743          49.812    20695468.440    86014669.923 8      -844.743          50.000
G21  20534239.040   107908157.260 8      2676.077          48.750    20534237.500   107908157.265 6      2676.077          39.625    20534243.140    84084293.288 6      2085.255          39.562
R22  20209271.780   107878484.776 8      1843.685          49.625    20209272.040   107878484.779 8      1843.685          48.687    20209280.360    83905525.095 8      1433.978          50.000    20209280.400    83905525.091 8      1433.978          50.125
R12  19776293.080   105641410.927 8      3211.359          50.562    19776292.760   105641410.928 8      3211.359          50.000    19776302.960    82165581.553 8      2497.723          49.625    19776303.540    82165590.557 8      2497.723          49.937
> 2024 05 09 13 02 50.0000000  0 15
G10  22377337.000   117593694.903 7       987.367          47.625    22377336.240   117593694.910 7       987.367          46.750    22377345.680    91631490.025 7       769.377          45.750    22377345.980    91631493.025 8       769.377          48.125
R07  22876621.780   122460351.697 6      5644.712          41.500    22876622.340   122460351.712 6      5644.712          40.812    22876646.740    95247052.755 7      4390.331          44.187    22876647.740    95247053.750 7      4390.331          43.687
G26  24155104.600   126935933.338 6     -1029.860          41.687    24155103.600   126935933.346 6     -1029.860          37.937    24155124.460    98911188.532 6      -802.488          37.625    24155124.640    98911192.527 7      -802.488          43.875
G27  21196992.620   111390951.096 8      1477.878          48.062    21196991.140   111390951.103 8      1477.878          49.000    21196999.920    86798167.021 8      1151.594          48.500    21196999.600    86798171.024 8      1151.594          50.125
G23  24690760.180   129750818.356 6      -502.848          37.937    24690759.160   129750818.368 4      -502.848          24.562    24690770.560   101104565.160 3      -391.830          23.687    24690770.920   101104578.151 7      -391.830          43.187
R23  22182169.680   118659653.510 7      4023.776          45.062    22182168.820   118659653.517 7      4023.776          44.500
R21  22084374.900   118177950.355 7       138.637          45.875    22084377.440   118177950.383 7       138.637          45.250    22084390.300    91916243.724 7       107.829          47.750    22084390.060    91916240.721 7       107.829          47.500
G07  23771303.620   124919032.030 7      2522.671          42.625    23771302.680   124919032.033 5      2522.671          30.250    23771312.320    97339542.899 4      1965.718          29.812    23771312.640    97339550.911 6      1965.718          41.875
G16  21498385.000   112974772.589 7       -23.538          47.812    21498383.520   112974772.599 6       -23.538          38.812    21498391.080    88032312.500 6       -18.341          38.750
G02  21727502.980   114178831.679 7      3590.186          47.750    21727501.260   114178831.684 6      3590.186          37.500    21727506.240    88970536.110 6      2797.547          37.437
G08  20809264.840   109353424.615 8      3143.642          48.312    20809263.700   109353424.617 8      3143.642          48.375    20809271.460    85210487.865 8      2449.591          48.250    20809272.480    85210491.866 8      2449.591          49.937
R11  20695659.000   110591318.798 8     -1086.644          49.437    20695658.020   110591318.796 8     -1086.644          48.812    20695671.660    86015512.887 8      -845.168          50.187    20695671.800    86015514.888 8      -845.168          50.875
G21  20533729.680   107905481.410 8      2675.612          48.750    20533728.200   107905481.412 6      2675.612          39.500    20533733.760    84082208.209 6      2084.892          39.687
R22  20208926.220   107876641.263 8      1843.394          49.187    20208926.780   107876641.264 8      1843.394          48.937    20208935.120    83904091.252 8      1433.751          50.812    20208935.040    83904091.248 8      1433.751          50.625
R12  19775691.780   105638200.039 8      3210.480          50.437    19775691.640   105638200.035 8      3210.480          50.187    19775701.840    82163084.192 8      2497.040          50.375    19775702.340    82163093.196 8      2497.040          50.375
> 2024 05 09 13 02 51.0000000  0 15
G10  22377149.260   117592707.897 7       986.799          47.687    22377148.520   117592707.902 7       986.799          46.750    22377157.800    91630720.928 7       768.934          46.250    22377157.980    91630723.931 7       768.934          47.937
R07  22875566.900   122454707.061 7      5644.479          42.125    22875567.480   122454707.081 6      5644.479          40.812    22875592.300    95242662.490 7      4390.150          43.812    22875593.260    95242663.490 7      4390.150          44.312
G26  24155300.620   126936963.280 6     -1029.867          40.750    24155299.500   126936963.280 6     -1029.867          38.312    24155320.300    98911991.074 6      -802.494          38.000    24155321.020    98911995.063 7      -802.494          43.750
G27  21196711.280   111389473.282 7      1477.723          47.625    21196709.840   111389473.290 8      1477.723          49.062    21196718.640    86797015.474 8      1151.472          48.625    21196718.380    86797019.477 8      1151.472          49.812
G23  24690855.960   129751321.470 6      -503.130          37.562    24690854.800   129751321.480 4      -503.130          24.562    24690866.360   101104957.193 3      -392.050          23.687    24690866.800   101104970.182 7      -392.050          43.687
R23  22181417.560   118655630.007 7      4023.393          45.187    22181416.740   118655630.014 7      4023.393          44.437
R21  22084349.020   118177811.735 7       138.620          45.875    22084351.560   118177811.768 7       138.620          44.687    22084364.360    91916135.906 7       107.815          47.000    22084364.260    91916132.910 7       107.815          47.625
G07  23770823.460   124916509.548 7      2522.210          42.437    23770822.640   124916509.550 5      2522.210          30.250    23770832.420    97337577.324 5      1965.358          30.375    23770833.040    97337585.330 7      1965.358          42.000
G16  21498389.620   112974796.344 7       -23.955          47.000    21498388.240   112974796.354 6       -23.955          38.687    21498395.680    88032331.005 6       -18.666          38.937
G02  21726819.720   114175241.717 7      3589.812          47.687    21726818.080   114175241.722 6      3589.812          37.312    21726822.960    88967738.738 6      2797.256          37.500
G08  20808666.460   109350281.071 7      3143.453          47.937    20808665.420   109350281.076 8      3143.453          48.812    20808673.280    85208038.352 8      2449.444          48.125    20808674.400    85208042.353 8      2449.444          49.937
R11  20695862.400   110592405.727 8     -1087.172          49.312    20695861.520   110592405.731 8     -1087.172          49.062    20695875.100    86016358.272 8      -845.578          50.000    20695875.020    86016360.272 8      -845.578          50.562
G21  20533220.700   107902806.011 7      2675.256          47.562    20533219.140   107902806.010 6      2675.256          39.875    20533224.700    84080123.481 6      2084.615          39.625
R22  20208581.000   107874797.983 8      1843.184          49.187    20208581.420   107874797.986 8      1843.184          49.000    20208589.660    83902657.587 8      1433.588          50.062    20208589.900    83902657.584 8      1433.588          50.750
R12  19775090.740   105634990.067 8      3209.561          50.250    19775090.800   105634990.066 8      3209.561          49.937    19775101.100    82160587.545 8      2496.325          50.375    19775101.200    82160596.551 8      2496.325          50.125
> 2024 05 09 13 02 52.0000000  0 15
G10  22376961.580   117591721.519 8       986.069          48.000    22376960.820   117591721.524 7       986.069          46.687    22376970.180    91629952.321 7       768.365          45.875    22376970.460    91629955.321 8       768.365          48.375
R07  22874512.620   122449062.647 7      5644.321          42.125    22874513.660   122449062.662 6      5644.321          40.937    22874538.080    95238272.388 7      4390.028          44.125    22874538.460    95238273.390 7      4390.028          44.875
G26  24155496.820   126937993.409 6     -1030.138          40.937    24155495.700   126937993.409 6     -1030.138          38.000    24155516.420    98912793.770 6      -802.705          37.687    24155517.220    98912797.763 7      -802.705          43.687
G27  21196430.320   111387995.750 7      1477.394          47.812    21196428.780   111387995.758 8      1477.394          49.125    21196437.420    86795864.146 8      1151.216          48.625    21196437.080    86795868.151 8      1151.216          50.062
G23  24690951.440   129751825.010 6      -503.807          37.562    24690950.680   129751825.015 4      -503.807          24.562    24690962.040   101105349.558 3      -392.577          23.687    24690962.500   101105362.535 7      -392.577          43.562
R23  22180665.440   118651606.817 7      4023.019          45.437    22180664.820   118651606.821 7      4023.019          44.750
R21  22084323.260   118177673.184 7       138.522          46.312    22084325.480   118177673.202 7       138.522          44.687    22084338.580    91916028.132 7       107.739          47.687    22084338.160    91916025.135 7       107.739          47.812
G07  23770343.580   124913987.633 7      2521.726          42.875    23770342.880   124913987.632 5      2521.726          30.250    23770352.560    97335612.195 5      1964.981          30.375    23770353.420    97335620.186 7      1964.981          42.000
G16  21498394.240   112974820.620 7       -24.610          47.750    21498392.840   112974820.627 6       -24.610          39.000    21498400.200    88032349.913 6       -19.176          38.750
G02  21726136.620   114171652.205 7      3589.285          47.812    21726135.140   114171652.215 6      3589.285          37.625    21726139.920    88964941.717 6      2796.845          37.750
G08  20808068.380   109347137.784 8      3143.134          48.250    20808067.160   109347137.792 8      3143.134          48.875    20808075.140    85205589.038 8      2449.195          48.750    20808075.960    85205593.041 8      2449.195          49.625
R11  20696066.220   110593493.255 8     -1087.842          49.375    20696065.020   110593493.258 8     -1087.842          49.000    20696078.620    86017204.112 8      -846.099          50.312    20696078.640    86017206.112 8      -846.099          50.687
G21  20532711.740   107900131.132 7      2674.543          47.625    20532710.120   107900131.139 6      2674.543          39.562    20532715.620    84078039.168 6      2084.060          39.500
R22  20208235.540   107872955.002 8      1842.781          49.625    20208236.260   107872955.011 8      1842.781          49.062    20208244.380    83901224.168 8      1433.274          50.375    20208244.420    83901224.164 8      1433.274          50.625
R12  19774490.120   105631781.065 8      3208.481          50.250    19774489.960   105631781.066 8      3208.481          49.687    19774500.520    82158091.656 8      2495.485          50.062    19774500.680    82158100.660 8      2495.485          50.750
> 2024 05 09 13 02 53.0000000  0 15
G10  22376773.900   117590735.761 7       985.374          47.437    22376773.260   117590735.768 7       985.374          46.500    22376782.540    91629184.196 7       767.824          46.000    22376782.960    91629187.198 8       767.824          48.312
R07  22873458.380   122443418.439 7      5644.037          42.625    22873459.080   122443418.467 6      5644.037          40.937    22873483.600    95233882.465 7      4389.807          43.750    22873484.120    95233883.460 7      4389.807          44.000
G26  24155693.160   126939023.709 6     -1030.510          41.312    24155691.760   126939023.719 6     -1030.510          38.125    24155712.440    98913596.605 6      -802.995          37.937    24155713.360    98913600.598 7      -802.995          43.687
G27  21196149.160   111386518.471 7      1477.111          47.812    21196147.640   111386518.481 8      1477.111          49.375    21196156.300    86794713.019 8      1150.996          49.125    21196155.940    86794717.022 8      1150.996          48.062
G23  24691047.220   129752328.887 6      -504.155          38.000    24691046.600   129752328.894 3      -504.155          23.312    24691057.980   101105742.183 3      -392.848          23.687    24691058.200   101105755.172 7      -392.848          43.562
R23  22179913.180   118647583.934 7      4022.661          45.250    22179912.440   118647583.951 7      4022.661          44.750
R21  22084297.560   118177534.631 7       138.468          46.000    22084299.460   118177534.638 7       138.468          45.062    22084312.700    91915920.360 7       107.698          47.062    22084312.360    91915917.361 7       107.698          47.750
G07  23769863.640   124911466.322 7      2520.880          43.125    23769863.000   124911466.321 5      2520.880          30.125    23769872.820    97333647.531 5      1964.322          30.375    23769873.040    97333655.531 6      1964.322          41.687
G16  21498398.780   112974845.361 7       -25.107          47.250    21498397.400   112974845.365 6       -25.107          38.562    21498404.880    88032369.183 6       -19.564          38.687
G02  21725453.520   114168063.121 7      3588.865          47.937    21725452.120   114168063.125 6      3588.865          37.562    21725456.800    88962145.030 6      2796.518          37.562
G08  20807470.200   109343994.711 8      3142.900          48.562    20807469.060   109343994.718 8      3142.900          49.062    20807477.100    85203139.890 8      2449.013          48.250    20807477.720    85203143.893 8      2449.013          50.125
R11  20696269.800   110594581.354 8     -1088.462          49.312    20696268.660   110594581.363 8     -1088.462          48.437    20696282.420    86018050.408 8      -846.582          50.562    20696282.340    86018052.410 8      -846.582          50.625
G21  20532202.940   107897456.737 7      2674.098          46.937    20532201.200   107897456.744 6      2674.098          39.562    20532206.800    84075955.226 6      2083.713          39.437
R22  20207890.320   107871112.287 8      1842.510          49.437    20207891.020   107871112.293 8      1842.510          48.687    20207899.240    83899790.941 8      1433.063          50.187    20207899.340    83899790.938 8      1433.063          50.250
R12  19773889.600   105628573.000 8      3207.538          50.062    19773889.580   105628573.001 8      3207.538          50.125    19773899.880    82155596.494 8      2494.752          50.437    19773900.160    82155605.496 8      2494.752          50.125
> 2024 05 09 13 02 54.0000000  0 15
G10  22376586.400   117589750.689 7       984.790          47.250    22376585.720   117589750.696 7       984.790          46.187    22376595.060    91628416.610 7       767.369          45.812    22376595.500    91628419.613 8       767.369          48.250
R07  22872403.740   122437774.530 7      5643.918          42.625    22872405.420   122437774.540 6      5643.918          40.937    22872429.540    95229492.748 7      4389.714          44.125    22872429.720    95229493.746 7      4389.714          44.125
G26  24155889.180   126940054.266 6     -1030.734          41.062    24155887.800   126940054.276 6     -1030.734          38.437    24155908.520    98914399.632 6      -803.169          38.375    24155909.060    98914403.625 7      -803.169          43.312
G27  21195868.200   111385041.522 7      1476.922          46.812    21195866.600   111385041.529 8      1476.922          48.062    21195875.260    86793562.148 7      1150.848          47.750    21195874.940    86793566.155 8      1150.848          50.062
G23  24691143.300   129752833.270 6      -504.755          38.000    24691142.640   129752833.278 3      -504.755          23.312    24691153.940   101106135.203 3      -393.315          23.687    24691154.720   101106148.194 7      -393.315          42.875
R23  22179161.200   118643561.465 7      4022.347          45.375    22179160.660   118643561.480 7      4022.347          44.562
R21  22084272.060   118177396.099 7       138.584          45.750    22084273.680   118177396.122 7       138.584          44.937    22084286.980    91915812.619 7       107.788          47.250    22084286.640    91915809.618 7       107.788          47.000
G07  23769384.040   124908945.581 7      2520.654          43.250    23769383.380   124908945.578 5      2520.654          30.125    23769392.880    97331683.314 5      1964.146          30.187    23769393.160    97331691.307 6      1964.146          41.875
G16  21498403.680   112974870.645 7       -25.460          47.062    21498402.220   112974870.653 6       -25.460          38.437    21498409.600    88032388.881 6       -19.839          38.000
G02  21724770.780   114164474.533 7      3588.437          47.437    21724769.220   114164474.541 6      3588.437          37.125    21724774.020    88959348.730 6      2796.185          38.125
G08  20806872.160   109340851.942 8      3142.712          48.187    20806871.020   109340851.947 7      3142.712          47.500    20806878.900    85200690.981 7      2448.867          47.062    20806879.780    85200694.984 8      2448.867          49.937
R11  20696473.360   110595670.076 8     -1088.927          49.375    20696472.640   110595670.077 8     -1088.927          48.750    20696486.100    86018897.179 8      -846.944          48.437    20696486.180    86018899.177 8      -846.944          48.562
G21  20531694.260   107894782.898 7      2673.656          47.062    20531692.240   107894782.906 6      2673.656          39.625    20531698.060    84073871.713 6      2083.368          39.437
R22  20207545.480   107869269.914 8      1842.372          50.000    20207545.980   107869269.907 8      1842.372          49.187    20207554.000    83898357.974 8      1432.956          49.375    20207554.220    83898357.971 8      1432.956          49.187
R12  19773289.060   105625365.955 8      3206.625          50.250    19773289.360   105625365.953 8      3206.625          50.187    19773299.540    82153102.124 8      2494.041          48.000    19773299.700    82153111.126 8      2494.041          48.312
> 2024 05 09 13 02 55.0000000  0 15
G10  22376399.040   117588766.218 7       984.016          47.437    22376398.340   117588766.223 7       984.016          46.812    22376407.640    91627649.486 7       766.766          46.437    22376408.100    91627652.485 7       766.766          47.750
R07  22871349.300   122432130.844 7      5643.460          42.625    22871350.960   122432130.862 6      5643.460          41.437    22871375.160    95225103.225 7      4389.357          44.250    22871375.600    95225104.220 7      4389.357          44.500
G26  24156085.280   126941084.939 6     -1030.926          41.562    24156084.080   126941084.949 6     -1030.926          38.812    24156104.500    98915202.758 6      -803.319          38.312    24156104.900    98915206.747 7      -803.319          43.562
G27  21195587.120   111383564.823 7      1476.472          46.062    21195585.560   111383564.830 8      1476.472          49.375    21195594.320    86792411.475 8      1150.497          49.125    21195594.260    86792415.478 8      1150.497          49.750
G23  24691239.480   129753337.938 6      -504.986          38.000    24691238.860   129753337.945 3      -504.986          23.312    24691250.000   101106528.448 3      -393.496          23.687    24691250.420   101106541.450 7      -393.496          43.000
R23  22178409.160   118639539.307 7      4021.835          45.500    22178408.780   118639539.336 7      4021.835          44.375
R21  22084245.920   118177257.572 7       138.462          45.562    22084247.860   118177257.593 7       138.462          45.000    22084261.420    91915704.864 7       107.692          47.937    22084260.640    91915701.861 7       107.692          47.687
G07  23768904.340   124906425.432 7      2519.914          43.375    23768903.860   124906425.434 5      2519.914          30.125    23768913.420    97329719.561 5      1963.569          30.187    23768914.120    97329727.562 6      1963.569          41.875
G16  21498408.620   112974896.408 7       -26.069          47.437    21498407.200   112974896.416 6       -26.069          38.562    21498414.620    88032408.950 6       -20.314          38.812
G02  21724087.860   114160886.355 7      3587.930          47.125    21724086.360   114160886.360 6      3587.930          37.812    21724091.260    88956552.748 6      2795.789          38.062
G08  20806274.180   109337709.392 8      3142.337          48.125    20806273.040   109337709.394 8      3142.337          48.625    20806280.960    85198242.237 8      2448.574          48.625    20806281.740    85198246.240 8      2448.574          49.937
R11  20696677.420   110596759.365 8     -1089.722          49.250    20696676.540   110596759.361 8     -1089.722          48.562    20696689.820    86019744.387 8      -847.562          50.687    20696689.680    86019746.387 8      -847.562          50.250
G21  20531185.400   107892109.551 8      2673.005          48.312    20531183.620   107892109.556 6      2673.005          39.375    20531189.280    84071788.588 6      2082.861          39.750
R22  20207200.560   107867427.819 8      1841.883          49.625    20207200.660   107867427.815 8      1841.883          49.312    20207208.960    83896925.236 8      1432.576          50.187    20207209.240    83896925.232 8      1432.576          50.187
R12  19772688.780   105622159.853 8      3205.554          50.812    19772689.020   105622159.849 8      3205.554          49.812    19772699.240    82150608.489 8      2493.209          50.062    19772699.700    82150617.491 8      2493.209          50.250
> 2024 05 09 13 02 56.0000000  0 15
G10  22376211.980   117587782.321 8       983.500          48.187    22376211.140   117587782.323 7       983.500          46.875    22376220.260    91626882.810 7       766.364          46.187    22376220.860    91626885.812 7       766.364          47.750
R07  22870294.420   122426487.316 7      5643.307          42.687    22870296.200   122426487.341 6      5643.307          41.437    22870321.220    95220713.833 7      4389.239          44.000    22870321.560    95220714.828 7      4389.239          43.687
G26  24156281.620   126942115.777 6     -1031.046          41.687    24156280.380   126942115.782 6     -1031.046          38.375    24156300.740    98916005.994 6      -803.412          38.250    24156301.560    98916009.983 7      -803.412          43.250
G27  21195306.000   111382088.350 7      1476.189          47.875    21195304.680   111382088.354 8      1476.189          48.750    21195313.300    86791260.973 8      1150.277          48.375    21195313.220    86791264.975 8      1150.277          49.875
G23  24691335.420   129753843.017 6      -505.255          37.875    24691335.240   129753843.025 3      -505.255          23.312    24691346.060   101106922.011 3      -393.705          23.687    24691346.820   101106934.996 7      -393.705          43.187
R23  22177657.320   118635517.454 7      4021.603          45.500    22177657.020   118635517.477 7      4021.603          44.375
R21  22084219.980   118177119.022 7       138.397          45.937    22084222.020   118177119.037 7       138.397          45.000    22084235.480    91915597.096 7       107.642          47.625    22084234.860    91915594.093 7       107.642          47.375
G07  23768425.300   124903905.826 7      2519.209          42.562    23768424.320   124903905.828 5      2519.209          30.187    23768434.000    97327756.228 5      1963.020          30.187    23768434.520    97327764.231 7      1963.020          42.062
G16  21498413.620   112974922.623 7       -26.536          47.062    21498412.320   112974922.628 6       -26.536          38.625    21498419.700    88032429.367 6       -20.678          38.625
G02  21723405.220   114157298.582 7      3587.414          47.750    21723403.600   114157298.587 6      3587.414          37.812    21723408.600    88953757.080 6      2795.387          37.625
G08  20805676.300   109334567.033 7      3142.123          47.375    20805675.120   109334567.035 8      3142.123          48.000    20805682.960    85195793.647 7      2448.408          47.687    20805684.120    85195797.650 8      2448.408          49.812
R11  20696881.520   110597849.169 8     -1090.164          49.062    20696880.400   110597849.168 8     -1090.164          48.375    20696893.880    86020592.000 8      -847.906          49.437    20696894.000    86020594.004 8      -847.906          49.687
G21  20530676.660   107889436.641 7      2672.579          47.875    20530675.040   107889436.651 6      2672.579          39.750    20530680.660    84069705.802 6      2082.529          39.375
R22  20206855.600   107865585.951 8      1841.594          49.625    20206855.760   107865585.955 8      1841.594          48.875    20206863.760    83895492.676 8      1432.351          50.000    20206864.140    83895492.674 8      1432.351          49.687
R12  19772088.620   105618954.681 8      3204.623          50.500    19772089.020   105618954.671 8      3204.623          49.875    19772099.440    82148115.571 8      2492.485          49.375    19772099.820    82148124.571 8      2492.485          50.000
> 2024 05 09 13 02 57.0000000  0 15
G10  22376024.840   117586799.054 7       983.001          47.437    22376024.000   117586799.056 7       983.001          47.000    22376033.300    91626116.628 7       765.975          46.687    22376033.700    91626119.632 8       765.975          48.187
R07  22869240.680   122420844.042 7      5643.079          42.687    22869242.200   122420844.073 6      5643.079          41.437    22869266.920    95216324.632 7      4389.061          44.562    22869267.340    95216325.623 7      4389.061          44.875
G26  24156477.900   126943146.794 6     -1031.302          41.937    24156476.820   126943146.799 6     -1031.302          38.312    24156496.940    98916809.382 6      -803.612          38.250    24156497.640    98916813.381 7      -803.612          43.437
G27  21195025.080   111380612.126 7      1476.063          47.062    21195023.700   111380612.134 8      1476.063          49.375    21195032.360    86790110.669 8      1150.179          48.687    21195032.260    86790114.671 8      1150.179          49.750
G23  24691431.280   129754348.491 6      -505.712          37.812    24691431.360   129754348.494 3      -505.712          23.312    24691442.180   101107315.879 3      -394.061          23.687    24691442.660   101107328.866 7      -394.061          43.437
R23  22176905.300   118631495.946 7      4021.265          45.500    22176904.800   118631495.972 7      4021.265          44.375
R21  22084194.340   118176980.460 7       138.611          45.937    22084195.580   118176980.467 7       138.611          45.125    22084209.680    91915489.315 8       107.808          48.125    22084209.040    91915486.313 8       107.808          48.062
G07  23767946.140   124901386.764 7      2518.725          42.687    23767945.040   124901386.761 5      2518.725          30.187    23767954.540    97325793.318 5      1962.643          30.187    23767955.220    97325801.320 6      1962.643          41.875
G16  21498418.680   112974949.310 8       -26.872          48.187    21498417.320   112974949.321 6       -26.872          38.562    21498424.720    88032450.159 6       -20.939          38.687
G02  21722722.540   114153711.225 7      3587.075          47.375    21722720.900   114153711.232 6      3587.075          37.750    21722726.060    88950961.739 6      2795.123          37.750
G08  20805078.320   109331424.913 7      3141.948          47.812    20805077.120   109331424.918 8      3141.948          48.687    20805085.060    85193345.242 8      2448.271          48.500    20805086.120    85193349.247 8      2448.271          50.562
R11  20697085.220   110598939.566 8     -1090.698          49.625    20697084.300   110598939.573 8     -1090.698          48.625    20697097.880    86021440.076 8      -848.320          50.687    20697097.840    86021442.076 8      -848.320          50.437
G21  20530168.060   107886764.234 7      2672.211          47.937    20530166.420   107886764.242 6      2672.211          39.250    20530172.040    84067623.410 6      2082.242          39.312
R22  20206510.300   107863744.366 8      1841.470          49.687    20206510.760   107863744.366 8      1841.470          49.437    20206518.800    83894060.327 8      1432.254          50.687    20206519.040    83894060.322 8      1432.254          50.250
R12  19771489.140   105615750.472 8      3203.699          50.187    19771489.220   105615750.465 8      3203.699          50.187    19771499.740    82145623.411 8      2491.766          50.062    19771499.760    82145632.415 8      2491.766          50.375
> 2024 05 09 13 02 58.0000000  0 15
G10  22375837.920   117585816.336 7       982.538          47.250    22375837.000   117585816.338 7       982.538          46.437    22375846.380    91625350.874 7       765.614          45.812    22375846.480    91625353.876 7       765.614          47.500
R07  22868187.140   122415200.899 7      5643.218          42.500    22868188.280   122415200.930 6      5643.218          41.062    22868212.820    95211935.521 7      4389.170          44.875    22868213.400    95211936.512 7      4389.170          44.687
G26  24156674.040   126944177.874 6     -1031.041          41.250    24156673.000   126944177.876 6     -1031.041          38.500    24156693.200    98917612.815 6      -803.409          37.812    24156693.960    98917616.814 7      -803.409          43.687
G27  21194744.240   111379136.081 7      1476.109          47.437    21194742.820   111379136.089 8      1476.109          49.062    21194751.500    86788960.502 8      1150.215          48.500    21194751.580    86788964.502 8      1150.215          49.875
G23  24691527.920   129754854.252 6      -505.979          37.625    24691527.480   129754854.257 3      -505.979          23.312    24691538.500   101107709.978 3      -394.270          23.062    24691538.660   101107722.971 7      -394.270          43.187
R23  22176153.420   118627474.687 7      4021.266          45.125    22176153.400   118627474.705 7      4021.266          44.312
R21  22084168.580   118176841.838 7       138.704          45.937    22084169.640   118176841.850 7       138.704          45.000    22084183.900    91915381.496 8       107.881          48.312    22084182.820    91915378.501 8       107.881          48.312
G07  23767467.040   124898868.207 7      2518.288          43.437    23767465.820   124898868.204 5      2518.288          30.187    23767475.320    97323830.806 4      1962.303          29.937    23767476.220    97323838.808 6      1962.303          41.875
G16  21498423.920   112974976.426 8       -27.255          48.312    21498422.340   112974976.434 6       -27.255          39.125    21498430.020    88032471.282 6       -21.238          38.625
G02  21722040.100   114150124.214 7      3586.931          47.125    21722038.420   114150124.218 6      3586.931          37.187    21722043.200    88948166.665 6      2795.011          37.437
G08  20804480.500   109328282.933 7      3141.975          47.687    20804479.260   109328282.943 8      3141.975          48.625    20804487.180    85190896.950 8      2448.293          48.062    20804488.380    85190900.957 8      2448.293          50.500
R11  20697289.280   110600030.461 8     -1091.036          49.437    20697288.480   110600030.462 8     -1091.036          49.062    20697302.120    86022288.539 8      -848.584          50.500    20697301.940    86022290.539 8      -848.584          50.937
G21  20529659.660   107884092.262 7      2671.815          47.125    20529657.880   107884092.272 6      2671.815          39.687    20529663.560    84065541.355 6      2081.933          39.562
R22  20206165.520   107861902.975 8      1841.416          49.375    20206165.760   107861902.973 8      1841.416          49.125    20206173.940    83892628.135 8      1432.212          50.375    20206174.180    83892628.133 8      1432.212          50.312
R12  19770889.360   105612547.124 8      3203.002          50.375    19770889.780   105612547.120 8      3203.002          50.500    19770900.020    82143131.922 8      2491.224          49.937    19770900.020    82143140.920 8      2491.224          51.000
> 2024 05 09 13 02 59.0000000  0 15
G10  22375651.080   117584834.369 7       981.433          47.125    22375649.920   117584834.379 7       981.433          46.562    22375659.540    91624585.709 7       764.753          46.187    22375659.900    91624588.707 8       764.753          48.187
R07  22867133.040   122409558.120 7      5642.541          42.500    22867134.080   122409558.156 6      5642.541          41.062    22867159.000    95207546.705 7      4388.643          44.500    22867159.220    95207547.703 7      4388.643          44.562
G26  24156870.340   126945209.282 7     -1031.673          42.062    24156869.300   126945209.290 6     -1031.673          38.625    24156889.480    98918416.510 6      -803.901          38.250    24156890.440    98918420.513 7      -803.901          43.687
G27  21194463.420   111377660.467 7      1475.231          47.500    21194461.940   111377660.475 8      1475.231          49.000    21194470.700    86787810.671 8      1149.531          48.250    21194470.520    86787814.675 8      1149.531          49.937
G23  24691624.160   129755360.506 6      -506.567          37.625    24691623.860   129755360.511 3      -506.567          23.312    24691634.920   101108104.455 3      -394.727          23.062    24691635.200   101108117.453 7      -394.727          43.187
R23  22175401.860   118623453.909 7      4020.476          45.312    22175401.940   118623453.927 7      4020.476          44.500
R21  22084142.680   118176703.370 7       138.221          46.125    22084143.740   118176703.385 7       138.221          44.875    22084158.140    91915273.798 7       107.505          47.875    22084157.020    91915270.798 8       107.505          48.062
G07  23766987.680   124896350.323 7      2517.557          43.500    23766986.880   124896350.322 5      2517.557          30.187    23766996.300    97321868.816 4      1961.733          29.937    23766997.120    97321876.818 7      1961.733          42.187
G16  21498429.100   112975004.157 7       -28.202          47.687    21498427.780   112975004.165 6       -28.202          39.187    21498435.200    88032492.884 6       -21.976          39.000
G02  21721357.360   114146537.789 8      3585.993          48.437    21721355.840   114146537.796 6      3585.993          37.750    21721360.680    88945372.050 6      2794.280          37.750
G08  20803882.620   109325141.344 7      3141.274          46.875    20803881.400   109325141.346 8      3141.274          49.312    20803889.360    85188448.955 8      2447.746          48.625    20803890.580    85188452.960 8      2447.746          50.062
R11  20697493.760   110601122.079 8     -1092.182          49.750    20697492.740   110601122.083 8     -1092.182          49.375    20697506.360    86023137.563 8      -849.475          50.750    20697506.400    86023139.565 8      -849.475          50.187
G21  20529151.360   107881420.909 7      2670.895          46.937    20529149.540   107881420.914 6      2670.895          40.250    20529154.980    84063459.778 6      2081.217          39.437
R22  20205820.820   107860062.025 8      1840.593          49.625    20205820.860   107860062.031 8      1840.593          49.062    20205829.100    83891196.289 8      1431.572          50.375    20205829.160    83891196.287 8      1431.572          50.437
R12  19770290.100   105609344.852 8      3201.578          50.812    19770290.440   105609344.856 8      3201.578          50.125    19770300.720    82140641.268 8      2490.117          50.062    19770300.640    82140650.270 8      2490.117          50.562
> 2024 05 09 13 03  0.0000000  0 15
G10  22375464.500   117583853.333 7       980.940          46.562    22375463.320   117583853.340 7       980.940          46.437    22375472.740    91623821.265 7       764.369          46.187    22375473.100    91623824.267 7       764.369          47.625
R07  22866078.880   122403915.906 7      5642.325          42.500    22866079.840   122403915.950 6      5642.325          41.062    22866104.840    95203158.325 7      4388.475          44.875    22866105.020    95203159.322 7      4388.475          44.500
G26  24157066.660   126946241.198 7     -1031.730          42.375    24157065.500   126946241.203 6     -1031.730          38.437    24157085.900    98919220.596 6      -803.945          37.937    24157086.180    98919224.584 7      -803.945          43.375
G27  21194182.840   111376185.400 7      1475.161          47.250    21194181.240   111376185.410 8      1475.161          49.125    21194190.020    86786661.267 8      1149.476          48.812    21194190.040    86786665.266 8      1149.476          50.062
G23  24691720.540   129755867.509 6      -507.087          37.750    24691720.220   129755867.517 3      -507.087          23.312    24691731.440   101108499.527 3      -395.132          23.062    24691731.700   101108512.528 7      -395.132          43.375
R23  22174650.400   118619433.803 7      4020.123          45.375    22174650.200   118619433.823 7      4020.123          44.500
R21  22084116.880   118176565.215 7       138.278          45.875    22084117.820   118176565.235 7       138.278          44.937    22084132.220    91915166.343 7       107.550          47.875    22084131.240    91915163.344 8       107.550          48.125
G07  23766508.720   124893833.373 7      2516.913          43.687    23766508.040   124893833.373 5      2516.913          30.187    23766517.300    97319907.553 4      1961.231          29.937    23766518.140    97319915.551 6      1961.231          41.937
G16  21498434.820   112975032.687 7       -28.622          47.312    21498433.200   112975032.700 6       -28.622          38.687    21498440.680    88032515.109 6       -22.303          38.625
G02  21720675.120   114142952.102 7      3585.656          47.250    21720673.540   114142952.104 6      3585.656          37.875    21720678.360    88942578.007 6      2794.018          37.812
G08  20803284.880   109322000.280 7      3141.197          47.750    20803283.660   109322000.283 8      3141.197          49.187    20803291.680    85186001.371 8      2447.686          48.875    20803292.940    85186005.376 8      2447.686          49.937
R11  20697698.220   110602214.590 8     -1092.633          49.625    20697697.260   110602214.594 8     -1092.633          48.875    20697710.660    86023987.280 8      -849.825          50.312    20697710.800    86023989.279 8      -849.825          50.437
G21  20528643.360   107878750.358 7      2670.517          47.187    20528641.380   107878750.365 6      2670.517          39.562    20528646.840    84061378.833 6      2080.922          39.750
R22  20205475.820   107858221.662 8      1840.406          49.250    20205475.900   107858221.663 8      1840.406          49.062    20205484.420    83889764.891 8      1431.427          50.250    20205484.480    83889764.890 8      1431.427          50.437
R12  19769690.700   105606143.865 8      3200.650          51.000    19769690.940   105606143.866 8      3200.650          49.937    19769701.500    82138151.610 8      2489.394          50.687    19769701.120    82138160.610 8      2489.394          50.625
> 2024 05 09 13 03  1.0000000  0 15
G10  22375277.880   117582872.607 7       980.418          46.437    22375276.580   117582872.609 7       980.418          46.312    22375286.200    91623057.057 7       763.962          45.562    22375286.480    91623060.059 7       763.962          47.812
R07  22865024.780   122398273.609 7      5642.100          42.375    22865026.180   122398273.650 6      5642.100          41.562    22865050.980    95198769.876 7      4388.300          44.437    22865051.100    95198770.873 7      4388.300          44.375
G26  24157262.980   126947272.974 6     -1032.022          41.937    24157261.820   126947272.979 6     -1032.022          38.125    24157282.180    98920024.573 6      -804.173          37.875    24157282.680    98920028.572 7      -804.173          43.750
G27  21193902.240   111374710.301 7      1474.925          47.000    21193900.620   111374710.303 8      1474.925          49.000    21193909.200    86785511.833 8      1149.292          48.250    21193909.080    86785515.834 8      1149.292          49.937
G23  24691817.180   129756374.570 6      -507.316          37.875    24691816.740   129756374.578 3      -507.316          23.250    24691827.820   101108894.633 3      -395.311          23.062    24691828.380   101108907.618 7      -395.311          43.250
R23  22173899.160   118615413.699 7      4019.939          45.125    22173898.640   118615413.708 7      4019.939          44.375
R21  22084090.640   118176426.737 7       138.359          45.500    22084091.860   118176426.757 7       138.359          44.937    22084106.440    91915058.629 7       107.612          47.562    22084105.540    91915055.628 8       107.612          48.062
G07  23766029.740   124891316.627 7      2516.527          43.312    23766029.200   124891316.626 5      2516.527          30.187    23766038.660    97317946.446 5      1960.930          30.187    23766039.140    97317954.459 6      1960.930          41.937
G16  21498440.200   112975061.382 7       -29.025          47.625    21498438.720   112975061.392 6       -29.025          38.437    21498446.220    88032537.462 6       -22.617          38.500
G02  21719992.600   114139366.523 7      3585.337          47.500    21719991.180   114139366.530 6      3585.337          37.562    21719996.120    88939784.049 6      2793.769          37.562
G08  20802687.160   109318859.133 7      3141.049          47.375    20802686.000   109318859.138 8      3141.049          48.750    20802694.000    85183553.727 8      2447.571          48.312    20802695.020    85183557.730 8      2447.571          49.750
R11  20697902.640   110603307.323 8     -1093.058          49.500    20697901.880   110603307.324 8     -1093.058          49.250    20697915.320    86024837.170 8      -850.156          50.375    20697915.300    86024839.172 8      -850.156          50.250
G21  20528135.140   107876079.988 7      2670.109          47.187    20528133.300   107876079.995 6      2670.109          39.625    20528138.720    84059298.027 6      2080.605          39.437
R22  20205131.060   107856381.262 8      1840.218          49.437    20205131.080   107856381.262 8      1840.218          49.625    20205139.640    83888333.464 8      1431.281          50.312    20205139.960    83888333.463 8      1431.281          50.125
R12  19769091.720   105602943.514 8      3199.880          50.500    19769092.020   105602943.509 8      3199.880          50.500    19769102.340    82135662.443 8      2488.795          50.437    19769102.280    82135671.445 8      2488.795          50.875
> 2024 05 09 13 03  2.0000000  0 15
G10  22375091.520   117581892.516 7       979.796          46.812    22375090.060   117581892.524 7       979.796          46.500    22375099.680    91622293.354 7       763.477          46.062    22375100.140    91622296.356 7       763.477          47.687
R07  22863970.920   122392631.579 7      5641.860          42.375    22863972.460   122392631.616 6      5641.860          41.562    22863996.820    95194381.637 7      4388.113          45.125    22863996.820    95194382.632 7      4388.113          44.500
G26  24157458.940   126948304.927 6     -1032.080          41.062    24157458.040   126948304.931 6     -1032.080          38.125    24157478.540    98920828.688 6      -804.218          37.937    24157479.180    98920832.685 7      -804.218          43.437
G27  21193621.540   111373235.478 8      1474.643          48.062    21193619.960   111373235.485 8      1474.643          49.312    21193628.620    86784362.621 8      1149.072          49.000    21193628.620    86784366.622 8      1149.072          49.937
G23  24691913.340   129756882.010 6      -507.507          37.875    24691913.200   129756882.015 3      -507.507          23.250    24691924.260   101109290.038 3      -395.460          23.062    24691925.120   101109303.021 7      -395.460          43.500
R23  22173147.580   118611393.967 7      4019.508          45.125    22173147.240   118611393.976 7      4019.508          43.937
R21  22084064.980   118176288.277 7       138.495          45.312    22084066.260   118176288.281 7       138.495          44.562    22084080.580    91914950.926 8       107.719          48.062    22084079.800    91914947.923 8       107.719          48.625
G07  23765551.060   124888800.500 7      2515.799          43.125    23765550.320   124888800.502 5      2515.799          30.187    23765559.680    97315985.829 5      1960.363          30.187    23765560.500    97315993.833 7      1960.363          42.437
G16  21498445.700   112975090.584 7       -29.419          47.687    21498444.280   112975090.589 6       -29.419          38.375    21498451.840    88032560.207 6       -22.924          38.500
G02  21719310.580   114135781.404 7      3584.887          47.000    21719308.900   114135781.411 6      3584.887          37.625    21719313.860    88936990.454 6      2793.419          38.000
G08  20802089.320   109315718.251 7      3140.782          47.375    20802088.260   109315718.255 8      3140.782          49.000    20802096.240    85181106.289 8      2447.363          48.250    20802097.400    85181110.294 8      2447.363          50.312
R11  20698106.980   110604400.662 8     -1093.644          49.312    20698106.500   110604400.663 8     -1093.644          48.687    20698119.980    86025687.535 8      -850.612          50.375    20698119.800    86025689.539 8      -850.612          50.250
G21  20527627.320   107873410.146 7      2669.589          47.375    20527625.240   107873410.154 6      2669.589          39.625    20527630.640    84057217.629 6      2080.199          39.687
R22  20204786.300   107854541.152 8      1839.983          49.750    20204786.520   107854541.156 8      1839.983          49.250    20204795.060    83886902.270 8      1431.098          50.500    20204795.240    83886902.269 8      1431.098          50.312
R12  19768492.780   105599744.153 8      3198.892          50.625    19768493.220   105599744.146 8      3198.892          50.312    19768503.380    82133174.048 8      2488.027          50.375    19768503.400    82133183.052 8      2488.027          50.687
> 2024 05 09 13 03  3.0000000  0 15
G10  22374904.860   117580913.035 7       979.202          46.687    22374903.700   117580913.043 7       979.202          46.562    22374913.380    91621530.118 7       763.015          46.187    22374913.460    91621533.128 7       763.015          47.812
R07  22862916.940   122386989.780 7      5641.717          42.625    22862918.600   122386989.816 6      5641.717          41.562    22862942.960    95189993.573 7      4388.002          45.187    22862943.220    95189994.575 7      4388.002          44.312
G26  24157655.540   126949337.016 7     -1032.075          42.312    24157654.620   126949337.020 6     -1032.075          38.187    24157674.980    98921632.911 6      -804.215          37.625    24157675.180    98921636.918 7      -804.215          43.437
G27  21193340.860   111371760.894 7      1474.480          47.312    21193339.440   111371760.899 8      1474.480          49.125    21193348.000    86783213.592 8      1148.945          48.312    21193347.960    86783217.593 8      1148.945          49.750
G23  24692009.740   129757389.833 6      -507.904          37.187    24692009.820   129757389.832 3      -507.904          23.250    24692020.920   101109685.741 3      -395.770          23.062    24692021.840   101109698.734 7      -395.770          43.437
R23  22172396.360   118607374.507 7      4019.366          45.000    22172395.500   118607374.517 7      4019.366          44.125
R21  22084038.740   118176149.831 7       138.457          45.312    22084040.100   118176149.846 7       138.457          44.375    22084054.640    91914843.247 7       107.689          47.750    22084053.960    91914840.245 7       107.689          47.812
G07  23765072.520   124886284.922 7      2515.197          43.937    23765071.580   124886284.927 5      2515.197          30.187    23765080.900    97314025.639 5      1959.893          30.187    23765081.780    97314033.645 7      1959.893          42.000
G16  21498451.300   112975120.267 7       -29.960          47.500    21498449.840   112975120.272 6       -29.960          38.750    21498457.420    88032583.333 6       -23.346          38.562
G02  21718628.060   114132196.686 7      3584.639          46.125    21718626.700   114132196.691 6      3584.639          37.875    21718631.800    88934197.169 6      2793.225          37.875
G08  20801491.720   109312577.600 8      3140.496          48.125    20801490.620   109312577.607 8      3140.496          48.625    20801498.660    85178659.032 8      2447.140          48.187    20801499.520    85178663.037 8      2447.140          50.250
R11  20698311.680   110605494.543 8     -1094.190          49.500    20698311.200   110605494.550 8     -1094.190          49.250    20698324.640    86026538.321 8      -851.037          50.312    20698324.680    86026540.325 8      -851.037          50.687
G21  20527119.340   107870740.783 7      2669.120          47.250    20527117.420   107870740.787 6      2669.120          39.437    20527122.560    84055137.605 6      2079.834          39.562
R22  20204441.700   107852701.312 8      1839.809          49.312    20204441.940   107852701.316 8      1839.809          49.312    20204450.360    83885471.284 8      1430.963          50.625    20204450.460    83885471.280 8      1430.963          50.187
R12  19767893.920   105596545.695 8      3198.038          50.625    19767894.600   105596545.691 8      3198.038          50.062    19767904.560    82130686.362 8      2487.363          50.875    19767904.600    82130695.364 8      2487.363          50.562
> 2024 05 09 13 03  4.0000000  0 15
G10  22374718.580   117579934.175 7       978.701          46.125    22374717.360   117579934.177 7       978.701          46.562    22374727.240    91620767.368 7       762.624          45.750    22374727.120    91620770.376 7       762.624          47.625
R07  22861863.160   122381348.195 7      5641.515          42.625    22861864.640   122381348.223 6      5641.515          41.750    22861889.360    95185605.674 7      4387.845          44.875    22861889.180    95185606.673 7      4387.845          45.125
G26  24157852.400   126950369.328 6     -1032.271          41.187    24157850.980   126950369.333 6     -1032.271          37.937    24157871.340    98922437.310 6      -804.367          37.750    24157871.900    98922441.309 7      -804.367          43.625
G27  21193060.560   111370286.583 7      1474.209          47.500    21193058.880   111370286.596 8      1474.209          49.250    21193067.460    86782064.781 8      1148.734          48.687    21193067.500    86782068.781 8      1148.734          49.812
G23  24692107.000   129757898.066 6      -508.269          38.062    24692106.660   129757898.065 3      -508.269          23.250    24692117.560   101110081.766 3      -396.054          23.062    24692118.740   101110094.753 7      -396.054          43.500
R23  22171645.180   118603355.393 7      4019.032          45.250    22171643.900   118603355.403 7      4019.032          44.125
R21  22084012.560   118176011.382 7       138.442          45.062    22084014.300   118176011.402 7       138.442          44.375    22084028.760    91914735.563 7       107.677          47.562    22084027.920    91914732.562 7       107.677          47.625
G07  23764594.060   124883769.910 7      2514.751          43.312    23764593.060   124883769.914 5      2514.751          30.187    23764602.280    97312065.885 5      1959.546          30.187    23764603.060    97312073.878 7      1959.546          42.000
G16  21498457.160   112975150.426 8       -30.378          48.437    21498455.480   112975150.433 6       -30.378          38.812    21498463.140    88032606.829 6       -23.671          38.812
G02  21717946.340   114128612.437 7      3584.115          46.375    21717944.740   114128612.442 6      3584.115          37.625    21717949.640    88931404.248 6      2792.817          37.562
G08  20800894.280   109309437.162 8      3140.375          48.437    20800892.920   109309437.166 8      3140.375          49.750    20800901.040    85176211.936 8      2447.046          48.812    20800902.120    85176215.941 8      2447.046          50.500
R11  20698516.520   110606588.991 8     -1094.654          49.562    20698515.940   110606588.992 8     -1094.654          48.937    20698529.440    86027389.544 8      -851.398          50.250    20698529.400    86027391.543 8      -851.398          50.437
G21  20526611.280   107868071.897 7      2668.751          47.250    20526609.560   107868071.899 6      2668.751          39.937    20526614.680    84053057.956 6      2079.546          40.125
R22  20204096.640   107850861.758 8      1839.509          49.625    20204097.340   107850861.764 8      1839.509          49.687    20204105.720    83884040.523 8      1430.729          50.125    20204105.960    83884040.518 8      1430.729          50.500
R12  19767295.400   105593348.180 8      3197.122          50.812    19767295.740   105593348.182 8      3197.122          50.500    19767305.960    82128199.406 8      2486.650          50.187    19767306.120    82128208.412 8      2486.650          50.625
> 2024 05 09 13 03  5.0000000  0 15
G10  22374532.380   117578955.758 7       978.130          46.812    22374531.160   117578955.760 7       978.130          46.312    22374540.900    91620004.967 7       762.179          45.937    22374540.600    91620007.975 7       762.179          47.500
R07  22860808.700   122375706.602 7      5641.455          42.625    22860810.500   122375706.649 6      5641.455          41.750    22860835.360    95181217.791 7      4387.798          44.937    22860835.180    95181218.792 7      4387.798          44.375
G26  24158049.300   126951401.637 6     -1032.542          41.437    24158047.420   126951401.640 6     -1032.542          38.250    24158067.760    98923241.699 6      -804.578          38.187    24158068.500    98923245.704 7      -804.578          43.562
G27  21192779.960   111368812.338 7      1474.171          47.812    21192778.300   111368812.348 8      1474.171          49.250    21192786.920    86780916.016 8      1148.705          48.750    21192787.040    86780920.019 8      1148.705          49.312
G23  24692203.440   129758406.511 6      -508.797          38.312    24692203.520   129758406.511 3      -508.797          23.250    24692214.340   101110477.956 3      -396.465          23.062    24692215.160   101110490.945 7      -396.465          43.500
R23  22170893.940   118599336.405 7      4018.935          44.625    22170892.740   118599336.409 7      4018.935          43.875
R21  22083986.820   118175872.743 7       138.557          45.312    22083988.300   118175872.766 7       138.557          44.187    22084002.840    91914627.728 7       107.767          47.375    22084002.180    91914624.728 7       107.767          47.500
G07  23764115.660   124881255.262 7      2514.395          42.937    23764114.560   124881255.267 5      2514.395          30.187    23764123.800    97310106.415 5      1959.269          30.250    23764124.400    97310114.415 6      1959.269          41.875
G16  21498462.880   112975180.881 7       -30.664          47.562    21498461.300   112975180.892 6       -30.664          38.625    21498468.820    88032630.554 6       -23.894          38.437
G02  21717264.080   114125028.408 7      3583.821          47.250    21717262.520   114125028.413 6      3583.821          37.750    21717267.820    88928611.500 6      2792.588          37.437
G08  20800296.640   109306296.773 8      3140.292          48.750    20800295.440   109306296.781 8      3140.292          49.062    20800303.500    85173764.882 8      2446.981          48.750    20800304.340    85173768.887 8      2446.981          50.312
R11  20698721.680   110607683.818 8     -1095.065          49.687    20698720.820   110607683.819 8     -1095.065          48.812    20698734.400    86028241.066 8      -851.717          50.437    20698734.320    86028243.069 8      -851.717          50.000
G21  20526103.420   107865403.335 7      2668.319          47.000    20526101.660   107865403.340 6      2668.319          39.937    20526106.900    84050978.557 6      2079.210          39.937
R22  20203752.240   107849022.295 8      1839.320          49.875    20203752.700   107849022.303 8      1839.320          49.000    20203761.140    83882609.830 8      1430.582          50.312    20203761.460    83882609.822 8      1430.582          50.687
R12  19766697.060   105590151.467 8      3196.226          50.687    19766697.420   105590151.468 8      3196.226          50.000    19766707.560    82125713.073 8      2485.953          50.125    19766707.600    82125722.075 8      2485.953          50.437
> 2024 05 09 13 03  6.0000000  0 15
G10  22374346.420   117577978.043 7       977.289          46.875    22374345.120   117577978.050 7       977.289          45.750    22374355.080    91619243.111 7       761.524          45.562    22374354.700    91619246.119 7       761.524          47.062
R07  22859755.440   122370065.359 7      5641.023          42.875    22859756.620   122370065.404 6      5641.023          41.937    22859781.460    95176830.155 7      4387.462          44.375    22859781.360    95176831.159 7      4387.462          44.875
G26  24158245.300   126952434.165 6     -1032.710          41.312    24158243.900   126952434.173 6     -1032.710          37.750    24158264.300    98924046.266 6      -804.709          37.500    24158265.040    98924050.261 7      -804.709          43.500
G27  21192499.360   111367338.456 8      1473.703          48.000    21192497.840   111367338.463 8      1473.703          48.000    21192506.380    86779767.532 7      1148.340          47.500    21192506.540    86779771.533 8      1148.340          49.375
G23  24692300.680   129758915.370 6      -509.066          38.000    24692300.420   129758915.372 3      -509.066          23.250    24692311.180   101110874.464 3      -396.675          23.562    24692311.800   101110887.462 7      -396.675          43.375
R23  22170142.300   118595317.847 7      4018.320          44.875    22170141.220   118595317.848 7      4018.320          44.000
R21  22083961.040   118175734.190 7       138.499          45.312    22083962.340   118175734.218 7       138.499          44.500    22083976.740    91914519.967 7       107.722          46.562    22083976.280    91914516.966 7       107.722          47.187
G07  23763637.140   124878741.282 7      2513.669          43.000    23763636.080   124878741.290 5      2513.669          30.187    23763645.400    97308147.468 5      1958.703          30.250    23763645.960    97308155.481 7      1958.703          42.062
G16  21498468.640   112975211.920 7       -31.288          47.625    21498467.300   112975211.928 6       -31.288          38.687    21498474.660    88032654.732 6       -24.380          38.687
G02  21716582.400   114121444.894 7      3583.231          46.937    21716580.720   114121444.899 6      3583.231          37.687    21716585.900    88925819.152 6      2792.128          37.500
G08  20799698.940   109303156.724 7      3139.865          47.750    20799697.840   109303156.726 8      3139.865          48.375    20799705.940    85171318.088 8      2446.648          48.062    20799706.720    85171322.091 8      2446.648          49.875
R11  20698926.600   110608779.319 8     -1095.765          50.125    20698925.940   110608779.323 8     -1095.765          48.812    20698939.340    86029093.113 8      -852.262          50.000    20698939.360    86029095.117 8      -852.262          49.875
G21  20525595.660   107862735.354 8      2667.682          48.187    20525594.000   107862735.361 6      2667.682          39.500    20525599.300    84048899.613 6      2078.713          39.750
R22  20203407.560   107847183.197 8      1838.905          49.687    20203408.280   107847183.200 8      1838.905          48.937    20203416.660    83881179.418 8      1430.260          48.750    20203416.900    83881179.411 8      1430.260          49.062
R12  19766098.720   105586955.814 8      3195.110          50.500    19766099.160   105586955.815 8      3195.110          50.062    19766109.380    82123227.563 8      2485.086          49.875    19766109.340    82123236.565 8      2485.086          49.937
> 2024 05 09 13 03  7.0000000  0 15
G10  22374160.260   117577000.877 7       976.846          46.125    22374159.100   117577000.879 7       976.846          46.187    22374169.020    91618481.681 7       761.178          45.937    22374168.620    91618484.689 7       761.178          47.687
R07  22858701.260   122364424.240 7      5641.209          42.875    22858702.460   122364424.265 6      5641.209          41.937    22858727.540    95172442.620 7      4387.607          45.375    22858727.900    95172443.624 7      4387.607          45.562
G26  24158441.800   126953466.795 6     -1032.672          40.875    24158440.320   126953466.800 6     -1032.672          38.375    24158460.780    98924850.905 6      -804.680          37.937    24158461.720    98924854.910 7      -804.680          43.437
G27  21192218.860   111365864.752 7      1473.624          47.125    21192217.500   111365864.757 8      1473.624          49.500    21192225.940    86778619.190 8      1148.278          49.250    21192225.820    86778623.191 8      1148.278          49.937
G23  24692397.760   129759424.554 6      -509.090          38.000    24692397.400   129759424.558 3      -509.090          23.250    24692408.060   101111271.233 3      -396.694          23.562    24692408.940   101111284.233 7      -396.694          43.062
R23  22169391.160   118591299.514 7      4018.220          44.875    22169390.080   118591299.520 7      4018.220          44.000
R21  22083935.220   118175595.623 7       138.600          45.375    22083936.620   118175595.638 7       138.600          44.562    22083950.860    91914412.178 7       107.800          47.625    22083950.040    91914409.177 7       107.800          47.250
G07  23763158.700   124876227.812 7      2513.249          43.187    23763157.820   124876227.817 5      2513.249          30.187    23763167.200    97306188.917 5      1958.376          30.250    23763167.980    97306196.921 7      1958.376          42.062
G16  21498474.620   112975243.374 7       -31.622          47.312    21498473.260   112975243.382 6       -31.622          38.750    21498480.780    88032679.234 6       -24.641          38.500
G02  21715900.480   114117861.735 7      3583.043          46.875    21715898.820   114117861.740 6      3583.043          37.562    21715904.040    88923027.082 6      2791.981          37.625
G08  20799101.560   109300016.798 7      3139.914          47.875    20799100.320   109300016.801 8      3139.914          49.312    20799108.560    85168871.393 8      2446.686          48.750    20799109.380    85168875.398 8      2446.686          50.187
R11  20699131.660   110609875.335 8     -1096.171          49.750    20699131.160   110609875.334 8     -1096.171          49.187    20699144.600    86029945.550 8      -852.577          50.000    20699144.360    86029947.558 8      -852.577          50.875
G21  20525088.020   107860067.785 7      2667.382          47.187    20525086.360   107860067.789 6      2667.382          39.875    20525091.580    84046820.987 6      2078.479          39.437
R22  20203063.000   107845344.294 8      1838.823          50.000    20203063.740   107845344.300 8      1838.823          49.437    20203072.240    83879749.160 8      1430.196          50.062    20203072.180    83879749.153 8      1430.196          50.250
R12  19765500.700   105583761.031 8      3194.388          50.375    19765501.040   105583761.035 8      3194.388          50.312    19765511.340    82120742.730 8      2484.524          50.000    19765511.380    82120751.736 8      2484.524          50.437
> 2024 05 09 13 03  8.0000000  0 15
G10  22373974.520   117576024.350 7       976.334          46.750    22373973.180   117576024.354 7       976.334          46.375    22373983.260    91617720.753 7       760.780          45.937    22373983.200    91617723.759 7       760.780          47.687
R07  22857647.740   122358783.385 7      5641.037          42.687    22857648.700   122358783.430 6      5641.037          41.937    22857673.980    95168055.304 7      4387.473          45.125    22857674.280    95168056.309 7      4387.473          44.937
G26  24158638.480   126954499.652 6     -1032.812          41.562    24158636.660   126954499.657 6     -1032.812          37.687    24158657.100    98925655.730 6      -804.789          37.000    24158658.060    98925659.731 7      -804.789          43.250
G27  21191938.460   111364391.350 7      1473.396          47.437    21191937.140   111364391.355 8      1473.396          49.437    21191945.640    86777471.080 8      1148.101          48.750    21191945.600    86777475.075 8      1148.101          50.187
G23  24692495.080   129759934.190 6      -509.612          38.500    24692494.300   129759934.192 4      -509.612          24.125    24692504.960   101111668.350 3      -397.100          23.562    24692505.720   101111681.345 7      -397.100          42.812
R23  22168639.700   118587281.555 7      4017.982          44.562    22168638.900   118587281.567 7      4017.982          43.562
R21  22083909.560   118175457.040 7       138.821          45.375    22083910.660   118175457.063 7       138.821          44.562    22083924.960    91914304.393 7       107.972          47.562    22083924.160    91914301.391 7       107.972          47.687
G07  23762680.240   124873714.925 7      2512.677          43.000    23762679.520   124873714.930 5      2512.677          30.187    23762689.080    97304230.825 5      1957.930          30.187    23762689.540    97304238.833 7      1957.930          42.187
G16  21498480.620   112975275.343 8       -32.068          48.062    21498479.440   112975275.354 6       -32.068          38.500    21498486.860    88032704.138 6       -24.988          38.562
G02  21715218.840   114114279.049 7      3582.621          47.062    21715217.080   114114279.057 6      3582.621          37.500    21715222.200    88920235.380 6      2791.653          37.500
G08  20798503.920   109296877.167 8      3139.672          48.812    20798502.840   109296877.167 8      3139.672          48.687    20798511.060    85166424.925 8      2446.498          48.250    20798512.100    85166428.930 8      2446.498          50.250
R11  20699337.080   110610971.939 8     -1096.742          49.687    20699336.300   110610971.940 8     -1096.742          49.312    20699349.760    86030798.458 8      -853.022          50.562    20699349.680    86030800.464 8      -853.022          50.625
G21  20524580.400   107857400.746 7      2666.880          47.625    20524579.000   107857400.751 6      2666.880          39.875    20524584.200    84044742.776 6      2078.088          39.687
R22  20202718.460   107843505.719 8      1838.569          49.500    20202719.380   107843505.720 8      1838.569          49.250    20202727.720    83878319.151 8      1429.998          50.187    20202727.700    83878319.144 8      1429.998          50.437
R12  19764902.660   105580567.242 8      3193.466          50.562    19764903.020   105580567.243 8      3193.466          50.500    19764913.240    82118258.672 8      2483.807          50.000    19764913.080    82118267.674 8      2483.807          50.625
> 2024 05 09 13 03  9.0000000  0 15
G10  22373788.760   117575048.334 7       975.716          46.812    22373787.500   117575048.339 7       975.716          46.062    22373797.580    91616960.221 7       760.298          46.125    22373797.640    91616963.225 7       760.298          47.875
R07  22856593.860   122353142.667 7      5640.508          42.687    22856595.180   122353142.731 6      5640.508          41.562    22856620.380    95163668.104 7      4387.062          45.125    22856620.220    95163669.105 7      4387.062          45.437
G26  24158834.600   126955532.545 6     -1032.887          41.312    24158833.200   126955532.544 6     -1032.887          38.000    24158853.880    98926460.574 6      -804.847          37.500    24158854.020    98926464.566 7      -804.847          43.500
G27  21191658.120   111362918.085 7      1473.132          47.750    21191656.760   111362918.088 8      1473.132          49.375    21191665.220    86776323.080 8      1147.895          48.750    21191665.080    86776327.079 8      1147.895          50.187
G23  24692592.060   129760444.109 6      -510.261          38.125    24692591.420   129760444.114 4      -510.261          24.125    24692602.060   101112065.688 3      -397.606          23.562    24692602.820   101112078.679 7      -397.606          42.812
R23  22167888.700   118583263.831 7      4017.616          44.937    22167887.660   118583263.841 7      4017.616          43.562
R21  22083883.440   118175318.340 7       138.750          45.750    22083884.720   118175318.357 7       138.750          44.125    22083898.860    91914196.505 7       107.916          46.937    22083898.380    91914193.504 7       107.916          47.812
G07  23762202.220   124871202.505 7      2512.061          43.312    23762201.360   124871202.513 5      2512.061          30.250    23762211.060    97302273.090 5      1957.450          30.187    23762211.660    97302281.089 7      1957.450          42.312
G16  21498487.040   112975307.675 8       -32.527          48.000    21498485.680   112975307.682 6       -32.527          38.625    21498493.080    88032729.328 6       -25.346          38.312
G02  21714537.140   114110696.670 7      3582.249          46.875    21714535.360   114110696.675 6      3582.249          37.875    21714540.440    88917443.916 6      2791.363          37.750
G08  20797906.720   109293737.638 8      3139.461          48.250    20797905.360   109293737.640 8      3139.461          48.812    20797913.520    85163978.543 8      2446.333          48.500    20797914.520    85163982.548 8      2446.333          50.000
R11  20699542.340   110612069.000 8     -1097.363          49.687    20699541.500   110612069.001 8     -1097.363          49.437    20699554.960    86031651.719 8      -853.504          50.250    20699555.060    86031653.725 8      -853.504          50.875
G21  20524072.960   107854734.063 7      2666.523          47.937    20524071.520   107854734.068 6      2666.523          39.937    20524076.660    84042664.843 6      2077.810          39.875
R22  20202374.340   107841667.299 8      1838.297          49.375    20202375.060   107841667.303 8      1838.297          49.312    20202383.440    83876889.267 8      1429.786          50.250    20202383.400    83876889.260 8      1429.786          49.937
R12  19764305.180   105577374.254 8      3192.558          50.187    19764305.180   105577374.261 8      3192.558          50.062    19764315.520    82115775.239 8      2483.100          50.375    19764315.780    82115784.243 8      2483.100          50.687
> 2024 05 09 13 03 10.0000000  0 15
G10  22373603.220   117574072.924 7       975.014          46.750    22373602.000   117574072.928 7       975.014          46.750    22373611.960    91616200.161 7       759.751          46.125    22373611.960    91616203.167 7       759.751          47.812
R07  22855540.220   122347502.161 7      5640.279          42.687    22855541.140   122347502.205 6      5640.279          41.562    22855566.500    95159281.033 7      4386.884          45.375    22855566.500    95159282.030 7      4386.884          45.750
G26  24159031.340   126956565.611 6     -1033.202          41.125    24159029.920   126956565.613 6     -1033.202          37.875    24159050.500    98927265.558 6      -805.092          37.062    24159050.940    98927269.563 7      -805.092          43.625
G27  21191377.760   111361445.075 7      1472.775          47.625    21191376.460   111361445.077 8      1472.775          49.125    21191384.900    86775175.278 8      1147.617          48.500    21191384.860    86775179.276 8      1147.617          50.500
G23  24692688.440   129760954.373 6      -510.629          37.750    24692688.380   129760954.370 4      -510.629          24.125    24692699.320   101112463.290 3      -397.892          23.562    24692699.720   101112476.279 7      -397.892          42.687
R23  22167137.480   118579246.429 7      4017.210          44.375    22167136.680   118579246.438 7      4017.210          43.625
R21  22083857.700   118175179.631 7       138.639          45.562    22083858.900   118175179.649 7       138.639          44.312    22083872.740    91914088.610 7       107.830          47.812    22083872.200    91914085.607 7       107.830          47.875
G07  23761724.280   124868690.612 7      2511.563          42.125    23761723.260   124868690.614 5      2511.563          30.250    23761733.280    97300315.766 5      1957.062          30.187    23761733.920    97300323.766 7      1957.062          42.375
G16  21498493.520   112975340.482 7       -33.054          47.375    21498491.820   112975340.490 6       -33.054          38.875    21498499.420    88032754.884 6       -25.756          38.937
G02  21713855.480   114107114.720 7      3581.662          47.187    21713853.800   114107114.725 6      3581.662          37.625    21713858.720    88914652.788 6      2790.906          37.687
G08  20797309.400   109290598.330 8      3139.099          48.312    20797308.000   109290598.335 8      3139.099          48.750    20797316.180    85161532.333 8      2446.051          48.375    20797316.980    85161536.335 8      2446.051          50.812
R11  20699747.660   110613166.633 8     -1098.069          49.812    20699747.020   110613166.637 8     -1098.069          48.750    20699760.480    86032505.421 8      -854.054          50.125    20699760.420    86032507.427 8      -854.054          50.375
G21  20523565.780   107852067.889 7      2665.891          47.312    20523564.080   107852067.889 6      2665.891          40.187    20523569.220    84040587.303 6      2077.318          39.937
R22  20202029.740   107839829.138 8      1837.932          49.437    20202030.880   107839829.136 8      1837.932          49.375    20202038.860    83875459.586 8      1429.503          50.000    20202038.760    83875459.581 8      1429.503          49.875
R12  19763707.780   105574182.225 8      3191.468          49.937    19763707.680   105574182.226 8      3191.468          50.000    19763717.980    82113292.546 8      2482.253          49.937    19763718.400    82113301.548 8      2482.253          50.375
> 2024 05 09 13 03 11.0000000  0 15
G10  22373417.520   117573098.185 7       974.467          46.875    22373416.500   117573098.188 7       974.467          46.500    22373426.320    91615440.623 7       759.325          46.125    22373426.660    91615443.629 8       759.325          48.000
R07  22854486.620   122341861.938 7      5640.086          42.687    22854487.680   122341861.985 6      5640.086          41.562    22854512.620    95154894.207 7      4386.733          45.062    22854512.740    95154895.202 7      4386.733          45.500
G26  24159227.760   126957598.909 6     -1033.406          41.187    24159226.400   126957598.916 6     -1033.406          37.562    24159246.900    98928070.727 6      -805.251          37.687    24159247.440    98928074.726 7      -805.251          43.500
G27  21191097.680   111359972.373 8      1472.588          48.687    21191096.260   111359972.380 8      1472.588          49.500    21191104.680    86774027.719 8      1147.471          48.875    21191104.680    86774031.718 8      1147.471          50.437
G23  24692786.240   129761465.039 6      -510.886          38.437    24692785.540   129761465.039 4      -510.886          24.125    24692796.440   101112861.214 3      -398.093          23.562    24692796.620   101112874.219 7      -398.093          42.500
R23  22166386.700   118575229.406 7      4016.925          44.375    22166385.560   118575229.413 7      4016.925          43.812
R21  22083831.640   118175040.992 7       138.623          45.187    22083832.740   118175041.010 7       138.623          44.312    22083846.900    91913980.780 7       107.818          47.562    22083846.300    91913977.779 7       107.818          47.187
G07  23761246.160   124866179.343 7      2511.145          42.937    23761245.240   124866179.345 5      2511.145          30.250    23761255.360    97298358.931 5      1956.737          30.062    23761255.740    97298366.933 7      1956.737          42.375
G16  21498499.640   112975373.833 7       -33.564          47.875    21498498.120   112975373.841 6       -33.564          38.250    21498505.680    88032780.865 6       -26.154          38.437
G02  21713174.120   114103533.243 7      3581.280          47.125    21713172.080   114103533.247 6      3581.280          37.562    21713177.440    88911862.031 6      2790.608          37.812
G08  20796712.080   109287459.308 8      3138.927          48.062    20796710.660   109287459.308 8      3138.927          48.687    20796718.940    85159086.342 8      2445.917          48.312    20796719.860    85159090.342 8      2445.917          50.187
R11  20699953.200   110614264.872 8     -1098.545          49.500    20699952.560   110614264.871 8     -1098.545          48.937    20699966.040    86033359.594 8      -854.424          50.750    20699966.020    86033361.598 8      -854.424          50.687
G21  20523058.260   107849402.238 7      2665.495          47.750    20523056.820   107849402.243 6      2665.495          39.750    20523062.020    84038510.174 6      2077.009          39.937
R22  20201685.440   107837991.305 8      1837.740          50.250    20201686.580   107837991.309 8      1837.740          49.187    20201694.520    83874030.163 8      1429.353          50.437    20201694.440    83874030.160 8      1429.353          50.250
R12  19763109.980   105570991.209 8      3190.558          50.250    19763110.060   105570991.212 8      3190.558          50.625    19763120.500    82110810.646 8      2481.545          50.125    19763120.940    82110819.650 8      2481.545          50.625
> 2024 05 09 13 03 12.0000000  0 15
G10  22373232.060   117572124.046 7       974.002          46.125    22373231.160   117572124.046 7       974.002          46.750    22373241.160    91614681.547 7       758.963          46.125    22373241.340    91614684.551 8       758.963          48.312
R07  22853433.160   122336221.954 7      5640.082          42.687    22853434.620   122336221.990 6      5640.082          41.625    22853459.360    95150507.548 7      4386.731          45.187    22853459.360    95150508.548 7      4386.731          44.750
G26  24159424.580   126958632.356 6     -1033.375          40.937    24159422.880   126958632.364 6     -1033.375          37.812    24159443.500    98928876.003 6      -805.227          37.750    24159444.480    98928880.002 7      -805.227          43.562
G27  21190817.440   111358499.925 7      1472.447          47.750    21190816.100   111358499.927 8      1472.447          49.312    21190824.420    86772880.349 8      1147.361          48.937    21190824.540    86772884.348 8      1147.361          50.187
G23  24692883.400   129761976.097 6      -511.142          38.437    24692882.780   129761976.099 4      -511.142          24.125    24692893.580   101113259.442 3      -398.292          23.562    24692893.720   101113272.452 7      -398.292          43.125
R23  22165635.820   118571212.689 7      4016.732          44.375    22165634.840   118571212.703 7      4016.732          43.812
R21  22083805.920   118174902.367 7       138.727          45.187    22083807.280   118174902.382 7       138.727          44.437    22083821.040    91913872.950 7       107.899          47.625    22083820.380    91913869.951 7       107.899          47.250
G07  23760768.540   124863668.642 7      2510.563          42.687    23760767.400   124863668.644 5      2510.563          30.000    23760777.580    97296402.539 5      1956.283          30.062    23760778.200    97296410.545 7      1956.283          42.562
G16  21498506.240   112975407.657 7       -34.025          47.812    21498504.580   112975407.662 6       -34.025          38.875    21498512.160    88032807.212 6       -26.513          39.000
G02  21712492.520   114099952.183 7      3580.940          47.187    21712490.580   114099952.185 6      3580.940          38.000    21712496.120    88909071.593 6      2790.343          37.687
G08  20796114.740   109284320.501 7      3138.811          47.875    20796113.360   109284320.501 8      3138.811          48.875    20796121.640    85156640.512 8      2445.827          48.500    20796122.480    85156644.513 8      2445.827          50.437
R11  20700159.040   110615363.651 8     -1098.896          49.250    20700158.200   110615363.652 8     -1098.896          48.937    20700171.780    86034214.184 8      -854.697          50.437    20700171.760    86034216.185 8      -854.697          50.562
G21  20522551.180   107846737.094 8      2664.976          48.125    20522549.740   107846737.099 6      2664.976          39.875    20522554.940    84036433.435 6      2076.605          39.812
R22  20201341.280   107836153.734 8      1837.543          49.687    20201342.520   107836153.746 8      1837.543          48.937    20201350.180    83872600.943 8      1429.200          50.250    20201350.260    83872600.940 8      1429.200          50.187
R12  19762513.000   105567801.143 8      3189.735          49.937    19762513.020   105567801.147 8      3189.735          50.000    19762523.400    82108329.478 8      2480.905          50.437    19762523.580    82108338.482 8      2480.905          50.500
> 2024 05 09 13 03 13.0000000  0 15
G10  22373046.740   117571150.425 7       973.349          46.312    22373045.860   117571150.430 7       973.349          46.312    22373055.840    91613922.883 7       758.454          46.062    22373056.080    91613925.889 8       758.454          48.500
R07  22852379.280   122330582.124 7      5639.799          42.625    22852380.820   122330582.155 6      5639.799          41.625    22852405.540    95146121.019 7      4386.510          45.000    22852405.720    95146122.022 7      4386.510          45.187
G26  24159621.260   126959665.874 6     -1033.525          40.375    24159619.640   126959665.874 6     -1033.525          37.625    24159640.260    98929681.334 6      -805.344          37.562    24159641.160    98929685.341 7      -805.344          43.562
G27  21190537.300   111357027.603 7      1472.332          47.812    21190535.980   111357027.611 8      1472.332          48.937    21190544.340    86771733.089 8      1147.271          48.250    21190544.440    86771737.090 8      1147.271          49.625
G23  24692980.900   129762487.440 6      -511.426          38.812    24692980.240   129762487.443 4      -511.426          24.125    24692990.940   101113657.892 4      -398.514          24.125    24692991.500   101113670.889 7      -398.514          43.000
R23  22164885.280   118567196.214 7      4016.430          44.375    22164884.020   118567196.224 7      4016.430          43.875
R21  22083779.900   118174763.578 7       138.978          45.125    22083781.300   118174763.598 7       138.978          44.562    22083794.880    91913765.001 7       108.094          47.250    22083794.580    91913761.998 7       108.094          47.187
G07  23760290.900   124861158.388 7      2510.089          42.875    23760289.880   124861158.390 5      2510.089          30.000    23760300.000    97294446.497 5      1955.914          30.062    23760300.680    97294454.500 7      1955.914          42.375
G16  21498512.800   112975441.820 7       -34.299          47.750    21498511.060   112975441.825 6       -34.299          38.875    21498518.700    88032833.828 6       -26.727          38.562
G02  21711811.000   114096371.433 7      3580.565          46.812    21711809.220   114096371.438 6      3580.565          37.562    21711814.660    88906281.400 6      2790.050          37.437
G08  20795517.580   109281181.800 8      3138.677          48.000    20795516.040   109281181.808 8      3138.677          49.125    20795524.340    85154194.779 8      2445.723          48.625    20795525.340    85154198.780 8      2445.723          50.312
R11  20700364.600   110616462.900 8     -1099.455          49.750    20700363.800   110616462.901 8     -1099.455          49.062    20700377.360    86035069.143 8      -855.132          50.125    20700377.260    86035071.145 8      -855.132          50.562
G21  20522044.140   107844072.297 7      2664.609          47.937    20522042.560   107844072.302 6      2664.609          39.500    20522047.740    84034356.971 6      2076.319          39.375
R22  20200997.160   107834316.337 8      1837.389          49.687    20200998.240   107834316.340 8      1837.389          48.812    20201006.040    83871171.852 8      1429.080          49.937    20201006.020    83871171.849 8      1429.080          49.875
R12  19761915.820   105564611.919 8      3188.865          50.500    19761915.980   105564611.920 8      3188.865          50.562    19761926.300    82105848.968 8      2480.228          49.687    19761926.500    82105857.974 8      2480.228          49.937
> 2024 05 09 13 03 14.0000000  0 15
G10  22372861.720   117570177.432 7       972.709          47.375    22372860.660   117570177.431 7       972.709          45.812    22372870.640    91613164.707 7       757.955          45.750    22372870.760    91613167.708 8       757.955          48.250
R07  22851325.900   122324942.498 7      5639.582          42.625    22851327.160   122324942.540 6      5639.582          41.625    22851352.080    95141734.660 7      4386.341          45.437    22851352.280    95141735.665 7      4386.341          45.437
G26  24159817.900   126960699.574 6     -1033.747          40.687    24159816.480   126960699.574 6     -1033.747          37.812    24159837.140    98930486.814 6      -805.517          37.437    24159837.700    98930490.813 7      -805.517          43.375
G27  21190257.400   111355555.594 8      1471.953          48.000    21190255.860   111355555.602 8      1471.953          49.375    21190264.160    86770586.067 8      1146.976          48.750    21190264.040    86770590.070 8      1146.976          50.375
G23  24693078.260   129762999.202 6      -511.908          39.187    24693077.660   129762999.202 4      -511.908          24.125    24693088.100   101114056.665 4      -398.889          24.125    24693088.600   101114069.655 7      -398.889          42.875
R23  22164134.660   118563180.077 7      4016.062          44.375    22164133.480   118563180.086 7      4016.062          43.625
R21  22083754.320   118174624.832 7       138.786          45.375    22083755.420   118174624.841 7       138.786          44.375    22083769.020    91913657.077 7       107.945          47.375    22083768.840    91913654.072 7       107.945          47.500
G07  23759813.600   124858648.717 7      2509.489          42.437    23759812.340   124858648.722 5      2509.489          30.000    23759822.500    97292490.905 5      1955.446          30.062    23759823.300    97292498.904 7      1955.446          42.375
G16  21498519.540   112975476.514 7       -34.938          47.750    21498517.680   112975476.524 6       -34.938          38.312    21498525.300    88032860.860 6       -27.225          38.562
G02  21711129.460   114092791.133 7      3580.125          46.750    21711127.900   114092791.138 6      3580.125          37.812    21711133.260    88903491.560 6      2789.708          38.000
G08  20794920.380   109278043.391 7      3138.274          46.875    20794918.860   109278043.388 8      3138.274          49.250    20794927.120    85151749.257 8      2445.409          48.625    20794928.140    85151753.258 8      2445.409          50.125
R11  20700570.320   110617562.745 8     -1100.167          49.562    20700569.800   110617562.749 8     -1100.167          48.750    20700583.200    86035924.572 8      -855.685          50.250    20700583.080    86035926.571 8      -855.685          50.312
G21  20521537.060   107841408.026 7      2664.076          47.812    20521535.600   107841408.036 6      2664.076          39.562    20521540.640    84032280.922 6      2075.903          39.437
R22  20200653.220   107832479.230 8      1837.086          50.187    20200654.220   107832479.231 8      1837.086          49.312    20200661.800    83869742.987 8      1428.845          50.125    20200661.840    83869742.988 8      1428.845          49.937
R12  19761318.820   105561423.677 8      3187.753          49.875    19761319.280   105561423.673 8      3187.753          50.250    19761329.360    82103369.220 8      2479.363          49.937    19761329.580    82103378.226 8      2479.363          50.375
> 2024 05 09 13 03 15.0000000  0 15
G10  22372676.800   117569205.050 7       972.138          46.687    22372675.700   117569205.050 7       972.138          46.562    22372685.700    91612407.003 7       757.510          45.937    22372685.560    91612410.003 7       757.510          47.437
R07  22850272.380   122319303.097 7      5639.398          42.437    22850273.660   122319303.126 6      5639.398          41.750    22850298.460    95137348.455 7      4386.198          45.437    22850298.660    95137349.460 7      4386.198          45.437
G26  24160014.860   126961733.444 6     -1033.947          40.625    24160013.120   126961733.455 6     -1033.947          37.562    24160033.860    98931292.427 6      -805.673          37.562    24160033.880    98931296.428 7      -805.673          43.562
G27  21189977.080   111354083.832 8      1471.683          48.312    21189975.780   111354083.840 8      1471.683          49.375    21189984.080    86769439.238 8      1146.766          48.625    21189984.280    86769443.239 8      1146.766          50.312
G23  24693175.440   129763511.337 6      -512.455          38.812    24693175.140   129763511.339 4      -512.455          24.000    24693185.660   101114455.729 4      -399.315          24.125    24693185.800   101114468.725 7      -399.315          42.875
R23  22163384.120   118559164.266 7      4015.761          44.687    22163382.740   118559164.275 7      4015.761          43.625
R21  22083728.760   118174486.043 7       138.813          44.812    22083729.380   118174486.047 7       138.813          44.375    22083742.900    91913549.122 7       107.966          47.562    22083742.640    91913546.119 7       107.966          47.375
G07  23759336.000   124856139.608 7      2509.000          42.375    23759334.780   124856139.611 5      2509.000          30.062    23759345.160    97290535.751 5      1955.065          30.062    23759345.620    97290543.755 7      1955.065          42.375
G16  21498526.160   112975511.678 7       -35.369          47.500    21498524.420   112975511.686 6       -35.369          38.625    21498532.040    88032888.250 6       -27.560          38.500
G02  21710448.360   114089211.269 7      3579.697          47.812    21710446.680   114089211.274 6      3579.697          37.187    21710452.000    88900702.051 6      2789.375          37.687
G08  20794323.180   109274905.160 7      3138.177          47.125    20794321.620   109274905.167 8      3138.177          48.750    20794330.000    85149303.890 8      2445.333          48.437    20794330.920    85149307.891 8      2445.333          50.250
R11  20700776.340   110618663.138 8     -1100.691          49.625    20700775.800   110618663.136 8     -1100.691          49.000    20700789.260    86036780.412 8      -856.093          50.437    20700789.040    86036782.412 8      -856.093          50.625
G21  20521030.020   107838744.251 8      2663.598          48.437    20521028.840   107838744.259 6      2663.598          40.187    20521033.780    84030205.253 6      2075.531          39.500
R22  20200309.080   107830642.406 8      1836.791          49.562    20200309.940   107830642.407 8      1836.791          49.312    20200317.740    83868314.344 8      1428.615          50.125    20200317.980    83868314.345 8      1428.615          50.500
R12  19760722.520   105558236.338 8      3186.889          50.062    19760722.400   105558236.337 8      3186.889          50.312    19760732.780    82100890.179 8      2478.691          50.000    19760733.080    82100899.183 8      2478.691          50.625
> 2024 05 09 13 03 16.0000000  0 15
G10  22372491.940   117568233.323 7       971.448          46.375    22372490.840   117568233.331 7       971.448          46.187    22372500.700    91611649.819 7       756.972          45.687    22372500.820    91611652.817 7       756.972          47.625
R07  22849219.120   122313663.918 7      5639.136          42.437    22849220.060   122313663.952 6      5639.136          41.750    22849244.860    95132962.437 7      4385.995          44.937    22849245.300    95132963.445 7      4385.995          44.875
G26  24160211.520   126962767.501 6     -1034.071          41.000    24160210.020   126962767.509 6     -1034.071          37.625    24160230.720    98932098.184 6      -805.769          37.375    24160231.160    98932102.187 7      -805.769          43.687
G27  21189697.120   111352612.359 7      1471.397          47.562    21189695.780   111352612.367 8      1471.397          48.875    21189704.100    86768292.633 8      1146.543          48.500    21189704.200    86768296.634 8      1146.543          49.812
G23  24693272.900   129764023.834 6      -512.656          39.187    24693272.540   129764023.839 4      -512.656          24.000    24693283.060   101114855.080 4      -399.472          24.125    24693283.820   101114868.081 7      -399.472          42.875
R23  22162633.520   118555148.819 7      4015.330          44.500    22162632.240   118555148.831 7      4015.330          43.375
R21  22083702.420   118174347.321 7       138.693          44.812    22083703.580   118174347.333 7       138.693          44.687    22083716.860    91913441.229 7       107.873          46.812    22083716.780    91913438.222 7       107.873          46.937
G07  23758858.480   124853631.080 7      2508.379          42.125    23758857.400   124853631.085 5      2508.379          30.062    23758867.920    97288581.054 5      1954.581          30.062    23758867.840    97288589.062 7      1954.581          42.500
G16  21498532.820   112975547.347 8       -35.849          48.375    21498531.140   112975547.354 6       -35.849          38.687    21498538.680    88032916.036 6       -27.934          38.437
G02  21709767.340   114085631.857 7      3579.178          47.062    21709765.720   114085631.861 6      3579.178          37.562    21709771.020    88897912.903 6      2788.970          37.437
G08  20793725.900   109271767.212 8      3137.984          48.000    20793724.600   109271767.215 8      3137.984          48.125    20793732.860    85146858.735 8      2445.183          48.000    20793733.840    85146862.735 8      2445.183          50.187
R11  20700982.580   110619764.108 8     -1101.145          49.625    20700981.740   110619764.109 8     -1101.145          48.500    20700995.100    86037636.713 8      -856.446          49.812    20700994.940    86037638.713 8      -856.446          49.875
G21  20520523.360   107836080.991 7      2663.086          47.937    20520522.060   107836080.996 6      2663.086          39.625    20520527.060    84028129.984 6      2075.132          39.562
R22  20199965.220   107828805.873 8      1836.410          49.812    20199966.180   107828805.882 8      1836.410          49.250    20199973.660    83866885.936 8      1428.319          49.437    20199973.760    83866885.937 8      1428.319          49.812
R12  19760126.100   105555049.988 8      3185.936          50.000    19760126.080   105555049.991 8      3185.936          50.500    19760136.180    82098411.911 8      2477.950          49.625    19760136.520    82098420.915 8      2477.950          49.625
> 2024 05 09 13 03 17.0000000  0 15
G10  22372307.280   117567262.364 7       970.599          46.500    22372305.980   117567262.371 7       970.599          46.062    22372315.980    91610893.227 7       756.311          45.500    22372316.100    91610896.225 7       756.311          47.750
R07  22848165.440   122308025.128 7      5638.758          42.625    22848166.820   122308025.153 6      5638.758          41.687    22848191.460    95128576.709 7      4385.701          45.562    22848191.760    95128577.714 7      4385.701          44.875
G26  24160407.900   126963801.858 6     -1034.281          41.375    24160406.940   126963801.871 6     -1034.281          37.812    24160427.580    98932904.178 6      -805.933          37.812    24160427.640    98932908.175 7      -805.933          43.375
G27  21189417.260   111351141.288 7      1470.985          47.500    21189415.840   111351141.293 8      1470.985          49.312    21189424.120    86767146.340 8      1146.222          48.687    21189424.340    86767150.343 8      1146.222          49.875
G23  24693370.640   129764536.891 6      -513.184          39.437    24693370.220   129764536.899 4      -513.184          24.000    24693380.600   101115254.863 4      -399.884          24.125    24693381.380   101115267.864 7      -399.884          42.687
R23  22161883.020   118551133.837 7      4014.958          44.187    22161881.720   118551133.838 7      4014.958          43.375
R21  22083676.480   118174208.757 7       138.644          45.062    22083677.840   118174208.777 7       138.644          44.187    22083690.780    91913333.459 7       107.834          47.000    22083690.880    91913330.456 7       107.834          47.187
G07  23758380.860   124851123.280 6      2507.590          41.875    23758380.160   124851123.288 5      2507.590          30.062    23758390.680    97286626.924 5      1953.966          30.062    23758390.760    97286634.928 7      1953.966          42.187
G16  21498539.700   112975583.638 7       -36.470          47.812    21498538.080   112975583.648 6       -36.470          38.687    21498545.500    88032944.313 6       -28.418          38.562
G02  21709086.360   114082053.001 7      3578.648          47.375    21709084.760   114082053.009 6      3578.648          37.937    21709089.860    88895124.184 6      2788.557          37.500
G08  20793129.180   109268629.646 7      3137.481          47.625    20793127.420   109268629.651 8      3137.481          48.812    20793135.900    85144413.882 8      2444.790          48.500    20793136.580    85144417.881 8      2444.790          49.375
R11  20701188.760   110620865.815 8     -1101.910          50.125    20701188.000   110620865.819 8     -1101.910          48.812    20701201.380    86038493.586 8      -857.041          50.312    20701201.160    86038495.586 8      -857.041          50.375
G21  20520016.680   107833418.365 8      2662.414          48.750    20520015.400   107833418.369 6      2662.414          39.812    20520020.300    84026055.210 6      2074.608          39.687
R22  20199621.220   107826969.759 8      1836.033          50.000    20199621.980   107826969.763 8      1836.033          49.437    20199629.560    83865457.845 8      1428.026          49.937    20199629.880    83865457.844 8      1428.026          49.687
R12  19759529.900   105551864.764 8      3184.777          50.437    19759529.720   105551864.771 8      3184.777          50.375    19759539.880    82095934.517 8      2477.049          50.187    19759540.080    82095943.519 8      2477.049          50.875
> 2024 05 09 13 03 18.0000000  0 15
G10  22372122.340   117566292.205 7       970.122          46.062    22372121.380   117566292.207 7       970.122          46.625    22372131.320    91610137.255 7       755.939          46.062    22372131.480    91610140.255 8       755.939          48.687
R07  22847112.000   122302386.773 7      5638.390          42.625    22847113.500   122302386.812 6      5638.390          41.687    22847138.120    95124191.338 7      4385.415          45.437    22847138.440    95124192.344 7      4385.415          45.375
G26  24160605.100   126964836.677 6     -1034.812          40.312    24160603.780   126964836.695 6     -1034.812          37.875    24160624.620    98933710.528 6      -806.347          37.687    24160625.220    98933714.521 7      -806.347          43.437
G27  21189137.320   111349670.701 7      1470.628          47.125    21189136.040   111349670.705 8      1470.628          49.562    21189144.280    86766000.428 8      1145.944          49.000    21189144.460    86766004.429 8      1145.944          49.875
G23  24693468.240   129765050.560 6      -513.666          38.812    24693467.880   129765050.568 4      -513.666          24.000    24693478.480   101115655.129 4      -400.259          24.125    24693478.820   101115668.130 7      -400.259          42.625
R23  22161132.260   118547119.419 7      4014.462          44.187    22161131.100   118547119.434 7      4014.462          43.562
R21  22083650.420   118174070.453 7       138.519          45.687    22083651.560   118174070.481 7       138.519          44.187    22083665.080    91913225.895 7       107.737          47.500    22083664.920    91913222.894 7       107.737          47.500
G07  23757903.960   124848616.263 6      2506.982          41.687    23757902.960   124848616.271 5      2506.982          30.062    23757913.660    97284673.400 4      1953.492          29.875    23757913.740    97284681.402 7      1953.492          42.187
G16  21498546.700   112975620.641 7       -37.033          47.625    21498545.160   112975620.651 6       -37.033          39.187    21498552.560    88032973.140 6       -28.857          38.875
G02  21708405.360   114078474.795 7      3578.268          46.625    21708403.820   114078474.800 6      3578.268          37.250    21708408.980    88892335.974 6      2788.261          37.062
G08  20792532.100   109265492.521 7      3137.205          47.625    20792530.480   109265492.526 8      3137.205          49.250    20792538.840    85141969.371 8      2444.575          48.875    20792539.620    85141973.372 8      2444.575          50.687
R11  20701394.960   110621968.321 8     -1102.584          49.875    20701394.280   110621968.323 8     -1102.584          49.187    20701407.800    86039351.077 8      -857.565          50.562    20701407.740    86039353.076 8      -857.565          50.750
G21  20519510.240   107830756.461 8      2661.888          48.500    20519508.760   107830756.465 6      2661.888          39.562    20519513.940    84023980.997 6      2074.199          39.750
R22  20199277.420   107825134.158 8      1835.712          50.187    20199278.160   107825134.164 8      1835.712          49.125    20199285.740    83864030.157 8      1427.776          50.062    20199286.180    83864030.154 8      1427.776          50.437
R12  19758933.560   105548680.759 8      3183.719          50.125    19758933.800   105548680.763 8      3183.719          50.312    19758943.880    82093458.064 8      2476.226          50.062    19758944.120    82093467.066 8      2476.226          50.000
> 2024 05 09 13 03 19.0000000  0 15
G10  22371937.900   117565322.554 7       969.311          46.000    22371936.880   117565322.559 7       969.311          46.250    22371946.720    91609381.683 7       755.307          45.812    22371947.280    91609384.677 7       755.307          47.937
R07  22846058.400   122296748.507 7      5638.068          42.625    22846060.760   122296748.549 6      5638.068          41.687    22846084.800    95119806.026 7      4385.164          45.125    22846085.380    95119807.038 7      4385.164          45.687
G26  24160802.360   126965871.456 6     -1034.991          41.562    24160800.900   126965871.472 6     -1034.991          37.812    24160821.520    98934516.844 6      -806.487          37.187    24160821.800    98934520.849 7      -806.487          43.562
G27  21188857.520   111348200.218 7      1470.339          46.625    21188856.200   111348200.220 8      1470.339          49.125    21188864.500    86764854.591 8      1145.718          48.625    21188864.840    86764858.594 8      1145.718          49.875
G23  24693566.220   129765564.432 6      -513.973          38.812    24693565.700   129765564.437 4      -513.973          24.000    24693576.120   101116055.550 4      -400.498          24.125    24693576.600   101116068.551 7      -400.498          42.625
R23  22160381.820   118543105.186 7      4013.946          44.562    22160380.500   118543105.198 7      4013.946          43.062
R21  22083624.560   118173931.980 7       138.381          45.375    22083625.540   118173932.000 7       138.381          44.375    22083639.020    91913118.181 7       107.630          47.187    22083639.060    91913115.183 7       107.630          46.937
G07  23757427.020   124846109.661 7      2506.316          42.375    23757425.920   124846109.663 4      2506.316          29.937    23757436.660    97282720.198 4      1952.973          29.875    23757436.960    97282728.205 7      1952.973          42.375
G16  21498553.680   112975657.976 7       -37.564          47.375    21498552.220   112975657.983 6       -37.564          38.875    21498559.880    88033002.226 6       -29.271          38.875
G02  21707724.620   114074896.894 7      3577.599          47.250    21707722.880   114074896.901 6      3577.599          37.437    21707728.300    88889548.001 6      2787.740          37.750
G08  20791935.060   109262355.486 7      3136.823          47.937    20791933.480   109262355.488 8      3136.823          48.812    20791941.920    85139524.928 8      2444.278          48.687    20791942.620    85139528.929 8      2444.278          50.437
R11  20701601.500   110623071.263 8     -1103.314          49.875    20701600.620   110623071.267 8     -1103.314          48.562    20701614.100    86040208.910 8      -858.133          49.937    20701614.160    86040210.910 8      -858.133          50.500
G21  20519003.800   107828094.893 8      2661.249          48.250    20519002.340   107828094.898 6      2661.249          39.687    20519007.320    84021907.050 6      2073.700          39.687
R22  20198933.320   107823298.679 8      1835.253          49.937    20198934.240   107823298.691 8      1835.253          49.500    20198941.800    83862602.567 8      1427.419          50.437    20198942.280    83862602.562 8      1427.419          50.062
R12  19758337.920   105545497.547 8      3182.651          50.250    19758337.900   105545497.550 8      3182.651          50.250    19758347.880    82090982.230 8      2475.395          50.062    19758348.120    82090991.234 8      2475.395          50.625
> 2024 05 09 13 03 20.0000000  0 15
G10  22371753.400   117564353.707 7       968.689          45.750    22371752.440   117564353.714 7       968.689          46.375    22371762.340    91608626.741 7       754.823          45.750    22371762.860    91608629.735 8       754.823          48.125
R07  22845005.900   122291110.688 7      5637.822          43.000    22845007.520   122291110.732 6      5637.822          41.750    22845031.820    95115421.062 7      4384.973          45.625    22845032.060    95115422.072 7      4384.973          45.625
G26  24160999.040   126966906.620 6     -1035.133          41.500    24160998.060   126966906.630 6     -1035.133          37.437    24161018.500    98935323.458 6      -806.597          37.500    24161018.720    98935327.459 7      -806.597          43.500
G27  21188577.640   111346730.201 7      1470.079          46.750    21188576.560   111346730.206 8      1470.079          49.125    21188584.700    86763709.125 8      1145.516          48.750    21188585.100    86763713.128 8      1145.516          50.500
G23  24693664.100   129766078.942 6      -514.620          38.625    24693663.600   129766078.947 4      -514.620          24.000    24693674.080   101116456.467 4      -401.002          24.125    24693674.440   101116469.466 7      -401.002          42.687
R23  22159631.360   118539091.483 7      4013.685          44.250    22159630.200   118539091.490 7      4013.685          43.062
R21  22083598.720   118173793.654 7       138.538          45.250    22083599.860   118173793.685 7       138.538          44.437    22083613.300    91913010.596 7       107.752          47.125    22083613.080    91913007.596 7       107.752          47.250
G07  23756950.120   124843603.803 7      2505.838          42.000    23756949.100   124843603.805 4      2505.838          29.937    23756959.680    97280767.581 4      1952.601          29.875    23756960.240    97280775.590 7      1952.601          42.312
G16  21498560.860   112975696.001 7       -38.065          47.687    21498559.540   112975696.009 6       -38.065          38.937    21498567.120    88033031.848 6       -29.661          38.812
G02  21707043.900   114071319.610 7      3577.205          47.187    21707042.200   114071319.615 6      3577.205          37.625    21707047.560    88886760.509 6      2787.433          37.375
G08  20791338.180   109259218.863 8      3136.718          48.062    20791336.620   109259218.865 8      3136.718          49.062    20791345.080    85137080.804 8      2444.196          48.625    20791345.800    85137084.805 8      2444.196          50.375
R11  20701807.940   110624174.958 8     -1103.839          49.750    20701807.140   110624174.954 8     -1103.839          49.000    20701820.540    86041067.327 8      -858.542          50.437    20701820.640    86041069.325 8      -858.542          50.562
G21  20518497.640   107825434.011 7      2660.804          47.937    20518495.960   107825434.018 6      2660.804          39.812    20518501.020    84019833.640 6      2073.354          39.812
R22  20198589.660   107821463.681 8      1835.040          49.875    20198590.500   107821463.687 8      1835.040          49.875    20198598.300    83861175.340 8      1427.253          49.687    20198598.540    83861175.337 8      1427.253          50.312
R12  19757742.120   105542315.445 8      3181.867          50.687    19757742.220   105542315.444 8      3181.867          50.312    19757752.280    82088507.260 8      2474.785          50.125    19757752.460    82088516.264 8      2474.785          50.375
> 2024 05 09 13 03 21.0000000  0 15
G10  22371569.400   117563385.522 7       967.911          46.500    22371568.260   117563385.526 7       967.911          46.000    22371578.080    91607872.309 7       754.216          45.625    22371578.540    91607875.303 8       754.216          48.187
R07  22843953.360   122285473.125 7      5637.485          43.000    22843954.040   122285473.167 6      5637.485          41.750    22843978.580    95111036.300 7      4384.711          45.187    22843978.940    95111037.306 7      4384.711          45.062
G26  24161195.940   126967941.998 6     -1035.398          41.125    24161195.020   126967942.006 6     -1035.398          37.562    24161215.660    98936130.239 6      -806.803          37.375    24161215.560    98936134.231 7      -806.803          43.937
G27  21188297.840   111345260.478 7      1469.660          47.125    21188296.960   111345260.483 8      1469.660          49.250    21188305.020    86762563.882 8      1145.190          48.625    21188305.180    86762567.885 8      1145.190          49.812
G23  24693762.440   129766593.822 6      -515.162          38.312    24693761.600   129766593.827 4      -515.162          24.000    24693771.960   101116857.670 4      -401.425          24.375    24693772.340   101116870.682 7      -401.425          43.187
R23  22158881.560   118535078.143 7      4013.286          44.250    22158880.140   118535078.145 7      4013.286          43.062
R21  22083572.900   118173655.392 7       138.261          45.250    22083573.900   118173655.420 7       138.261          44.187    22083587.560    91912903.051 7       107.536          47.000    22083587.280    91912900.053 7       107.536          46.875
G07  23756473.740   124841098.591 6      2504.940          41.875    23756472.420   124841098.590 4      2504.940          29.937    23756482.900    97278815.463 4      1951.901          29.875    23756483.440    97278823.471 7      1951.901          42.312
G16  21498568.300   112975734.549 7       -38.796          47.875    21498566.940   112975734.560 6       -38.796          38.500    21498574.380    88033061.879 6       -30.231          38.187
G02  21706363.280   114067742.780 7      3576.677          46.562    21706361.500   114067742.785 6      3576.677          37.625    21706366.820    88883973.369 6      2787.021          37.250
G08  20790741.240   109256082.534 7      3136.232          47.312    20790739.780   109256082.539 8      3136.232          49.062    20790748.240    85134636.914 8      2443.817          48.500    20790749.100    85134640.914 8      2443.817          50.812
R11  20702014.620   110625279.271 8     -1104.604          49.500    20702013.820   110625279.274 8     -1104.604          48.500    20702027.400    86041926.230 8      -859.136          50.500    20702027.500    86041928.226 8      -859.136          50.312
G21  20517991.400   107822773.670 7      2660.112          47.062    20517989.680   107822773.675 6      2660.112          39.875    20517994.700    84017760.645 6      2072.814          39.625
R22  20198245.960   107819629.008 8      1834.570          49.625    20198246.880   107819629.007 8      1834.570          49.062    20198254.560    83859748.368 8      1426.888          49.875    20198254.620    83859748.363 8      1426.888          50.375
R12  19757146.800   105539134.322 8      3180.674          50.250    19757146.640   105539134.323 8      3180.674          50.562    19757156.720    82086033.051 8      2473.857          50.562    19757156.840    82086042.057 8      2473.857          50.437
> 2024 05 09 13 03 22.0000000  0 15
G10  22371385.520   117562417.928 7       967.159          45.000    22371384.040   117562417.930 7       967.159          46.000    22371393.920    91607118.338 7       753.630          45.937    22371394.260    91607121.333 7       753.630          47.500
R07  22842900.300   122279835.766 7      5637.106          43.125    22842901.020   122279835.803 6      5637.106          41.750    22842925.620    95106651.689 7      4384.416          45.187    22842925.700    95106652.699 7      4384.416          46.125
G26  24161393.200   126968977.524 6     -1035.642          40.562    24161392.160   126968977.526 6     -1035.642          38.000    24161412.580    98936937.136 6      -806.994          37.375    24161412.860    98936941.130 7      -806.994          43.687
G27  21188018.420   111343791.012 8      1469.122          48.250    21188017.300   111343791.022 8      1469.122          49.625    21188025.440    86761418.848 8      1144.770          48.687    21188025.400    86761422.849 8      1144.770          49.562
G23  24693860.420   129767109.094 6      -515.621          38.625    24693859.500   129767109.091 4      -515.621          24.500    24693870.080   101117259.177 4      -401.783          24.375    24693871.180   101117272.170 7      -401.783          43.312
R23  22158131.100   118531065.111 7      4012.730          44.375    22158130.040   118531065.123 7      4012.730          43.062
R21  22083547.140   118173517.114 7       138.114          45.187    22083547.640   118173517.132 7       138.114          44.187    22083561.640    91912795.492 7       107.422          47.000    22083561.520    91912792.495 7       107.422          47.062
G07  23755997.080   124838593.883 6      2504.287          41.687    23755995.860   124838593.883 4      2504.287          29.875    23756006.220    97276863.745 4      1951.393          29.875    23756006.560    97276871.751 7      1951.393          42.312
G16  21498575.660   112975773.550 7       -39.367          47.937    21498574.400   112975773.555 6       -39.367          38.687    21498581.820    88033092.261 6       -30.676          38.625
G02  21705682.820   114064166.374 7      3576.084          45.750    21705680.960   114064166.376 6      3576.084          37.750    21705686.160    88881186.561 6      2786.559          37.500
G08  20790144.440   109252946.395 8      3135.983          48.312    20790142.980   109252946.397 8      3135.983          49.125    20790151.420    85132193.167 8      2443.623          48.687    20790152.420    85132197.167 8      2443.623          50.562
R11  20702221.240   110626384.109 8     -1105.184          49.562    20702220.680   110626384.113 8     -1105.184          48.625    20702234.100    86042785.537 8      -859.588          50.250    20702234.180    86042787.537 8      -859.588          50.250
G21  20517485.300   107820113.784 7      2659.537          46.437    20517483.620   107820113.789 6      2659.537          39.937    20517488.600    84015688.008 6      2072.366          39.625
R22  20197902.180   107817794.573 8      1834.193          49.375    20197903.040   107817794.577 8      1834.193          49.625    20197910.960    83858321.587 8      1426.595          49.937    20197911.220    83858321.584 8      1426.595          50.125
R12  19756551.180   105535954.125 8      3179.548          49.875    19756551.400   105535954.124 8      3179.548          50.062    19756561.500    82083559.561 8      2472.982          49.875    19756561.440    82083568.563 8      2472.982          50.250
> 2024 05 09 13 03 23.0000000  0 15
G10  22371201.540   117561450.843 7       966.822          45.750    22371200.060   117561450.840 7       966.822          46.562    22371209.880    91606364.764 7       753.368          46.062    22371210.020    91606367.759 8       753.368          48.062
R07  22841846.860   122274198.536 7      5637.154          43.125    22841847.860   122274198.567 6      5637.154          41.937    22841872.420    95102267.177 7      4384.453          44.937    22841872.640    95102268.185 7      4384.453          45.500
G26  24161590.200   126970013.113 6     -1035.657          41.437    24161589.180   126970013.118 6     -1035.657          37.562    24161609.640    98937744.088 6      -807.005          37.375    24161610.280    98937748.085 7      -807.005          43.687
G27  21187738.820   111342321.673 8      1469.261          48.000    21187737.740   111342321.678 8      1469.261          49.375    21187745.860    86760273.902 8      1144.879          49.062    21187745.680    86760277.905 8      1144.879          50.250
G23  24693958.380   129767624.613 6      -515.689          38.250    24693957.600   129767624.610 4      -515.689          24.500    24693968.260   101117660.882 4      -401.836          24.375    24693969.160   101117673.877 7      -401.836          43.437
R23  22157381.160   118527052.291 7      4012.778          44.437    22157380.060   118527052.303 7      4012.778          43.375
R21  22083521.260   118173378.754 7       138.352          44.750    22083521.960   118173378.761 7       138.352          44.562    22083535.600    91912687.863 7       107.607          46.937    22083535.320    91912684.871 7       107.607          46.750
G07  23755520.200   124836089.641 7      2504.067          42.062    23755519.320   124836089.643 4      2504.067          29.875    23755529.640    97274912.385 4      1951.221          29.875    23755529.900    97274920.391 7      1951.221          42.312
G16  21498583.400   112975812.931 7       -39.631          46.750    21498581.880   112975812.938 6       -39.631          38.562    21498589.500    88033122.942 6       -30.881          38.437
G02  21705002.340   114060590.278 7      3575.960          47.750    21705000.500   114060590.283 6      3575.960          37.312    21705005.740    88878399.995 6      2786.463          37.187
G08  20789547.480   109249810.389 8      3135.986          48.312    20789546.320   109249810.389 8      3135.986          49.000    20789554.620    85129749.526 8      2443.626          48.312    20789555.820    85129753.529 8      2443.626          50.375
R11  20702427.920   110627489.391 8     -1105.518          49.500    20702427.480   110627489.393 8     -1105.518          48.750    20702440.940    86043645.190 8      -859.848          50.625    20702440.920    86043647.186 8      -859.848          50.687
G21  20516979.160   107817454.295 7      2659.248          47.875    20516977.440   107817454.300 6      2659.248          39.437    20516982.500    84013615.683 6      2072.141          39.187
R22  20197558.520   107815960.312 8      1834.203          49.687    20197559.520   107815960.315 8      1834.203          49.250    20197567.260    83856894.942 8      1426.602          50.250    20197567.440    83856894.936 8      1426.602          50.312
R12  19755956.100   105532774.796 8      3178.903          50.312    19755956.200   105532774.800 8      3178.903          50.125    19755966.360    82081086.754 8      2472.480          50.062    19755966.340    82081095.756 8      2472.480          50.125
> 2024 05 09 13 03 24.0000000  0 15
G10  22371017.540   117560484.469 7       965.839          46.687    22371016.160   117560484.476 7       965.839          46.062    22371026.120    91605611.749 7       752.602          45.562    22371026.100    91605614.748 8       752.602          48.062
R07  22840794.100   122268561.616 7      5636.583          43.187    22840794.500   122268561.636 6      5636.583          41.937    22840819.400    95097882.908 7      4384.009          45.625    22840819.860    95097883.914 7      4384.009          45.687
G26  24161787.660   126971048.954 6     -1036.072          40.750    24161786.340   126971048.959 6     -1036.072          37.562    24161806.740    98938551.233 6      -807.329          37.312    24161807.160    98938555.232 7      -807.329          43.687
G27  21187459.220   111340852.699 7      1468.599          47.687    21187458.180   111340852.706 8      1468.599          49.125    21187466.260    86759129.245 8      1144.363          48.812    21187466.360    86759133.252 8      1144.363          49.812
G23  24694056.720   129768140.597 6      -516.310          38.750    24694055.700   129768140.594 4      -516.310          24.500    24694066.500   101118062.948 4      -402.319          24.375    24694066.900   101118075.935 7      -402.319          43.437
R23  22156630.900   118523039.906 7      4012.033          44.437    22156629.840   118523039.910 7      4012.033          43.687
R21  22083495.540   118173240.481 7       138.060          45.125    22083496.020   118173240.499 7       138.060          44.625    22083509.760    91912580.326 7       107.380          47.000    22083509.760    91912577.330 7       107.380          47.062
G07  23755044.140   124833586.045 7      2503.191          42.062    23755042.700   124833586.047 4      2503.191          29.875    23755053.240    97272961.529 4      1950.538          29.875    23755053.860    97272969.543 7      1950.538          42.437
G16  21498590.860   112975852.872 7       -40.392          46.875    21498589.340   112975852.874 6       -40.392          38.500    21498597.000    88033154.056 6       -31.474          38.437
G02  21704321.920   114057014.699 7      3575.166          46.437    21704320.060   114057014.704 6      3575.166          37.062    21704325.400    88875613.831 6      2785.844          37.437
G08  20788950.920   109246674.707 8      3135.328          48.312    20788949.660   109246674.707 8      3135.328          48.562    20788958.120    85127306.141 8      2443.113          48.187    20788958.900    85127310.146 8      2443.113          50.500
R11  20702635.100   110628595.331 8     -1106.419          48.875    20702634.400   110628595.327 8     -1106.419          48.875    20702648.060    86044505.349 8      -860.548          50.312    20702648.040    86044507.345 8      -860.548          50.312
G21  20516472.980   107814795.370 7      2658.444          47.687    20516471.400   107814795.378 6      2658.444          40.062    20516476.560    84011543.796 6      2071.515          40.000
R22  20197214.840   107814126.400 8      1833.552          49.625    20197215.740   107814126.406 8      1833.552          49.187    20197223.740    83855468.570 8      1426.096          49.937    20197223.800    83855468.564 8      1426.096          50.125
R12  19755361.120   105529596.560 8      3177.585          50.375    19755361.220   105529596.561 8      3177.585          50.437    19755371.400    82078614.788 8      2471.455          50.250    19755371.520    82078623.790 8      2471.455          50.375
> 2024 05 09 13 03 25.0000000  0 15
G10  22370833.880   117559518.711 7       965.619          47.125    22370832.340   117559518.714 7       965.619          46.250    22370842.180    91604859.204 7       752.431          45.687    22370842.140    91604862.206 7       752.431          47.937
R07  22839741.140   122262924.921 7      5636.760          43.187    22839741.620   122262924.957 6      5636.760          41.812    22839766.600    95093498.831 7      4384.147          45.625    22839766.760    95093499.840 7      4384.147          45.812
G26  24161984.560   126972084.992 6     -1036.043          41.187    24161983.500   126972084.997 6     -1036.043          37.437    24162003.800    98939358.533 6      -807.306          37.375    24162004.780    98939362.528 7      -807.306          43.625
G27  21187179.700   111339383.977 7      1468.818          47.812    21187178.800   111339383.981 8      1468.818          49.250    21187186.820    86757984.784 8      1144.534          48.625    21187186.920    86757988.791 8      1144.534          49.562
G23  24694154.280   129768657.010 6      -516.575          39.000    24694153.880   129768657.009 4      -516.575          24.500    24694164.860   101118465.347 4      -402.526          24.375    24694165.360   101118478.344 7      -402.526          43.375
R23  22155880.560   118519027.834 7      4012.097          44.562    22155879.860   118519027.835 7      4012.097          43.687
R21  22083469.720   118173102.233 7       138.433          45.125    22083470.380   118173102.251 7       138.433          44.625    22083484.000    91912472.796 7       107.670          46.812    22083483.920    91912469.797 7       107.670          46.687
G07  23754567.880   124831083.058 7      2502.832          42.000    23754566.340   124831083.060 4      2502.832          29.812    23754576.860    97271011.148 4      1950.259          29.812    23754577.160    97271019.160 7      1950.259          42.437
G16  21498598.540   112975893.307 7       -40.525          47.312    21498597.120   112975893.314 6       -40.525          38.625    21498604.760    88033185.560 6       -31.578          38.687
G02  21703641.460   114053439.572 7      3575.049          46.125    21703639.820   114053439.575 6      3575.049          37.187    21703645.020    88872828.020 6      2785.753          37.187
G08  20788354.440   109243539.251 8      3135.513          48.125    20788353.020   109243539.253 8      3135.513          49.000    20788361.400    85124862.928 8      2443.257          48.437    20788362.280    85124866.931 8      2443.257          50.812
R11  20702842.220   110629701.850 8     -1106.602          49.812    20702841.540   110629701.851 8     -1106.602          49.125    20702854.980    86045365.965 8      -860.690          50.187    20702855.000    86045367.962 8      -860.690          50.125
G21  20515967.080   107812136.955 7      2658.357          47.937    20515965.580   107812136.963 6      2658.357          40.000    20515970.640    84009472.302 6      2071.447          40.000
R22  20196871.640   107812292.795 8      1833.596          49.750    20196872.220   107812292.798 8      1833.596          48.625    20196880.240    83854042.424 8      1426.130          50.062    20196880.400    83854042.425 8      1426.130          49.812
R12  19754766.460   105526419.253 8      3176.972          51.000    19754766.480   105526419.254 8      3176.972          50.187    19754776.640    82076143.553 8      2470.978          49.687    19754777.020    82076152.553 8      2470.978          50.375
> 2024 05 09 13 03 26.0000000  0 15
G10  22370650.080   117558553.461 7       964.962          47.000    22370648.660   117558553.463 7       964.962          46.312    22370658.600    91604107.063 7       751.918          45.625    22370658.720    91604110.067 7       751.918          47.437
R07  22838687.860   122257288.349 7      5636.501          43.375    22838688.680   122257288.394 6      5636.501          41.812    22838713.540    95089114.841 7      4383.945          45.625    22838714.100    95089115.846 7      4383.945          45.875
G26  24162181.460   126973121.064 6     -1036.107          40.812    24162180.540   126973121.069 6     -1036.107          38.062    24162201.020    98940165.856 6      -807.356          37.750    24162201.740    98940169.855 7      -807.356          43.625
G27  21186900.360   111337915.428 7      1468.448          47.625    21186899.320   111337915.435 8      1468.448          48.875    21186907.360    86756840.463 8      1144.245          48.625    21186907.200    86756844.466 8      1144.245          49.750
G23  24694253.400   129769173.638 6      -516.692          39.000    24694252.240   129769173.640 4      -516.692          24.500    24694263.160   101118867.914 4      -402.617          24.375    24694263.600   101118880.911 7      -402.617          43.500
R23  22155130.440   118515015.965 7      4011.714          44.375    22155129.840   118515015.975 7      4011.714          43.250
R21  22083443.780   118172963.846 7       138.406          45.687    22083444.720   118172963.876 7       138.406          44.562    22083458.020    91912365.165 7       107.649          46.625    22083457.820    91912362.165 7       107.649          46.375
G07  23754091.440   124828580.500 6      2502.184          41.312    23754090.020   124828580.505 4      2502.184          29.812    23754100.580    97269061.103 4      1949.754          29.812    23754100.740    97269069.112 7      1949.754          42.312
G16  21498606.140   112975934.112 7       -40.999          46.687    21498604.920   112975934.122 6       -40.999          38.375    21498612.440    88033217.350 6       -31.947          38.312
G02  21702961.060   114049864.753 7      3574.588          46.437    21702959.480   114049864.755 6      3574.588          37.937    21702964.680    88870042.447 6      2785.393          37.500
G08  20787757.540   109240403.931 7      3135.177          47.750    20787756.300   109240403.931 8      3135.177          48.937    20787764.740    85122419.820 8      2442.995          48.250    20787765.860    85122423.827 8      2442.995          49.875
R11  20703049.240   110630808.829 8     -1107.211          49.500    20703048.680   110630808.830 8     -1107.211          48.875    20703062.240    86046226.938 8      -861.164          49.375    20703061.960    86046228.938 8      -861.164          49.875
G21  20515461.400   107809478.922 7      2657.797          47.875    20515459.900   107809478.929 6      2657.797          39.625    20515464.780    84007401.109 6      2071.011          39.500
R22  20196528.240   107810459.337 8      1833.317          49.250    20196528.780   107810459.338 8      1833.317          49.375    20196536.820    83852616.403 8      1425.913          50.250    20196536.780    83852616.400 8      1425.913          49.625
R12  19754171.760   105523242.737 8      3176.070          50.187    19754171.720   105523242.741 8      3176.070          49.875    19754182.000    82073672.925 8      2470.276          49.625    19754182.100    82073681.927 8      2470.276          50.125
> 2024 05 09 13 03 27.0000000  0 15
G10  22370466.680   117557588.878 7       964.166          47.000    22370465.040   117557588.891 7       964.166          46.000    22370475.020    91603355.447 7       751.298          45.062    22370474.940    91603358.452 7       751.298          47.937
R07  22837634.840   122251652.053 7      5636.186          43.375    22837635.680   122251652.084 6      5636.186          41.812    22837660.820    95084731.055 7      4383.700          45.250    22837661.140    95084732.060 7      4383.700          45.250
G26  24162378.760   126974157.357 6     -1036.339          40.187    24162377.660   126974157.360 6     -1036.339          37.625    24162398.260    98940973.355 6      -807.537          37.500    24162398.720    98940977.356 7      -807.537          43.750
G27  21186620.940   111336447.179 8      1468.045          48.000    21186619.860   111336447.181 8      1468.045          49.000    21186627.940    86755696.365 8      1143.931          49.062    21186627.820    86755700.370 8      1143.931          50.375
G23  24694351.500   129769690.736 6      -517.334          39.000    24694350.720   129769690.741 4      -517.334          24.500    24694361.560   101119270.847 4      -403.117          24.375    24694361.780   101119283.851 7      -403.117          43.062
R23  22154380.440   118511004.455 7      4011.248          44.375    22154380.140   118511004.470 7      4011.248          43.250
R21  22083417.800   118172825.496 7       138.287          45.375    22083418.880   118172825.529 7       138.287          44.625    22083432.040    91912257.562 7       107.557          46.875    22083431.900    91912254.559 7       107.557          46.937
G07  23753615.500   124826078.548 7      2501.567          42.062    23753613.980   124826078.551 4      2501.567          29.812    23753624.340    97267111.526 4      1949.273          29.812    23753624.580    97267119.532 7      1949.273          42.062
G16  21498614.300   112975975.443 8       -41.647          48.312    21498613.080   112975975.456 6       -41.647          38.875    21498620.560    88033249.550 6       -32.452          38.812
G02  21702280.980   114046290.404 7      3573.978          47.125    21702279.300   114046290.409 6      3573.978          37.625    21702284.460    88867257.240 6      2784.918          37.562
G08  20787160.880   109237268.869 8      3134.895          48.312    20787159.820   109237268.871 8      3134.895          49.812    20787168.180    85119976.919 8      2442.776          48.687    20787169.100    85119980.924 8      2442.776          50.125
R11  20703257.020   110631916.436 8     -1107.956          49.562    20703256.040   110631916.440 8     -1107.956          48.937    20703269.540    86047088.393 8      -861.743          50.437    20703269.300    86047090.393 8      -861.743          50.500
G21  20514955.580   107806821.429 8      2657.158          48.125    20514954.080   107806821.434 6      2657.158          39.750    20514959.220    84005330.335 6      2070.512          39.812
R22  20196184.660   107808626.207 8      1832.951          49.937    20196185.320   107808626.208 8      1832.951          48.812    20196193.440    83851190.634 8      1425.629          50.062    20196193.500    83851190.632 8      1425.629          50.000
R12  19753577.120   105520067.239 8      3174.901          50.062    19753577.440   105520067.240 8      3174.901          50.875    19753587.520    82071203.093 8      2469.368          50.625    19753587.920    82071212.093 8      2469.368          50.562
> 2024 05 09 13 03 28.0000000  0 15
G10  22370283.100   117556624.921 7       963.595          46.875    22370281.480   117556624.931 7       963.595          46.250    22370291.480    91602604.309 7       750.853          46.000    22370291.660    91602607.311 7       750.853          47.937
R07  22836581.560   122246016.013 7      5635.819          43.312    22836582.580   122246016.066 7      5635.819          42.125    22836607.720    95080347.491 7      4383.414          45.687    22836608.380    95080348.503 7      4383.414          46.312
G26  24162575.660   126975193.847 6     -1036.576          41.000    24162574.840   126975193.850 6     -1036.576          37.812    24162595.500    98941781.010 6      -807.721          37.250    24162595.940    98941785.002 7      -807.721          43.437
G27  21186341.620   111334979.201 8      1467.807          48.375    21186340.620   111334979.203 8      1467.807          49.562    21186348.620    86754552.483 8      1143.746          48.812    21186348.600    86754556.488 8      1143.746          49.250
G23  24694450.280   129770208.199 6      -517.548          38.312    24694449.200   129770208.204 4      -517.548          24.500    24694459.980   101119674.066 4      -403.285          24.875    24694460.020   101119687.071 7      -403.285          42.937
R23  22153631.100   118506993.274 7      4011.046          44.312    22153630.120   118506993.294 7      4011.046          43.687
R21  22083391.680   118172687.154 7       138.290          45.062    22083393.260   118172687.190 7       138.290          44.437    22083406.160    91912149.954 7       107.559          46.750    22083406.160    91912146.956 7       107.559          46.500
G07  23753139.380   124823577.157 6      2501.142          41.500    23753138.140   124823577.159 4      2501.142          29.812    23753148.280    97265162.386 4      1948.942          29.812    23753148.620    97265170.398 7      1948.942          42.062
G16  21498622.280   112976017.278 8       -42.173          48.312    21498620.700   112976017.286 6       -42.173          39.125    21498628.300    88033282.141 6       -32.862          38.562
G02  21701600.900   114042716.494 7      3573.587          47.375    21701599.260   114042716.499 6      3573.587          37.937    21701604.620    88864472.379 6      2784.613          37.562
G08  20786564.440   109234134.069 8      3134.638          48.375    20786563.340   109234134.069 8      3134.638          49.250    20786571.640    85117534.216 8      2442.575          48.687    20786572.700    85117538.225 8      2442.575          50.500
R11  20703464.100   110633024.604 8     -1108.490          49.125    20703463.360   110633024.602 8     -1108.490          48.750    20703476.860    86047950.289 8      -862.159          50.687    20703476.680    86047952.289 8      -862.159          51.062
G21  20514450.100   107804164.433 8      2656.661          48.500    20514448.540   107804164.438 6      2656.661          39.875    20514453.660    84003259.949 6      2070.126          39.562
R22  20195841.420   107806793.344 8      1832.726          49.500    20195841.800   107806793.347 8      1832.726          48.875    20195850.260    83849765.076 8      1425.454          50.187    20195850.100    83849765.072 8      1425.454          50.500
R12  19752983.020   105516892.725 8      3173.929          50.000    19752983.060   105516892.735 8      3173.929          50.500    19752993.280    82068734.030 8      2468.611          50.125    19752993.460    82068743.032 8      2468.611          50.687
> 2024 05 09 13 03 29.0000000  0 15
G10  22370099.500   117555661.660 7       962.937          47.125    22370098.260   117555661.665 7       962.937          46.500    22370108.180    91601853.714 7       750.341          45.812    22370108.180    91601856.713 8       750.341          48.000
R07  22835528.940   122240380.290 7      5635.594          43.312    22835530.160   122240380.334 7      5635.594          42.125    22835554.980    95075964.151 7      4383.240          45.562    22835555.460    95075965.163 7      4383.240          45.625
G26  24162772.800   126976230.577 6     -1036.787          40.000    24162772.100   126976230.584 6     -1036.787          37.437    24162792.680    98942588.849 6      -807.886          37.437    24162793.080    98942592.839 7      -807.886          43.625
G27  21186062.300   111333511.553 7      1467.461          47.812    21186061.300   111333511.558 8      1467.461          49.250    21186069.300    86753408.864 8      1143.476          48.812    21186069.280    86753412.863 8      1143.476          49.625
G23  24694548.700   129770726.162 6      -518.050          38.562    24694547.740   129770726.169 4      -518.050          25.062    24694558.680   101120077.675 4      -403.676          24.875    24694559.080   101120090.670 7      -403.676          42.937
R23  22152880.980   118502982.510 7      4010.588          44.625    22152880.560   118502982.528 7      4010.588          43.750
R21  22083365.800   118172548.913 7       138.203          45.062    22083367.400   118172548.944 7       138.203          44.437    22083380.340    91912042.430 7       107.491          47.062    22083379.800    91912039.431 7       107.491          46.500
G07  23752663.780   124821076.438 6      2500.444          41.125    23752662.260   124821076.440 4      2500.444          29.937    23752672.420    97263213.772 4      1948.398          29.875    23752672.480    97263221.777 6      1948.398          41.937
G16  21498630.100   112976059.660 7       -42.718          47.750    21498628.760   112976059.668 6       -42.718          39.062    21498636.320    88033315.159 6       -33.287          38.500
G02  21700921.000   114039143.075 7      3573.206          47.437    21700919.340   114039143.077 6      3573.206          37.875    21700924.460    88861687.899 6      2784.316          38.062
G08  20785968.040   109230999.562 8      3134.375          48.625    20785966.820   109230999.559 8      3134.375          49.062    20785975.120    85115091.744 8      2442.370          48.687    20785976.120    85115095.751 8      2442.370          50.437
R11  20703671.620   110634133.407 8     -1109.114          49.812    20703670.780   110634133.411 8     -1109.114          49.187    20703684.220    86048812.684 8      -862.644          50.187    20703684.280    86048814.683 8      -862.644          50.625
G21  20513944.460   107801508.000 8      2656.171          48.437    20513943.100   107801508.005 6      2656.171          39.437    20513947.940    84001190.001 6      2069.743          39.687
R22  20195498.320   107804960.868 8      1832.298          50.250    20195498.420   107804960.869 8      1832.298          48.875    20195506.660    83848339.816 8      1425.121          50.000    20195506.960    83848339.811 8      1425.121          50.375
R12  19752389.060   105513719.257 8      3172.977          50.500    19752389.080   105513719.263 8      3172.977          50.187    19752399.280    82066265.774 8      2467.871          49.937    19752399.460    82066274.776 8      2467.871          50.437
> 2024 05 09 13 03 30.0000000  0 15
G10  22369916.500   117554699.014 7       962.530          46.937    22369914.920   117554699.021 7       962.530          46.187    22369925.040    91601103.598 7       750.023          46.062    22369925.160    91601106.601 8       750.023          48.000
R07  22834476.600   122234744.834 7      5635.570          43.500    22834477.300   122234744.865 7      5635.570          42.187    22834502.400    95071581.012 7      4383.221          45.375    22834502.700    95071582.020 7      4383.221          46.125
G26  24162970.120   126977267.508 6     -1036.877          40.437    24162969.460   126977267.502 6     -1036.877          37.562    24162990.060    98943396.829 6      -807.956          36.937    24162990.600    98943400.819 7      -807.956          43.437
G27  21185783.260   111332044.169 8      1467.491          48.000    21185782.080   111332044.166 8      1467.491          49.250    21185790.100    86752265.439 8      1143.499          48.562    21185790.100    86752269.438 8      1143.499          49.562
G23  24694647.540   129771244.471 6      -518.268          38.750    24694646.220   129771244.473 4      -518.268          25.062    24694657.380   101120481.548 4      -403.845          24.875    24694657.360   101120494.554 7      -403.845          43.125
R23  22152131.660   118498972.094 7      4010.368          44.625    22152130.920   118498972.101 7      4010.368          43.750
R21  22083340.020   118172410.692 7       138.410          45.187    22083341.940   118172410.725 7       138.410          44.437    22083354.540    91911934.922 7       107.652          47.062    22083353.980    91911931.926 7       107.652          46.875
G07  23752188.100   124818576.265 7      2500.083          42.625    23752186.500   124818576.268 4      2500.083          29.937    23752196.560    97261265.583 4      1948.117          29.875    23752197.040    97261273.583 7      1948.117          42.062
G16  21498638.400   112976102.502 7       -42.840          47.687    21498636.840   112976102.509 6       -42.840          38.375    21498644.460    88033348.538 6       -33.382          38.375
G02  21700241.020   114035570.097 7      3573.022          47.937    21700239.420   114035570.100 6      3573.022          38.000    21700244.500    88858903.754 6      2784.173          37.812
G08  20785371.680   109227865.303 8      3134.269          48.062    20785370.520   109227865.306 8      3134.269          49.500    20785378.700    85112649.465 8      2442.287          48.625    20785379.520    85112653.474 8      2442.287          50.437
R11  20703879.460   110635242.807 8     -1109.507          49.875    20703878.600   110635242.803 8     -1109.507          48.937    20703891.960    86049675.525 8      -862.950          50.500    20703891.980    86049677.527 8      -862.950          50.187
G21  20513439.160   107798852.052 7      2655.922          47.937    20513437.580   107798852.055 6      2655.922          39.437    20513442.600    83999120.431 6      2069.549          39.750
R22  20195154.780   107803128.637 8      1832.313          49.375    20195155.100   107803128.638 8      1832.313          49.062    20195163.460    83846914.744 8      1425.132          49.687    20195163.720    83846914.739 8      1425.132          50.500
R12  19751795.260   105510546.725 8      3172.241          50.375    19751795.120   105510546.732 8      3172.241          49.812    19751805.400    82063798.248 8      2467.298          50.562    19751805.520    82063807.248 8      2467.298          50.625
> 2024 05 09 13 03 31.0000000  0 15
G10  22369733.620   117553737.082 7       961.718          46.812    22369731.880   117553737.087 7       961.718          46.312    22369742.060    91600354.041 7       749.391          45.687    22369742.320    91600357.044 8       749.391          48.375
R07  22833423.520   122229109.689 7      5635.143          43.500    22833424.760   122229109.714 7      5635.143          42.187    22833449.680    95067198.121 7      4382.889          45.687    22833449.940    95067199.127 7      4382.889          45.687
G26  24163167.880   126978304.663 6     -1037.233          39.875    24163166.700   126978304.652 6     -1037.233          37.562    24163187.460    98944204.989 6      -808.233          37.187    24163188.140    98944208.984 7      -808.233          43.375
G27  21185504.040   111330577.147 7      1466.919          46.625    21185503.020   111330577.152 8      1466.919          49.250    21185510.940    86751122.305 8      1143.054          48.562    21185511.000    86751126.306 8      1143.054          49.937
G23  24694745.660   129771763.259 6      -518.781          38.812    24694744.920   129771763.263 4      -518.781          25.062    24694756.100   101120885.800 4      -404.245          24.875    24694756.120   101120898.806 7      -404.245          43.250
R23  22151381.860   118494962.084 7      4009.917          44.937    22151381.360   118494962.086 7      4009.917          43.437
R21  22083314.240   118172272.564 7       138.235          45.500    22083316.180   118172272.587 7       138.235          44.687    22083328.780    91911827.479 7       107.516          47.250    22083328.540    91911824.476 7       107.516          46.562
G07  23751712.300   124816076.763 7      2499.283          42.750    23751710.900   124816076.760 4      2499.283          29.937    23751720.900    97259317.919 4      1947.493          29.875    23751721.700    97259325.916 7      1947.493          42.062
G16  21498646.580   112976145.945 7       -43.568          46.500    21498645.080   112976145.953 6       -43.568          38.562    21498652.820    88033382.382 6       -33.949          38.562
G02  21699561.140   114031997.648 7      3572.310          47.500    21699559.640   114031997.648 6      3572.310          37.250    21699564.600    88856120.030 6      2783.618          37.250
G08  20784775.400   109224731.347 8      3133.943          48.062    20784774.080   109224731.344 8      3133.943          49.250    20784782.260    85110207.417 8      2442.034          48.750    20784782.820    85110211.431 8      2442.034          50.250
R11  20704087.160   110636352.842 8     -1110.251          49.437    20704086.080   110636352.838 8     -1110.251          49.000    20704099.660    86050538.880 8      -863.528          50.250    20704099.700    86050540.879 8      -863.528          50.437
G21  20512933.760   107796196.712 8      2655.090          48.187    20512932.300   107796196.719 6      2655.090          39.750    20512937.400    83997051.333 6      2068.901          39.875
R22  20194811.860   107801296.802 8      1831.762          49.687    20194811.860   107801296.803 8      1831.762          49.000    20194820.360    83845489.985 8      1424.703          49.625    20194820.560    83845489.982 8      1424.703          50.375
R12  19751201.340   105507375.225 8      3171.058          50.250    19751201.320   105507375.224 8      3171.058          49.875    19751211.740    82061331.521 8      2466.378          50.187    19751211.820    82061340.521 8      2466.378          50.562
> 2024 05 09 13 03 32.0000000  0 15
G10  22369550.420   117552775.831 7       960.943          46.250    22369549.020   117552775.836 7       960.943          46.125    22369559.180    91599605.012 7       748.787          45.625    22369559.540    91599608.015 7       748.787          47.937
R07  22832370.540   122223474.846 7      5634.701          43.187    22832372.280   122223474.869 7      5634.701          42.187    22832397.060    95062815.476 7      4382.545          46.375    22832397.020    95062816.484 7      4382.545          45.937
G26  24163365.220   126979342.028 6     -1037.357          40.500    24163364.120   126979342.027 6     -1037.357          37.500    24163384.960    98945013.332 6      -808.330          37.125    24163385.620    98945017.341 7      -808.330          43.375
G27  21185224.780   111329110.443 7      1466.624          47.375    21185223.940   111329110.445 8      1466.624          49.312    21185231.860    86749979.419 8      1142.824          49.062    21185232.100    86749983.418 8      1142.824          50.000
G23  24694844.700   129772282.506 6      -519.237          38.250    24694843.700   129772282.508 4      -519.237          25.062    24694854.860   101121290.407 4      -404.601          24.875    24694854.960   101121303.414 7      -404.601          43.625
R23  22150632.400   118490952.473 7      4009.539          44.875    22150631.580   118490952.485 7      4009.539          43.437
R21  22083288.620   118172134.487 7       138.124          45.562    22083290.400   118172134.515 7       138.124          44.687    22083302.860    91911720.088 7       107.430          46.750    22083302.620    91911717.089 7       107.430          46.875
G07  23751236.660   124813577.865 7      2498.764          42.562    23751235.480   124813577.867 4      2498.764          29.875    23751245.480    97257370.724 4      1947.088          29.625    23751246.300    97257378.735 7      1947.088          42.062
G16  21498654.940   112976189.938 7       -44.165          47.500    21498653.480   112976189.950 6       -44.165          39.000    21498661.160    88033416.658 6       -34.415          38.687
G02  21698881.540   114028425.690 7      3571.777          47.062    21698879.780   114028425.692 6      3571.777          37.625    21698884.900    88853336.692 6      2783.203          37.562
G08  20784179.100   109221597.696 8      3133.643          48.625    20784177.820   109221597.696 8      3133.643          49.250    20784186.020    85107765.617 8      2441.799          48.562    20784186.480    85107769.628 8      2441.799          50.187
R11  20704295.200   110637463.508 8     -1110.839          49.750    20704294.080   110637463.510 8     -1110.839          48.625    20704307.560    86051402.727 8      -863.986          50.312    20704307.640    86051404.727 8      -863.986          50.750
G21  20512428.620   107793541.905 7      2654.609          47.812    20512427.100   107793541.910 6      2654.609          39.562    20512432.180    83994982.654 6      2068.526          39.500
R22  20194468.580   107799465.303 8      1831.369          48.812    20194468.740   107799465.304 8      1831.369          48.750    20194477.140    83844065.486 8      1424.398          49.812    20194477.380    83844065.485 8      1424.398          50.187
R12  19750607.940   105504204.745 8      3170.075          50.312    19750607.900   105504204.744 8      3170.075          50.375    19750618.300    82058865.588 8      2465.614          50.375    19750618.120    82058874.590 8      2465.614          50.812
> 2024 05 09 13 03 33.0000000  0 15
G10  22369367.720   117551815.124 7       960.322          46.562    22369366.240   117551815.126 7       960.322          46.250    22369376.280    91598856.405 7       748.303          46.062    22369376.580    91598859.402 7       748.303          47.937
R07  22831317.800   122217840.131 7      5634.374          43.187    22831319.480   122217840.162 7      5634.374          42.437    22831344.260    95058432.929 7      4382.291          45.937    22831344.600    95058433.932 7      4382.291          45.750
G26  24163562.740   126980379.556 6     -1037.742          39.937    24163561.360   126980379.563 6     -1037.742          36.875    24163582.300    98945821.799 6      -808.630          36.687    24163583.120    98945825.800 7      -808.630          43.562
G27  21184945.840   111327643.936 7      1466.263          47.875    21184944.800   111327643.943 8      1466.263          49.375    21184952.820    86748836.688 8      1142.543          48.625    21184952.800    86748840.685 8      1142.543          49.750
G23  24694943.660   129772802.092 6      -519.757          38.250    24694942.580   129772802.092 4      -519.757          25.062    24694953.920   101121695.275 4      -405.006          24.875    24694954.480   101121708.264 7      -405.006          43.437
R23  22149883.320   118486943.156 7      4009.019          44.687    22149882.300   118486943.166 7      4009.019          43.562
R21  22083262.840   118171996.351 7       138.027          45.437    22083264.860   118171996.376 7       138.027          44.687    22083277.340    91911612.640 7       107.354          46.625    22083277.000    91911609.640 7       107.354          46.812
G07  23750761.240   124811079.505 7      2498.035          42.687    23750760.240   124811079.505 4      2498.035          29.875    23750770.020    97255423.950 4      1946.521          29.625    23750770.620    97255431.943 6      1946.521          41.937
G16  21498663.520   112976234.353 7       -44.783          47.750    21498662.120   112976234.363 6       -44.783          38.750    21498669.640    88033451.261 6       -34.896          38.875
G02  21698201.760   114024854.092 7      3571.250          47.875    21698200.260   114024854.097 6      3571.250          37.687    21698205.340    88850553.628 6      2782.792          37.875
G08  20783582.700   109218464.221 8      3133.268          48.250    20783581.560   109218464.221 8      3133.268          48.875    20783589.700    85105323.946 8      2441.508          48.187    20783590.300    85105327.955 8      2441.508          50.062
R11  20704503.300   110638574.682 8     -1111.541          49.687    20704502.120   110638574.686 8     -1111.541          49.187    20704515.520    86052266.958 8      -864.532          50.687    20704515.580    86052268.956 8      -864.532          50.750
G21  20511923.460   107790887.536 8      2654.043          48.375    20511921.960   107790887.541 6      2654.043          39.812    20511927.200    83992914.317 6      2068.085          39.937
R22  20194125.500   107797634.015 8      1831.077          48.812    20194125.640   107797634.016 8      1831.077          48.812    20194134.000    83842641.147 8      1424.171          49.937    20194134.240    83842641.143 8      1424.171          50.250
R12  19750014.620   105501035.184 8      3168.945          50.875    19750014.520   105501035.182 8      3168.945          50.500    19750024.920    82056400.374 8      2464.735          50.437    19750024.700    82056409.374 8      2464.735          50.750
> 2024 05 09 13 03 34.0000000  0 15
G10  22369184.920   117550855.178 7       959.424          46.250    22369183.440   117550855.181 7       959.424          45.812    22369193.640    91598108.395 7       747.603          45.625    22369193.980    91598111.395 8       747.603          48.062
R07  22830265.480   122212205.781 7      5633.980          43.500    22830267.160   122212205.812 7      5633.980          42.437    22830292.080    95054050.662 7      4381.984          45.750    22830292.080    95054051.666 7      4381.984          46.750
G26  24163760.160   126981417.349 6     -1038.021          40.187    24163758.840   126981417.362 6     -1038.021          37.062    24163779.640    98946630.467 6      -808.848          36.562    24163780.360    98946634.462 7      -808.848          43.375
G27  21184666.760   111326177.833 7      1465.695          47.000    21184665.800   111326177.838 8      1465.695          49.625    21184673.820    86747694.265 8      1142.100          49.000    21184673.660    86747698.264 8      1142.100          50.125
G23  24695042.340   129773322.186 6      -520.647          38.000    24695041.740   129773322.180 4      -520.647          25.062    24695052.960   101122100.539 4      -405.699          24.500    24695053.220   101122113.530 7      -405.699          44.062
R23  22149133.660   118482934.278 7      4008.475          44.687    22149132.820   118482934.293 7      4008.475          43.125
R21  22083236.780   118171858.333 7       137.822          46.000    22083238.980   118171858.356 7       137.822          44.875    22083251.620    91911505.291 7       107.195          46.875    22083251.340    91911502.286 7       107.195          47.000
G07  23750285.940   124808581.813 7      2497.287          42.250    23750284.940   124808581.813 4      2497.287          29.875    23750294.740    97253477.690 4      1945.938          29.625    23750294.960    97253485.694 6      1945.938          41.937
G16  21498672.100   112976279.378 8       -45.483          48.000    21498670.700   112976279.386 6       -45.483          39.125    21498678.200    88033486.335 6       -35.442          39.000
G02  21697522.320   114021283.056 7      3570.639          47.250    21697520.660   114021283.061 6      3570.639          37.500    21697525.780    88847771.005 6      2782.316          37.625
G08  20782986.440   109215331.108 8      3132.782          48.312    20782985.380   109215331.103 8      3132.782          49.062    20782993.500    85102882.558 8      2441.129          48.562    20782994.060    85102886.567 8      2441.129          50.187
R11  20704711.060   110639686.566 8     -1112.407          49.125    20704709.940   110639686.573 8     -1112.407          49.250    20704723.540    86053131.749 8      -865.205          50.312    20704723.700    86053133.745 8      -865.205          50.812
G21  20511418.420   107788233.801 7      2653.212          47.937    20511416.780   107788233.809 6      2653.212          39.250    20511422.080    83990846.471 6      2067.438          39.437
R22  20193782.480   107795803.129 8      1830.585          48.500    20193782.620   107795803.130 8      1830.585          49.000    20193790.960    83841217.127 8      1423.789          49.375    20193791.020    83841217.124 8      1423.789          49.812
R12  19749421.260   105497866.713 8      3167.786          50.500    19749421.360   105497866.714 8      3167.786          49.812    19749431.860    82053936.007 8      2463.834          50.562    19749431.600    82053945.011 8      2463.834          50.937
> 2024 05 09 13 03 35.0000000  0 15
G10  22369002.420   117549895.922 7       958.933          45.625    22369000.920   117549895.919 7       958.933          46.250    22369011.240    91597360.922 7       747.220          45.937    22369011.240    91597363.922 8       747.220          48.062
R07  22829213.260   122206571.778 7      5633.804          43.500    22829214.760   122206571.817 7      5633.804          42.250    22829239.600    95049668.677 7      4381.848          45.750    22829239.700    95049669.681 7      4381.848          46.625
G26  24163957.880   126982455.437 6     -1038.348          39.937    24163956.440   126982455.447 6     -1038.348          37.125    24163977.180    98947439.364 6      -809.102          36.875    24163977.680    98947443.359 7      -809.102          43.250
G27  21184388.040   111324712.067 7      1465.610          47.250    21184386.980   111324712.070 8      1465.610          49.187    21184394.820    86746552.105 8      1142.034          48.937    21184394.900    86746556.102 8      1142.034          49.750
G23  24695141.520   129773842.687 6      -520.761          39.312    24695140.780   129773842.684 4      -520.761          24.687    24695152.140   101122506.124 4      -405.788          24.500    24695152.360   101122519.127 7      -405.788          43.875
R23  22148384.080   118478925.819 7      4008.215          44.312    22148383.440   118478925.840 7      4008.215          43.125
R21  22083211.560   118171720.397 7       137.924          46.000    22083213.100   118171720.426 7       137.924          44.937    22083225.720    91911398.010 7       107.274          47.125    22083225.680    91911395.001 7       107.274          47.375
G07  23749810.800   124806084.812 7      2496.633          42.687    23749809.640   124806084.814 4      2496.633          29.875    23749819.620    97251531.971 4      1945.429          29.625    23749820.400    97251539.975 7      1945.429          42.062
G16  21498680.480   112976324.961 7       -45.845          47.625    21498679.360   112976324.968 6       -45.845          39.250    21498687.040    88033521.850 6       -35.724          39.250
G02  21696843.040   114017712.531 7      3570.330          46.937    21696841.220   114017712.538 6      3570.330          37.625    21696846.320    88844988.781 6      2782.075          37.500
G08  20782390.240   109212198.303 8      3132.644          48.312    20782389.280   109212198.305 8      3132.644          49.312    20782397.260    85100441.419 8      2441.021          48.687    20782398.100    85100445.430 8      2441.021          50.000
R11  20704919.220   110640799.108 8     -1112.855          49.750    20704918.140   110640799.109 8     -1112.855          49.062    20704931.820    86053997.047 8      -865.554          50.187    20704931.840    86053999.044 8      -865.554          50.062
G21  20510913.680   107785580.626 7      2652.851          47.875    20510912.000   107785580.633 6      2652.851          39.312    20510917.360    83988779.064 6      2067.157          39.375
R22  20193439.720   107793972.607 8      1830.386          49.000    20193439.520   107793972.611 8      1830.386          49.562    20193448.140    83839793.383 8      1423.633          49.875    20193448.240    83839793.384 8      1423.633          50.000
R12  19748828.360   105494699.264 8      3166.908          50.562    19748828.400   105494699.265 8      3166.908          50.062    19748839.220    82051472.436 8      2463.150          49.875    19748838.700    82051481.438 8      2463.150          50.687
> 2024 05 09 13 03 36.0000000  0 15
G10  22368820.000   117548937.159 7       958.340          46.062    22368818.520   117548937.166 7       958.340          46.000    22368828.800    91596613.835 7       746.758          45.562    22368828.700    91596616.834 7       746.758          47.750
R07  22828161.080   122200937.843 7      5633.713          43.375    22828161.780   122200937.885 7      5633.713          42.250    22828186.940    95045286.734 7      4381.777          45.250    22828187.400    95045287.737 7      4381.777          46.125
G26  24164155.960   126983493.527 6     -1038.238          40.437    24164154.080   126983493.532 6     -1038.238          36.875    24164174.740    98948248.256 6      -809.017          36.562    24164175.440    98948252.244 7      -809.017          43.187
G27  21184109.100   111323246.409 7      1465.491          47.750    21184108.020   111323246.414 8      1465.491          49.250    21184115.960    86745410.034 8      1141.941          48.437    21184115.900    86745414.033 8      1141.941          49.500
G23  24695240.360   129774363.469 6      -521.070          38.437    24695239.900   129774363.468 4      -521.070          24.687    24695251.260   101122911.930 4      -406.028          24.500    24695251.320   101122924.925 7      -406.028          43.937
R23  22147634.920   118474917.575 7      4007.869          44.250    22147634.580   118474917.595 7      4007.869          43.562
R21  22083186.020   118171582.358 7       138.007          46.437    22083187.260   118171582.373 7       138.007          44.875    22083200.040    91911290.631 7       107.338          46.875    22083199.680    91911287.624 7       107.338          46.937
G07  23749335.320   124803588.218 6      2496.091          41.875    23749334.580   124803588.221 4      2496.091          29.500    23749344.440    97249586.569 4      1945.006          29.375    23749344.920    97249594.573 7      1945.006          42.062
G16  21498689.380   112976370.900 8       -46.284          48.437    21498688.100   112976370.908 6       -46.284          38.312    21498695.800    88033557.641 6       -36.065          38.125
G02  21696163.500   114014142.309 7      3569.928          47.437    21696161.960   114014142.314 6      3569.928          37.625    21696167.080    88842206.791 6      2781.762          37.437
G08  20781794.040   109209065.603 7      3132.504          47.812    20781793.180   109209065.603 8      3132.504          48.875    20781801.160    85098000.350 8      2440.912          48.250    20781802.060    85098004.359 8      2440.912          49.687
R11  20705127.680   110641912.067 8     -1113.338          49.500    20705126.560   110641912.062 8     -1113.338          48.875    20705140.060    86054862.660 8      -865.929          49.750    20705139.740    86054864.658 8      -865.929          49.625
G21  20510408.640   107782927.808 7      2652.502          47.500    20510407.220   107782927.813 6      2652.502          39.937    20510412.360    83986711.931 6      2066.885          39.937
R22  20193097.020   107792142.232 8      1830.133          49.312    20193097.100   107792142.233 8      1830.133          49.187    20193105.040    83838369.758 8      1423.437          49.000    20193105.200    83838369.757 8      1423.437          49.375
R12  19748235.860   105491532.617 8      3165.999          49.750    19748235.440   105491532.618 8      3165.999          50.000    19748246.240    82049009.488 8      2462.443          49.437    19748245.860    82049018.492 8      2462.443          50.062
> 2024 05 09 13 03 37.0000000  0 15
G10  22368637.640   117547979.019 7       957.827          46.312    22368636.220   117547979.026 7       957.827          45.875    22368646.380    91595867.236 7       746.359          45.312    22368646.660    91595870.240 7       746.359          47.625
R07  22827108.280   122195304.172 7      5633.463          43.687    22827109.620   122195304.219 7      5633.463          42.250    22827134.660    95040905.004 7      4381.582          45.750    22827135.040    95040906.004 7      4381.582          45.937
G26  24164353.200   126984531.819 6     -1038.340          40.812    24164351.640   126984531.816 6     -1038.340          37.187    24164372.300    98949057.305 6      -809.096          37.062    24164373.100    98949061.295 7      -809.096          43.437
G27  21183830.140   111321781.063 8      1465.206          48.437    21183829.160   111321781.066 8      1465.206          49.250    21183837.160    86744268.206 8      1141.719          48.750    21183836.740    86744272.203 8      1141.719          49.562
G23  24695339.640   129774884.679 6      -521.541          39.000    24695338.980   129774884.681 4      -521.541          24.687    24695350.420   101123318.068 4      -406.396          24.500    24695350.940   101123331.063 7      -406.396          44.000
R23  22146885.560   118470909.665 7      4007.703          44.250    22146885.520   118470909.674 7      4007.703          43.562
R21  22083160.100   118171444.374 7       137.917          46.125    22083161.320   118171444.387 7       137.917          44.875    22083174.220    91911183.304 7       107.268          46.687    22083174.260    91911180.291 7       107.268          46.562
G07  23748860.200   124801092.200 6      2495.683          41.750    23748859.760   124801092.200 4      2495.683          29.500    23748869.580    97247641.614 4      1944.688          29.375    23748869.660    97247649.623 6      1944.688          41.750
G16  21498698.360   112976417.339 7       -46.689          47.500    21498697.020   112976417.344 6       -46.689          38.500    21498704.460    88033593.819 6       -36.381          38.187
G02  21695484.240   114010572.553 7      3569.393          47.500    21695482.700   114010572.561 6      3569.393          37.500    21695487.520    88839425.161 6      2781.345          37.437
G08  20781198.000   109205933.155 7      3132.282          47.375    20781197.060   109205933.158 8      3132.282          49.375    20781205.220    85095559.488 8      2440.739          48.437    20781205.980    85095563.495 8      2440.739          50.250
R11  20705335.840   110643025.605 8     -1113.893          49.562    20705334.940   110643025.609 8     -1113.893          48.625    20705348.500    86055728.741 8      -866.361          50.000    20705348.400    86055730.743 8      -866.361          50.875
G21  20509904.100   107780275.515 8      2651.975          48.000    20509902.460   107780275.517 6      2651.975          39.375    20509907.780    83984645.207 6      2066.474          39.625
R22  20192753.860   107790312.150 8      1829.948          49.437    20192754.260   107790312.148 8      1829.948          48.750    20192762.220    83836946.355 8      1423.293          49.500    20192762.480    83836946.358 8      1423.293          49.562
R12  19747642.820   105488366.969 8      3165.076          50.187    19747642.560   105488366.972 8      3165.076          50.375    19747653.420    82046547.324 8      2461.726          50.000    19747653.260    82046556.321 8      2461.726          50.875
> 2024 05 09 13 03 38.0000000  0 15
G10  22368455.680   117547021.436 7       957.423          46.125    22368453.960   117547021.443 7       957.423          46.312    22368464.200    91595121.065 7       746.044          46.062    22368464.420    91595124.067 8       746.044          48.312
R07  22826055.840   122189670.662 7      5633.627          43.687    22826057.200   122189670.696 7      5633.627          42.500    22826082.400    95036523.377 7      4381.710          46.062    22826082.600    95036524.379 7      4381.710          46.500
G26  24164551.120   126985570.186 6     -1038.322          40.562    24164549.460   126985570.193 6     -1038.322          37.187    24164569.720    98949866.427 6      -809.082          36.875    24164570.360    98949870.426 7      -809.082          43.250
G27  21183551.180   111320315.889 8      1465.189          48.000    21183550.440   111320315.893 8      1465.189          49.687    21183558.400    86743126.507 8      1141.706          49.187    21183558.060    86743130.510 8      1141.706          49.750
G23  24695438.940   129775406.146 6      -521.525          38.375    24695438.160   129775406.151 4      -521.525          24.687    24695449.780   101123724.404 4      -406.383          24.500    24695449.920   101123737.399 7      -406.383          44.375
R23  22146136.380   118466902.004 7      4007.596          44.312    22146135.760   118466902.016 7      4007.596          43.500
R21  22083134.340   118171306.279 7       138.227          46.062    22083135.240   118171306.293 7       138.227          45.125    22083148.440    91911075.892 7       107.510          46.875    22083148.320    91911072.883 7       107.510          46.875
G07  23748385.580   124798596.686 7      2495.240          42.375    23748384.960   124798596.691 4      2495.240          29.500    23748394.700    97245697.057 4      1944.343          29.375    23748395.040    97245705.065 7      1944.343          42.000
G16  21498707.340   112976464.174 7       -46.922          47.875    21498705.920   112976464.184 6       -46.922          38.937    21498713.360    88033630.314 6       -36.563          38.375
G02  21694805.060   114007003.112 7      3569.341          46.312    21694803.420   114007003.115 6      3569.341          37.562    21694808.380    88836643.776 6      2781.305          37.812
G08  20780602.080   109202800.860 8      3132.272          48.125    20780601.040   109202800.860 8      3132.272          49.062    20780609.040    85093118.734 8      2440.731          48.562    20780609.900    85093122.743 8      2440.731          50.125
R11  20705544.440   110644139.619 8     -1114.121          50.000    20705543.260   110644139.617 8     -1114.121          48.875    20705557.040    86056595.184 8      -866.539          50.250    20705556.900    86056597.184 8      -866.539          50.500
G21  20509399.480   107777623.614 8      2651.783          48.187    20509397.960   107777623.614 6      2651.783          39.437    20509403.200    83982578.793 6      2066.324          39.750
R22  20192411.100   107788482.255 8      1829.902          49.437    20192411.440   107788482.253 8      1829.902          48.937    20192419.540    83835523.101 8      1423.257          50.000    20192419.660    83835523.100 8      1423.257          50.125
R12  19747050.700   105485202.218 8      3164.456          50.062    19747050.160   105485202.221 8      3164.456          49.812    19747061.100    82044085.846 8      2461.244          51.000    19747061.240    82044094.851 8      2461.244          51.125
> 2024 05 09 13 03 39.0000000  0 15
G10  22368273.500   117546064.478 7       956.664          46.875    22368271.940   117546064.483 7       956.664          45.937    22368282.160    91594375.378 7       745.452          45.687    22368282.580    91594378.380 7       745.452          47.937
R07  22825003.760   122184037.441 7      5633.051          44.562    22825005.100   122184037.467 7      5633.051          42.500    22825029.900    95032141.985 7      4381.262          46.187    22825030.220    95032142.987 7      4381.262          46.437
G26  24164748.540   126986608.788 6     -1038.756          40.562    24164746.860   126986608.785 6     -1038.756          36.937    24164767.300    98950675.720 6      -809.421          36.625    24164768.220    98950679.714 7      -809.421          43.250
G27  21183272.460   111318851.003 7      1464.694          47.875    21183271.600   111318851.010 8      1464.694          49.437    21183279.580    86741985.040 8      1141.320          49.125    21183279.380    86741989.041 8      1141.320          50.187
G23  24695538.380   129775928.084 6      -522.290          38.437    24695537.360   129775928.089 4      -522.290          24.687    24695548.940   101124131.107 4      -406.979          24.500    24695549.520   101124144.098 7      -406.979          44.500
R23  22145387.160   118462894.703 7      4007.145          44.250    22145386.560   118462894.713 7      4007.145          43.375
R21  22083108.420   118171168.185 7       138.123          45.937    22083109.220   118171168.203 7       138.123          44.562    22083122.640    91910968.482 7       107.429          47.125    22083122.460    91910965.478 7       107.429          47.000
G07  23747911.040   124796101.750 7      2494.668          43.250    23747910.340   124796101.750 4      2494.668          29.625    23747919.860    97243752.947 4      1943.897          29.375    23747920.720    97243760.941 7      1943.897          42.000
G16  21498716.280   112976511.535 7       -47.674          47.625    21498714.860   112976511.543 6       -47.674          38.812    21498722.480    88033667.204 6       -37.148          39.062
G02  21694125.740   114003434.139 7      3568.713          47.250    21694124.240   114003434.144 6      3568.713          38.125    21694129.260    88833862.758 6      2780.815          38.000
G08  20780006.020   109199668.817 7      3131.889          47.812    20780005.120   109199668.814 8      3131.889          49.187    20780013.080    85090678.177 8      2440.433          48.812    20780013.760    85090682.184 8      2440.433          50.250
R11  20705753.100   110645254.260 8     -1114.936          49.562    20705752.120   110645254.254 8     -1114.936          49.312    20705765.620    86057462.113 8      -867.173          50.187    20705765.500    86057464.113 8      -867.173          50.687
G21  20508895.060   107774972.244 7      2651.066          47.312    20508893.440   107774972.246 6      2651.066          40.062    20508898.660    83980512.792 6      2065.765          39.687
R22  20192068.520   107786652.659 8      1829.404          49.562    20192068.640   107786652.662 8      1829.404          49.312    20192076.620    83834100.092 8      1422.870          49.500    20192076.900    83834100.091 8      1422.870          49.437
R12  19746458.120   105482038.468 8      3163.259          49.812    19746457.740   105482038.469 8      3163.259          50.625    19746468.760    82041625.151 8      2460.312          50.750    19746468.720    82041634.152 8      2460.312          50.812
> 2024 05 09 13 03 40.0000000  0 15
G10  22368091.660   117545108.272 7       955.987          47.312    22368090.000   117545108.279 7       955.987          46.562    22368100.160    91593630.284 7       744.925          45.687    22368100.500    91593633.286 8       744.925          48.125
R07  22823951.600   122178404.547 7      5632.736          44.562    22823952.340   122178404.589 7      5632.736          42.687    22823977.660    95027760.870 7      4381.017          46.625    22823978.000    95027761.867 7      4381.017          46.375
G26  24164946.020   126987647.630 6     -1038.868          40.875    24164944.540   126987647.632 6     -1038.868          37.062    24164965.080    98951485.207 6      -809.508          36.937    24164965.920    98951489.199 7      -809.508          43.687
G27  21182993.920   111317386.495 7      1464.393          47.437    21182992.940   111317386.503 8      1464.393          49.812    21183000.900    86740843.863 8      1141.085          49.437    21183000.820    86740847.866 8      1141.085          49.812
G23  24695637.560   129776450.459 6      -522.686          38.437    24695636.760   129776450.466 4      -522.686          24.687    24695648.420   101124538.152 4      -407.288          24.500    24695649.340   101124551.157 7      -407.288          44.625
R23  22144638.160   118458887.877 7      4006.633          44.250    22144637.440   118458887.894 7      4006.633          43.375
R21  22083082.840   118171030.242 7       138.035          45.625    22083083.240   118171030.249 7       138.035          44.812    22083096.980    91910861.185 7       107.360          46.812    22083096.740    91910858.184 7       107.360          46.687
G07  23747436.280   124793607.513 7      2493.899          42.625    23747435.580   124793607.513 4      2493.899          29.625    23747445.240    97241809.384 4      1943.298          29.625    23747445.940    97241817.384 6      1943.298          41.750
G16  21498725.380   112976559.480 7       -48.151          47.812    21498724.100   112976559.487 6       -48.151          38.562    21498731.480    88033704.559 6       -37.520          38.812
G02  21693447.120   113999865.710 7      3568.211          47.250    21693445.180   113999865.718 6      3568.211          37.812    21693450.300    88831082.168 6      2780.424          37.500
G08  20779410.100   109196537.134 8      3131.604          48.312    20779409.120   109196537.133 8      3131.604          49.062    20779417.100    85088237.910 8      2440.211          48.750    20779417.740    85088241.913 8      2440.211          50.375
R11  20705961.780   110646369.573 8     -1115.564          49.937    20705960.740   110646369.571 8     -1115.564          49.125    20705974.360    86058329.572 8      -867.661          49.937    20705974.220    86058331.570 8      -867.661          50.437
G21  20508390.600   107772321.478 7      2650.573          47.500    20508389.020   107772321.477 6      2650.573          40.062    20508394.240    83978447.264 6      2065.381          40.187
R22  20191725.800   107784823.466 8      1829.103          48.875    20191726.040   107784823.464 8      1829.103          48.750    20191733.940    83832677.378 8      1422.636          49.812    20191734.460    83832677.377 8      1422.636          50.062
R12  19745866.180   105478875.755 8      3162.307          49.937    19745865.640   105478875.762 8      3162.307          49.812    19745876.800    82039165.267 8      2459.572          50.312    19745876.720    82039174.269 8      2459.572          51.000
> 2024 05 09 13 03 41.0000000  0 15
G10  22367909.660   117544152.777 7       955.188          46.812    22367908.140   117544152.785 7       955.188          45.687    22367918.400    91592885.743 7       744.302          45.187    22367918.420    91592888.745 8       744.302          48.187
R07  22822899.420   122172771.992 7      5632.512          44.125    22822900.640   122172772.026 7      5632.512          42.687    22822925.540    95023379.990 7      4380.843          45.437    22822925.740    95023380.994 7      4380.843          46.250
G26  24165143.480   126988686.753 6     -1039.192          40.875    24165142.400   126988686.760 6     -1039.192          36.875    24165162.700    98952294.911 6      -809.760          36.812    24165163.600    98952298.908 7      -809.760          43.437
G27  21182715.100   111315922.340 8      1464.031          48.125    21182714.320   111315922.347 7      1464.031          47.875    21182722.240    86739702.959 7      1140.803          47.562    21182722.320    86739706.960 8      1140.803          50.062
G23  24695736.900   129776973.337 6      -523.129          39.000    24695736.320   129776973.345 4      -523.129          25.062    24695747.920   101124945.588 4      -407.633          24.937    24695748.740   101124958.579 7      -407.633          44.625
R23  22143889.640   118454881.462 7      4006.337          44.375    22143888.580   118454881.466 7      4006.337          42.812
R21  22083056.820   118170892.414 7       137.907          45.437    22083057.440   118170892.415 7       137.907          44.812    22083071.080    91910753.979 7       107.261          46.562    22083070.900    91910750.974 7       107.261          46.375
G07  23746961.880   124791113.923 7      2493.355          42.375    23746961.040   124791113.920 4      2493.355          29.625    23746970.660    97239866.320 4      1942.874          29.625    23746971.040    97239874.318 6      1942.874          41.937
G16  21498734.640   112976608.010 7       -48.780          47.687    21498733.300   112976608.017 6       -48.780          38.500    21498740.840    88033742.365 6       -38.010          38.437
G02  21692767.920   113996297.814 7      3567.601          47.562    21692766.320   113996297.819 6      3567.601          38.000    21692771.320    88828301.994 6      2779.949          37.250
G08  20778814.340   109193405.773 7      3131.232          47.937    20778813.320   109193405.773 8      3131.232          48.750    20778821.260    85085797.890 8      2439.921          48.375    20778821.940    85085801.894 8      2439.921          49.187
R11  20706170.580   110647485.534 8     -1116.127          49.500    20706169.500   110647485.535 8     -1116.127          49.375    20706183.140    86059197.530 8      -868.099          50.562    20706183.200    86059199.528 8      -868.099          50.625
G21  20507886.380   107769671.303 7      2649.967          47.875    20507884.580   107769671.308 6      2649.967          39.500    20507889.960    83976382.191 6      2064.910          39.562
R22  20191383.180   107782994.660 8      1828.666          49.375    20191383.460   107782994.655 8      1828.666          49.000    20191391.280    83831254.971 8      1422.296          49.000    20191391.940    83831254.968 8      1422.296          48.562
R12  19745273.920   105475714.087 8      3161.237          49.562    19745273.660   105475714.093 8      3161.237          50.437    19745284.880    82036706.189 8      2458.740          50.875    19745284.640    82036715.193 8      2458.740          50.812
> 2024 05 09 13 03 42.0000000  0 15
G10  22367728.100   117543197.693 7       954.891          46.250    22367726.500   117543197.698 7       954.891          46.312    22367736.680    91592141.520 7       744.071          46.000    22367736.800    91592144.519 8       744.071          48.437
R07  22821847.260   122167139.454 7      5632.508          44.000    22821848.420   122167139.490 7      5632.508          43.000    22821873.340    95018999.135 7      4380.840          46.312    22821873.460    95019000.141 7      4380.840          46.125
G26  24165341.120   126989725.881 6     -1039.213          39.750    24165340.200   126989725.883 6     -1039.213          37.125    24165360.480    98953104.619 6      -809.776          36.937    24165361.180    98953108.612 7      -809.776          42.812
G27  21182436.500   111314458.258 7      1464.039          47.750    21182435.760   111314458.263 8      1464.039          49.250    21182443.720    86738562.112 8      1140.809          49.250    21182443.880    86738566.113 8      1140.809          50.187
G23  24695836.440   129777496.402 6      -523.253          38.250    24695835.940   129777496.407 4      -523.253          25.062    24695847.380   101125353.167 4      -407.730          24.937    24695848.300   101125366.162 7      -407.730          44.375
R23  22143140.880   118450875.183 7      4006.176          44.625    22143139.840   118450875.195 7      4006.176          42.812
R21  22083030.960   118170754.380 7       138.093          45.437    22083031.700   118170754.392 7       138.093          44.750    22083045.660    91910646.615 7       107.406          46.937    22083045.160    91910643.614 7       107.406          47.437
G07  23746487.640   124788620.703 7      2492.999          42.750    23746486.460   124788620.697 5      2492.999          30.000    23746496.200    97237923.548 4      1942.597          29.625    23746496.900    97237931.551 6      1942.597          41.937
G16  21498743.800   112976656.811 7       -48.949          47.812    21498742.620   112976656.816 6       -48.949          38.562    21498750.060    88033780.385 6       -38.142          38.437
G02  21692088.980   113992730.121 7      3567.528          47.937    21692087.340   113992730.128 6      3567.528          37.437    21692092.220    88825521.975 6      2779.892          38.187
G08  20778218.240   109190274.453 8      3131.261          49.562    20778217.460   109190274.452 8      3131.261          48.625    20778225.440    85083357.899 8      2439.944          48.062    20778226.000    85083361.904 8      2439.944          50.062
R11  20706379.180   110648601.883 8     -1116.522          49.937    20706378.520   110648601.879 8     -1116.522          49.062    20706392.000    86060065.781 8      -868.406          48.875    20706392.000    86060067.782 8      -868.406          49.375
G21  20507381.840   107767021.422 8      2649.739          48.187    20507380.200   107767021.422 6      2649.739          39.625    20507385.620    83974317.349 6      2064.732          39.437
R22  20191040.840   107781165.910 8      1828.719          49.812    20191040.780   107781165.905 8      1828.719          48.937    20191048.860    83829832.610 8      1422.337          49.625    20191049.120    83829832.611 8      1422.337          49.500
R12  19744682.280   105472553.166 8      3160.545          49.937    19744681.820   105472553.170 8      3160.545          50.000    19744693.120    82034247.693 8      2458.202          48.937    19744692.960    82034256.695 8      2458.202          49.312
> 2024 05 09 13 03 43.0000000  0 15
G10  22367546.460   117542243.253 7       954.122          46.437    22367544.940   117542243.257 7       954.122          46.375    22367555.060    91591397.800 7       743.471          45.375    22367555.140    91591400.801 7       743.471          47.625
R07  22820795.680   122161507.151 7      5632.231          44.000    22820795.880   122161507.179 7      5632.231          43.000    22820821.160    95014618.455 7      4380.624          46.500    22820821.300    95014619.461 7      4380.624          46.250
G26  24165539.100   126990765.164 6     -1039.478          40.937    24165538.040   126990765.169 6     -1039.478          37.562    24165558.180    98953914.442 6      -809.983          37.375    24165558.900    98953918.445 7      -809.983          42.875
G27  21182158.040   111312994.436 7      1463.738          47.500    21182157.180   111312994.447 8      1463.738          49.875    21182165.220    86737421.474 8      1140.575          49.000    21182165.220    86737425.473 8      1140.575          49.437
G23  24695936.160   129778019.838 6      -523.638          38.187    24695935.540   129778019.843 4      -523.638          25.062    24695946.960   101125761.037 4      -408.030          24.937    24695947.720   101125774.026 7      -408.030          44.812
R23  22142391.740   118446869.226 7      4005.717          44.625    22142390.920   118446869.248 7      4005.717          43.625
R21  22083005.460   118170616.332 7       138.121          45.437    22083005.780   118170616.336 7       138.121          44.875    22083019.780    91910539.238 7       107.427          47.500    22083019.580    91910536.233 7       107.427          47.500
G07  23746013.600   124786128.045 7      2492.455          42.750    23746012.200   124786128.042 5      2492.455          30.000    23746021.940    97235981.215 4      1942.173          29.687    23746022.500    97235989.218 7      1942.173          42.187
G16  21498753.240   112976706.116 7       -49.548          47.750    21498752.020   112976706.126 6       -49.548          38.437    21498759.440    88033818.801 6       -38.609          38.437
G02  21691410.080   113989162.892 7      3566.974          47.375    21691408.500   113989162.900 6      3566.974          38.000    21691413.420    88822742.316 6      2779.460          37.687
G08  20777622.520   109187143.377 8      3130.947          48.562    20777621.660   109187143.374 8      3130.947          49.375    20777629.540    85080918.096 8      2439.699          48.875    20777630.160    85080922.101 8      2439.699          50.312
R11  20706588.360   110649718.772 8     -1117.152          49.750    20706587.540   110649718.773 8     -1117.152          49.062    20706601.120    86060934.470 8      -868.896          50.312    20706601.060    86060936.469 8      -868.896          50.437
G21  20506877.680   107764372.041 8      2649.160          48.062    20506876.220   107764372.046 6      2649.160          39.562    20506881.460    83972252.898 6      2064.281          39.687
R22  20190698.420   107779337.443 8      1828.329          49.625    20190698.300   107779337.449 8      1828.329          48.625    20190706.120    83828410.475 8      1422.033          50.000    20190706.640    83828410.476 8      1422.033          49.875
R12  19744090.800   105469393.241 8      3159.411          50.000    19744090.240   105469393.245 8      3159.411          50.000    19744101.600    82031789.974 8      2457.320          50.375    19744101.600    82031798.976 8      2457.320          50.875
> 2024 05 09 13 03 44.0000000  0 15
G10  22367365.020   117541289.553 7       953.408          46.625    22367363.460   117541289.555 7       953.408          46.250    22367373.460    91590654.653 7       742.915          46.000    22367373.660    91590657.653 7       742.915          47.687
R07  22819743.040   122155875.215 7      5631.850          44.187    22819743.900   122155875.243 7      5631.850          42.750    22819768.960    95010238.069 7      4380.328          46.062    22819769.300    95010239.072 7      4380.328          46.062
G26  24165736.900   126991804.733 6     -1039.580          40.937    24165735.880   126991804.738 6     -1039.580          37.437    24165756.000    98954724.496 6      -810.062          36.687    24165756.960    98954728.489 7      -810.062          42.875
G27  21181879.560   111311531.043 8      1463.291          48.562    21181878.800   111311531.043 8      1463.291          49.375    21181886.720    86736281.157 8      1140.227          49.062    21181886.840    86736285.158 8      1140.227          50.250
G23  24696035.700   129778543.823 6      -524.244          38.250    24696035.220   129778543.828 4      -524.244          25.062    24696046.800   101126169.337 4      -408.502          24.937    24696047.480   101126182.322 7      -408.502          45.312
R23  22141642.640   118442863.723 7      4005.449          44.125    22141642.000   118442863.740 7      4005.449          43.625
R21  22082979.460   118170478.421 7       137.953          45.625    22082979.780   118170478.438 7       137.953          44.375    22082994.120    91910431.978 7       107.297          47.062    22082993.700    91910428.975 7       107.297          47.000
G07  23745538.960   124783636.105 7      2491.746          43.125    23745538.080   124783636.104 5      2491.746          30.000    23745547.720    97234039.443 4      1941.620          29.687    23745548.460    97234047.442 6      1941.620          41.562
G16  21498762.820   112976756.044 7       -50.144          47.750    21498761.460   112976756.054 6       -50.144          38.500    21498769.060    88033857.700 6       -39.073          38.437
G02  21690731.380   113985596.226 7      3566.415          47.250    21690729.880   113985596.228 6      3566.415          37.937    21690734.780    88819963.094 6      2779.024          37.875
G08  20777026.640   109184012.663 8      3130.641          48.125    20777025.920   109184012.663 8      3130.641          49.187    20777033.800    85078478.581 8      2439.460          48.937    20777034.540    85078482.586 8      2439.460          50.250
R11  20706797.580   110650836.372 8     -1117.859          49.937    20706796.780   110650836.375 8     -1117.859          48.937    20706810.260    86061803.701 8      -869.446          49.875    20706810.140    86061805.701 8      -869.446          50.375
G21  20506373.660   107761723.298 8      2648.483          48.062    20506372.120   107761723.303 6      2648.483          39.375    20506377.460    83970188.945 6      2063.753          39.437
R22  20190355.760   107777509.408 8      1827.888          49.437    20190355.860   107777509.411 8      1827.888          49.000    20190363.640    83826988.668 8      1421.691          49.562    20190364.080    83826988.667 8      1421.691          49.750
R12  19743499.240   105466234.404 8      3158.394          49.562    19743498.800   105466234.410 8      3158.394          50.000    19743510.140    82029333.098 8      2456.529          50.562    19743510.400    82029342.102 8      2456.529          51.375
> 2024 05 09 13 03 45.0000000  0 15
G10  22666976.380   119115757.362 7       952.795          47.750    22666974.800   119115757.372 7       952.795          46.000    22666984.820    92817512.690 7       742.438          45.875    22666985.000    92817515.691 8       742.438          48.187
R07  23118484.560   123755061.611 7      5631.509          44.187    23118485.300   123755061.639 7      5631.509          42.750    23118510.600    96254049.712 7      4380.063          46.187    23118510.500    96254050.716 7      4380.063          46.187
G26  24465727.160   128568263.402 6     -1039.873          40.875    24465725.940   128568263.409 6     -1039.873          36.937    24465746.040   100183133.846 6      -810.291          36.875    24465747.020   100183137.849 7      -810.291          42.750
G27  21481393.880   112885489.284 8      1463.091          48.500    21481393.000   112885489.289 8      1463.091          49.437    21481400.980    87962742.126 8      1140.071          48.875    21481401.060    87962746.127 8      1140.071          49.875
G23  24995927.720   131354487.545 6      -524.392          38.250    24995927.300   131354487.550 4      -524.392          25.062    24995939.000   102354177.428 4      -408.617          24.937    24995939.440   102354190.417 7      -408.617          45.062
R23  22440686.860   120042550.007 7      4005.057          43.937    22440686.580   120042550.043 7      4005.057          43.625
R21  22382746.620   119774590.595 7       137.937          45.312    22382746.420   119774590.610 7       137.937          44.375    22382760.660    93158074.776 7       107.285          47.187    22382760.060    93158071.769 7       107.285          46.750
G07  24044858.220   126356567.178 7      2491.111          43.187    24044856.900   126356567.183 5      2491.111          30.000    24044866.540    98459700.011 4      1941.126          29.687    24044867.120    98459708.021 6      1941.126          41.562
G16  21798564.700   114552226.338 7       -50.643          47.625    21798563.440   114552226.345 6       -50.643          38.750    21798571.000    89261496.881 6       -39.462          38.625
G02  21989845.620   115557453.462 7      3566.156          47.312    21989844.260   115557453.469 6      3566.156          37.500    21989849.180    90044786.916 6      2778.823          37.500
G08  21076224.220   110756305.260 8      3130.385          48.562    21076223.260   110756305.257 8      3130.385          49.250    21076231.080    86303641.641 8      2439.261          48.875    21076231.840    86303645.646 8      2439.261          50.312
R11  21006799.040   112253953.346 8     -1118.344          50.187    21006798.400   112253953.347 8     -1118.344          49.062    21006811.800    87308672.446 8      -869.823          50.312    21006811.600    87308674.446 8      -869.823          50.750
G21  20805662.840   109334497.614 8      2648.077          48.312    20805661.140   109334497.619 6      2648.077          39.937    20805666.500    85195727.370 6      2063.437          39.187
R22  20489806.140   109375995.910 8      1827.627          49.562    20489806.300   109375995.908 8      1827.627          48.250    20489814.100    85070255.941 8      1421.488          49.375    20489814.600    85070255.940 8      1421.488          49.687
R12  20042701.300   107064517.108 8      3157.456          49.750    20042700.760   107064517.114 8      3157.456          49.437    20042712.120    83272441.868 8      2455.799          50.125    20042711.900    83272450.874 8      2455.799          50.687
> 2024 05 09 13 03 46.0000000  0 15
G10  22666794.800   119114804.858 7       952.088          47.437    22666793.620   119114804.865 7       952.088          46.500    22666803.500    92816770.477 7       741.887          45.937    22666803.660    92816773.476 7       741.887          47.937
R07  23117432.580   123749430.124 7      5631.264          44.187    23117433.580   123749430.158 7      5631.264          42.875    23117458.380    96249669.682 7      4379.872          45.812    23117458.580    96249670.685 7      4379.872          46.062
G26  24465924.860   128569303.300 6     -1040.139          40.500    24465923.880   128569303.304 6     -1040.139          37.250    24465943.920   100183944.154 6      -810.498          36.812    24465944.480   100183948.151 7      -810.498          42.687
G27  21481115.460   112884026.356 8      1462.668          48.250    21481114.640   112884026.363 8      1462.668          48.875    21481122.600    87961602.184 8      1139.741          48.062    21481122.700    87961606.187 8      1139.741          49.500
G23  24996027.420   131355012.245 6      -524.885          38.750    24996027.280   131355012.252 4      -524.885          25.062    24996039.020   102354586.282 4      -409.002          24.937    24996039.080   102354599.265 7      -409.002          45.437
R23  22439938.280   120038545.128 7      4004.578          43.937    22439938.000   120038545.156 7      4004.578          43.500
R21  22382720.840   119774452.660 7       137.797          45.312    22382720.880   119774452.678 7       137.797          44.437    22382734.880    93157967.489 7       107.176          46.500    22382734.560    93157964.486 7       107.176          46.937
G07  24044384.140   126354076.346 7      2490.349          43.375    24044382.980   126354076.349 4      2490.349          29.750    24044392.460    98457759.100 4      1940.532          29.687    24044393.400    98457767.105 7      1940.532          42.062
G16  21798574.540   114552277.185 7       -51.207          47.937    21798573.180   114552277.190 6       -51.207          38.375    21798580.780    89261536.495 6       -39.902          38.375
G02  21989167.260   115553887.616 7      3565.527          46.812    21989165.780   115553887.618 6      3565.527          37.625    21989170.680    90042008.334 6      2778.333          37.687
G08  21075628.700   110753174.977 8      3130.053          48.187    21075627.560   110753174.979 8      3130.053          48.437    21075635.460    86301202.464 8      2439.003          48.187    21075636.200    86301206.467 8      2439.003          49.812
R11  21007008.500   112255072.059 8     -1119.165          49.687    21007007.720   112255072.058 8     -1119.165          49.187    21007021.220    87309542.547 8      -870.462          49.687    21007020.940    87309544.549 8      -870.462          49.875
G21  20805159.000   109331849.806 8      2647.488          48.500    20805157.180   109331849.806 6      2647.488          39.937    20805162.680    85193664.140 6      2062.978          39.812
R22  20489464.020   109374168.374 8      1827.247          49.500    20489463.880   109374168.372 8      1827.247          49.000    20489471.720    85068834.527 8      1421.192          49.250    20489472.000    85068834.526 8      1421.192          48.875
R12  20042110.360   107061360.121 8      3156.426          49.812    20042109.740   107061360.127 8      3156.426          49.375    20042120.960    83269986.436 8      2454.998          49.875    20042120.940    83269995.440 8      2454.998          50.125
> 2024 05 09 13 03 47.0000000  0 15
G10  22666613.620   119113853.221 7       951.248          47.250    22666612.620   119113853.228 7       951.248          46.062    22666622.380    92816028.939 7       741.232          45.812    22666622.720    92816031.939 8       741.232          48.187
R07  23116380.820   123743799.144 7      5630.955          44.250    23116381.540   123743799.177 7      5630.955          42.875    23116406.460    96245290.032 7      4379.631          45.812    23116406.780    96245291.036 7      4379.631          46.625
G26  24466122.900   128570343.576 6     -1040.246          40.187    24466121.860   128570343.578 6     -1040.246          36.875    24466142.060   100184754.753 6      -810.581          37.125    24466142.240   100184758.755 7      -810.581          42.937
G27  21480837.220   112882563.921 8      1462.332          48.937    21480836.400   112882563.924 8      1462.332          49.312    21480844.340    87960462.621 8      1139.480          48.687    21480844.340    87960466.617 8      1139.480          50.312
G23  24996127.480   131355537.556 6      -525.580          38.937    24996127.340   131355537.564 4      -525.580          25.937    24996138.820   102354995.618 4      -409.543          25.875    24996139.200   102355008.607 7      -409.543          45.562
R23  22439189.380   120034540.828 7      4004.084          44.125    22439189.280   120034540.865 7      4004.084          43.500
R21  22382694.800   119774314.971 7       137.545          45.750    22382694.900   119774315.005 7       137.545          44.500    22382709.220    93157860.408 7       106.979          47.375    22382708.620    93157857.407 7       106.979          47.000
G07  24043910.580   126351586.293 7      2489.741          43.062    24043909.060   126351586.295 4      2489.741          29.750    24043918.700    98455818.798 4      1940.058          29.750    24043919.080    98455826.803 7      1940.058          42.000
G16  21798584.220   114552328.742 8       -51.799          48.000    21798582.960   114552328.753 6       -51.799          38.875    21798590.540    89261576.669 6       -40.363          38.250
G02  21988488.820   115550322.431 7      3564.939          47.375    21988487.320   115550322.436 6      3564.939          37.937    21988492.120    90039230.267 6      2777.875          37.437
G08  21075032.920   110750045.170 7      3129.622          47.750    21075032.020   110750045.172 8      3129.622          48.750    21075039.880    86298763.655 8      2438.667          48.750    21075040.580    86298767.660 8      2438.667          50.000
R11  21007218.080   112256191.575 8     -1119.869          50.125    21007217.420   112256191.573 8     -1119.869          49.437    21007230.640    87310413.268 8      -871.010          49.937    21007230.600    87310415.266 8      -871.010          50.312
G21  20804655.140   109329202.732 7      2646.764          47.250    20804653.440   109329202.737 6      2646.764          39.250    20804658.940    85191601.491 6      2062.414          39.375
R22  20489121.540   109372341.356 8      1826.776          48.812    20489121.600   109372341.362 8      1826.776          49.125    20489129.560    85067413.519 8      1420.826          49.250    20489129.660    85067413.518 8      1420.826          49.687
R12  20041519.880   107058204.371 8      3155.176          49.687    20041519.060   107058204.375 8      3155.176          49.625    20041530.300    83267531.955 8      2454.026          50.000    20041530.400    83267540.962 8      2454.026          50.687
> 2024 05 09 13 03 48.0000000  0 15
G10  22666432.640   119112902.072 7       950.973          47.437    22666431.660   119112902.077 7       950.973          46.562    22666441.380    92815287.785 7       741.018          46.250    22666441.680    92815290.782 8       741.018          48.625
R07  23115328.980   123738168.289 7      5630.963          44.250    23115329.860   123738168.317 7      5630.963          43.000    23115354.480    96240910.484 7      4379.638          45.937    23115355.040    96240911.484 7      4379.638          46.375
G26  24466321.120   128571383.963 6     -1040.412          40.250    24466319.800   128571383.973 6     -1040.412          37.062    24466339.960   100185565.445 6      -810.710          36.375    24466340.200   100185569.455 7      -810.710          42.937
G27  21480558.880   112881101.655 8      1462.254          48.625    21480558.100   112881101.663 8      1462.254          49.812    21480566.100    87959323.192 8      1139.419          49.375    21480566.100    87959327.193 8      1139.419          50.187
G23  24996227.660   131356063.152 6      -525.723          39.625    24996227.380   131356063.159 4      -525.723          25.937    24996238.820   102355405.171 4      -409.654          25.875    24996239.220   102355418.158 7      -409.654          45.375
R23  22438440.800   120030536.759 7      4004.009          44.125    22438440.760   120030536.787 7      4004.009          43.312
R21  22382669.140   119774177.178 7       137.983          45.187    22382669.480   119774177.198 7       137.983          44.500    22382683.660    93157753.219 7       107.320          47.125    22382682.860    93157750.218 7       107.320          47.000
G07  24043436.540   126349096.719 7      2489.359          43.125    24043435.400   126349096.724 4      2489.359          29.750    24043444.940    98453878.867 4      1939.760          29.750    24043445.200    98453886.872 7      1939.760          42.000
G16  21798594.160   114552380.699 8       -52.064          48.375    21798592.840   114552380.709 6       -52.064          38.812    21798600.440    89261617.145 6       -40.569          38.750
G02  21987810.440   115546757.557 7      3564.796          47.000    21987808.880   115546757.559 6      3564.796          38.000    21987813.800    90036452.445 6      2777.763          38.187
G08  21074437.500   110746915.492 7      3129.631          47.875    21074436.480   110746915.491 8      3129.631          49.500    21074444.340    86296324.945 8      2438.674          48.687    21074444.980    86296328.946 8      2438.674          50.437
R11  21007427.660   112257311.523 8     -1120.086          49.687    21007426.860   112257311.526 8     -1120.086          49.687    21007440.360    87311284.326 8      -871.178          50.062    21007440.280    87311286.326 8      -871.178          50.125
G21  20804151.340   109326556.033 7      2646.638          47.750    20804149.740   109326556.038 6      2646.638          39.750    20804155.320    85189539.130 6      2062.315          39.375
R22  20488779.300   109370514.504 8      1826.882          49.750    20488779.580   109370514.505 8      1826.882          49.500    20488787.260    85065992.630 8      1420.908          50.062    20488787.520    85065992.633 8      1420.908          49.625
R12  20040928.760   107055049.468 8      3154.550          49.812    20040928.620   107055049.466 8      3154.550          49.750    20040939.700    83265078.138 8      2453.539          50.500    20040939.940    83265087.144 8      2453.539          50.687
> 2024 05 09 13 03 49.0000000  0 15
G10  22666251.640   119111951.578 7       950.099          47.062    22666250.880   119111951.583 7       950.099          46.187    22666260.440    92814547.138 7       740.337          45.750    22666260.880    92814550.134 7       740.337          47.875
R07  23114277.020   123732537.651 7      5630.414          44.187    23114277.660   123732537.690 7      5630.414          43.000    23114302.540    96236531.114 7      4379.211          46.125    23114303.020    96236532.113 7      4379.211          46.125
G26  24466518.780   128572424.499 6     -1040.586          40.687    24466517.600   128572424.504 6     -1040.586          36.875    24466538.120   100186376.245 6      -810.847          36.750    24466538.600   100186380.260 7      -810.847          42.812
G27  21480280.800   112879639.675 8      1461.764          48.500    21480279.900   112879639.678 8      1461.764          49.312    21480287.900    87958183.981 8      1139.037          48.750    21480287.960    87958187.980 8      1139.037          49.750
G23  24996328.280   131356589.115 6      -526.182          38.937    24996327.520   131356589.123 4      -526.182          25.937    24996338.820   102355815.009 4      -410.012          25.875    24996339.760   102355827.996 7      -410.012          45.375
R23  22437692.100   120026533.043 7      4003.461          44.125    22437692.080   120026533.063 7      4003.461          43.312
R21  22382643.280   119774039.411 7       137.624          45.375    22382643.700   119774039.439 7       137.624          44.437    22382657.860    93157646.069 7       107.041          47.062    22382657.280    93157643.072 7       107.041          47.062
G07  24042962.820   126346607.719 7      2488.705          42.500    24042961.660   126346607.721 5      2488.705          30.000    24042971.240    98451939.382 4      1939.251          29.750    24042971.760    98451947.375 7      1939.251          42.125
G16  21798604.120   114552433.155 7       -52.784          47.187    21798602.800   114552433.157 6       -52.784          38.625    21798610.500    89261658.013 6       -41.130          38.500
G02  21987132.080   115543193.140 7      3564.124          47.437    21987130.480   115543193.145 6      3564.124          37.437    21987135.560    90033674.985 6      2777.240          37.250
G08  21073842.040   110743786.060 8      3129.222          48.437    21073841.000   110743786.057 8      3129.222          49.125    21073848.860    86293886.423 8      2438.355          48.625    21073849.460    86293890.430 8      2438.355          50.375
R11  21007637.200   112258432.072 8     -1120.886          49.812    21007636.500   112258432.076 8     -1120.886          49.437    21007650.040    87312155.854 8      -871.800          50.500    21007649.840    87312157.850 8      -871.800          50.437
G21  20803648.120   109323909.866 7      2645.838          47.687    20803646.300   109323909.868 6      2645.838          39.875    20803651.700    85187477.181 6      2061.692          39.812
R22  20488437.440   109368687.975 8      1826.232          49.812    20488437.200   109368687.975 8      1826.232          49.250    20488445.100    85064571.998 8      1420.403          49.500    20488445.300    85064571.997 8      1420.403          49.562
R12  20040338.780   107051895.545 8      3153.385          50.000    20040338.220   107051895.546 8      3153.385          49.937    20040349.320    83262625.091 8      2452.633          50.250    20040349.180    83262634.093 8      2452.633          50.625
> 2024 05 09 13 03 50.0000000  0 15
G10  22666070.880   119111001.573 7       949.804          47.000    22666070.060   119111001.578 7       949.804          46.562    22666079.680    92813806.874 7       740.107          46.062    22666080.080    92813809.874 8       740.107          48.125
R07  23113225.340   123726907.149 7      5630.304          44.187    23113225.820   123726907.175 7      5630.304          43.000    23113250.880    96232151.827 7      4379.125          46.000    23113251.100    96232152.824 7      4379.125          45.937
G26  24466716.760   128573465.106 6     -1040.514          40.937    24466715.660   128573465.114 6     -1040.514          37.187    24466736.180   100187187.108 6      -810.790          36.562    24466736.520   100187191.115 7      -810.790          42.750
G27  21480002.480   112878177.835 8      1461.687          48.625    21480001.760   112878177.842 8      1461.687          49.562    21480009.720    87957044.887 8      1138.977          48.812    21480009.800    87957048.886 8      1138.977          50.000
G23  24996428.780   131357115.373 6      -526.398          38.937    24996427.580   131357115.386 4      -526.398          25.937    24996439.020   102356225.082 4      -410.180          25.875    24996439.720   102356238.064 7      -410.180          45.937
R23  22436943.980   120022529.538 7      4003.365          43.562    22436943.660   120022529.553 7      4003.365          43.375
R21  22382617.620   119773901.537 7       137.817          45.187    22382618.460   119773901.560 7       137.817          44.812    22382632.240    93157538.825 7       107.191          47.500    22382631.500    93157535.829 7       107.191          46.875
G07  24042488.960   126344119.176 7      2488.287          43.062    24042488.080   126344119.181 5      2488.287          30.000    24042497.760    98450000.255 4      1938.925          29.875    24042498.320    98450008.253 7      1938.925          42.000
G16  21798614.240   114552485.981 7       -53.105          46.250    21798612.880   114552485.986 6       -53.105          38.562    21798620.560    89261699.168 6       -41.380          38.375
G02  21986453.960   115539629.044 7      3563.899          46.937    21986452.340   115539629.051 6      3563.899          37.187    21986457.300    90030897.765 6      2777.064          37.187
G08  21073246.460   110740656.742 8      3129.238          48.500    21073245.600   110740656.739 8      3129.238          49.187    21073253.320    86291447.995 8      2438.367          48.687    21073254.160    86291452.000 8      2438.367          50.437
R11  21007847.200   112259553.056 8     -1121.270          49.937    21007846.180   112259553.058 8     -1121.270          49.125    21007859.880    87313027.715 8      -872.099          50.250    21007859.700    87313029.710 8      -872.099          50.375
G21  20803144.580   109321264.058 7      2645.581          47.687    20803142.940   109321264.065 6      2645.581          39.437    20803148.280    85185415.515 6      2061.492          39.250
R22  20488095.060   109366861.571 8      1826.258          49.625    20488095.240   109366861.574 8      1826.258          49.187    20488103.060    85063151.464 8      1420.423          49.375    20488103.420    85063151.465 8      1420.423          49.937
R12  20039748.480   107048742.429 8      3152.722          50.250    20039748.020   107048742.430 8      3152.722          50.187    20039759.040    83260172.665 8      2452.117          50.625    20039758.860    83260181.671 8      2452.117          50.562
> 2024 05 09 13 03 51.0000000  0 15
G10  22665890.220   119110052.322 7       948.846          47.062    22665889.520   119110052.332 7       948.846          46.312    22665899.040    92813067.202 7       739.361          46.062    22665899.300    92813070.200 8       739.361          48.062
R07  23112173.440   123721276.982 7      5629.891          44.000    23112173.800   123721277.008 7      5629.891          42.937    23112198.880    96227772.814 7      4378.804          46.562    23112199.440    96227773.816 7      4378.804          46.500
G26  24466914.900   128574506.011 6     -1040.974          40.687    24466913.700   128574506.016 6     -1040.974          36.937    24466934.440   100187998.198 6      -811.148          36.625    24466934.820   100188002.207 7      -811.148          42.875
G27  21479724.580   112876716.381 7      1461.214          47.625    21479723.620   112876716.388 8      1461.214          49.375    21479731.600    87955906.089 8      1138.609          48.937    21479731.580    87955910.088 8      1138.609          50.125
G23  24996529.000   131357642.124 6      -526.928          39.125    24996527.740   131357642.135 4      -526.928          25.937    24996539.340   102356635.529 4      -410.593          25.875    24996539.940   102356648.508 7      -410.593          45.750
R23  22436195.760   120018526.493 7      4002.740          43.562    22436195.100   120018526.503 7      4002.740          43.375
R21  22382592.240   119773763.789 7       137.679          45.187    22382592.540   119773763.812 7       137.679          44.750    22382606.640    93157431.686 7       107.083          47.125    22382605.860    93157428.685 7       107.083          46.875
G07  24042015.720   126341631.319 7      2487.515          43.562    24042014.880   126341631.324 5      2487.515          30.000    24042024.380    98448061.659 4      1938.323          29.875    24042025.040    98448069.663 7      1938.323          42.000
G16  21798624.500   114552539.401 7       -53.819          46.875    21798623.120   114552539.409 6       -53.819          38.312    21798630.720    89261740.790 6       -41.937          38.500
G02  21985775.940   115536065.494 7      3563.234          46.312    21985774.100   115536065.504 6      3563.234          37.750    21985779.180    90028120.975 6      2776.546          37.750
G08  21072650.940   110737527.775 7      3128.810          47.312    21072650.180   110737527.778 8      3128.810          49.250    21072657.860    86289009.843 8      2438.034          48.687    21072658.820    86289013.848 8      2438.034          50.437
R11  21008056.980   112260674.704 8     -1122.072          50.312    21008056.060   112260674.705 8     -1122.072          48.875    21008069.820    87313900.095 8      -872.723          50.062    21008069.460    87313902.096 8      -872.723          50.250
G21  20802641.280   109318618.865 7      2644.888          46.500    20802639.580   109318618.875 6      2644.888          39.312    20802644.860    85183354.325 6      2060.952          39.312
R22  20487752.620   109365035.575 8      1825.754          49.187    20487753.240   109365035.573 8      1825.754          49.062    20487761.080    85061731.241 8      1420.031          49.750    20487761.140    85061731.242 8      1420.031          49.625
R12  20039158.520   107045590.397 8      3151.441          50.000    20039158.260   107045590.395 8      3151.441          50.125    20039168.960    83257721.082 8      2451.121          50.312    20039168.840    83257730.084 8      2451.121          51.250
> 2024 05 09 13 03 52.0000000  0 15
G10  22665709.680   119109103.683 7       948.502          46.750    22665709.000   119109103.695 7       948.502          46.125    22665718.480    92812328.003 7       739.093          45.687    22665718.960    92812331.003 7       739.093          47.875
R07  23111121.840   123715647.059 7      5630.029          44.000    23111122.140   123715647.090 7      5630.029          42.937    23111147.420    96223393.995 7      4378.912          46.187    23111147.760    96223394.997 7      4378.912          46.125
G26  24467113.240   128575547.091 6     -1041.001          41.250    24467111.900   128575547.096 6     -1041.001          36.937    24467132.580   100188809.427 6      -811.170          36.687    24467132.920   100188813.430 7      -811.170          43.250
G27  21479446.380   112875255.166 7      1461.352          47.750    21479445.560   112875255.176 8      1461.352          49.375    21479453.480    87954767.480 8      1138.716          48.750    21479453.420    87954771.479 8      1138.716          49.875
G23  24996629.200   131358169.257 6      -527.078          39.687    24996627.900   131358169.270 4      -527.078          26.687    24996639.760   102357046.280 4      -410.710          25.875    24996640.020   102357059.267 7      -410.710          45.500
R23  22435448.120   120014523.753 7      4002.788          44.187    22435447.320   120014523.752 7      4002.788          42.875
R21  22382566.540   119773626.049 7       137.973          45.312    22382566.620   119773626.067 7       137.973          44.750    22382580.960    93157324.547 7       107.312          47.250    22382580.200    93157321.550 7       107.312          47.375
G07  24041542.200   126339144.045 7      2487.168          43.687    24041541.640   126339144.044 5      2487.168          30.000    24041551.240    98446123.519 4      1938.053          29.875    24041551.020    98446131.529 7      1938.053          42.250
G16  21798634.660   114552593.291 7       -53.908          47.375    21798633.320   114552593.296 6       -53.908          38.500    21798641.000    89261782.774 6       -42.006          38.250
G02  21985097.920   115532502.367 7      3563.111          47.250    21985096.120   115532502.372 6      3563.111          37.625    21985101.220    90025344.510 6      2776.450          37.687
G08  21072055.480   110734399.040 7      3128.893          47.875    21072054.760   110734399.045 8      3128.893          49.500    21072062.560    86286571.870 8      2438.099          48.875    21072063.260    86286575.875 8      2438.099          50.687
R11  21008267.100   112261796.928 8     -1122.337          49.937    21008266.120   112261796.929 8     -1122.337          49.250    21008279.860    87314772.921 8      -872.929          50.250    21008279.380    87314774.925 8      -872.929          50.187
G21  20802137.740   109315974.171 7      2644.628          47.812    20802136.240   109315974.176 6      2644.628          39.812    20802141.680    85181293.525 6      2060.749          39.562
R22  20487410.740   109363209.841 8      1825.799          49.812    20487411.040   109363209.842 8      1825.799          49.187    20487418.940    85060311.223 8      1420.066          49.625    20487419.260    85060311.224 8      1420.066          49.250
R12  20038568.420   107042439.318 8      3150.766          50.125    20038568.500   107042439.314 8      3150.766          50.000    20038579.060    83255270.239 8      2450.596          50.187    20038578.840    83255279.245 8      2450.596          51.000
> 2024 05 09 13 03 53.0000000  0 15
G10  22665529.140   119108155.669 7       947.646          46.312    22665528.760   119108155.677 7       947.646          46.750    22665538.060    92811589.287 7       738.425          46.375    22665538.640    92811592.289 7       738.425          47.500
R07  23110069.980   123710017.406 7      5629.537          44.000    23110070.420   123710017.437 7      5629.537          42.937    23110095.420    96219015.386 7      4378.529          46.437    23110096.060    96219016.390 7      4378.529          46.312
G26  24467311.360   128576588.326 6     -1041.285          40.875    24467309.940   128576588.329 6     -1041.285          37.312    24467330.820   100189620.775 6      -811.391          36.812    24467331.060   100189624.780 7      -811.391          43.250
G27  21479168.360   112873794.250 7      1460.764          47.500    21479167.500   112873794.257 8      1460.764          49.812    21479175.540    87953629.102 8      1138.258          49.000    21479175.480    87953633.103 8      1138.258          50.125
G23  24996729.840   131358696.773 6      -527.632          38.812    24996728.340   131358696.783 4      -527.632          26.687    24996740.040   102357457.329 4      -411.141          26.562    24996740.520   102357470.310 7      -411.141          45.562
R23  22434699.800   120010521.348 7      4002.261          44.125    22434698.300   120010521.352 7      4002.261          42.875
R21  22382540.680   119773488.291 7       137.786          45.750    22382540.800   119773488.311 7       137.786          44.875    22382555.520    93157217.401 7       107.167          47.187    22382554.700    93157214.398 7       107.167          47.187
G07  24041069.120   126336657.331 7      2486.332          43.000    24041068.440   126336657.330 4      2486.332          29.625    24041078.020    98444185.818 4      1937.402          29.875    24041078.660    98444193.815 7      1937.402          42.187
G16  21798645.020   114552647.692 7       -54.626          47.250    21798643.760   114552647.696 6       -54.626          38.812    21798651.480    89261825.156 6       -42.565          38.500
G02  21984419.640   115528939.674 7      3562.542          47.562    21984418.160   115528939.679 6      3562.542          37.875    21984423.180    90022568.386 6      2776.007          37.625
G08  21071460.160   110731270.568 8      3128.341          48.562    21071459.500   110731270.565 8      3128.341          49.062    21071467.220    86284134.093 8      2437.668          48.437    21071468.140    86284138.098 8      2437.668          50.250
R11  21008477.240   112262919.714 8     -1123.150          49.812    21008476.480   112262919.717 8     -1123.150          49.312    21008489.940    87315646.193 8      -873.561          50.312    21008489.720    87315648.194 8      -873.561          50.687
G21  20801634.520   109313329.966 7      2643.917          47.500    20801632.940   109313329.976 6      2643.917          39.875    20801638.600    85179233.105 6      2060.195          39.562
R22  20487068.940   109361384.409 8      1825.263          49.687    20487068.980   109361384.410 8      1825.263          49.000    20487077.000    85058891.447 8      1419.649          49.812    20487077.340    85058891.450 8      1419.649          49.687
R12  20037979.040   107039289.204 8      3149.570          50.312    20037978.840   107039289.197 8      3149.570          50.625    20037989.500    83252820.148 8      2449.666          50.312    20037989.440    83252829.150 8      2449.666          51.250
> 2024 05 09 13 03 54.0000000  0 15
G10  22665348.920   119107208.126 7       947.143          45.562    22665348.320   119107208.131 7       947.143          46.562    22665357.720    92810850.941 7       738.033          46.312    22665358.260    92810853.941 7       738.033          47.625
R07  23109018.280   123704387.868 7      5629.389          44.000    23109019.140   123704387.896 7      5629.389          42.937    23109043.800    96214636.857 7      4378.414          46.625    23109044.360    96214637.860 7      4378.414          45.687
G26  24467509.300   128577629.633 6     -1041.535          40.375    24467508.240   128577629.635 6     -1041.535          37.125    24467529.040   100190432.177 6      -811.585          37.062    24467529.420   100190436.174 7      -811.585          43.562
G27  21478890.300   112872333.466 7      1460.478          47.437    21478889.600   112872333.476 8      1460.478          50.000    21478897.640    87952490.829 8      1138.035          49.000    21478897.420    87952494.828 8      1138.035          50.375
G23  24996829.980   131359224.550 6      -528.196          39.062    24996828.920   131359224.562 4      -528.196          26.687    24996840.480   102357868.580 4      -411.581          26.562    24996841.480   102357881.579 7      -411.581          45.750
R23  22433951.160   120006519.156 7      4001.816          44.125    22433950.340   120006519.165 7      4001.816          42.937
R21  22382514.800   119773350.403 7       137.777          45.750    22382515.100   119773350.434 7       137.777          44.812    22382529.480    93157110.162 7       107.160          47.125    22382528.920    93157107.165 7       107.160          46.875
G07  24040596.140   126334171.052 7      2485.741          42.562    24040595.200   126334171.057 4      2485.741          29.625    24040604.960    98442248.460 4      1936.941          29.875    24040605.680    98442256.462 7      1936.941          42.187
G16  21798655.580   114552702.452 7       -55.188          47.250    21798654.140   114552702.459 6       -55.188          38.437    21798661.760    89261867.822 6       -43.004          38.250
G02  21983741.820   115525377.311 7      3561.960          47.437    21983740.220   115525377.322 6      3561.960          37.375    21983745.280    90019792.525 6      2775.553          37.937
G08  21070864.780   110728142.190 8      3128.101          48.625    21070864.180   110728142.195 8      3128.101          49.625    21070871.920    86281696.402 8      2437.482          49.187    21070873.000    86281700.409 8      2437.482          50.500
R11  21008687.340   112264042.959 8     -1123.673          49.812    21008686.800   112264042.963 8     -1123.673          49.125    21008700.200    87316519.815 8      -873.968          50.187    21008699.940    87316521.813 8      -873.968          50.375
G21  20801131.220   109310686.139 7      2643.463          47.250    20801130.120   109310686.144 6      2643.463          39.375    20801135.560    85177172.977 6      2059.841          39.812
R22  20486726.820   109359559.118 8      1825.045          49.062    20486727.140   109359559.121 8      1825.045          48.750    20486735.200    85057471.772 8      1419.480          50.000    20486735.340    85057471.775 8      1419.480          49.812
R12  20037389.340   107036139.920 8      3148.658          50.500    20037389.260   107036139.916 8      3148.658          50.625    20037399.860    83250370.705 8      2448.956          50.312    20037399.780    83250379.709 8      2448.956          51.062
> 2024 05 09 13 03 55.0000000  0 15
G10  22665168.880   119106261.357 7       946.537          46.312    22665168.240   119106261.365 7       946.537          46.562    22665177.540    92810113.200 7       737.561          46.062    22665177.860    92810116.200 7       737.561          47.312
R07  23107966.920   123698758.710 7      5629.083          43.875    23107967.140   123698758.743 7      5629.083          43.125    23107992.320    96210258.633 7      4378.176          46.625    23107992.640    96210259.637 7      4378.176          46.437
G26  24467708.140   128578671.259 6     -1041.828          40.625    24467706.380   128578671.254 6     -1041.828          37.312    24467727.200   100191243.822 6      -811.814          37.125    24467727.920   100191247.821 7      -811.814          43.062
G27  21478612.580   112870873.070 7      1460.317          47.500    21478611.620   112870873.080 8      1460.317          49.437    21478619.660    87951352.854 8      1137.909          49.000    21478619.560    87951356.853 8      1137.909          49.750
G23  24996930.200   131359752.854 6      -528.565          39.062    24996929.580   131359752.867 4      -528.565          26.687    24996941.240   102358280.241 4      -411.869          26.562    24996941.820   102358293.228 7      -411.869          45.937
R23  22433202.780   120002517.403 7      4001.553          43.500    22433202.160   120002517.426 7      4001.553          42.937
R21  22382488.920   119773212.650 7       137.789          45.625    22382489.500   119773212.681 7       137.789          44.750    22382503.980    93157003.018 7       107.169          46.812    22382503.140    93157000.018 7       107.169          47.500
G07  24040123.320   126331685.468 7      2485.293          42.937    24040122.300   126331685.473 4      2485.293          29.625    24040131.920    98440311.639 4      1936.592          29.875    24040132.520    98440319.639 7      1936.592          42.312
G16  21798666.120   114552757.813 7       -55.558          47.250    21798664.560   114552757.821 6       -55.558          38.750    21798672.420    89261910.957 6       -43.292          38.562
G02  21983064.020   115521815.485 7      3561.644          47.250    21983062.380   115521815.493 6      3561.644          37.812    21983067.500    90017017.076 6      2775.307          37.375
G08  21070269.740   110725014.180 8      3127.887          48.937    21070268.980   110725014.185 8      3127.887          49.500    21070276.720    86279258.994 8      2437.315          48.562    21070277.680    86279263.003 8      2437.315          50.625
R11  21008897.800   112265166.909 8     -1124.138          50.250    21008896.900   112265166.913 8     -1124.138          49.125    21008910.560    87317393.984 8      -874.330          50.000    21008910.160    87317395.986 8      -874.330          50.437
G21  20800628.440   109308042.919 7      2643.014          47.125    20800626.980   109308042.929 6      2643.014          39.812    20800632.400    85175113.331 6      2059.491          39.500
R22  20486384.960   109357734.249 8      1824.699          49.562    20486385.140   109357734.252 8      1824.699          48.687    20486393.380    85056052.429 8      1419.210          50.875    20486393.400    85056052.432 8      1419.210          50.187
R12  20036799.960   107032991.745 8      3147.761          50.875    20036800.100   107032991.741 8      3147.761          50.125    20036810.560    83247922.125 8      2448.259          50.125    20036810.800    83247931.129 8      2448.259          51.187
> 2024 05 09 13 03 56.0000000  0 15
G10  22664988.660   119105315.136 7       945.863          46.062    22664988.140   119105315.141 7       945.863          46.062    22664997.500    92809375.884 7       737.036          45.500    22664997.500    92809378.884 7       737.036          47.062
R07  23106915.520   123693129.699 7      5628.840          44.187    23106915.480   123693129.727 7      5628.840          43.125    23106940.980    96205880.516 7      4377.986          46.625    23106941.340    96205881.515 7      4377.986          46.375
G26  24467906.420   128579712.905 6     -1041.785          41.312    24467904.460   128579712.904 6     -1041.785          37.187    24467925.400   100192055.489 6      -811.781          36.875    24467926.240   100192059.502 7      -811.781          43.375
G27  21478334.740   112869412.880 7      1459.956          47.250    21478333.740   112869412.887 8      1459.956          49.000    21478341.880    87950215.041 8      1137.628          48.750    21478341.580    87950219.040 8      1137.628          49.312
G23  24997031.360   131360281.437 6      -528.928          39.625    24997030.320   131360281.453 4      -528.928          26.687    24997041.820   102358692.124 4      -412.152          26.562    24997042.540   102358705.115 7      -412.152          45.750
R23  22432454.800   119998515.928 7      4001.169          43.500    22432454.180   119998515.940 7      4001.169          43.000
R21  22382463.220   119773074.819 7       137.687          45.625    22382463.780   119773074.858 7       137.687          44.750    22382478.340    93156895.820 7       107.090          47.375    22382477.620    93156892.818 7       107.090          47.125
G07  24039650.520   126329200.380 7      2484.679          43.625    24039649.420   126329200.382 5      2484.679          30.062    24039659.180    98438375.205 4      1936.113          29.875    24039659.100    98438383.203 7      1936.113          42.187
G16  21798676.760   114552813.590 7       -56.055          47.500    21798675.120   114552813.598 6       -56.055          38.937    21798682.940    89261954.411 6       -43.679          38.625
G02  21982386.580   115518254.029 7      3561.169          47.500    21982384.920   115518254.034 6      3561.169          37.562    21982389.700    90014241.916 6      2774.937          37.750
G08  21069674.580   110721886.341 8      3127.587          48.375    21069673.840   110721886.341 8      3127.587          49.062    21069681.420    86276821.715 8      2437.081          48.687    21069682.440    86276825.724 8      2437.081          49.875
R11  21009107.760   112266291.346 8     -1124.747          50.250    21009107.440   112266291.350 8     -1124.747          49.250    21009121.000    87318268.534 8      -874.803          50.437    21009120.680    87318270.533 8      -874.803          50.437
G21  20800125.600   109305400.136 7      2642.448          47.812    20800124.080   109305400.143 6      2642.448          39.500    20800129.460    85173054.019 6      2059.050          39.437
R22  20486043.400   109355909.558 8      1824.465          49.125    20486043.420   109355909.559 8      1824.465          48.437    20486051.580    85054633.228 8      1419.028          49.750    20486051.800    85054633.229 8      1419.028          49.687
R12  20036210.740   107029844.454 8      3146.732          50.562    20036211.040   107029844.458 8      3146.732          50.125    20036221.400    83245474.236 8      2447.458          50.000    20036221.280    83245483.240 8      2447.458          50.812
> 2024 05 09 13 03 57.0000000  0 15
G10  22664808.980   119104369.689 7       945.103          47.375    22664808.200   119104369.697 7       945.103          46.500    22664817.640    92808639.173 7       736.444          45.687    22664817.500    92808642.178 7       736.444          47.625
R07  23105864.080   123687501.068 7      5628.452          44.187    23105864.140   123687501.099 7      5628.452          42.937    23105889.460    96201502.707 7      4377.685          46.125    23105889.600    96201503.706 7      4377.685          46.812
G26  24468104.920   128580754.952 6     -1042.205          40.625    24468102.820   128580754.957 6     -1042.205          37.000    24468124.000   100192867.478 6      -812.108          36.562    24468124.300   100192871.479 7      -812.108          43.687
G27  21478056.900   112867953.105 8      1459.614          48.125    21478055.980   112867953.109 8      1459.614          48.937    21478064.060    87949077.548 8      1137.362          48.687    21478063.920    87949081.547 8      1137.362          49.625
G23  24997132.060   131360810.572 6      -529.417          39.312    24997131.100   131360810.587 4      -529.417          26.687    24997142.540   102359104.435 4      -412.533          26.562    24997142.840   102359117.426 7      -412.533          45.875
R23  22431706.980   119994514.932 7      4000.685          43.687    22431706.160   119994514.950 7      4000.685          43.000
R21  22382437.200   119772937.192 7       137.587          45.437    22382438.460   119772937.215 7       137.587          44.875    22382452.880    93156788.756 7       107.012          47.187    22382451.820    93156785.753 7       107.012          47.062
G07  24039177.600   126326716.031 7      2483.949          43.750    24039176.780   126326716.033 5      2483.949          30.062    24039186.280    98436439.342 4      1935.545          29.625    24039186.780    98436447.350 7      1935.545          42.187
G16  21798687.320   114552870.011 8       -56.677          48.187    21798686.000   114552870.021 6       -56.677          38.812    21798693.720    89261998.369 6       -44.164          38.250
G02  21981708.780   115514693.162 7      3560.552          47.937    21981707.200   115514693.167 6      3560.552          37.625    21981712.220    90011467.216 6      2774.456          37.500
G08  21069079.300   110718758.883 8      3127.300          48.375    21069078.720   110718758.882 8      3127.300          48.875    21069086.320    86274384.732 8      2436.857          48.750    21069087.200    86274388.741 8      2436.857          50.312
R11  21009318.440   112267416.512 8     -1125.496          50.687    21009318.080   112267416.519 8     -1125.496          49.375    21009331.600    87319143.659 8      -875.386          49.937    21009331.240    87319145.656 8      -875.386          50.437
G21  20799622.960   109302758.006 7      2641.872          47.125    20799621.320   109302758.014 6      2641.872          39.500    20799626.760    85170995.217 6      2058.601          39.437
R22  20485701.600   109354085.340 8      1823.973          49.062    20485701.620   109354085.346 8      1823.973          48.625    20485709.940    85053214.389 8      1418.645          50.312    20485709.980    85053214.390 8      1418.645          49.937
R12  20035621.900   107026698.268 8      3145.658          50.437    20035622.060   107026698.275 8      3145.658          50.375    20035632.460    83243027.203 8      2446.623          50.125    20035632.460    83243036.209 8      2446.623          50.687
> 2024 05 09 13 03 58.0000000  0 15
G10  22664629.100   119103424.907 7       944.574          47.562    22664628.560   119103424.912 7       944.574          46.375    22664637.800    92807902.977 7       736.032          46.437    22664637.620    92807905.985 7       736.032          47.375
R07  23104812.500   123681872.727 7      5628.308          44.125    23104812.840   123681872.760 7      5628.308          42.937    23104838.380    96197125.114 7      4377.573          46.312    23104838.340    96197126.119 7      4377.573          46.812
G26  24468303.080   128581797.196 6     -1042.266          40.187    24468301.320   128581797.201 6     -1042.266          37.500    24468322.100   100193679.615 6      -812.155          37.062    24468322.720   100193683.622 7      -812.155          43.812
G27  21477779.260   112866493.655 7      1459.373          47.875    21477778.240   112866493.665 8      1459.373          49.437    21477786.360    87947940.319 8      1137.173          48.875    21477786.220    87947944.318 8      1137.173          49.687
G23  24997232.540   131361340.161 6      -529.797          39.625    24997231.640   131361340.174 4      -529.797          26.875    24997243.340   102359517.094 4      -412.829          26.562    24997243.480   102359530.087 7      -412.829          46.000
R23  22430959.060   119990514.316 7      4000.536          43.687    22430958.400   119990514.333 7      4000.536          42.687
R21  22382411.720   119772799.612 7       137.684          45.687    22382412.680   119772799.635 7       137.684          45.187    22382427.020    93156681.750 7       107.087          47.625    22382426.220    93156678.747 7       107.087          47.250
G07  24038704.880   126324232.275 7      2483.551          43.125    24038704.100   126324232.280 5      2483.551          30.062    24038713.480    98434503.948 4      1935.234          29.625    24038713.920    98434511.954 7      1935.234          42.125
G16  21798698.220   114552926.989 7       -57.216          47.562    21798696.900   114552926.999 6       -57.216          38.500    21798704.500    89262042.764 6       -44.584          38.562
G02  21981031.360   115511132.773 7      3560.238          46.437    21981029.660   115511132.778 6      3560.238          37.500    21981034.680    90008692.889 6      2774.212          37.687
G08  21068484.120   110715631.724 8      3127.115          48.500    21068483.620   110715631.721 8      3127.115          49.187    21068491.200    86271947.987 8      2436.713          48.625    21068492.260    86271951.994 8      2436.713          50.250
R11  21009529.140   112268542.303 8     -1126.029          49.687    21009528.860   112268542.305 8     -1126.029          49.500    21009542.080    87320019.260 8      -875.801          49.625    21009541.920    87320021.259 8      -875.801          50.187
G21  20799119.920   109300116.431 7      2641.380          47.062    20799118.520   109300116.439 6      2641.380          39.562    20799124.040    85168936.849 6      2058.218          39.500
R22  20485359.780   109352261.432 8      1823.825          49.125    20485360.080   109352261.433 8      1823.825          48.562    20485368.380    85051795.790 8      1418.530          50.000    20485368.320    85051795.791 8      1418.530          50.187
R12  20035033.080   107023553.093 8      3144.805          50.875    20035033.120   107023553.102 8      3144.805          50.250    20035043.620    83240580.957 8      2445.960          50.437    20035043.900    83240589.965 8      2445.960          50.875
> 2024 05 09 13 03 59.0000000  0 15
G10  22664449.500   119102480.738 7       943.845          47.687    22664448.840   119102480.743 7       943.845          46.562    22664458.120    92807167.262 7       735.464          46.125    22664457.920    92807170.272 7       735.464          47.500
R07  23103761.120   123676244.610 7      5628.127          44.125    23103761.440   123676244.630 7      5628.127          42.687    23103787.040    96192747.696 7      4377.432          46.687    23103786.960    96192748.699 7      4377.432          46.875
G26  24468501.420   128582839.598 6     -1042.381          41.250    24468499.680   128582839.601 6     -1042.381          37.500    24468520.460   100194491.876 6      -812.245          37.125    24468521.160   100194495.875 7      -812.245          43.500
G27  21477501.560   112865034.434 7      1459.180          47.875    21477500.540   112865034.436 8      1459.180          48.812    21477508.640    87946803.257 8      1137.024          48.375    21477508.380    87946807.254 8      1137.024          50.125
G23  24997333.220   131361870.095 6      -530.169          39.250    24997332.420   131361870.108 4      -530.169          26.875    24997344.120   102359930.029 4      -413.118          26.625    24997344.520   102359943.016 7      -413.118          46.000
R23  22430210.840   119986514.058 7      4000.073          44.062    22430210.640   119986514.073 7      4000.073          42.687
R21  22382386.100   119772662.006 7       137.641          45.937    22382386.780   119772662.032 7       137.641          45.437    22382401.440    93156574.721 7       107.054          47.062    22382400.540    93156571.724 7       107.054          47.250
G07  24038232.300   126321749.100 7      2482.884          43.812    24038231.680   126321749.099 4      2482.884          29.687    24038241.040    98432569.002 4      1934.715          29.625    24038241.140    98432577.004 7      1934.715          42.125
G16  21798709.200   114552984.408 7       -57.668          47.937    21798707.780   114552984.413 6       -57.668          38.625    21798715.580    89262087.496 6       -44.936          38.687
G02  21980353.620   115507572.802 7      3559.757          46.750    21980352.180   115507572.812 6      3559.757          37.500    21980357.100    90005918.890 6      2773.837          37.875
G08  21067889.180   110712504.776 8      3126.884          49.125    21067888.580   110712504.775 8      3126.884          49.125    21067896.140    86269511.404 8      2436.533          48.500    21067897.120    86269515.413 8      2436.533          50.375
R11  21009739.800   112269668.608 8     -1126.576          50.187    21009739.520   112269668.609 8     -1126.576          49.187    21009753.000    87320895.270 8      -876.225          50.000    21009752.660    87320897.266 8      -876.225          50.375
G21  20798617.520   109297475.319 7      2640.930          46.937    20798616.000   109297475.321 6      2640.930          39.500    20798621.440    85166878.837 6      2057.867          38.937
R22  20485017.840   109350437.766 8      1823.586          49.687    20485018.460   109350437.775 8      1823.586          49.000    20485026.720    85050377.392 8      1418.344          49.875    20485026.640    85050377.393 8      1418.344          50.187
R12  20034444.500   107020408.870 8      3143.751          50.875    20034444.540   107020408.874 8      3143.751          50.750    20034455.080    83238135.447 8      2445.139          50.437    20034454.980    83238144.451 8      2445.139          50.937
> 2024 05 09 13 04  0.0000000  0 15
G10  22664269.900   119101537.067 7       943.377          46.812    22664269.280   119101537.072 7       943.377          46.687    22664278.640    92806431.933 7       735.099          46.312    22664278.440    92806434.939 8       735.099          48.000
R07  23102709.940   123670616.646 7      5627.674          44.187    23102709.980   123670616.679 7      5627.674          42.687    23102735.580    96188370.407 7      4377.080          46.500    23102735.440    96188371.413 7      4377.080          46.937
G26  24468699.820   128583882.090 6     -1042.714          40.875    24468697.960   128583882.094 6     -1042.714          37.250    24468718.960   100195304.205 6      -812.504          37.000    24468719.200   100195308.202 7      -812.504          43.687
G27  21477223.800   112863575.389 8      1458.890          48.250    21477222.840   112863575.394 8      1458.890          49.250    21477231.080    87945666.339 8      1136.797          48.625    21477230.780    87945670.338 8      1136.797          50.000
G23  24997433.880   131362400.341 6      -530.675          39.062    24997433.460   131362400.351 4      -530.675          26.875    24997444.900   102360343.202 4      -413.513          26.625    24997445.480   102360356.189 7      -413.513          45.875
R23  22429463.580   119982514.003 7      3999.843          43.562    22429462.900   119982514.018 7      3999.843          42.812
R21  22382360.300   119772524.285 7       137.539          45.937    22382361.240   119772524.313 7       137.539          45.125    22382375.620    93156467.602 7       106.975          47.062    22382374.900    93156464.602 7       106.975          47.312
G07  24037759.600   126319266.366 7      2482.391          43.937    24037759.080   126319266.366 4      2482.391          29.687    24037768.580    98430634.405 4      1934.331          29.625    24037769.040    98430642.400 7      1934.331          42.312
G16  21798720.180   114553042.198 7       -58.024          47.375    21798718.680   114553042.202 6       -58.024          38.250    21798726.600    89262132.522 6       -45.213          38.437
G02  21979676.280   115504013.146 7      3559.395          47.687    21979674.820   115504013.151 6      3559.395          37.437    21979679.720    90003145.130 6      2773.555          37.750
G08  21067293.960   110709377.959 8      3126.689          48.937    21067293.540   110709377.956 8      3126.689          49.187    21067301.100    86267074.923 8      2436.381          49.000    21067302.060    86267078.932 8      2436.381          50.500
R11  21009951.100   112270795.406 8     -1127.137          50.437    21009950.500   112270795.415 8     -1127.137          49.250    21009964.000    87321771.663 8      -876.662          50.000    21009963.680    87321773.658 8      -876.662          50.375
G21  20798114.880   109294834.595 7      2640.457          47.500    20798113.480   109294834.600 6      2640.457          39.687    20798118.880    85164821.130 6      2057.499          39.000
R22  20484676.560   109348614.301 8      1823.279          49.250    20484677.140   109348614.307 8      1823.279          49.125    20484685.180    85048959.137 8      1418.106          50.312    20484684.940    85048959.140 8      1418.106          49.812
R12  20033856.400   107017265.492 8      3142.814          50.312    20033856.140   107017265.499 8      3142.814          50.562    20033866.620    83235690.597 8      2444.411          50.750    20033866.820    83235699.601 8      2444.411          50.937
> 2024 05 09 13 04  1.0000000  0 15
G10  22664090.560   119100594.059 7       942.841          47.312    22664089.860   119100594.067 7       942.841          46.625    22664099.180    92805697.123 7       734.681          46.250    22664099.140    92805700.133 7       734.681          47.312
R07  23101658.500   123664988.933 7      5627.672          44.187    23101658.900   123664988.975 7      5627.672          43.125    23101684.320    96183993.308 7      4377.078          46.750    23101684.340    96183994.315 7      4377.078          46.312
G26  24468898.120   128584924.741 6     -1042.580          39.625    24468896.360   128584924.746 6     -1042.580          36.875    24468917.280   100196116.659 6      -812.400          36.687    24468917.980   100196120.649 7      -812.400          43.562
G27  21476946.220   112862116.641 8      1458.754          48.375    21476945.280   112862116.646 8      1458.754          49.187    21476953.400    87944529.653 8      1136.691          49.437    21476953.200    87944533.654 8      1136.691          49.812
G23  24997534.980   131362930.903 6      -530.365          39.562    24997534.540   131362930.913 4      -530.365          26.875    24997545.900   102360756.624 4      -413.272          26.625    24997546.440   102360769.607 7      -413.272          45.875
R23  22428716.020   119978514.329 7      3999.686          43.562    22428715.300   119978514.343 7      3999.686          42.812
R21  22382334.560   119772386.585 7       137.742          45.687    22382335.660   119772386.611 7       137.742          45.125    22382350.040    93156360.496 7       107.132          47.125    22382349.060    93156357.500 7       107.132          47.000
G07  24037287.400   126316784.234 7      2482.018          44.125    24037286.620   126316784.234 4      2482.018          29.687    24037296.160    98428700.272 4      1934.040          29.750    24037296.660    98428708.277 7      1934.040          42.062
G16  21798731.280   114553100.528 8       -58.505          48.000    21798729.780   114553100.536 6       -58.505          38.812    21798737.680    89262177.971 6       -45.589          38.562
G02  21978998.880   115500453.966 7      3559.002          47.937    21978997.640   115500453.968 6      3559.002          37.500    21979002.440    90000371.746 6      2773.248          37.562
G08  21066699.300   110706251.426 8      3126.458          48.062    21066698.640   110706251.428 8      3126.458          49.000    21066706.200    86264638.666 8      2436.201          48.500    21066706.620    86264642.670 8      2436.201          50.062
R11  21010162.180   112271922.798 8     -1127.576          50.187    21010161.540   112271922.799 8     -1127.576          49.375    21010174.880    87322648.504 8      -877.004          49.750    21010174.480    87322650.502 8      -877.004          50.437
G21  20797612.540   109292194.410 7      2640.057          47.437    20797611.020   109292194.412 6      2640.057          39.250    20797616.500    85162763.843 6      2057.187          39.000
R22  20484334.980   109346791.124 8      1823.148          49.562    20484335.460   109346791.127 8      1823.148          48.812    20484343.620    85047541.110 8      1418.004          49.750    20484343.660    85047541.111 8      1418.004          49.687
R12  20033267.960   107014123.118 8      3141.997          49.812    20033267.860   107014123.125 8      3141.997          50.125    20033278.220    83233246.526 8      2443.775          50.562    20033278.320    83233255.528 8      2443.775          50.562
> 2024 05 09 13 04  2.0000000  0 15
G10  22663911.220   119099651.713 7       942.127          47.250    22663910.540   119099651.715 7       942.127          46.437    22663919.880    92804962.822 7       734.125          46.062    22663920.180    92804965.831 7       734.125          47.750
R07  23100607.160   123659361.507 7      5627.433          44.062    23100607.520   123659361.540 7      5627.433          43.125    23100632.820    96179616.423 7      4376.892          46.875    23100633.000    96179617.428 7      4376.892          46.562
G26  24469096.260   128585967.640 6     -1042.896          40.187    24469094.800   128585967.645 6     -1042.896          36.937    24469115.600   100196929.297 6      -812.646          36.437    24469116.240   100196933.287 7      -812.646          43.437
G27  21476668.680   112860658.180 7      1458.501          47.312    21476667.720   112860658.182 8      1458.501          49.687    21476675.960    87943393.185 8      1136.495          49.312    21476675.560    87943397.186 8      1136.495          49.875
G23  24997636.160   131363461.992 6      -531.193          39.562    24997635.600   131363462.002 4      -531.193          26.875    24997646.760   102361170.456 4      -413.917          26.625    24997647.140   102361183.441 7      -413.917          45.375
R23  22427967.740   119974515.018 7      3999.221          42.937    22427967.320   119974515.038 7      3999.221          42.500
R21  22382308.500   119772248.952 7       137.660          45.687    22382309.800   119772248.983 7       137.660          45.000    22382324.040    93156253.446 7       107.069          47.500    22382323.200    93156250.456 7       107.069          47.250
G07  24036815.180   126314302.714 7      2481.200          43.812    24036814.580   126314302.714 4      2481.200          29.687    24036824.020    98426766.616 4      1933.402          29.750    24036824.760    98426774.626 7      1933.402          42.062
G16  21798742.740   114553159.356 7       -59.008          47.562    21798741.080   114553159.361 6       -59.008          38.812    21798748.720    89262223.802 6       -45.980          38.312
G02  21978321.720   115496895.229 7      3558.563          47.062    21978320.380   115496895.237 6      3558.563          37.562    21978325.040    89997598.707 6      2772.906          37.500
G08  21066104.480   110703125.144 8      3126.196          48.812    21066103.740   110703125.147 8      3126.196          49.250    21066111.220    86262202.600 8      2435.997          48.625    21066111.940    86262206.609 8      2435.997          50.187
R11  21010373.100   112273050.775 8     -1128.209          50.187    21010372.600   112273050.773 8     -1128.209          49.125    21010385.900    87323525.805 8      -877.496          50.062    21010385.800    87323527.805 8      -877.496          50.125
G21  20797110.320   109289554.735 7      2639.497          47.500    20797108.780   109289554.737 6      2639.497          39.187    20797114.140    85160706.953 6      2056.751          39.437
R22  20483993.500   109344968.259 8      1822.833          49.375    20483993.940   109344968.265 8      1822.833          49.187    20484002.200    85046123.324 8      1417.759          49.750    20484002.120    85046123.327 8      1417.759          50.625
R12  20032679.600   107010981.719 8      3141.033          50.250    20032679.920   107010981.725 8      3141.033          50.625    20032690.160    83230803.214 8      2443.026          50.250    20032689.920    83230812.216 8      2443.026          50.687
> 2024 05 09 13 04  3.0000000  0 15
G10  22663731.800   119098710.116 7       941.304          47.312    22663731.520   119098710.113 7       941.304          46.375    22663740.720    92804229.105 7       733.484          46.000    22663740.920    92804232.115 8       733.484          48.250
R07  23099556.000   123653734.461 7      5627.062          43.937    23099556.580   123653734.489 7      5627.062          43.187    23099581.460    96175239.835 7      4376.604          46.687    23099581.880    96175240.843 7      4376.604          46.562
G26  24469294.580   128587010.814 6     -1043.166          40.562    24469293.380   128587010.816 6     -1043.166          37.062    24469314.120   100197742.156 6      -812.857          36.250    24469314.740   100197746.152 7      -812.857          43.437
G27  21476391.440   112859200.136 7      1457.980          47.875    21476390.220   112859200.138 8      1457.980          49.687    21476398.520    87942257.049 8      1136.088          49.062    21476397.920    87942261.048 8      1136.088          49.937
G23  24997737.160   131363993.560 6      -531.821          40.187    24997736.900   131363993.568 4      -531.821          27.312    24997747.940   102361584.659 4      -414.406          26.625    24997748.200   102361597.654 7      -414.406          45.625
R23  22427220.460   119970516.169 7      3998.743          42.937    22427219.920   119970516.181 7      3998.743          42.500
R21  22382282.940   119772111.512 7       137.437          45.812    22382284.240   119772111.532 7       137.437          45.312    22382298.720    93156146.540 7       106.896          47.187    22382297.640    93156143.548 7       106.896          47.500
G07  24036343.300   126311821.881 7      2480.583          43.812    24036342.420   126311821.878 4      2480.583          29.750    24036352.120    98424833.497 4      1932.922          29.750    24036352.620    98424841.500 7      1932.922          42.062
G16  21798753.680   114553218.811 7       -59.661          47.312    21798752.280   114553218.819 6       -59.661          38.437    21798760.200    89262270.125 6       -46.489          38.625
G02  21977644.760   115493337.076 8      3558.007          48.000    21977643.340   115493337.081 6      3558.007          37.375    21977648.140    89994826.118 6      2772.473          37.500
G08  21065509.580   110699999.237 8      3125.849          48.562    21065508.900   110699999.236 8      3125.849          48.937    21065516.380    86259766.828 8      2435.726          48.500    21065516.780    86259770.839 8      2435.726          50.187
R11  21010584.220   112274179.436 8     -1128.841          49.875    21010583.860   112274179.437 8     -1128.841          49.437    21010597.300    87324403.644 8      -877.987          50.125    21010596.800    87324405.644 8      -877.987          50.375
G21  20796608.120   109286915.706 7      2638.762          47.750    20796606.540   109286915.713 6      2638.762          39.062    20796612.020    85158650.569 6      2056.178          38.687
R22  20483652.120   109343145.832 8      1822.361          49.437    20483652.360   109343145.833 8      1822.361          48.625    20483660.700    85044705.877 8      1417.392          50.062    20483660.820    85044705.878 8      1417.392          49.937
R12  20032091.780   107007841.418 8      3139.907          50.312    20032091.860   107007841.421 8      3139.907          50.375    20032102.240    83228360.755 8      2442.150          50.125    20032102.180    83228369.757 8      2442.150          50.750
> 2024 05 09 13 04  4.0000000  0 15
G10  22663553.040   119097769.173 7       940.380          47.000    22663552.420   119097769.175 7       940.380          46.562    22663561.740    92803495.909 7       732.764          46.000    22663562.080    92803498.913 7       732.764          47.875
R07  23098504.540   123648107.698 7      5626.448          43.937    23098505.640   123648107.734 7      5626.448          43.187    23098530.420    96170863.477 7      4376.127          46.750    23098530.680    96170864.483 7      4376.127          46.187
G26  24469493.120   128588054.233 6     -1043.728          40.375    24469491.980   128588054.233 6     -1043.728          36.937    24469512.540   100198555.205 6      -813.294          37.000    24469513.000   100198559.200 7      -813.294          43.250
G27  21476114.060   112857742.400 7      1457.381          47.312    21476112.860   112857742.407 8      1457.381          49.562    21476121.120    87941121.149 8      1135.621          49.000    21476120.720    87941125.149 8      1135.621          49.687
G23  24997838.700   131364525.533 6      -532.294          39.687    24997838.260   131364525.537 4      -532.294          27.312    24997849.120   102361999.181 4      -414.774          27.312    24997849.640   102362012.172 7      -414.774          45.375
R23  22426473.160   119966517.685 7      3998.136          43.250    22426472.720   119966517.692 7      3998.136          42.437
R21  22382257.440   119771974.125 7       137.090          45.937    22382258.620   119771974.140 7       137.090          45.562    22382272.860    93156039.679 7       106.626          47.750    22382271.800    93156036.685 7       106.626          47.187
G07  24035871.380   126309341.664 7      2479.727          44.625    24035870.480   126309341.666 4      2479.727          29.750    24035879.840    98422900.860 4      1932.255          29.500    24035880.520    98422908.862 6      1932.255          41.937
G16  21798764.900   114553278.803 7       -60.510          47.812    21798763.680   114553278.810 6       -60.510          39.250    21798771.600    89262316.863 6       -47.151          38.562
G02  21976967.440   115489779.399 7      3557.153          47.812    21976966.380   115489779.404 6      3557.153          37.562    21976971.220    89992053.904 6      2771.807          37.125
G08  21064914.720   110696873.623 8      3125.208          49.187    21064914.140   110696873.625 8      3125.208          50.250    21064921.560    86257331.285 8      2435.227          49.437    21064922.500    86257335.296 8      2435.227          50.125
R11  21010795.380   112275308.730 8     -1129.897          50.375    21010795.220   112275308.737 8     -1129.897          49.625    21010808.440    87325281.980 8      -878.809          50.312    21010808.240    87325283.978 8      -878.809          50.750
G21  20796106.040   109284277.208 7      2637.998          47.812    20796104.320   109284277.210 6      2637.998          39.687    20796109.940    85156594.599 6      2055.583          39.625
R22  20483310.860   109341323.720 8      1821.726          49.375    20483311.020   109341323.723 8      1821.726          48.625    20483319.400    85043288.683 8      1416.898          50.250    20483319.460    85043288.686 8      1416.898          51.125
R12  20031504.080   107004702.145 8      3138.476          50.062    20031504.080   107004702.151 8      3138.476          50.375    20031514.520    83225919.100 8      2441.037          50.062    20031514.480    83225928.102 8      2441.037          50.937
> 2024 05 09 13 04  5.0000000  0 15
G10  22663374.160   119096828.916 7       939.890          47.937    22663373.360   119096828.918 7       939.890          46.875    22663382.740    92802763.239 7       732.381          46.500    22663383.200    92802766.249 7       732.381          47.812
R07  23097453.620   123642481.233 7      5626.369          43.937    23097454.760   123642481.258 7      5626.369          43.375    23097479.100    96166487.335 7      4376.065          46.437    23097479.680    96166488.343 7      4376.065          46.312
G26  24469691.400   128589097.852 6     -1043.677          39.875    24469690.620   128589097.859 6     -1043.677          37.062    24469711.080   100199368.416 6      -813.255          36.562    24469711.480   100199372.411 7      -813.255          43.312
G27  21475836.620   112856284.979 7      1457.295          46.812    21475835.520   112856284.984 8      1457.295          48.937    21475843.760    87939985.494 8      1135.554          48.500    21475843.340    87939989.493 8      1135.554          49.625
G23  24997939.740   131365057.983 6      -532.718          39.000    24997939.560   131365057.993 4      -532.718          27.312    24997950.320   102362414.073 4      -415.105          27.312    24997951.180   102362427.068 7      -415.105          45.125
R23  22425726.080   119962519.591 7      3997.904          43.250    22425725.440   119962519.595 7      3997.904          42.437
R21  22382231.520   119771836.770 7       137.362          46.062    22382232.840   119771836.791 7       137.362          45.687    22382246.980    93155932.846 7       106.837          47.500    22382246.320    93155929.849 7       106.837          47.562
G07  24035399.420   126306862.070 7      2479.353          44.375    24035398.620   126306862.073 4      2479.353          29.750    24035408.100    98420968.712 4      1931.964          29.500    24035408.860    98420976.715 6      1931.964          41.937
G16  21798776.540   114553339.323 7       -60.715          47.312    21798775.180   114553339.327 6       -60.715          38.812    21798783.020    89262364.015 6       -47.311          38.375
G02  21976290.920   115486222.200 8      3556.963          48.000    21976289.460   115486222.202 6      3556.963          37.875    21976294.400    89989282.061 6      2771.660          37.312
G08  21064320.120   110693748.283 8      3125.243          49.625    21064319.360   110693748.285 8      3125.243          49.187    21064326.740    86254895.955 8      2435.254          48.625    21064327.760    86254899.966 8      2435.254          49.437
R11  21011007.060   112276438.631 8     -1130.155          50.312    21011006.700   112276438.640 8     -1130.155          49.687    21011020.020    87326160.781 8      -879.009          50.062    21011019.540    87326162.777 8      -879.009          50.875
G21  20795604.100   109281639.259 7      2637.665          47.937    20795602.380   109281639.264 6      2637.665          39.000    20795607.840    85154539.054 6      2055.323          39.187
R22  20482969.460   109339501.941 8      1821.621          49.375    20482969.900   109339501.942 8      1821.621          48.437    20482978.020    85041871.740 8      1416.816          50.375    20482978.420    85041871.739 8      1416.816          50.562
R12  20030916.420   107001563.865 8      3137.790          50.500    20030916.500   107001563.872 8      3137.790          49.937    20030926.980    83223478.212 8      2440.503          50.187    20030926.980    83223487.218 8      2440.503          50.750
> 2024 05 09 13 04  6.0000000  0 15
G10  22663195.600   119095889.102 7       939.408          46.750    22663194.640   119095889.105 7       939.408          46.312    22663204.020    92802030.915 7       732.007          46.062    22663204.380    92802033.921 8       732.007          48.062
R07  23096402.660   123636854.842 7      5626.163          43.937    23096403.460   123636854.881 7      5626.163          43.375    23096427.940    96162111.266 7      4375.905          46.062    23096428.500    96162112.274 7      4375.905          46.500
G26  24469890.300   128590141.502 6     -1043.805          40.187    24469889.100   128590141.506 6     -1043.805          36.562    24469909.580   100200181.644 6      -813.355          36.437    24469910.060   100200185.647 7      -813.355          43.000
G27  21475559.360   112854827.673 7      1457.034          47.312    21475558.240   112854827.678 8      1457.034          48.937    21475566.480    87938849.931 8      1135.351          48.250    21475566.080    87938853.930 8      1135.351          49.875
G23  24998040.880   131365590.647 6      -533.171          39.437    24998040.940   131365590.657 4      -533.171          27.312    24998051.840   102362829.134 4      -415.458          27.312    24998052.400   102362842.131 7      -415.458          45.312
R23  22424978.700   119958521.620 7      3997.784          43.250    22424977.860   119958521.634 7      3997.784          42.500
R21  22382206.120   119771699.255 7       137.479          46.125    22382207.140   119771699.278 7       137.479          45.375    22382221.380    93155825.887 7       106.928          47.062    22382220.500    93155822.889 7       106.928          47.187
G07  24034927.600   126304382.886 7      2478.889          43.125    24034926.880   126304382.891 4      2478.889          29.562    24034936.320    98419036.878 4      1931.602          29.500    24034937.280    98419044.877 6      1931.602          41.687
G16  21798788.360   114553400.176 7       -61.141          47.875    21798786.880   114553400.183 6       -61.141          38.375    21798794.660    89262411.427 6       -47.642          38.187
G02  21975613.880   115482665.263 8      3556.708          48.437    21975612.500   115482665.268 6      3556.708          37.250    21975617.500    89986510.424 6      2771.461          37.625
G08  21063725.240   110690623.024 8      3125.105          49.375    21063724.640   110690623.026 8      3125.105          49.000    21063732.020    86252460.690 8      2435.146          48.250    21063732.820    86252464.701 8      2435.146          49.875
R11  21011218.400   112277568.913 8     -1130.630          50.187    21011218.300   112277568.928 8     -1130.630          49.437    21011231.480    87327039.884 8      -879.379          49.375    21011231.120    87327041.886 8      -879.379          49.687
G21  20795102.060   109279001.625 8      2637.403          48.375    20795100.400   109279001.630 6      2637.403          38.625    20795105.940    85152483.759 6      2055.119          38.875
R22  20482627.920   109337680.254 8      1821.509          49.687    20482628.460   109337680.257 8      1821.509          48.437    20482636.820    85040454.876 8      1416.729          49.250    20482637.060    85040454.875 8      1416.729          50.062
R12  20030329.500   106998426.374 8      3136.952          50.375    20030329.040   106998426.375 8      3136.952          49.937    20030339.620    83221037.937 8      2439.852          49.812    20030339.920    83221046.943 8      2439.852          49.750
> 2024 05 09 13 04  7.0000000  0 15
G10  22663016.980   119094949.986 7       939.002          46.937    22663015.920   119094949.988 7       939.002          46.312    22663025.380    92801299.138 7       731.690          46.312    22663025.660    92801302.139 8       731.690          48.437
R07  23095351.400   123631228.792 7      5626.145          44.187    23095352.820   123631228.831 7      5626.145          43.187    23095376.680    96157735.455 7      4375.890          46.437    23095377.320    96157736.459 7      4375.890          46.437
G26  24470088.980   128591185.391 6     -1043.816          39.562    24470087.780   128591185.396 6     -1043.816          36.375    24470108.280   100200995.060 6      -813.363          36.187    24470108.620   100200999.061 7      -813.363          43.000
G27  21475282.000   112853370.699 7      1456.976          47.750    21475280.980   112853370.701 8      1456.976          49.312    21475289.260    87937714.624 8      1135.306          48.562    21475288.760    87937718.621 8      1135.306          49.812
G23  24998142.280   131366123.741 6      -533.250          38.937    24998142.400   131366123.751 4      -533.250          27.312    24998153.460   102363244.530 4      -415.520          27.312    24998153.520   102363257.521 7      -415.520          45.562
R23  22424230.940   119954524.090 7      3997.583          43.250    22424230.580   119954524.115 7      3997.583          42.500
R21  22382180.440   119771561.828 7       137.625          46.500    22382181.680   119771561.854 7       137.625          45.750    22382195.580    93155718.998 7       107.042          47.500    22382195.040    93155715.997 7       107.042          47.625
G07  24034455.820   126301904.362 7      2478.389          43.062    24034455.180   126301904.364 4      2478.389          29.562    24034464.400    98417105.558 4      1931.212          29.500    24034465.140    98417113.556 6      1931.212          41.687
G16  21798799.960   114553461.597 7       -61.546          47.750    21798798.600   114553461.599 6       -61.546          38.562    21798806.440    89262459.280 6       -47.958          38.875
G02  21974937.300   115479108.847 7      3556.386          47.625    21974935.860   115479108.855 6      3556.386          37.687    21974940.680    89983739.193 6      2771.210          37.250
G08  21063130.660   110687498.085 8      3124.982          48.875    21063130.060   110687498.090 8      3124.982          49.062    21063137.400    86250025.675 8      2435.051          48.437    21063138.180    86250029.684 8      2435.051          50.000
R11  21011429.820   112278699.853 8     -1131.058          50.187    21011429.880   112278699.863 8     -1131.058          49.375    21011443.180    87327919.485 8      -879.712          49.875    21011442.720    87327921.489 8      -879.712          50.125
G21  20794600.420   109276364.598 8      2636.931          48.062    20794598.680   109276364.603 6      2636.931          39.187    20794604.000    85150428.933 6      2054.751          39.375
R22  20482286.960   109335858.937 8      1821.344          49.562    20482287.040   109335858.946 8      1821.344          48.937    20482295.540    85039038.298 8      1416.601          49.937    20482295.960    85039038.297 8      1416.601          50.187
R12  20029742.060   106995289.908 8      3136.122          50.062    20029741.740   106995289.917 8      3136.122          49.750    20029752.360    83218598.469 8      2439.206          50.375    20029752.840    83218607.475 8      2439.206          50.562
