     3.05           OBSERVATION DATA    MIXED               RINEX VERSION / TYPE
TPS2RIN 1.0.29.3920 TPS-USER            20240511 194009 UTC PGM / RUN BY / DATE
Win64 build Feb 23, 2024 (c) Topcon Positioning Systems     COMMENT
SRC: 20240509_FA12.tps                                      COMMENT
OPT: -S -v 3.05                                             COMMENT
Observer            Agency                                  OBSERVER / AGENCY
O0M3X53SBGM         TPS HIPER_SR        4.8 HSR Jul,08,2022 REC # / TYPE / VERS
FW: 4.8 HSR Jul,08,2022 p3                                  COMMENT
SN: HiPer SR 1212-12575                                     COMMENT
000                 TPSHIPER_SR     NONE                    ANT # / TYPE
        1.8000        0.0000        0.0000                  ANTENNA: DELTA H/E/N
FA12                                                        MARKER NAME
  5391795.4858 -1596703.8766  3003606.5411                  APPROX POSITION XYZ
  2024     5     9    13    37   53.0000000     GPS         TIME OF FIRST OBS
  2024     5     9    13    52   53.0000000     GPS         TIME OF LAST OBS
     1.000                                                  INTERVAL
   901 EPOCHS                                               COMMENT
G   16 C1C L1C D1C S1C C1W L1W D1W S1W C2W L2W D2W S2W C2X  SYS / # / OBS TYPES
       L2X D2X S2X                                          SYS / # / OBS TYPES
R   16 C1C L1C D1C S1C C1P L1P D1P S1P C2P L2P D2P S2P C2C  SYS / # / OBS TYPES
       L2C D2C S2C                                          SYS / # / OBS TYPES
    15                                                      # OF SATELLITES
   G02   901   901   901   901   901   901   901   901   901PRN / # OF OBS
         901   901   901     0     0     0     0            PRN / # OF OBS
   G03   901   901   901   901   901   901   901   901   901PRN / # OF OBS
         901   901   901   901   901   901   901            PRN / # OF OBS
   G08   901   901   901   901   901   901   901   901   901PRN / # OF OBS
         901   901   901   901   901   901   901            PRN / # OF OBS
   G10   901   901   901   901   901   901   901   901   901PRN / # OF OBS
         901   901   901   901   901   901   901            PRN / # OF OBS
   G16   901   901   901   901   901   901   901   901   901PRN / # OF OBS
         901   901   901     0     0     0     0            PRN / # OF OBS
   G21   901   901   901   901   901   901   901   901   901PRN / # OF OBS
         901   901   901     0     0     0     0            PRN / # OF OBS
   G27   901   901   901   901   901   901   901   901   901PRN / # OF OBS
         901   901   901   901   901   901   901            PRN / # OF OBS
   G32   901   901   901   901   901   901   901   901   901PRN / # OF OBS
         901   901   901   901   901   901   901            PRN / # OF OBS
   R07   901   901   901   901   901   901   901   901   901PRN / # OF OBS
         901   901   901   901   901   901   901            PRN / # OF OBS
   R08   901   901   901   901   901   901   901   901   901PRN / # OF OBS
         901   901   901   901   901   901   901            PRN / # OF OBS
   R11   901   901   901   901   901   901   901   901   901PRN / # OF OBS
         901   901   901   901   901   901   901            PRN / # OF OBS
   R12   901   901   901   901   901   901   901   901   901PRN / # OF OBS
         901   901   901   901   901   901   901            PRN / # OF OBS
   R21   901   901   901   901   901   901   901   901   901PRN / # OF OBS
         901   901   901   901   901   901   901            PRN / # OF OBS
   R22   901   901   901   901   901   901   901   901   901PRN / # OF OBS
         901   901   901   901   901   901   901            PRN / # OF OBS
   R23   687   687   687   687   683   683   683   683     0PRN / # OF OBS
           0     0     0     0     0     0     0            PRN / # OF OBS
G L1C                                                       SYS / PHASE SHIFT
G L1W -0.25000                                              SYS / PHASE SHIFT
G L2W  0.00000                                              SYS / PHASE SHIFT
G L2X  0.25000                                              SYS / PHASE SHIFT
R L1C                                                       SYS / PHASE SHIFT
R L1P -0.25000                                              SYS / PHASE SHIFT
R L2P -0.25000                                              SYS / PHASE SHIFT
R L2C                                                       SYS / PHASE SHIFT
  7 R07  5 R08  6 R11  0 R12 -1 R21  4 R22 -3 R23  3        GLONASS SLOT / FRQ #
                                                            GLONASS COD/PHS/BIS
    18    18  1929     7GPS                                 LEAP SECONDS
                                                            END OF HEADER
> 2024 05 09 13 37 53.0000000  0 15
G02  21633776.900   113686264.382 7      2901.325          45.875    21633775.020   113686264.390 6      2901.325          38.750    21633779.320    88586715.822 6      2260.773          38.750
R08  23669906.620   126751281.451 6      6268.325          39.250    23669905.080   126751281.450 6      6268.325          39.125    23669929.700    98584430.541 7      4875.364          42.187    23669929.540    98584427.552 6      4875.364          41.562
G21  20824846.740   109435307.631 7      1911.040          46.062    20824844.440   109435307.636 6      1911.040          40.250    20824850.060    85274278.092 6      1489.122          40.562
G32  25413838.480   133550630.015 6      3678.926          41.375    25413837.180   133550630.017 5      3678.926          33.937    25413858.960   104065517.587 5      2866.695          33.937    25413859.380   104065526.585 6      2866.695          39.625
R07  21969946.000   117606856.570 7      4942.593          44.250    21969947.300   117606856.598 7      4942.593          42.312    21969966.860    91472094.140 7      3844.239          46.750    21969967.540    91472098.142 7      3844.239          46.312
G08  20829159.120   109457967.996 7      2723.228          47.500    20829157.940   109457968.001 7      2723.228          47.500    20829165.860    85291949.272 8      2121.996          48.250    20829167.000    85291956.276 8      2121.996          49.875
R22  20750682.200   110768548.709 7      1539.040          45.750    20750681.200   110768548.712 7      1539.040          46.875    20750691.560    86153356.399 8      1197.031          49.875    20750691.860    86153357.399 8      1197.031          50.062
R12  20082227.780   107275648.378 8      1336.260          48.750    20082227.080   107275648.374 8      1336.260          49.125    20082239.740    83436667.548 8      1039.313          50.312    20082239.920    83436664.545 8      1039.313          50.812
R23  21896345.340   117130688.179 6      3568.917          41.625    21896346.540   117130688.199 6      3568.917          41.000
G16  22863402.260   120147975.425 7      -762.559          44.812    22863401.780   120147975.425 5      -762.559          33.625    22863413.740    93621833.868 5      -594.202          33.437
R11  22484448.880   120150083.982 7     -1797.809          44.812    22484449.600   120150083.980 7     -1797.809          44.625    22484466.740    93450133.349 7     -1398.296          45.437    22484467.580    93450136.355 7     -1398.296          44.562
G27  21891461.880   115040403.501 7      1023.688          45.437    21891460.460   115040403.509 7      1023.688          45.687    21891470.400    89641905.637 7       797.679          46.250    21891470.740    89641908.641 8       797.679          48.687
G10  23395825.900   122945901.406 7       -37.848          44.937    23395825.840   122945901.411 7       -37.848          42.750    23395835.560    95802035.388 7       -29.492          42.812    23395835.700    95802032.394 7       -29.492          46.125
R21  23195271.480   124122582.602 7       315.492          42.375    23195270.640   124122582.622 6       315.492          40.562    23195287.380    96539846.391 7       245.383          46.437    23195288.000    96539847.396 7       245.383          45.750
G03  23820454.100   125177330.871 6      6225.165          40.875    23820452.780   125177330.868 4      6225.165          29.312    23820471.980    97540831.952 4      4850.778          29.250    23820473.120    97540854.957 7      4850.778          46.062
> 2024 05 09 13 37 54.0000000  0 15
G02  21633224.760   113683363.482 8      2900.504          48.125    21633222.980   113683363.492 6      2900.504          39.000    21633227.400    88584455.382 6      2260.133          38.187
R08  23668735.640   126745013.409 6      6267.785          39.250    23668734.780   126745013.422 6      6267.785          39.125    23668759.040    98579555.410 6      4874.944          41.750    23668759.080    98579552.420 6      4874.944          41.562
G21  20824483.280   109433396.864 7      1910.327          47.812    20824480.860   109433396.869 6      1910.327          40.250    20824486.240    85272789.186 6      1488.566          40.437
G32  25413138.100   133546951.613 6      3678.034          41.312    25413137.340   133546951.615 5      3678.034          33.625    25413159.100   104062651.314 5      2866.000          33.687    25413159.360   104062660.307 6      2866.000          39.625
R07  21969022.620   117601914.380 7      4941.681          42.000    21969024.460   117601914.401 7      4941.681          42.312    21969043.380    91468250.222 7      3843.530          46.937    21969044.280    91468254.223 7      3843.530          46.187
G08  20828640.920   109455245.170 8      2722.434          49.187    20828639.800   109455245.173 8      2722.434          48.500    20828647.720    85289827.587 8      2121.377          48.812    20828648.440    85289834.587 8      2121.377          50.250
R22  20750393.720   110767009.957 8      1538.500          48.375    20750392.920   110767009.966 7      1538.500          47.562    20750403.440    86152159.597 8      1196.611          50.187    20750403.380    86152160.598 8      1196.611          50.625
R12  20081977.680   107274312.840 8      1334.920          50.312    20081977.060   107274312.838 8      1334.920          49.375    20081989.920    83435628.795 8      1038.271          50.312    20081989.740    83435625.794 8      1038.271          51.000
R23  21895678.100   117127119.403 6      3568.350          41.625    21895679.680   117127119.426 6      3568.350          41.000
G16  22863547.520   120148738.349 7      -763.306          45.375    22863546.980   120148738.351 5      -763.306          33.312    22863558.880    93622428.343 5      -594.784          33.500
R11  22484784.980   120151882.160 7     -1798.477          46.562    22484786.040   120151882.161 7     -1798.477          45.187    22484803.520    93451531.930 7     -1398.815          45.500    22484803.820    93451534.929 7     -1398.815          45.562
G27  21891267.240   115039380.149 7      1022.965          45.937    21891265.700   115039380.162 7      1022.965          46.625    21891275.740    89641108.222 7       797.115          46.937    21891276.060    89641111.230 8       797.115          48.687
G10  23395833.540   122945939.757 7       -38.722          45.562    23395833.300   122945939.762 7       -38.722          42.562    23395842.960    95802065.272 7       -30.173          42.687    23395842.840    95802062.281 7       -30.173          45.937
R21  23195212.760   124122267.346 6       315.089          39.500    23195211.000   124122267.361 6       315.089          40.562    23195228.640    96539601.188 7       245.069          46.437    23195229.020    96539602.193 7       245.069          46.062
G03  23819269.780   125171106.129 6      6224.501          41.312    23819268.240   125171106.131 4      6224.501          29.312    23819287.400    97535981.509 4      4850.261          29.250    23819288.540    97536004.519 7      4850.261          46.312
> 2024 05 09 13 37 55.0000000  0 15
G02  21632673.040   113680463.070 7      2900.307          47.062    21632670.960   113680463.075 6      2900.307          38.937    21632675.480    88582195.319 6      2259.980          38.750
R08  23667565.680   126738745.489 6      6268.018          39.250    23667563.560   126738745.490 6      6268.018          37.625    23667588.520    98574680.363 6      4875.125          41.625    23667588.340    98574677.376 6      4875.125          41.562
G21  20824119.540   109431486.622 7      1909.973          47.375    20824117.520   109431486.629 6      1909.973          40.625    20824122.700    85271300.684 6      1488.291          40.687
G32  25412438.260   133543273.674 6      3677.756          41.187    25412437.380   133543273.674 5      3677.756          33.625    25412459.180   104059785.400 5      2865.784          33.687    25412459.640   104059794.403 6      2865.784          39.625
R07  21968099.780   117596972.956 7      4941.191          45.000    21968101.120   117596972.971 7      4941.191          42.312    21968120.300    91464406.904 7      3843.148          47.125    21968120.960    91464410.908 7      3843.148          46.687
G08  20828122.880   109452522.794 8      2722.219          48.125    20828121.760   109452522.796 7      2722.219          47.562    20828129.700    85287706.253 8      2121.210          48.125    20828130.560    85287713.255 8      2121.210          50.250
R22  20750105.420   110765471.526 7      1538.375          47.875    20750104.540   110765471.530 8      1538.375          48.125    20750115.200    86150963.035 8      1196.514          50.437    20750115.160    86150964.036 8      1196.514          50.437
R12  20081728.120   107272978.378 8      1334.007          51.500    20081727.340   107272978.374 8      1334.007          49.500    20081740.020    83434590.876 8      1037.561          50.625    20081739.900    83434587.877 8      1037.561          50.625
R23  21895010.880   117123551.007 7      3568.270          42.187    21895012.720   117123551.027 6      3568.270          41.437
G16  22863692.740   120149501.777 7      -763.675          44.562    22863692.420   120149501.782 5      -763.675          33.312    22863704.200    93623023.212 5      -595.072          33.500
R11  22485122.000   120153680.730 7     -1798.649          45.625    22485122.880   120153680.723 7     -1798.649          45.562    22485140.100    93452930.818 7     -1398.949          45.500    22485140.460    93452933.820 7     -1398.949          45.250
G27  21891072.380   115038357.262 7      1022.692          45.812    21891071.000   115038357.274 7      1022.692          47.062    21891081.180    89640311.167 7       796.903          47.000    21891081.620    89640314.169 8       796.903          48.750
G10  23395840.760   122945978.749 7       -39.187          45.687    23395840.800   122945978.757 7       -39.187          43.875    23395850.480    95802095.655 7       -30.535          43.375    23395850.240    95802092.664 7       -30.535          46.375
R21  23195153.940   124121952.291 6       314.983          39.500    23195151.680   124121952.301 6       314.983          40.437    23195169.720    96539356.137 7       244.986          46.312    23195170.260    96539357.136 7       244.986          46.312
G03  23818085.060   125164881.729 6      6224.266          41.625    23818083.780   125164881.728 4      6224.266          29.312    23818102.940    97531131.329 4      4850.078          29.250    23818104.000    97531154.334 7      4850.078          46.312
> 2024 05 09 13 37 56.0000000  0 15
G02  21632121.100   113677563.113 7      2899.759          47.812    21632119.100   113677563.123 6      2899.759          38.812    21632123.480    88579935.620 6      2259.553          39.000
R08  23666395.180   126732477.629 6      6267.919          38.312    23666394.340   126732477.642 6      6267.919          37.625    23666418.120    98569805.367 6      4875.048          41.750    23666417.740    98569802.379 6      4875.048          40.812
G21  20823756.180   109429576.826 7      1909.502          47.750    20823754.060   109429576.836 6      1909.502          40.562    20823759.280    85269812.536 6      1487.924          40.625
G32  25411738.540   133539596.153 7      3677.305          42.812    25411737.500   133539596.148 5      3677.305          33.750    25411759.340   104056919.808 5      2865.432          33.937    25411760.040   104056928.808 6      2865.432          39.812
R07  21967176.680   117592032.207 7      4940.422          44.500    21967178.180   117592032.225 7      4940.422          43.062    21967197.360    91460564.120 7      3842.550          46.500    21967198.020    91460568.124 7      3842.550          46.750
G08  20827605.080   109449800.817 8      2721.753          49.062    20827603.900   109449800.824 8      2721.753          48.750    20827611.600    85285585.238 8      2120.846          49.125    20827612.660    85285592.240 8      2120.846          50.000
R22  20749817.320   110763933.351 7      1538.067          47.625    20749816.640   110763933.355 7      1538.067          47.875    20749827.020    86149766.675 8      1196.275          49.812    20749827.000    86149767.674 8      1196.275          50.562
R12  20081478.580   107271644.924 8      1332.926          48.437    20081477.700   107271644.917 8      1332.926          50.062    20081490.420    83433553.736 8      1036.720          50.187    20081490.360    83433550.735 8      1036.720          51.375
R23  21894343.660   117119982.926 7      3568.018          43.062    21894345.880   117119982.946 6      3568.018          41.437
G16  22863838.100   120150265.641 7      -764.083          45.062    22863837.620   120150265.643 5      -764.083          33.500    22863849.400    93623618.416 5      -595.389          33.562
R11  22485458.720   120155479.632 7     -1799.047          46.500    22485459.700   120155479.626 7     -1799.047          45.687    22485476.860    93454329.956 7     -1399.258          45.500    22485477.220    93454332.956 7     -1399.258          45.312
G27  21890877.800   115037334.766 7      1022.287          46.937    21890876.580   115037334.776 7      1022.287          47.000    21890886.680    89639514.411 7       796.587          46.875    21890886.780    89639517.416 8       796.587          48.937
G10  23395848.380   122946018.314 7       -39.820          46.000    23395848.620   122946018.317 7       -39.820          43.187    23395857.920    95802126.483 7       -31.029          43.500    23395857.740    95802123.488 7       -31.029          46.125
R21  23195094.860   124121637.357 6       314.705          39.500    23195092.340   124121637.369 6       314.705          40.437    23195110.800    96539111.180 7       244.771          46.437    23195111.040    96539112.185 7       244.771          45.875
G03  23816900.740   125158657.580 6      6223.942          41.812    23816899.360   125158657.577 4      6223.942          29.312    23816918.520    97526281.342 4      4849.825          29.250    23816919.820    97526304.341 7      4849.825          46.437
> 2024 05 09 13 37 57.0000000  0 15
G02  21631569.340   113674663.397 7      2899.579          47.437    21631567.460   113674663.405 6      2899.579          38.500    21631571.800    88577676.102 6      2259.412          39.000
R08  23665224.400   126726209.660 6      6267.916          38.312    23665223.700   126726209.662 6      6267.916          37.625    23665247.420    98564930.274 6      4875.046          41.750    23665247.340    98564927.286 6      4875.046          40.812
G21  20823392.700   109427667.278 7      1909.440          47.250    20823390.820   109427667.285 6      1909.440          40.500    20823395.940    85268324.574 6      1487.875          40.562
G32  25411038.760   133535918.840 7      3677.122          42.187    25411037.680   133535918.839 5      3677.122          33.750    25411059.420   104054054.389 5      2865.290          33.937    25411060.480   104054063.402 6      2865.290          39.812
R07  21966253.520   117587091.904 7      4939.998          44.500    21966254.980   117587091.936 7      4939.998          43.062    21966274.380    91456721.684 7      3842.221          46.000    21966275.160    91456725.689 7      3842.221          45.750
G08  20827087.340   109447079.032 8      2721.695          48.250    20827086.000   109447079.037 7      2721.695          47.312    20827093.740    85283464.364 7      2120.801          47.125    20827094.660    85283471.365 8      2120.801          48.750
R22  20749529.280   110762395.222 7      1538.011          47.062    20749528.440   110762395.222 7      1538.011          47.875    20749538.920    86148570.354 8      1196.231          49.250    20749538.840    86148571.355 8      1196.231          48.250
R12  20081228.960   107270312.278 8      1332.174          49.250    20081228.200   107270312.277 8      1332.174          49.937    20081240.960    83432517.234 8      1036.135          48.812    20081240.860    83432514.235 8      1036.135          49.750
R23  21893676.780   117116415.001 7      3567.749          43.062    21893678.620   117116415.032 7      3567.749          42.062
G16  22863983.680   120151029.744 7      -764.344          45.562    22863982.980   120151029.749 5      -764.344          33.500    22863994.860    93624213.803 5      -595.593          33.562
R11  22485795.140   120157278.657 7     -1799.162          46.562    22485796.140   120157278.661 7     -1799.162          46.812    22485813.560    93455729.204 7     -1399.348          44.937    22485814.020    93455732.206 7     -1399.348          45.125
G27  21890683.520   115036312.464 7      1022.164          46.062    21890682.020   115036312.472 7      1022.164          46.562    21890692.260    89638717.804 7       796.491          46.312    21890692.480    89638720.810 7       796.491          47.812
G10  23395855.880   122946058.240 7       -40.047          45.812    23395856.200   122946058.239 7       -40.047          43.187    23395865.500    95802157.583 7       -31.206          43.250    23395865.580    95802154.590 7       -31.206          46.000
R21  23195035.840   124121322.238 6       315.135          40.312    23195033.300   124121322.250 6       315.135          40.437    23195052.000    96538866.089 7       245.105          45.875    23195052.420    96538867.095 7       245.105          45.312
G03  23815716.340   125152433.456 6      6224.175          41.375    23815715.080   125152433.448 4      6224.175          29.312    23815734.100    97521431.373 4      4850.007          29.500    23815735.460    97521454.372 7      4850.007          46.062
> 2024 05 09 13 37 58.0000000  0 15
G02  21631017.740   113671763.837 8      2899.569          48.375    21631015.540   113671763.844 6      2899.569          38.750    21631020.040    88575416.704 6      2259.404          38.625
R08  23664054.180   126719941.413 6      6268.436          38.312    23664053.620   126719941.420 6      6268.436          37.625    23664076.400    98560054.974 6      4875.450          41.687    23664076.440    98560051.980 6      4875.450          40.625
G21  20823029.420   109425757.923 7      1909.312          47.812    20823027.480   109425757.928 6      1909.312          40.625    20823032.500    85266836.765 6      1487.776          40.375
G32  25410339.220   133532241.673 6      3677.235          41.500    25410337.940   133532241.670 5      3677.235          33.750    25410359.820   104051189.077 5      2865.378          34.000    25410360.440   104051198.088 6      2865.378          39.812
R07  21965330.960   117582151.969 7      4939.861          43.000    21965332.500   117582151.986 7      4939.861          43.250    21965351.580    91452879.518 7      3842.114          46.750    21965352.160    91452883.525 7      3842.114          46.750
G08  20826569.340   109444357.375 8      2721.706          48.625    20826568.040   109444357.378 8      2721.706          48.437    20826575.860    85281343.589 8      2120.810          48.250    20826576.600    85281350.591 8      2120.810          50.250
R22  20749241.080   110760857.025 8      1538.401          48.375    20749240.340   110760857.031 7      1538.401          47.562    20749250.880    86147373.983 8      1196.534          50.000    20749250.720    86147374.986 8      1196.534          50.625
R12  20080979.780   107268980.381 8      1331.583          50.437    20080978.960   107268980.377 8      1331.583          50.937    20080991.540    83431481.310 8      1035.676          50.062    20080991.540    83431478.311 8      1035.676          50.687
R23  21893010.040   117112847.084 7      3568.027          43.062    21893011.000   117112847.104 7      3568.027          42.062
G16  22864129.040   120151793.973 7      -764.194          46.187    22864128.540   120151793.981 5      -764.194          33.375    22864140.200    93624809.294 5      -595.476          33.500
R11  22486131.720   120159077.717 7     -1798.966          47.125    22486133.000   120159077.716 7     -1798.966          46.750    22486150.340    93457128.471 7     -1399.196          45.562    22486150.620    93457131.468 7     -1399.196          45.687
G27  21890488.740   115035290.271 7      1022.232          46.687    21890487.580   115035290.278 7      1022.232          47.562    21890497.680    89637921.289 7       796.544          46.687    21890497.920    89637924.297 8       796.544          49.125
G10  23395863.520   122946098.422 7       -40.197          45.875    23395863.980   122946098.432 7       -40.197          43.312    23395873.120    95802188.903 7       -31.322          43.375    23395873.040    95802185.914 7       -31.322          46.062
R21  23194977.360   124121006.887 6       315.625          40.312    23194974.300   124121006.891 6       315.625          40.312    23194993.260    96538620.803 7       245.486          46.187    23194993.240    96538621.807 7       245.486          45.750
G03  23814531.780   125146209.324 6      6224.272          41.375    23814530.580   125146209.321 4      6224.272          29.875    23814549.700    97516581.402 4      4850.082          29.500    23814551.120    97516604.413 7      4850.082          46.812
> 2024 05 09 13 37 59.0000000  0 15
G02  21630465.980   113668864.524 7      2899.275          47.500    21630463.980   113668864.536 6      2899.275          38.750    21630468.300    88573157.499 6      2259.176          38.812
R08  23662883.160   126713673.042 6      6268.422          38.312    23662884.140   126713673.068 6      6268.422          38.750    23662905.980    98555179.586 6      4875.439          41.625    23662905.860    98555176.591 6      4875.439          40.625
G21  20822666.240   109423848.801 7      1909.042          47.250    20822664.300   109423848.811 6      1909.042          40.250    20822669.320    85265349.139 6      1487.565          40.500
G32  25409639.140   133528564.743 6      3676.881          41.687    25409638.280   133528564.743 5      3676.881          34.437    25409660.240   104048323.953 5      2865.102          34.375    25409660.720   104048332.962 6      2865.102          40.062
R07  21964408.300   117577212.480 7      4939.341          44.250    21964409.580   117577212.500 7      4939.341          43.812    21964429.000    91449037.710 7      3841.710          47.187    21964429.760    91449041.711 7      3841.710          47.437
G08  20826051.520   109441635.900 7      2721.467          47.812    20826050.240   109441635.908 8      2721.467          49.000    20826058.000    85279222.963 8      2120.624          48.687    20826058.920    85279229.965 8      2120.624          50.062
R22  20748952.880   110759318.890 7      1538.224          47.500    20748952.200   110759318.897 8      1538.224          48.187    20748962.820    86146177.658 8      1196.396          49.812    20748962.460    86146178.661 8      1196.396          50.437
R12  20080730.540   107267649.274 8      1330.775          49.875    20080729.720   107267649.264 8      1330.775          50.000    20080742.540    83430445.998 8      1035.047          50.562    20080742.500    83430442.999 8      1035.047          50.875
R23  21892343.640   117109279.300 7      3567.822          43.062    21892344.500   117109279.320 6      3567.822          41.875
G16  22864274.480   120152558.468 7      -764.548          44.562    22864274.060   120152558.478 5      -764.548          33.375    22864285.740    93625404.994 5      -595.752          33.500
R11  22486468.760   120160876.916 7     -1799.252          46.812    22486469.480   120160876.912 7     -1799.252          46.250    22486486.840    93458527.841 7     -1399.418          46.187    22486487.580    93458530.836 7     -1399.418          45.750
G27  21890294.420   115034268.284 7      1021.975          46.250    21890293.080   115034268.289 7      1021.975          47.125    21890303.380    89637124.936 7       796.344          47.250    21890303.180    89637127.942 8       796.344          49.000
G10  23395871.520   122946139.023 7       -40.740          45.250    23395871.800   122946139.025 7       -40.740          43.625    23395881.020    95802220.533 7       -31.746          43.187    23395880.760    95802217.538 7       -31.746          46.187
R21  23194918.380   124120691.369 6       315.621          40.312    23194915.140   124120691.379 6       315.621          40.312    23194934.260    96538375.407 7       245.483          46.437    23194934.080    96538376.408 7       245.483          45.562
G03  23813347.480   125139985.257 6      6224.124          41.125    23813346.200   125139985.251 4      6224.124          29.875    23813365.460    97511731.484 4      4849.967          29.500    23813366.720    97511754.497 7      4849.967          46.500
> 2024 05 09 13 38  0.0000000  0 15
G02  21629914.180   113665965.420 8      2898.743          48.000    21629912.200   113665965.430 6      2898.743          39.562    21629916.480    88570898.464 6      2258.761          39.187
R08  23661712.420   126707404.498 6      6268.385          40.062    23661713.940   126707404.532 6      6268.385          38.750    23661735.360    98550304.061 6      4875.410          41.625    23661734.960    98550301.073 6      4875.410          40.062
G21  20822303.120   109421939.919 8      1908.415          48.062    20822301.120   109421939.924 6      1908.415          40.812    20822306.120    85263861.699 6      1487.076          40.500
G32  25408939.340   133524887.979 6      3676.434          41.312    25408938.680   133524887.976 5      3676.434          34.437    25408960.640   104045458.954 5      2864.754          34.375    25408961.300   104045467.963 6      2864.754          40.062
R07  21963485.560   117572273.425 7      4938.519          44.250    21963487.080   117572273.448 7      4938.519          43.812    21963506.300    91445196.233 7      3841.070          46.812    21963507.240    91445200.240 7      3841.070          46.937
G08  20825533.720   109438914.598 8      2721.018          48.187    20825532.420   109438914.606 8      2721.018          48.625    20825540.220    85277102.472 8      2120.274          48.625    20825541.060    85277109.475 8      2120.274          49.750
R22  20748664.780   110757780.779 7      1537.804          47.250    20748664.040   110757780.786 8      1537.804          48.125    20748674.520    86144981.349 8      1196.070          50.375    20748674.360    86144982.349 8      1196.070          50.125
R12  20080481.640   107266318.915 8      1329.690          50.750    20080480.800   107266318.911 8      1329.690          50.062    20080493.340    83429411.275 8      1034.204          50.125    20080493.540    83429408.274 8      1034.204          50.875
R23  21891676.740   117105711.610 7      3567.424          42.437    21891678.020   117105711.625 6      3567.424          41.875
G16  22864419.820   120153323.155 7      -765.028          46.687    22864419.580   120153323.162 5      -765.028          33.437    22864431.400    93626000.839 5      -596.126          33.437
R11  22486805.420   120162676.187 7     -1799.631          46.187    22486806.220   120162676.188 7     -1799.631          45.562    22486823.640    93459927.278 7     -1399.713          45.437    22486824.220    93459930.280 7     -1399.713          44.937
G27  21890099.860   115033246.453 7      1021.505          46.687    21890098.500   115033246.463 7      1021.505          46.625    21890108.960    89636328.706 7       795.978          46.812    21890108.700    89636331.710 8       795.978          48.875
G10  23395879.580   122946179.917 7       -41.373          45.812    23395879.620   122946179.917 7       -41.373          43.937    23395888.800    95802252.395 7       -32.239          43.375    23395889.040    95802249.402 7       -32.239          46.500
R21  23194859.620   124120375.734 6       315.317          40.250    23194856.920   124120375.735 6       315.317          40.312    23194875.340    96538129.890 7       245.246          46.875    23194875.140    96538130.891 7       245.246          45.562
G03  23812163.160   125133761.235 7      6223.660          42.187    23812162.080   125133761.229 4      6223.660          29.875    23812181.180    97506881.598 4      4849.605          29.500    23812182.220    97506904.607 7      4849.605          46.500
> 2024 05 09 13 38  1.0000000  0 15
G02  21629362.500   113663066.624 7      2898.792          47.750    21629360.620   113663066.635 6      2898.792          38.750    21629365.020    88568639.664 6      2258.799          38.875
R08  23660542.040   126701135.916 6      6268.794          40.062    23660543.380   126701135.960 6      6268.794          38.750    23660564.760    98545428.497 6      4875.728          41.500    23660564.060    98545425.494 6      4875.728          40.062
G21  20821939.740   109420031.333 8      1908.524          48.187    20821937.720   109420031.335 6      1908.524          40.437    20821942.820    85262374.485 6      1487.161          40.187
G32  25408239.520   133521211.509 6      3676.474          41.125    25408239.060   133521211.498 5      3676.474          34.500    25408261.220   104042594.178 5      2864.785          34.437    25408262.140   104042603.185 6      2864.785          40.500
R07  21962562.960   117567334.913 7      4938.352          44.125    21962565.020   117567334.925 7      4938.352          43.875    21962583.620    91441355.176 7      3840.941          46.875    21962584.660    91441359.184 7      3840.941          46.437
G08  20825015.720   109436193.565 8      2721.067          48.750    20825014.680   109436193.572 8      2721.067          48.625    20825022.460    85274982.184 8      2120.312          48.687    20825023.380    85274989.189 8      2120.312          50.062
R22  20748376.560   110756242.775 8      1538.023          48.125    20748376.040   110756242.774 7      1538.023          47.687    20748386.600    86143785.118 8      1196.240          49.875    20748386.340    86143786.113 8      1196.240          49.625
R12  20080232.620   107264989.461 8      1329.112          49.625    20080231.780   107264989.454 8      1329.112          50.062    20080244.340    83428377.247 8      1033.753          49.562    20080244.500    83428374.248 8      1033.753          50.125
R23  21891009.800   117102144.123 7      3567.581          43.312    21891011.120   117102144.141 7      3567.581          42.062
G16  22864565.300   120154088.148 7      -765.092          45.562    22864564.900   120154088.153 5      -765.092          33.437    22864576.980    93626596.922 5      -596.176          33.437
R11  22487142.420   120164475.663 7     -1799.450          46.125    22487142.660   120164475.656 7     -1799.450          45.812    22487160.520    93461326.863 7     -1399.572          45.312    22487161.120    93461329.858 7     -1399.572          44.875
G27  21889905.540   115032224.885 7      1021.583          46.312    21889904.340   115032224.890 7      1021.583          46.937    21889914.540    89635532.671 7       796.039          46.687    21889914.580    89635535.675 8       796.039          49.000
G10  23395887.360   122946221.246 7       -41.390          46.062    23395887.460   122946221.250 7       -41.390          43.687    23395896.640    95802284.595 7       -32.252          43.500    23395896.600    95802281.600 7       -32.252          46.500
R21  23194801.000   124120060.015 6       315.898          40.250    23194798.060   124120060.004 6       315.898          40.125    23194816.480    96537884.321 7       245.698          46.500    23194816.220    96537885.316 7       245.698          45.625
G03  23810978.740   125127537.321 7      6224.037          42.375    23810977.740   125127537.315 4      6224.037          29.875    23810996.880    97502031.791 4      4849.899          29.687    23810997.940    97502054.792 7      4849.899          46.812
> 2024 05 09 13 38  2.0000000  0 15
G02  21628811.120   113660168.147 8      2898.285          48.125    21628809.020   113660168.154 6      2898.285          38.812    21628813.460    88566381.107 6      2258.404          39.125
R08  23659371.340   126694867.320 6      6268.659          40.062    23659373.060   126694867.357 6      6268.659          38.750    23659394.080    98540552.917 6      4875.623          41.937    23659393.620    98540549.912 6      4875.623          40.062
G21  20821576.640   109418123.066 7      1907.988          47.500    20821574.660   109418123.071 6      1907.988          40.625    20821579.700    85260887.528 6      1486.744          40.437
G32  25407540.560   133517535.312 6      3676.009          40.812    25407539.520   133517535.306 5      3676.009          34.250    25407561.620   104039729.628 5      2864.422          34.437    25407562.320   104039738.647 6      2864.422          40.500
R07  21961640.420   117562396.961 7      4937.529          44.562    21961642.180   117562396.973 7      4937.529          43.625    21961661.280    91437514.557 7      3840.301          47.187    21961662.240    91437518.567 7      3840.301          47.125
G08  20824497.860   109433472.796 8      2720.582          48.312    20824496.980   109433472.806 8      2720.582          48.625    20824504.640    85272862.105 8      2119.934          48.500    20824505.760    85272869.107 8      2119.934          50.187
R22  20748088.640   110754704.886 8      1537.660          48.062    20748088.020   110754704.887 7      1537.660          47.937    20748098.420    86142588.982 8      1195.958          50.250    20748098.160    86142589.977 8      1195.958          49.937
R12  20079983.920   107263660.916 8      1328.010          50.375    20079983.120   107263660.909 8      1328.010          50.375    20079995.620    83427343.932 8      1032.897          50.375    20079995.720    83427340.933 8      1032.897          51.187
R23  21890342.720   117098576.818 7      3567.271          43.312    21890344.200   117098576.836 7      3567.271          42.062
G16  22864710.900   120154853.421 7      -765.516          45.937    22864710.520   120154853.428 5      -765.516          33.312    22864722.620    93627193.226 5      -596.506          33.312
R11  22487479.280   120166275.337 7     -1799.893          47.062    22487479.660   120166275.333 7     -1799.893          45.437    22487497.440    93462726.597 7     -1399.917          45.812    22487497.580    93462729.592 7     -1399.917          45.000
G27  21889711.040   115031203.574 7      1021.157          47.187    21889709.980   115031203.581 7      1021.157          47.000    21889720.240    89634736.844 7       795.707          46.937    21889720.320    89634739.852 8       795.707          49.250
G10  23395895.040   122946263.018 7       -42.090          44.687    23395895.480   122946263.020 7       -42.090          43.875    23395904.680    95802317.143 7       -32.797          43.687    23395904.780    95802314.152 7       -32.797          46.250
R21  23194742.000   124119744.300 6       315.581          40.250    23194739.000   124119744.291 6       315.581          40.125    23194757.760    96537638.758 7       245.452          46.812    23194757.240    96537639.751 7       245.452          46.250
G03  23809794.640   125121313.543 6      6223.513          41.562    23809793.420   125121313.538 4      6223.513          29.937    23809812.560    97497182.096 4      4849.490          29.687    23809814.140    97497205.107 7      4849.490          46.625
> 2024 05 09 13 38  3.0000000  0 15
G02  21628259.460   113657270.089 8      2897.793          48.062    21628257.420   113657270.097 6      2897.793          38.812    21628261.980    88564122.881 6      2258.020          38.937
R08  23658200.200   126688598.778 6      6268.457          40.625    23658202.880   126688598.823 6      6268.457          39.750    23658223.820    98535677.388 6      4875.467          41.750    23658222.900    98535674.394 6      4875.467          40.062
G21  20821213.600   109416215.247 7      1907.452          47.875    20821211.580   109416215.254 6      1907.452          40.875    20821216.720    85259400.913 6      1486.326          40.125
G32  25406841.020   133513859.520 6      3675.671          40.500    25406840.140   133513859.514 5      3675.671          34.250    25406862.220   104036865.386 5      2864.159          34.375    25406863.140   104036874.401 6      2864.159          40.687
R07  21960717.840   117557459.653 7      4936.914          44.000    21960719.940   117557459.668 7      4936.914          43.437    21960739.260    91433674.450 7      3839.822          47.125    21960739.920    91433678.459 7      3839.822          46.625
G08  20823980.260   109430752.404 8      2720.164          48.937    20823979.420   109430752.411 8      2720.164          48.687    20823986.980    85270742.317 8      2119.609          48.562    20823988.060    85270749.319 8      2119.609          50.187
R22  20747800.520   110753167.210 7      1537.477          47.812    20747799.840   110753167.211 7      1537.477          47.687    20747810.280    86141393.009 8      1195.815          50.250    20747809.980    86141394.003 8      1195.815          50.125
R12  20079735.380   107262333.353 8      1326.977          51.125    20079734.780   107262333.346 8      1326.977          50.500    20079747.060    83426311.381 8      1032.093          50.125    20079747.260    83426308.384 8      1032.093          50.750
R23  21889675.660   117095009.840 7      3566.772          42.437    21889677.720   117095009.863 6      3566.772          41.562
G16  22864856.880   120155619.116 7      -765.927          45.812    22864856.260   120155619.126 5      -765.927          33.312    22864868.140    93627789.859 5      -596.826          33.312
R11  22487815.940   120168075.311 7     -1800.218          45.437    22487816.120   120168075.304 7     -1800.218          45.375    22487833.840    93464126.581 7     -1400.170          46.000    22487834.480    93464129.578 7     -1400.170          44.875
G27  21889516.780   115030182.639 7      1020.755          46.250    21889515.700   115030182.646 7      1020.755          47.250    21889525.900    89633941.308 7       795.394          47.125    21889526.100    89633944.312 8       795.394          49.250
G10  23395902.940   122946305.316 7       -42.604          46.187    23395903.420   122946305.320 7       -42.604          43.437    23395912.820    95802350.102 7       -33.198          43.875    23395912.860    95802347.109 7       -33.198          46.312
R21  23194682.700   124119428.614 6       315.653          40.250    23194680.640   124119428.607 6       315.653          40.125    23194698.780    96537393.222 7       245.508          46.937    23194698.260    96537394.220 7       245.508          46.250
G03  23808610.020   125115089.986 7      6223.297          42.250    23808609.200   125115089.983 4      6223.297          29.937    23808628.240    97492332.573 4      4849.323          29.687    23808629.660    97492355.584 7      4849.323          46.875
> 2024 05 09 13 38  4.0000000  0 15
G02  21627708.080   113654372.607 7      2897.395          47.625    21627705.980   113654372.615 6      2897.395          38.750    21627710.560    88561865.103 6      2257.710          38.750
R08  23657029.860   126682330.429 6      6268.489          40.625    23657032.940   126682330.476 6      6268.489          39.750    23657053.000    98530802.001 6      4875.491          41.750    23657051.800    98530798.999 6      4875.491          40.125
G21  20820850.760   109414307.997 7      1907.059          47.812    20820848.720   109414308.002 6      1907.059          40.375    20820853.920    85257914.743 6      1486.020          40.312
G32  25406141.640   133510184.282 6      3675.234          40.750    25406140.720   133510184.276 5      3675.234          34.187    25406162.840   104034001.579 5      2863.819          34.125    25406163.660   104034010.598 6      2863.819          40.687
R07  21959795.720   117552523.192 7      4936.215          45.250    21959797.980   117552523.204 7      4936.215          43.437    21959816.920    91429834.984 7      3839.279          47.500    21959817.640    91429838.991 7      3839.279          47.312
G08  20823462.620   109428032.563 8      2719.702          48.937    20823461.880   109428032.565 8      2719.702          48.562    20823469.520    85268622.954 8      2119.248          48.812    20823470.480    85268629.956 8      2119.248          50.062
R22  20747512.840   110751629.935 7      1537.176          47.187    20747511.600   110751629.930 7      1537.176          47.250    20747522.280    86140197.351 8      1195.581          49.625    20747522.180    86140198.344 8      1195.581          50.062
R12  20079487.400   107261006.942 8      1326.006          49.437    20079486.500   107261006.940 8      1326.006          49.812    20079498.600    83425279.726 8      1031.338          50.375    20079498.960    83425276.729 8      1031.338          50.750
R23  21889008.780   117091443.311 7      3566.442          42.437    21889011.280   117091443.342 6      3566.442          41.562
G16  22865002.660   120156385.395 7      -766.514          46.250    22865002.100   120156385.403 5      -766.514          33.375    22865014.020    93628386.945 5      -597.284          33.437
R11  22488153.120   120169875.776 7     -1800.564          47.500    22488153.100   120169875.775 7     -1800.564          45.125    22488170.820    93465526.944 7     -1400.439          45.500    22488171.580    93465529.946 7     -1400.439          44.875
G27  21889322.800   115029162.271 7      1020.221          47.125    21889321.480   115029162.276 7      1020.221          46.625    21889331.760    89633146.209 7       794.978          46.937    21889332.220    89633149.210 8       794.978          49.000
G10  23395911.020   122946348.336 7       -43.261          46.562    23395911.620   122946348.338 7       -43.261          43.625    23395920.980    95802383.620 7       -33.710          43.812    23395920.880    95802380.633 7       -33.710          46.562
R21  23194623.900   124119113.144 6       315.458          39.375    23194621.900   124119113.138 6       315.458          39.750    23194639.700    96537147.847 7       245.356          46.937    23194639.340    96537148.844 7       245.356          45.937
G03  23807425.980   125108866.863 7      6222.907          43.250    23807425.040   125108866.863 4      6222.907          29.937    23807444.080    97487483.388 4      4849.018          29.687    23807445.420    97487506.389 7      4849.018          46.500
> 2024 05 09 13 38  5.0000000  0 15
G02  21627156.940   113651475.430 8      2896.925          48.125    21627154.820   113651475.437 6      2896.925          38.937    21627159.360    88559607.564 6      2257.344          39.500
R08  23655859.600   126676062.018 6      6268.394          40.625    23655862.180   126676062.079 6      6268.394          39.750    23655882.440    98525926.579 7      4875.418          42.062    23655881.700    98525923.574 6      4875.418          40.125
G21  20820487.680   109412401.076 8      1906.675          48.312    20820485.760   109412401.079 6      1906.675          40.437    20820491.080    85256428.830 6      1485.721          40.312
G32  25405442.100   133506509.346 6      3674.771          40.312    25405441.340   133506509.349 5      3674.771          34.187    25405463.480   104031138.013 5      2863.458          34.125    25405464.120   104031147.032 6      2863.458          40.875
R07  21958874.100   117547587.220 7      4935.619          46.187    21958875.800   117547587.240 7      4935.619          43.625    21958894.980    91425995.920 7      3838.815          47.250    21958896.040    91425999.929 7      3838.815          47.187
G08  20822945.300   109425312.956 8      2719.385          50.000    20822944.400   109425312.961 8      2719.385          48.937    20822952.080    85266503.780 8      2119.001          48.687    20822952.980    85266510.786 8      2119.001          49.937
R22  20747224.760   110750092.742 8      1537.061          48.312    20747223.920   110750092.753 8      1537.061          48.250    20747234.500    86139001.769 8      1195.492          50.500    20747234.100    86139002.762 8      1195.492          50.187
R12  20079238.860   107259681.401 8      1325.051          50.062    20079238.460   107259681.405 8      1325.051          50.312    20079250.580    83424248.751 8      1030.596          49.750    20079250.720    83424245.755 8      1030.596          50.875
R23  21888341.580   117087876.945 7      3566.236          42.937    21888343.940   117087876.984 6      3566.236          41.625
G16  22865148.540   120157151.944 7      -766.758          46.062    22865147.820   120157151.952 5      -766.758          33.375    22865159.760    93628984.242 5      -597.474          33.437
R11  22488490.420   120171676.423 7     -1800.845          46.812    22488489.540   120171676.405 7     -1800.845          46.000    22488508.160    93466927.433 7     -1400.657          45.062    22488507.980    93466930.434 7     -1400.657          45.125
G27  21889128.580   115028142.119 7      1019.931          46.437    21889127.520   115028142.129 7      1019.931          47.437    21889137.720    89632351.287 7       794.752          46.750    21889138.220    89632354.291 8       794.752          49.062
G10  23395919.420   122946391.785 7       -43.694          45.625    23395919.660   122946391.779 7       -43.694          44.062    23395929.360    95802417.466 7       -34.047          43.687    23395929.100    95802414.479 7       -34.047          46.562
R21  23194564.540   124118797.506 6       315.756          39.375    23194563.340   124118797.503 6       315.756          39.750    23194580.980    96536902.351 7       245.588          46.937    23194580.080    96536903.346 7       245.588          46.437
G03  23806241.860   125102643.808 6      6222.948          41.500    23806241.040   125102643.805 4      6222.948          29.937    23806259.860    97482634.257 5      4849.050          30.000    23806261.140    97482657.266 7      4849.050          46.937
> 2024 05 09 13 38  6.0000000  0 15
G02  21626605.620   113648578.644 8      2896.604          48.062    21626603.520   113648578.649 6      2896.604          38.500    21626608.140    88557350.330 6      2257.094          38.750
R08  23654688.800   126669793.639 6      6268.442          40.500    23654691.700   126669793.684 6      6268.442          40.125    23654711.800    98521051.165 6      4875.455          41.750    23654710.800    98521048.156 6      4875.455          39.937
G21  20820124.800   109410494.568 7      1906.271          47.687    20820123.040   109410494.570 6      1906.271          40.687    20820128.180    85254943.237 6      1485.406          40.625
G32  25404742.700   133502834.776 6      3674.492          39.875    25404742.160   133502834.768 5      3674.492          34.187    25404764.320   104028274.724 5      2863.240          34.312    25404764.980   104028283.743 6      2863.240          40.875
R07  21957952.200   117542651.864 7      4935.094          45.562    21957954.200   117542651.881 7      4935.094          44.312    21957973.000    91422157.316 7      3838.407          47.562    21957974.060    91422161.327 7      3838.407          47.437
G08  20822427.820   109422593.727 8      2719.047          49.125    20822427.080   109422593.730 8      2719.047          48.750    20822434.640    85264384.900 8      2118.738          48.687    20822435.660    85264391.905 8      2118.738          50.437
R22  20746936.900   110748555.787 7      1536.914          47.937    20746935.760   110748555.793 7      1536.914          47.875    20746946.540    86137806.355 8      1195.377          50.500    20746946.300    86137807.352 8      1195.377          50.437
R12  20078990.960   107258356.830 8      1324.146          50.250    20078990.560   107258356.828 8      1324.146          50.750    20079002.500    83423218.525 8      1029.891          50.375    20079003.060    83423215.526 8      1029.891          51.062
R23  21887674.860   117084310.889 7      3566.007          42.312    21887677.460   117084310.914 6      3566.007          41.625
G16  22865294.880   120157918.901 7      -767.130          45.812    22865293.900   120157918.906 5      -767.130          33.187    22865305.760    93629581.856 5      -597.764          33.187
R11  22488827.640   120173477.345 7     -1801.085          46.250    22488826.760   120173477.333 7     -1801.085          45.750    22488845.020    93468328.148 7     -1400.844          45.062    22488845.080    93468331.153 7     -1400.844          45.062
G27  21888934.660   115027122.343 7      1019.609          46.562    21888933.420   115027122.350 7      1019.609          47.125    21888943.580    89631556.650 7       794.501          47.062    21888944.140    89631559.658 8       794.501          49.312
G10  23395928.000   122946435.738 7       -44.162          45.000    23395928.160   122946435.737 7       -44.162          43.875    23395937.880    95802451.724 7       -34.412          43.937    23395937.360    95802448.730 7       -34.412          46.437
R21  23194505.300   124118481.935 6       315.538          41.187    23194504.860   124118481.929 6       315.538          39.750    23194522.180    96536656.896 7       245.419          46.812    23194521.480    96536657.891 7       245.419          46.687
G03  23805057.620   125096421.016 7      6222.700          42.562    23805056.820   125096421.015 5      6222.700          30.312    23805075.740    97477785.332 5      4848.857          30.000    23805077.020    97477808.335 7      4848.857          46.875
> 2024 05 09 13 38  7.0000000  0 15
G02  21626054.360   113645681.942 8      2896.615          48.250    21626052.280   113645681.950 6      2896.615          39.250    21626056.880    88555093.160 6      2257.103          38.687
R08  23653518.740   126663524.956 6      6268.771          40.500    23653521.720   126663524.992 6      6268.771          40.125    23653541.240    98516175.510 6      4875.711          41.750    23653539.860    98516172.486 6      4875.711          39.937
G21  20819762.120   109408588.141 8      1906.346          48.125    20819760.280   109408588.140 6      1906.346          40.312    20819765.420    85253457.712 6      1485.465          40.125
G32  25404043.760   133499160.266 6      3674.495          39.687    25404042.900   133499160.260 5      3674.495          34.500    25404064.940   104025411.490 5      2863.243          34.312    25404065.860   104025420.513 6      2863.243          40.687
R07  21957030.400   117537716.788 7      4934.956          45.750    21957032.580   117537716.814 7      4934.956          43.875    21957051.400    91418318.940 7      3838.299          47.750    21957051.960    91418322.946 7      3838.299          46.875
G08  20821910.500   109419874.533 8      2719.125          49.625    20821909.540   109419874.538 8      2719.125          48.562    20821917.200    85262266.045 8      2118.799          48.687    20821918.080    85262273.048 8      2118.799          50.312
R22  20746648.940   110747018.714 7      1537.145          47.625    20746648.220   110747018.718 7      1537.145          47.562    20746658.540    86136610.846 8      1195.558          50.437    20746658.480    86136611.843 8      1195.558          50.562
R12  20078743.020   107257032.908 8      1323.570          50.625    20078742.780   107257032.912 8      1323.570          50.375    20078754.700    83422188.808 8      1029.443          50.250    20078754.940    83422185.807 8      1029.443          50.625
R23  21887008.140   117080744.785 7      3565.988          42.312    21887009.980   117080744.816 6      3565.988          41.187
G16  22865440.760   120158685.923 7      -767.100          45.875    22865439.840   120158685.931 5      -767.100          33.187    22865451.760    93630179.522 5      -597.740          33.187
R11  22489164.180   120175278.219 7     -1800.911          46.437    22489164.020   120175278.217 7     -1800.911          45.562    22489182.180    93469728.832 7     -1400.708          45.687    22489182.180    93469731.837 7     -1400.708          45.375
G27  21888740.480   115026102.598 7      1019.692          45.687    21888739.380   115026102.608 7      1019.692          47.312    21888749.700    89630762.041 7       794.565          47.375    21888750.060    89630765.045 8       794.565          49.312
G10  23395936.260   122946479.914 7       -44.274          45.562    23395936.540   122946479.919 7       -44.274          44.062    23395946.200    95802486.143 7       -34.499          43.875    23395946.020    95802483.150 7       -34.499          46.625
R21  23194446.740   124118166.075 6       316.013          41.187    23194445.380   124118166.055 6       316.013          40.625    23194462.980    96536411.213 7       245.788          47.125    23194462.600    96536412.201 7       245.788          46.625
G03  23803873.620   125090198.118 7      6222.957          42.562    23803872.720   125090198.118 5      6222.957          30.312    23803891.500    97472936.321 5      4849.058          30.000    23803892.740    97472959.320 7      4849.058          46.875
> 2024 05 09 13 38  8.0000000  0 15
G02  21625503.180   113642785.661 8      2895.930          48.000    21625501.160   113642785.666 6      2895.930          38.875    21625505.820    88552836.320 6      2256.568          39.125
R08  23652347.860   126657256.307 6      6268.420          40.500    23652350.340   126657256.356 6      6268.420          40.125    23652371.060    98511299.902 6      4875.438          41.875    23652369.740    98511296.887 6      4875.438          39.875
G21  20819399.420   109406682.137 7      1905.638          47.250    20819397.680   109406682.144 6      1905.638          40.125    20819402.780    85251972.518 6      1484.913          40.125
G32  25403345.060   133495486.189 6      3673.668          40.125    25403343.720   133495486.184 5      3673.668          34.500    25403365.820   104022548.583 5      2862.599          34.500    25403366.840   104022557.592 6      2862.599          40.687
R07  21956108.680   117532782.364 7      4933.966          44.500    21956111.120   117532782.395 7      4933.966          43.875    21956129.400    91414481.069 7      3837.529          47.062    21956130.220    91414485.072 7      3837.529          47.000
G08  20821393.160   109417155.709 8      2718.442          49.187    20821392.220   109417155.716 8      2718.442          48.312    20821399.780    85260147.483 8      2118.266          48.562    20821400.680    85260154.490 8      2118.266          50.437
R22  20746360.900   110745481.882 7      1536.489          47.812    20746360.460   110745481.883 7      1536.489          47.625    20746370.680    86135415.530 8      1195.047          50.000    20746370.680    86135416.529 8      1195.047          50.875
R12  20078495.500   107255709.998 8      1322.205          50.500    20078495.220   107255710.004 8      1322.205          49.812    20078507.020    83421159.872 8      1028.381          49.812    20078507.300    83421156.877 8      1028.381          50.812
R23  21886341.500   117077178.981 6      3565.405          41.750    21886343.000   117077179.004 6      3565.405          41.187
G16  22865586.720   120159453.366 7      -767.776          44.875    22865585.620   120159453.374 5      -767.776          32.687    22865597.860    93630777.517 5      -598.267          33.187
R11  22489501.280   120177079.379 7     -1801.542          46.500    22489500.880   120177079.396 7     -1801.542          45.625    22489519.300    93471129.753 7     -1401.199          45.375    22489519.400    93471132.756 7     -1401.199          45.187
G27  21888546.580   115025083.229 7      1019.018          46.562    21888545.340   115025083.239 7      1019.018          46.937    21888555.700    89629967.726 7       794.040          47.187    21888556.320    89629970.727 8       794.040          49.687
G10  23395944.800   122946524.642 7       -45.144          46.000    23395944.880   122946524.645 7       -45.144          44.062    23395954.720    95802520.988 7       -35.177          44.062    23395954.480    95802517.999 7       -35.177          46.437
R21  23194387.540   124117850.287 6       315.594          41.187    23194387.060   124117850.273 6       315.594          40.625    23194404.420    96536165.596 7       245.462          47.125    23194403.580    96536166.587 7       245.462          46.687
G03  23802689.560   125083975.470 6      6222.354          41.375    23802688.520   125083975.467 5      6222.354          30.312    23802707.380    97468087.500 5      4848.588          30.375    23802708.360    97468110.503 7      4848.588          46.812
> 2024 05 09 13 38  9.0000000  0 15
G02  21624952.280   113639889.942 7      2895.695          47.750    21624950.260   113639889.952 6      2895.695          39.250    21624954.700    88550579.917 6      2256.386          39.375
R08  23651177.140   126650987.888 6      6268.577          40.500    23651180.160   126650987.943 6      6268.577          39.875    23651200.280    98506424.476 6      4875.560          41.875    23651198.920    98506421.460 6      4875.560          39.875
G21  20819036.620   109404776.732 8      1905.356          48.000    20819035.120   109404776.737 6      1905.356          40.562    20819040.100    85250487.785 6      1484.693          40.812
G32  25402645.780   133491812.599 6      3673.630          40.312    25402644.640   133491812.591 5      3673.630          34.312    25402666.860   104019686.054 5      2862.569          34.500    25402667.760   104019695.085 6      2862.569          40.687
R07  21955186.780   117527848.715 7      4933.494          45.312    21955189.440   117527848.746 7      4933.494          43.937    21955207.860    91410643.806 7      3837.162          47.062    21955208.420    91410647.809 7      3837.162          47.437
G08  20820875.820   109414437.426 8      2718.205          49.875    20820875.020   109414437.426 8      2718.205          48.437    20820882.520    85258029.335 8      2118.082          48.062    20820883.480    85258036.339 8      2118.082          50.375
R22  20746072.980   110743945.391 8      1536.523          48.625    20746072.800   110743945.397 8      1536.523          48.500    20746082.800    86134220.485 8      1195.073          50.437    20746082.920    86134221.485 8      1195.073          50.125
R12  20078248.240   107254388.247 8      1321.378          51.562    20078247.900   107254388.254 8      1321.378          50.312    20078259.600    83420131.842 8      1027.738          49.312    20078259.700    83420128.845 8      1027.738          50.000
R23  21885675.360   117073613.647 6      3565.167          41.750    21885676.520   117073613.659 6      3565.167          41.000
G16  22865732.880   120160221.374 7      -768.098          45.000    22865731.760   120160221.379 5      -768.098          32.687    22865744.100    93631375.950 5      -598.518          32.812
R11  22489838.020   120178881.035 7     -1801.662          47.625    22489838.320   120178881.047 7     -1801.662          45.875    22489856.540    93472531.031 7     -1401.293          45.187    22489856.840    93472534.034 7     -1401.293          45.312
G27  21888352.460   115024064.385 7      1018.806          46.375    21888351.520   115024064.395 7      1018.806          47.250    21888361.800    89629173.819 7       793.875          47.125    21888362.280    89629176.825 8       793.875          49.125
G10  23395953.540   122946570.064 7       -45.603          46.000    23395953.520   122946570.067 7       -45.603          44.125    23395963.460    95802556.379 7       -35.535          44.187    23395963.140    95802553.388 7       -35.535          47.000
R21  23194328.800   124117534.732 6       315.685          41.000    23194328.320   124117534.729 6       315.685          40.937    23194345.220    96535920.166 7       245.533          46.875    23194344.840    96535921.157 7       245.533          47.000
G03  23801505.640   125077753.206 7      6222.271          42.562    23801504.400   125077753.203 5      6222.271          30.625    23801523.380    97463238.985 5      4848.523          30.375    23801524.560    97463261.977 7      4848.523          46.312
> 2024 05 09 13 38 10.0000000  0 15
G02  21624401.080   113636994.460 7      2895.278          47.812    21624399.240   113636994.465 6      2895.278          38.875    21624403.740    88548323.697 6      2256.061          38.875
R08  23650006.680   126644719.359 6      6268.521          40.562    23650008.520   126644719.409 6      6268.521          39.875    23650029.780    98501548.955 7      4875.516          42.062    23650028.520    98501545.936 6      4875.516          40.812
G21  20818674.320   109402871.556 7      1904.947          47.750    20818672.620   109402871.555 6      1904.947          40.812    20818677.540    85249003.234 6      1484.375          40.875
G32  25401946.800   133488139.266 6      3673.019          40.750    25401945.780   133488139.263 5      3673.019          34.312    25401967.780   104016823.737 5      2862.092          34.312    25401968.460   104016832.764 6      2862.092          40.562
R07  21954265.460   117522915.516 7      4932.874          45.750    21954267.980   117522915.542 7      4932.874          44.562    21954286.140    91406806.884 7      3836.680          47.125    21954286.920    91406810.889 7      3836.680          47.000
G08  20820358.580   109411719.304 8      2717.907          49.750    20820357.740   109411719.309 8      2717.907          49.625    20820365.320    85255911.323 8      2117.850          49.250    20820366.320    85255918.328 8      2117.850          50.312
R22  20745785.160   110742408.927 8      1536.323          49.062    20745784.920   110742408.938 8      1536.323          48.437    20745795.100    86133025.462 8      1194.918          50.062    20745795.100    86133026.467 8      1194.918          50.125
R12  20078000.620   107253067.282 8      1320.485          51.250    20078000.560   107253067.283 8      1320.485          50.875    20078012.340    83419104.420 8      1027.044          49.937    20078012.380    83419101.421 8      1027.044          50.250
R23  21885008.940   117070048.378 7      3565.152          42.437    21885010.180   117070048.387 6      3565.152          41.000
G16  22865879.260   120160989.571 7      -768.350          44.312    22865877.960   120160989.578 5      -768.350          32.687    22865890.140    93631974.535 5      -598.715          32.812
R11  22490175.240   120180682.796 7     -1801.991          47.875    22490175.600   120180682.797 7     -1801.991          46.125    22490193.660    93473932.390 7     -1401.549          45.812    22490193.700    93473935.400 7     -1401.549          45.375
G27  21888158.720   115023045.712 7      1018.538          47.062    21888157.760   115023045.717 7      1018.538          47.375    21888167.980    89628380.044 7       793.666          47.062    21888168.640    89628383.050 8       793.666          49.687
G10  23395962.220   122946615.815 7       -46.028          46.375    23395962.280   122946615.817 7       -46.028          44.437    23395972.240    95802592.029 7       -35.866          43.875    23395972.040    95802589.038 7       -35.866          46.625
R21  23194269.800   124117219.011 6       315.675          41.000    23194268.640   124117219.002 6       315.675          40.937    23194286.460    96535674.593 7       245.525          47.750    23194286.020    96535675.582 7       245.525          47.500
G03  23800321.440   125071530.963 7      6222.093          42.125    23800320.540   125071530.958 5      6222.093          30.625    23800339.420    97458390.484 5      4848.384          30.375    23800340.720    97458413.491 7      4848.384          46.812
> 2024 05 09 13 38 11.0000000  0 15
G02  21623850.200   113634099.421 7      2894.618          47.312    21623848.300   113634099.423 6      2894.618          38.625    21623852.820    88546067.821 6      2255.547          38.562
R08  23648836.160   126638450.873 6      6268.300          40.562    23648837.800   126638450.926 6      6268.300          39.875    23648859.260    98496673.477 6      4875.344          41.875    23648858.460    98496670.462 6      4875.344          40.250
G21  20818311.840   109400966.813 8      1904.453          48.000    20818310.220   109400966.815 6      1904.453          40.250    20818315.080    85247519.017 6      1483.990          40.062
G32  25401247.660   133484466.296 6      3672.734          40.625    25401246.600   133484466.296 5      3672.734          34.000    25401268.780   104013961.694 5      2861.871          33.812    25401270.400   104013970.720 6      2861.871          40.562
R07  21953344.120   117517983.011 7      4931.973          45.750    21953346.140   117517983.036 7      4931.973          44.125    21953364.900    91402970.503 7      3835.979          46.750    21953365.400    91402974.512 7      3835.979          46.625
G08  20819841.560   109409001.594 8      2717.343          49.375    20819840.560   109409001.596 8      2717.343          48.875    20819848.280    85253793.623 8      2117.410          49.000    20819849.180    85253800.628 8      2117.410          50.687
R22  20745497.300   110740872.719 8      1535.939          48.562    20745497.160   110740872.725 8      1535.939          48.250    20745507.240    86131830.629 8      1194.619          49.750    20745507.160    86131831.633 8      1194.619          49.562
R12  20077753.180   107251747.305 8      1319.279          50.250    20077753.340   107251747.311 8      1319.279          50.312    20077765.240    83418077.773 8      1026.106          49.375    20077765.340    83418074.772 8      1026.106          49.687
R23  21884342.500   117066483.485 7      3564.512          42.437    21884343.840   117066483.492 6      3564.512          41.000
G16  22866025.560   120161758.227 7      -768.974          44.937    22866024.180   120161758.235 5      -768.974          32.812    22866036.400    93632573.476 5      -599.200          32.812
R11  22490512.920   120182484.886 7     -1802.464          47.187    22490512.400   120182484.887 7     -1802.464          45.937    22490530.960    93475334.015 7     -1401.916          45.562    22490531.000    93475337.025 7     -1401.916          45.250
G27  21887965.000   115022027.439 7      1017.938          47.000    21887964.020   115022027.449 7      1017.938          47.000    21887974.240    89627586.586 7       793.199          46.500    21887975.040    89627589.594 8       793.199          49.875
G10  23395971.020   122946662.143 7       -46.815          46.937    23395971.120   122946662.145 7       -46.815          44.375    23395981.120    95802628.125 7       -36.479          44.187    23395980.960    95802625.130 7       -36.479          46.750
R21  23194210.600   124116903.304 6       315.606          41.375    23194210.220   124116903.295 6       315.606          40.937    23194227.720    96535429.041 7       245.471          47.000    23194227.080    96535430.029 7       245.471          46.625
G03  23799137.360   125065308.985 7      6221.770          42.750    23799136.520   125065308.980 5      6221.770          30.625    23799155.400    97453542.187 5      4848.133          30.375    23799156.440    97453565.190 7      4848.133          46.687
> 2024 05 09 13 38 12.0000000  0 15
G02  21623299.160   113631204.593 7      2894.678          47.500    21623297.440   113631204.595 6      2894.678          39.000    21623301.940    88543812.113 6      2255.593          38.687
R08  23647664.900   126632182.203 6      6268.888          40.562    23647666.460   126632182.266 6      6268.888          39.875    23647688.580    98491797.861 7      4875.802          42.125    23647687.920    98491794.846 6      4875.802          40.250
G21  20817949.380   109399062.333 7      1904.324          47.437    20817947.520   109399062.340 6      1904.324          40.500    20817952.720    85246035.012 6      1483.889          40.437
G32  25400548.260   133480793.591 6      3672.642          40.562    25400547.680   133480793.588 5      3672.642          34.375    25400569.840   104011099.859 5      2861.799          33.812    25400570.440   104011108.884 6      2861.799          40.562
R07  21952422.900   117513050.984 7      4931.793          45.312    21952424.860   117513051.010 7      4931.793          44.125    21952443.620    91399134.492 7      3835.839          46.812    21952444.180    91399138.508 7      3835.839          47.187
G08  20819324.260   109406284.063 8      2717.359          49.687    20819323.340   109406284.068 8      2717.359          49.437    20819331.040    85251676.071 8      2117.422          49.500    20819332.100    85251683.075 8      2117.422          50.750
R22  20745209.700   110739336.532 8      1536.212          48.812    20745209.500   110739336.531 8      1536.212          48.062    20745219.600    86130635.811 8      1194.832          50.312    20745219.440    86130636.811 8      1194.832          50.125
R12  20077506.000   107250428.126 8      1318.738          49.937    20077506.420   107250428.130 8      1318.738          50.812    20077518.440    83417051.739 8      1025.685          49.875    20077518.340    83417048.740 8      1025.685          50.437
R23  21883676.560   117062918.665 6      3564.736          41.375    21883676.840   117062918.669 6      3564.736          41.125
G16  22866171.880   120162527.113 7      -769.061          45.562    22866170.560   120162527.120 5      -769.061          32.812    22866182.660    93633172.591 5      -599.268          32.812
R11  22490850.080   120184287.085 7     -1802.183          46.937    22490849.940   120184287.081 7     -1802.183          45.437    22490868.500    93476735.715 7     -1401.698          45.687    22490868.300    93476738.729 7     -1401.698          45.250
G27  21887771.380   115021009.352 7      1018.070          46.437    21887770.360   115021009.359 7      1018.070          47.750    21887780.420    89626793.264 7       793.301          47.437    21887781.040    89626796.272 8       793.301          49.500
G10  23395979.800   122946708.800 7       -46.791          46.000    23395980.060   122946708.797 7       -46.791          44.125    23395989.940    95802664.475 7       -36.461          44.375    23395990.160    95802661.488 7       -36.461          47.187
R21  23194151.700   124116587.431 6       315.965          41.375    23194151.220   124116587.435 6       315.965          41.000    23194168.740    96535183.363 7       245.751          46.875    23194168.080    96535184.356 7       245.751          47.500
G03  23797953.360   125059087.068 7      6221.925          42.937    23797952.580   125059087.065 5      6221.925          31.062    23797971.500    97448693.946 5      4848.253          30.687    23797972.520    97448716.949 7      4848.253          47.000
> 2024 05 09 13 38 13.0000000  0 15
G02  21622748.340   113628309.914 7      2894.627          47.375    21622746.560   113628309.919 6      2894.627          39.125    21622751.120    88541556.525 6      2255.553          39.375
R08  23646493.980   126625913.350 6      6268.771          40.562    23646495.340   126625913.419 6      6268.771          39.375    23646518.760    98486922.106 7      4875.710          42.125    23646517.420    98486919.099 6      4875.710          41.187
G21  20817586.960   109397158.018 7      1904.159          47.375    20817585.300   109397158.026 6      1904.159          40.625    20817590.360    85244551.133 6      1483.760          40.500
G32  25399849.740   133477120.989 6      3672.488          40.937    25399848.760   133477120.988 5      3672.488          34.375    25399871.160   104008238.109 5      2861.679          34.562    25399872.180   104008247.140 6      2861.679          40.562
R07  21951501.280   117508119.329 7      4931.539          44.250    21951503.400   117508119.366 7      4931.539          43.250    21951522.080    91395298.780 7      3835.641          47.062    21951522.620    91395302.794 7      3835.641          46.687
G08  20818807.240   109403566.636 8      2717.396          48.750    20818806.340   109403566.641 8      2717.396          48.687    20818813.940    85249558.592 8      2117.452          49.125    20818814.800    85249565.594 8      2117.452          50.125
R22  20744921.860   110737800.322 8      1536.247          48.125    20744921.820   110737800.328 8      1536.247          48.187    20744931.680    86129440.987 8      1194.859          50.750    20744931.560    86129441.989 8      1194.859          50.375
R12  20077259.440   107249109.687 8      1318.006          50.000    20077259.680   107249109.688 8      1318.006          50.250    20077271.660    83416026.278 8      1025.116          50.000    20077271.900    83416023.281 8      1025.116          50.875
R23  21883010.180   117059353.883 6      3564.736          41.375    21883010.460   117059353.881 6      3564.736          41.125
G16  22866318.140   120163296.119 7      -769.087          44.250    22866316.780   120163296.126 5      -769.087          32.750    22866328.980    93633771.798 5      -599.289          32.875
R11  22491187.400   120186089.348 7     -1802.377          46.312    22491187.040   120186089.347 7     -1802.377          45.062    22491205.780    93478137.486 7     -1401.849          45.937    22491205.540    93478140.498 7     -1401.849          45.250
G27  21887577.820   115019991.372 7      1017.926          46.875    21887576.620   115019991.380 7      1017.926          47.187    21887586.720    89626000.031 7       793.189          47.062    21887587.320    89626003.043 8       793.189          49.437
G10  23395988.700   122946755.754 7       -47.071          45.875    23395989.000   122946755.756 7       -47.071          44.250    23395998.940    95802701.068 7       -36.679          44.000    23395999.040    95802698.075 7       -36.679          46.812
R21  23194092.440   124116271.351 6       316.178          41.375    23194092.440   124116271.353 6       316.178          41.000    23194109.640    96534937.520 7       245.917          47.562    23194109.220    96534938.513 7       245.917          47.687
G03  23796769.540   125052865.135 7      6221.951          42.375    23796768.580   125052865.132 5      6221.951          31.062    23796787.480    97443845.684 5      4848.274          30.687    23796788.260    97443868.679 7      4848.274          47.250
> 2024 05 09 13 38 14.0000000  0 15
G02  21622197.360   113625415.578 7      2894.376          46.500    21622195.760   113625415.588 6      2894.376          38.812    21622200.340    88539301.200 6      2255.358          38.250
R08  23645323.140   126619644.380 6      6269.325          39.000    23645324.920   126619644.427 6      6269.325          39.375    23645347.840    98482046.240 7      4876.141          42.000    23645347.080    98482043.226 6      4876.141          41.437
G21  20817224.580   109395254.001 7      1904.109          46.937    20817222.920   109395254.008 6      1904.109          40.062    20817228.120    85243067.485 6      1483.721          40.437
G32  25399150.920   133473448.699 6      3672.285          41.000    25399150.000   133473448.699 5      3672.285          34.875    25399172.380   104005376.599 5      2861.521          34.562    25399172.520   104005385.618 6      2861.521          40.750
R07  21950579.860   117503188.216 7      4931.111          43.687    21950582.580   117503188.249 7      4931.111          44.062    21950601.280    91391463.492 7      3835.309          46.750    21950601.640    91391467.506 7      3835.309          47.375
G08  20818290.080   109400849.497 8      2717.222          48.562    20818289.280   109400849.502 7      2717.222          47.937    20818296.920    85247441.338 8      2117.316          48.750    20818297.860    85247448.342 8      2117.316          50.375
R22  20744633.820   110736264.218 8      1536.253          48.625    20744634.200   110736264.222 7      1536.253          47.875    20744643.940    86128246.238 8      1194.863          50.312    20744643.980    86128247.237 8      1194.863          50.500
R12  20077012.960   107247792.117 8      1317.380          49.875    20077012.960   107247792.112 8      1317.380          50.437    20077024.980    83415001.499 8      1024.629          50.250    20077025.060    83414998.498 8      1024.629          50.937
R23  21882343.640   117055789.295 6      3564.728          40.875    21882344.040   117055789.297 6      3564.728          40.500
G16  22866464.600   120164065.440 7      -769.314          44.625    22866463.160   120164065.448 5      -769.314          32.750    22866475.420    93634371.257 5      -599.466          32.875
R11  22491524.820   120187891.777 7     -1802.293          46.125    22491524.360   120187891.781 7     -1802.293          44.750    22491543.280    93479539.369 7     -1401.784          45.750    22491542.820    93479542.383 7     -1401.784          45.750
G27  21887384.100   115018973.667 7      1017.784          46.312    21887382.920   115018973.677 7      1017.784          47.312    21887393.000    89625207.014 7       793.078          47.000    21887393.680    89625210.028 8       793.078          49.437
G10  23395997.660   122946803.144 7       -47.341          44.937    23395998.060   122946803.143 7       -47.341          44.000    23396008.040    95802737.989 7       -36.889          43.937    23396008.100    95802735.000 7       -36.889          46.562
R21  23194033.040   124115955.258 6       316.401          40.875    23194033.080   124115955.273 6       316.401          40.937    23194050.600    96534691.665 7       246.090          47.562    23194050.060    96534692.665 8       246.090          48.000
G03  23795585.140   125046643.304 7      6222.035          42.937    23795584.720   125046643.299 5      6222.035          31.062    23795603.340    97438997.503 5      4848.339          30.687    23795604.820    97439020.502 7      4848.339          46.937
> 2024 05 09 13 38 15.0000000  0 15
G02  21621646.740   113622521.540 7      2893.833          46.875    21621645.120   113622521.545 6      2893.833          38.687    21621649.700    88537046.106 6      2254.935          39.000
R08  23644152.320   126613375.345 6      6269.004          39.000    23644153.440   126613375.406 6      6269.004          39.375    23644176.900    98477170.338 6      4875.892          41.875    23644176.400    98477167.331 6      4875.892          41.437
G21  20816862.420   109393350.338 7      1903.445          47.437    20816860.660   109393350.343 6      1903.445          40.750    20816865.860    85241584.113 6      1483.204          40.437
G32  25398451.940   133469776.690 6      3671.656          41.000    25398451.220   133469776.695 5      3671.656          34.875    25398473.620   104002515.312 5      2861.030          34.875    25398473.900   104002524.337 6      2861.030          40.750
R07  21949658.940   117498257.621 7      4930.314          44.812    21949661.560   117498257.652 7      4930.314          44.312    21949680.320    91387628.595 7      3834.689          47.500    21949680.820    91387632.607 7      3834.689          47.625
G08  20817773.100   109398132.628 8      2716.585          49.125    20817772.280   109398132.635 8      2716.585          48.750    20817779.900    85245324.299 8      2116.819          48.687    20817780.940    85245331.303 8      2116.819          50.312
R22  20744346.340   110734728.248 8      1535.852          49.187    20744346.700   110734728.249 8      1535.852          48.437    20744356.380    86127051.592 8      1194.551          50.375    20744356.080    86127052.591 8      1194.551          50.750
R12  20076766.540   107246475.441 8      1316.172          50.562    20076766.260   107246475.436 8      1316.172          49.875    20076778.480    83413977.414 8      1023.689          50.437    20076778.680    83413974.415 8      1023.689          51.250
R23  21881677.440   117052224.925 6      3564.121          40.875    21881677.060   117052224.931 6      3564.121          40.500
G16  22866611.080   120164835.051 7      -769.815          45.062    22866609.700   120164835.058 5      -769.815          32.937    22866622.020    93634970.937 5      -599.856          32.875
R11  22491862.300   120189694.444 7     -1802.906          46.812    22491861.420   120189694.448 7     -1802.906          45.250    22491880.560    93480941.443 7     -1402.261          45.750    22491880.140    93480944.451 7     -1402.261          45.937
G27  21887190.440   115017956.236 7      1017.195          47.125    21887189.380   115017956.241 7      1017.195          47.437    21887199.380    89624414.205 7       792.620          47.062    21887200.160    89624417.217 8       792.620          49.437
G10  23396006.660   122946850.988 7       -48.167          46.562    23396007.120   122946850.985 7       -48.167          44.000    23396017.120    95802775.264 7       -37.532          43.750    23396017.340    95802772.269 7       -37.532          46.812
R21  23193974.060   124115639.139 6       315.961          40.875    23193974.100   124115639.164 6       315.961          40.937    23193991.520    96534445.801 7       245.747          47.437    23193991.040    96534446.796 7       245.747          47.437
G03  23794401.300   125040421.629 7      6221.514          43.062    23794400.880   125040421.628 5      6221.514          31.062    23794419.480    97434149.450 5      4847.933          31.062    23794421.060    97434172.455 7      4847.933          47.187
> 2024 05 09 13 38 16.0000000  0 15
G02  21621096.140   113619627.907 7      2893.560          47.250    21621094.520   113619627.912 6      2893.560          39.000    21621098.980    88534791.327 6      2254.722          38.937
R08  23642981.520   126607106.378 6      6268.983          39.000    23642983.100   126607106.425 6      6268.983          39.375    23643006.640    98472294.473 6      4875.876          41.750    23643005.880    98472291.464 6      4875.876          41.187
G21  20816500.260   109391447.090 7      1903.107          47.625    20816498.540   109391447.095 6      1903.107          40.187    20816503.720    85240101.063 6      1482.941          40.250
G32  25397753.360   133466105.073 6      3671.350          41.125    25397752.580   133466105.078 5      3671.350          34.687    25397774.940   103999654.326 5      2860.792          34.625    25397775.680   103999663.351 6      2860.792          40.812
R07  21948738.240   117493327.682 7      4929.676          44.625    21948740.580   117493327.708 7      4929.676          44.312    21948759.360    91383794.203 7      3834.193          47.562    21948759.980    91383798.217 7      3834.193          47.750
G08  20817256.240   109395416.108 8      2716.460          50.437    20817255.300   109395416.110 8      2716.460          48.437    20817262.980    85243207.526 8      2116.722          48.937    20817264.100    85243214.531 8      2116.722          50.375
R22  20744058.780   110733192.475 8      1535.762          49.375    20744059.140   110733192.476 8      1535.762          48.562    20744068.620    86125857.102 8      1194.481          50.375    20744068.600    86125858.102 8      1194.481          50.312
R12  20076520.640   107245159.740 8      1315.315          50.437    20076519.840   107245159.733 8      1315.315          50.562    20076532.240    83412954.086 8      1023.023          50.000    20076532.320    83412951.087 8      1023.023          50.875
R23  21881011.220   117048660.837 6      3564.022          41.312    21881010.480   117048660.831 6      3564.022          40.500
G16  22866757.620   120165605.068 7      -770.119          45.000    22866756.100   120165605.076 5      -770.119          32.937    22866768.540    93635570.938 5      -600.093          33.000
R11  22492199.520   120191497.349 7     -1803.003          47.437    22492198.800   120191497.355 7     -1803.003          45.875    22492218.080    93482343.700 7     -1402.336          45.875    22492217.720    93482346.708 7     -1402.336          45.875
G27  21886996.880   115016939.156 7      1016.933          47.187    21886995.800   115016939.158 7      1016.933          47.562    21887005.800    89623621.668 7       792.416          47.250    21887006.340    89623624.682 8       792.416          48.812
G10  23396016.120   122946899.334 7       -48.507          47.000    23396016.420   122946899.339 7       -48.507          44.687    23396026.320    95802812.937 7       -37.798          43.687    23396026.540    95802809.944 7       -37.798          47.000
R21  23193914.800   124115323.003 6       316.245          41.687    23193915.480   124115323.029 6       316.245          40.937    23193932.400    96534199.913 7       245.969          47.437    23193932.160    96534200.911 7       245.969          47.625
G03  23793217.180   125034200.182 7      6221.475          42.812    23793217.080   125034200.179 5      6221.475          31.375    23793235.640    97429301.571 5      4847.903          31.062    23793237.020    97429324.560 7      4847.903          47.187
> 2024 05 09 13 38 17.0000000  0 15
G02  21620545.680   113616734.535 7      2893.163          46.562    21620543.920   113616734.537 6      2893.163          39.187    21620548.460    88532536.753 6      2254.413          38.812
R08  23641810.760   126600837.273 6      6269.099          39.000    23641812.740   126600837.321 6      6269.099          39.375    23641836.000    98467418.507 6      4875.966          41.750    23641835.120    98467415.498 6      4875.966          41.875
G21  20816137.920   109389544.084 7      1902.821          47.437    20816136.500   109389544.089 6      1902.821          40.750    20816141.720    85238618.199 6      1482.718          40.625
G32  25397055.100   133462433.666 6      3671.115          40.437    25397053.900   133462433.669 5      3671.115          34.625    25397076.360   103996793.502 5      2860.609          34.625    25397077.120   103996802.539 6      2860.609          40.812
R07  21947817.020   117488398.190 7      4929.194          45.437    21947819.800   117488398.221 7      4929.194          44.437    21947838.440    91379960.168 7      3833.818          47.812    21947838.900    91379964.178 8      3833.818          48.000
G08  20816739.380   109392699.799 8      2716.171          49.250    20816738.480   109392699.803 8      2716.171          48.812    20816746.020    85241090.922 8      2116.497          48.875    20816747.300    85241097.924 8      2116.497          50.250
R22  20743770.980   110731656.737 7      1535.604          47.937    20743771.340   110731656.746 8      1535.604          49.062    20743780.960    86124662.643 8      1194.359          49.812    20743780.680    86124663.645 8      1194.359          50.562
R12  20076274.220   107243844.856 8      1314.460          50.875    20076273.580   107243844.852 8      1314.460          50.500    20076286.060    83411931.395 8      1022.358          50.562    20076286.180    83411928.396 8      1022.358          50.937
R23  21880344.700   117045096.889 6      3563.842          41.312    21880345.480   117045096.877 6      3563.842          40.375
G16  22866904.220   120166375.302 7      -770.347          44.250    22866902.560   120166375.309 5      -770.347          32.625    22866915.040    93636171.112 5      -600.270          33.000
R11  22492536.660   120193300.384 7     -1803.120          45.812    22492536.200   120193300.391 7     -1803.120          46.250    22492555.660    93483746.059 7     -1402.427          45.937    22492555.320    93483749.067 7     -1402.427          45.687
G27  21886803.240   115015922.267 7      1016.796          47.250    21886802.260   115015922.264 7      1016.796          47.000    21886812.380    89622829.281 7       792.309          46.687    21886812.600    89622832.293 8       792.309          49.000
G10  23396025.540   122946948.075 7       -49.099          46.375    23396025.800   122946948.080 7       -49.099          44.000    23396035.640    95802850.919 7       -38.259          44.812    23396035.880    95802847.925 7       -38.259          47.250
R21  23193855.700   124115006.766 6       316.247          41.687    23193856.320   124115006.773 6       316.247          40.750    23193873.200    96533953.926 7       245.970          47.312    23193873.280    96533954.925 7       245.970          47.812
G03  23792033.420   125027978.806 7      6221.281          42.250    23792033.260   125027978.803 5      6221.281          31.375    23792051.740    97424453.742 5      4847.751          31.062    23792053.560    97424476.736 7      4847.751          46.687
> 2024 05 09 13 38 18.0000000  0 15
G02  21619995.080   113613841.559 7      2893.059          46.687    21619993.340   113613841.559 6      2893.059          39.187    21619997.960    88530282.484 6      2254.332          38.937
R08  23640639.740   126594568.284 6      6269.112          38.750    23640641.860   126594568.334 6      6269.112          38.562    23640665.640    98462542.633 6      4875.976          41.687    23640664.380    98462539.619 6      4875.976          41.875
G21  20815775.880   109387641.517 7      1902.562          47.625    20815774.280   109387641.519 6      1902.562          40.687    20815779.620    85237135.682 6      1482.516          40.687
G32  25396356.420   133458762.646 6      3670.964          40.562    25396355.280   133458762.651 5      3670.964          34.625    25396377.880   103993932.987 5      2860.492          34.437    25396378.600   103993942.014 6      2860.492          40.812
R07  21946896.300   117483469.365 7      4928.784          45.187    21946899.000   117483469.396 7      4928.784          44.250    21946917.800    91376126.652 7      3833.499          47.625    21946918.280    91376130.659 7      3833.499          47.625
G08  20816222.540   109389983.867 8      2715.963          48.250    20816221.520   109389983.875 8      2715.963          48.375    20816229.260    85238974.616 8      2116.335          48.875    20816230.420    85238981.618 8      2116.335          50.562
R22  20743483.380   110730121.231 8      1535.622          48.937    20743483.960   110730121.242 8      1535.622          48.187    20743493.240    86123468.363 8      1194.372          50.000    20743493.160    86123469.362 8      1194.372          50.500
R12  20076028.280   107242530.968 8      1313.668          49.750    20076027.580   107242530.964 8      1313.668          49.687    20076039.980    83410909.480 8      1021.742          50.250    20076040.320    83410906.479 8      1021.742          50.937
R23  21879678.920   117041533.238 6      3563.789          40.750    21879679.200   117041533.215 6      3563.789          40.375
G16  22867050.980   120167145.971 7      -770.606          44.375    22867049.260   120167145.978 5      -770.606          32.625    22867061.720    93636771.621 5      -600.472          32.562
R11  22492874.540   120195103.751 7     -1803.256          46.187    22492873.480   120195103.749 7     -1803.256          45.562    22492893.120    93485148.665 7     -1402.533          45.937    22492892.640    93485151.671 7     -1402.533          45.500
G27  21886609.860   115014905.759 7      1016.577          46.937    21886608.900   115014905.767 7      1016.577          46.750    21886618.860    89622037.203 7       792.138          47.187    21886619.040    89622040.213 8       792.138          49.250
G10  23396035.000   122946997.320 7       -49.225          45.750    23396035.080   122946997.325 7       -49.225          44.250    23396044.940    95802889.287 7       -38.357          44.125    23396045.240    95802886.292 7       -38.357          46.937
R21  23193796.740   124114690.552 6       316.422          41.687    23193796.660   124114690.559 6       316.422          40.750    23193814.420    96533707.980 7       246.106          47.375    23193813.980    96533708.978 7       246.106          47.937
G03  23790849.560   125021757.653 7      6221.262          42.687    23790849.400   125021757.650 5      6221.262          31.375    23790868.000    97419606.088 5      4847.737          30.937    23790869.060    97419629.091 7      4847.737          46.875
> 2024 05 09 13 38 19.0000000  0 15
G02  21619444.680   113610948.746 7      2892.652          47.562    21619442.940   113610948.746 6      2892.652          39.312    21619447.560    88528028.346 6      2254.015          39.250
R08  23639469.260   126588299.100 6      6269.067          38.750    23639471.700   126588299.139 6      6269.067          38.562    23639494.560    98457666.592 6      4875.941          41.562    23639493.920    98457663.589 7      4875.941          42.125
G21  20815414.080   109385739.105 7      1902.094          47.687    20815412.320   109385739.107 6      1902.094          40.437    20815417.580    85235653.282 6      1482.151          40.562
G32  25395657.120   133455091.770 6      3670.592          40.437    25395656.840   133455091.777 5      3670.592          34.437    25395679.420   103991072.574 5      2860.201          34.437    25395680.000   103991081.601 6      2860.201          40.812
R07  21945975.560   117478540.922 7      4928.108          45.125    21945978.120   117478540.948 7      4928.108          44.000    21945997.200    91372293.425 7      3832.973          47.750    21945997.580    91372297.430 7      3832.973          47.437
G08  20815705.780   109387268.052 8      2715.559          48.250    20815704.780   109387268.060 8      2715.559          48.625    20815712.480    85236858.396 8      2116.020          48.812    20815713.660    85236865.400 8      2116.020          50.625
R22  20743195.720   110728585.690 8      1535.352          49.375    20743196.260   110728585.699 7      1535.352          47.812    20743205.520    86122274.054 8      1194.163          50.562    20743205.680    86122275.055 8      1194.163          50.250
R12  20075782.300   107241217.794 8      1312.614          50.125    20075781.820   107241217.792 8      1312.614          49.750    20075794.160    83409888.118 8      1020.922          49.875    20075794.460    83409885.117 8      1020.922          51.250
R23  21879012.580   117037969.589 6      3563.416          40.750    21879012.480   117037969.580 6      3563.416          40.375
G16  22867197.700   120167916.777 7      -771.007          44.187    22867196.000   120167916.784 5      -771.007          32.625    22867208.380    93637372.237 5      -600.785          32.562
R11  22493212.180   120196907.142 7     -1803.647          46.000    22493211.000   120196907.143 7     -1803.647          45.187    22493230.940    93486551.302 7     -1402.836          45.625    22493230.500    93486554.306 7     -1402.836          46.187
G27  21886416.440   115013889.357 7      1016.177          46.875    21886415.460   115013889.367 7      1016.177          46.562    21886425.420    89621245.201 7       791.827          46.812    21886425.540    89621248.213 8       791.827          48.625
G10  23396044.280   122947046.872 7       -49.863          46.500    23396044.480   122947046.872 7       -49.863          44.562    23396054.280    95802927.893 7       -38.854          44.750    23396054.280    95802924.898 7       -38.854          47.125
R21  23193738.140   124114374.155 6       316.241          41.312    23193737.940   124114374.162 6       316.241          40.437    23193755.040    96533461.879 7       245.965          47.375    23193755.060    96533462.882 7       245.965          47.875
G03  23789665.940   125015536.498 7      6220.881          42.250    23789665.520   125015536.495 5      6220.881          30.937    23789684.300    97414758.439 5      4847.440          30.937    23789685.320    97414781.440 7      4847.440          46.187
> 2024 05 09 13 38 20.0000000  0 15
G02  21618894.280   113608056.340 7      2892.216          47.312    21618892.560   113608056.343 6      2892.216          39.000    21618897.100    88525774.526 6      2253.675          39.062
R08  23638298.800   126582029.942 6      6269.220          38.750    23638301.700   126582029.981 6      6269.220          38.562    23638323.340    98452790.576 6      4876.060          41.562    23638323.120    98452787.569 6      4876.060          41.625
G21  20815052.200   109383837.095 8      1901.783          48.312    20815050.380   109383837.102 6      1901.783          40.312    20815055.700    85234171.199 6      1481.909          40.375
G32  25394958.320   133451421.280 6      3670.386          39.750    25394958.320   133451421.287 5      3670.386          34.437    25394981.040   103988212.464 5      2860.041          34.437    25394981.360   103988221.495 6      2860.041          40.812
R07  21945054.900   117473613.108 7      4927.483          45.125    21945057.720   117473613.131 7      4927.483          44.000    21945076.680    91368460.687 7      3832.487          47.125    21945077.020    91368464.693 7      3832.487          46.875
G08  20815188.900   109384552.573 8      2715.346          48.687    20815187.940   109384552.578 8      2715.346          48.062    20815195.740    85234742.434 8      2115.854          48.375    20815196.660    85234749.440 8      2115.854          50.187
R22  20742908.320   110727050.345 8      1535.224          49.125    20742909.040   110727050.353 8      1535.224          48.375    20742918.060    86121079.892 8      1194.063          50.437    20742918.140    86121080.891 8      1194.063          50.937
R12  20075536.800   107239905.578 8      1311.726          49.562    20075536.180   107239905.579 8      1311.726          50.375    20075548.460    83408867.500 8      1020.231          49.875    20075548.940    83408864.501 8      1020.231          50.687
R23  21878346.120   117034406.206 6      3563.307          40.750    21878345.900   117034406.199 6      3563.307          40.250
G16  22867344.060   120168687.966 7      -771.354          45.000    22867342.900   120168687.974 5      -771.354          32.750    22867355.160    93637973.152 5      -601.055          32.625
R11  22493549.560   120198710.808 7     -1803.835          44.625    22493548.420   120198710.811 7     -1803.835          45.125    22493568.140    93487954.162 7     -1402.983          45.687    22493568.100    93487957.165 7     -1402.983          45.437
G27  21886223.080   115012873.306 7      1015.939          46.812    21886221.980   115012873.316 7      1015.939          47.062    21886232.220    89620453.467 7       791.640          47.125    21886232.300    89620456.479 8       791.640          48.937
G10  23396054.120   122947096.937 7       -50.309          45.312    23396053.940   122947096.936 7       -50.309          44.562    23396063.860    95802966.899 7       -39.202          44.250    23396063.820    95802963.903 7       -39.202          46.812
R21  23193678.740   124114057.738 6       316.539          41.312    23193678.420   124114057.745 6       316.539          40.437    23193695.820    96533215.775 7       246.197          47.062    23193695.640    96533216.774 7       246.197          47.687
G03  23788482.120   125009315.521 7      6220.900          42.000    23788481.800   125009315.515 5      6220.900          30.937    23788500.420    97409910.922 5      4847.455          30.937    23788501.660    97409933.915 7      4847.455          47.000
> 2024 05 09 13 38 21.0000000  0 15
G02  21618343.900   113605163.958 7      2892.355          46.937    21618342.340   113605163.958 6      2892.355          39.125    21618346.680    88523520.724 6      2253.783          38.500
R08  23637128.020   126575760.479 6      6269.565          40.750    23637131.500   126575760.518 6      6269.565          39.250    23637152.440    98447914.329 6      4876.329          41.250    23637152.220    98447911.318 6      4876.329          41.687
G21  20814690.240   109381935.132 7      1901.960          47.375    20814688.540   109381935.139 6      1901.960          40.250    20814693.760    85232689.148 6      1482.047          40.250
G32  25394259.940   133447750.819 6      3670.498          40.187    25394259.840   133447750.816 5      3670.498          34.375    25394282.520   103985352.369 5      2860.128          34.437    25394282.940   103985361.398 6      2860.128          40.437
R07  21944134.700   117468685.536 7      4927.448          45.312    21944137.120   117468685.561 7      4927.448          44.312    21944156.300    91364628.151 7      3832.459          47.000    21944156.540    91364632.155 7      3832.459          46.437
G08  20814672.100   109381837.104 8      2715.471          48.750    20814671.200   109381837.109 8      2715.471          48.312    20814679.060    85232626.484 8      2115.951          48.312    20814680.020    85232633.489 8      2115.951          50.062
R22  20742620.540   110725514.839 8      1535.509          48.500    20742621.660   110725514.845 8      1535.509          48.625    20742630.480    86119885.609 8      1194.285          48.687    20742630.220    86119886.611 8      1194.285          49.937
R12  20075291.280   107238593.966 8      1311.280          50.062    20075291.000   107238593.976 8      1311.280          51.312    20075303.040    83407847.357 8      1019.885          48.312    20075303.280    83407844.356 8      1019.885          49.187
R23  21877680.180   117030842.760 6      3563.430          40.375    21877678.920   117030842.740 6      3563.430          40.250
G16  22867490.920   120169459.201 7      -771.321          43.687    22867489.580   120169459.211 5      -771.321          32.750    22867502.200    93638574.099 5      -601.029          32.625
R11  22493887.120   120200514.375 7     -1803.443          45.187    22493886.000   120200514.376 7     -1803.443          46.062    22493905.780    93489356.936 7     -1402.678          45.187    22493905.500    93489359.942 7     -1402.678          45.375
G27  21886029.840   115011857.263 7      1016.063          47.500    21886028.520   115011857.263 7      1016.063          46.437    21886038.720    89619661.736 7       791.737          46.187    21886038.580    89619664.744 7       791.737          47.750
G10  23396063.340   122947147.157 7       -50.286          47.312    23396063.640   122947147.156 7       -50.286          43.937    23396073.300    95803006.031 7       -39.184          43.687    23396073.360    95803003.038 7       -39.184          46.250
R21  23193620.340   124113741.019 6       316.818          40.937    23193619.660   124113741.018 6       316.818          40.437    23193636.720    96532969.427 7       246.414          46.937    23193636.840    96532970.427 7       246.414          46.500
G03  23787298.340   125003094.439 7      6221.066          42.062    23787297.980   125003094.434 5      6221.066          30.937    23787316.460    97405063.328 5      4847.584          30.937    23787317.760    97405086.329 7      4847.584          45.750
> 2024 05 09 13 38 22.0000000  0 15
G02  21617793.560   113602271.750 8      2892.008          48.437    21617791.980   113602271.752 6      2892.008          38.812    21617796.360    88521267.057 6      2253.513          39.312
R08  23635957.260   126569490.778 6      6269.584          40.750    23635960.800   126569490.827 6      6269.584          39.250    23635981.740    98443037.911 6      4876.343          41.375    23635981.220    98443034.919 6      4876.343          41.687
G21  20814328.240   109380033.358 8      1901.583          48.750    20814326.500   109380033.365 6      1901.583          40.625    20814331.800    85231207.246 6      1481.753          40.375
G32  25393561.740   133444080.487 6      3670.230          39.500    25393561.600   133444080.481 5      3670.230          33.812    25393583.840   103982492.384 5      2859.920          33.937    25393584.620   103982501.409 6      2859.920          40.437
R07  21943214.340   117463758.388 7      4926.779          45.625    21943216.780   117463758.411 7      4926.779          44.437    21943235.840    91360795.936 7      3831.939          47.562    21943236.120    91360799.939 7      3831.939          47.437
G08  20814155.420   109379121.770 8      2715.141          49.750    20814154.400   109379121.774 8      2715.141          49.250    20814162.300    85230510.641 8      2115.694          49.062    20814163.380    85230517.644 8      2115.694          50.687
R22  20742332.800   110723979.279 8      1535.506          49.875    20742334.140   110723979.286 8      1535.506          49.062    20742342.760    86118691.290 8      1194.282          50.000    20742342.620    86118692.289 8      1194.282          50.500
R12  20075046.040   107237283.124 8      1310.301          50.687    20075045.920   107237283.125 8      1310.301          50.875    20075057.560    83406827.807 8      1019.123          50.125    20075057.640    83406824.804 8      1019.123          50.812
R23  21877013.740   117027279.296 6      3563.385          40.375    21877012.180   117027279.295 6      3563.385          40.250
G16  22867637.640   120170230.580 7      -771.652          44.937    22867636.480   120170230.587 5      -771.652          32.812    22867648.900    93639175.159 5      -601.287          32.625
R11  22494224.520   120202318.001 7     -1803.812          46.187    22494223.240   120202318.004 7     -1803.812          45.937    22494243.100    93490759.761 7     -1402.965          45.562    22494243.060    93490762.758 7     -1402.965          45.625
G27  21885836.600   115010841.328 7      1015.757          46.875    21885835.160   115010841.333 7      1015.757          47.812    21885845.540    89618870.100 7       791.499          47.000    21885845.440    89618873.106 8       791.499          48.937
G10  23396073.180   122947197.694 7       -50.900          47.250    23396073.220   122947197.696 7       -50.900          44.500    23396082.940    95803045.409 7       -39.663          44.437    23396082.920    95803042.414 7       -39.663          46.750
R21  23193561.280   124113424.035 6       316.969          40.937    23193560.180   124113424.040 6       316.969          40.750    23193577.680    96532722.876 7       246.532          47.812    23193577.680    96532723.877 8       246.532          48.125
G03  23786114.300   124996873.334 7      6220.872          43.062    23786114.180   124996873.333 5      6220.872          30.937    23786132.780    97400215.716 5      4847.433          30.875    23786133.740    97400238.712 7      4847.433          46.750
> 2024 05 09 13 38 23.0000000  0 15
G02  21617243.340   113599379.972 7      2891.634          47.937    21617241.820   113599379.974 6      2891.634          39.500    21617246.040    88519013.723 6      2253.221          39.812
R08  23634786.960   126563221.175 6      6269.604          40.750    23634790.620   126563221.214 6      6269.604          39.250    23634810.960    98438161.548 6      4876.358          41.750    23634810.680    98438158.549 7      4876.358          42.187
G21  20813966.340   109378132.023 7      1901.123          47.187    20813964.780   109378132.028 6      1901.123          40.500    20813970.080    85229725.688 6      1481.395          40.437
G32  25392863.880   133440410.596 6      3669.572          39.500    25392863.100   133440410.595 5      3669.572          33.812    25392885.360   103979632.743 5      2859.407          33.937    25392886.080   103979641.770 6      2859.407          40.625
R07  21942293.960   117458831.886 7      4926.300          44.125    21942296.260   117458831.907 7      4926.300          44.062    21942315.580    91356964.225 7      3831.567          47.125    21942315.780    91356968.226 7      3831.567          47.687
G08  20813638.680   109376406.821 8      2714.760          48.687    20813637.760   109376406.823 8      2714.760          48.375    20813645.700    85228395.093 8      2115.398          48.812    20813646.620    85228402.097 8      2115.398          50.937
R22  20742045.140   110722443.990 8      1535.228          49.437    20742046.660   110722444.004 8      1535.228          48.875    20742055.200    86117497.177 8      1194.066          50.500    20742055.040    86117498.177 8      1194.066          50.375
R12  20074800.780   107235973.259 8      1309.420          50.125    20074800.980   107235973.262 8      1309.420          50.750    20074812.320    83405809.023 8      1018.438          49.812    20074812.660    83405806.017 8      1018.438          51.000
R23  21876347.380   117023716.204 6      3563.120          40.375    21876345.920   117023716.184 6      3563.120          39.937
G16  22867784.560   120171002.392 7      -771.975          44.375    22867783.440   120171002.397 5      -771.975          32.812    22867795.920    93639776.557 5      -601.539          32.812
R11  22494561.860   120204121.950 7     -1804.100          45.750    22494561.140   120204121.956 7     -1804.100          45.125    22494580.760    93492162.824 7     -1403.189          45.375    22494580.620    93492165.823 7     -1403.189          45.625
G27  21885643.080   115009825.801 7      1015.321          46.375    21885641.900   115009825.805 7      1015.321          47.187    21885652.160    89618078.776 7       791.160          47.187    21885652.080    89618081.784 8       791.160          49.062
G10  23396082.740   122947248.750 7       -51.357          46.437    23396082.960   122947248.749 7       -51.357          44.750    23396092.680    95803085.192 7       -40.018          44.625    23396092.840    95803082.201 7       -40.018          47.187
R21  23193501.960   124113107.113 6       316.883          40.937    23193500.900   124113107.117 6       316.883          40.750    23193518.420    96532476.379 8       246.465          48.125    23193518.360    96532477.378 7       246.465          47.687
G03  23784930.240   124990652.475 7      6220.732          42.125    23784930.440   124990652.478 5      6220.732          30.937    23784948.880    97395368.295 5      4847.323          30.875    23784949.820    97395391.288 7      4847.323          46.437
> 2024 05 09 13 38 24.0000000  0 15
G02  21616693.120   113596488.460 7      2891.220          47.812    21616691.660   113596488.465 6      2891.220          39.312    21616695.880    88516760.601 6      2252.899          39.562
R08  23633616.320   126556951.466 7      6269.599          42.000    23633619.760   126556951.502 6      6269.599          39.250    23633639.920    98433285.109 6      4876.355          41.750    23633639.700    98433282.115 7      4876.355          42.187
G21  20813604.660   109376230.919 7      1900.977          46.500    20813602.940   109376230.927 6      1900.977          40.500    20813608.360    85228244.311 6      1481.281          40.750
G32  25392165.840   133436740.913 6      3669.564          38.687    25392164.680   133436740.907 5      3669.564          33.812    25392187.040   103976773.258 5      2859.400          33.812    25392187.780   103976782.281 6      2859.400          40.625
R07  21941374.060   117453905.879 7      4925.631          44.937    21941376.220   117453905.905 7      4925.631          44.062    21941395.520    91353132.907 7      3831.046          47.937    21941395.700    91353136.908 8      3831.046          48.000
G08  20813122.040   109373692.075 8      2714.557          48.500    20813121.080   109373692.077 8      2714.557          48.562    20813129.060    85226279.706 8      2115.239          49.000    20813130.160    85226286.713 8      2115.239          50.687
R22  20741757.580   110720908.756 8      1535.076          49.500    20741759.020   110720908.770 8      1535.076          48.812    20741767.580    86116303.105 8      1193.948          50.437    20741767.380    86116304.102 8      1193.948          50.500
R12  20074555.720   107234664.235 8      1308.503          50.125    20074555.920   107234664.233 8      1308.503          50.687    20074567.120    83404790.887 8      1017.725          49.750    20074567.320    83404787.886 8      1017.725          50.375
R23  21875681.700   117020153.256 6      3562.648          40.062    21875680.240   117020153.239 6      3562.648          39.937
G16  22867931.640   120171774.438 7      -772.219          44.312    22867930.240   120171774.443 5      -772.219          33.000    22867942.820    93640378.135 5      -601.729          32.812
R11  22494899.560   120205926.019 7     -1804.280          45.750    22494898.840   120205926.020 7     -1804.280          46.187    22494918.280    93493565.995 7     -1403.329          45.500    22494918.140    93493568.993 7     -1403.329          45.937
G27  21885449.980   115008810.462 7      1015.119          47.125    21885448.720   115008810.464 7      1015.119          47.625    21885458.960    89617287.601 7       791.002          47.375    21885459.180    89617290.607 8       791.002          48.812
G10  23396092.900   122947300.209 7       -51.850          46.625    23396092.760   122947300.209 7       -51.850          45.125    23396102.520    95803125.289 7       -40.402          44.687    23396102.840    95803122.296 7       -40.402          47.062
R21  23193442.260   124112790.086 6       316.812          41.687    23193441.220   124112790.088 6       316.812          40.750    23193459.400    96532229.799 8       246.409          48.437    23193459.080    96532230.804 7       246.409          47.750
G03  23783746.220   124984431.690 7      6220.722          43.062    23783746.620   124984431.687 5      6220.722          30.937    23783765.060    97390520.929 5      4847.315          30.875    23783766.040    97390543.919 7      4847.315          46.625
> 2024 05 09 13 38 25.0000000  0 15
G02  21616143.020   113593597.347 7      2890.696          47.312    21616141.380   113593597.352 6      2890.696          39.562    21616145.820    88514507.784 6      2252.491          39.500
R08  23632445.380   126550681.754 7      6269.462          42.000    23632449.160   126550681.809 6      6269.462          39.812    23632469.180    98428408.683 7      4876.249          42.250    23632469.340    98428405.703 7      4876.249          42.125
G21  20813242.980   109374330.278 7      1900.250          46.875    20813241.140   109374330.283 6      1900.250          40.062    20813246.740    85226763.290 6      1480.715          40.062
G32  25391467.680   133433071.637 6      3668.969          39.562    25391466.380   133433071.626 5      3668.969          33.812    25391488.960   103973914.094 5      2858.937          34.125    25391489.100   103973923.121 6      2858.937          40.750
R07  21940453.840   117448980.520 7      4924.787          43.437    21940456.220   117448980.535 7      4924.787          43.437    21940475.460    91349302.076 7      3830.390          47.687    21940475.540    91349306.077 7      3830.390          47.812
G08  20812605.600   109370977.713 8      2713.919          48.062    20812604.460   109370977.718 7      2713.919          47.250    20812612.580    85224164.623 8      2114.742          48.375    20812613.440    85224171.627 8      2114.742          50.750
R22  20741470.000   110719373.738 7      1534.738          47.875    20741471.580   110719373.753 7      1534.738          47.375    20741480.000    86115109.200 8      1193.685          50.000    20741479.800    86115110.200 8      1193.685          50.312
R12  20074311.000   107233356.178 8      1307.372          49.312    20074311.400   107233356.174 8      1307.372          48.562    20074322.540    83403773.503 8      1016.845          50.062    20074322.680    83403770.500 8      1016.845          50.125
R23  21875015.780   117016590.605 6      3562.278          40.062    21875013.920   117016590.593 6      3562.278          39.937
G16  22868078.540   120172546.912 7      -772.953          44.062    22868077.060   120172546.920 5      -772.953          33.000    22868089.680    93640980.049 5      -602.301          32.625
R11  22495237.100   120207730.401 7     -1804.712          44.437    22495236.540   120207730.400 7     -1804.712          46.062    22495256.120    93494969.395 7     -1403.665          45.312    22495256.060    93494972.393 7     -1403.665          45.875
G27  21885256.800   115007795.505 7      1014.614          45.875    21885255.620   115007795.509 7      1014.614          46.250    21885265.800    89616496.723 7       790.608          46.375    21885266.120    89616499.728 8       790.608          49.312
G10  23396102.600   122947352.190 7       -52.438          45.875    23396102.620   122947352.187 7       -52.438          44.875    23396112.440    95803165.787 7       -40.861          44.687    23396112.380    95803162.794 7       -40.861          47.125
R21  23193382.260   124112473.124 6       316.711          41.687    23193381.960   124112473.139 6       316.711          40.250    23193400.340    96531983.274 7       246.330          47.625    23193399.860    96531984.280 8       246.330          48.000
G03  23782562.540   124978211.174 6      6220.193          41.812    23782562.820   124978211.171 5      6220.193          30.937    23782581.320    97385673.773 5      4846.903          30.812    23782582.160    97385696.761 7      4846.903          46.125
> 2024 05 09 13 38 26.0000000  0 15
G02  21615593.000   113590706.744 8      2890.481          48.000    21615591.340   113590706.748 6      2890.481          39.250    21615595.800    88512255.370 6      2252.323          39.125
R08  23631274.800   126544412.205 7      6269.639          42.812    23631278.860   126544412.260 6      6269.639          39.812    23631298.140    98423532.366 6      4876.386          41.875    23631298.340    98423529.373 7      4876.386          42.375
G21  20812881.600   109372430.141 8      1899.973          48.312    20812879.580   109372430.146 6      1899.973          40.625    20812885.260    85225282.666 6      1480.498          40.500
G32  25390769.320   133429402.841 6      3668.663          40.062    25390768.400   133429402.838 5      3668.663          33.937    25390790.780   103971055.311 5      2858.698          34.125    25390791.720   103971064.340 6      2858.698          40.750
R07  21939534.160   117444055.899 7      4924.315          43.437    21939535.620   117444055.925 7      4924.315          43.687    21939555.440    91345471.838 7      3830.023          47.125    21939555.660    91345475.844 8      3830.023          48.000
G08  20812089.240   109368263.807 8      2713.765          49.062    20812088.000   109368263.815 8      2713.765          48.937    20812096.080    85222049.894 8      2114.622          48.750    20812097.220    85222056.900 8      2114.622          50.875
R22  20741182.420   110717839.063 8      1534.614          50.250    20741184.380   110717839.072 8      1534.614          48.750    20741192.540    86113915.555 8      1193.588          50.062    20741192.180    86113916.550 8      1193.588          50.500
R12  20074066.300   107232049.227 8      1306.462          51.312    20074066.780   107232049.228 8      1306.462          51.125    20074077.840    83402756.985 8      1016.137          50.687    20074077.860    83402753.982 8      1016.137          50.187
R23  21874349.900   117013028.361 6      3562.136          39.250    21874348.560   117013028.354 6      3562.136          38.875
G16  22868225.520   120173319.870 7      -773.166          43.312    22868224.080   120173319.878 5      -773.166          32.625    22868236.900    93641582.341 5      -602.467          32.625
R11  22495574.980   120209535.155 7     -1804.804          46.375    22495574.020   120209535.156 7     -1804.804          45.562    22495593.860    93496373.097 7     -1403.736          45.500    22495593.880    93496376.096 7     -1403.736          46.125
G27  21885063.960   115006781.017 7      1014.306          46.437    21885062.540   115006781.025 7      1014.306          47.000    21885072.660    89615706.211 7       790.368          46.500    21885073.100    89615709.219 8       790.368          48.812
G10  23396112.760   122947404.819 7       -52.917          47.125    23396112.560   122947404.824 7       -52.917          44.187    23396122.380    95803206.800 7       -41.234          44.500    23396122.460    95803203.809 7       -41.234          46.875
R21  23193323.340   124112156.368 6       316.710          41.000    23193323.840   124112156.396 6       316.710          40.250    23193341.100    96531736.906 7       246.330          47.500    23193340.700    96531737.910 7       246.330          46.937
G03  23781379.060   124971990.985 7      6220.109          42.437    23781379.140   124971990.977 5      6220.109          30.750    23781397.660    97380826.868 5      4846.838          30.812    23781398.620    97380849.853 7      4846.838          46.687
> 2024 05 09 13 38 27.0000000  0 15
G02  21615042.800   113587816.437 7      2890.069          47.437    21615041.300   113587816.445 6      2890.069          39.125    21615045.820    88510003.187 6      2252.002          38.937
R08  23630103.380   126538142.565 7      6269.483          42.812    23630108.320   126538142.613 6      6269.483          39.812    23630127.480    98418655.979 6      4876.265          41.937    23630128.060    98418652.997 7      4876.265          42.375
G21  20812519.960   109370530.296 8      1899.541          48.125    20812518.040   109370530.304 6      1899.541          40.625    20812523.700    85223802.267 6      1480.162          40.750
G32  25390071.160   133425734.328 6      3668.291          39.312    25390070.240   133425734.335 5      3668.291          33.937    25390092.600   103968196.747 5      2858.408          33.937    25390094.040   103968205.774 6      2858.408          41.062
R07  21938614.380   117439131.822 7      4923.694          44.875    21938615.760   117439131.840 7      4923.694          44.250    21938635.580    91341642.005 7      3829.539          47.687    21938635.540    91341646.010 8      3829.539          48.000
G08  20811572.840   109365550.165 8      2713.376          48.875    20811571.560   109365550.167 8      2713.376          48.812    20811579.700    85219935.363 8      2114.319          49.000    20811580.960    85219942.371 8      2114.319          50.625
R22  20740895.180   110716304.448 8      1534.461          50.687    20740896.660   110716304.460 8      1534.461          49.000    20740905.020    86112721.966 8      1193.470          50.312    20740904.840    86112722.961 8      1193.470          50.187
R12  20073821.840   107230743.146 8      1305.524          51.000    20073822.300   107230743.147 8      1305.524          50.312    20073833.260    83401741.139 8      1015.407          50.250    20073833.380    83401738.134 8      1015.407          50.312
R23  21873684.620   117009466.301 6      3561.846          39.250    21873682.840   117009466.297 6      3561.846          38.875
G16  22868372.740   120174093.107 7      -773.548          43.312    22868371.140   120174093.117 5      -773.548          32.625    22868384.220    93642184.851 5      -602.765          32.812
R11  22495912.820   120211340.111 7     -1805.211          45.750    22495911.900   120211340.112 7     -1805.211          45.562    22495931.660    93497776.954 7     -1404.053          45.562    22495931.740    93497779.951 7     -1404.053          46.437
G27  21884870.760   115005766.769 7      1013.978          46.500    21884869.460   115005766.774 7      1013.978          47.125    21884879.600    89614915.884 7       790.113          46.750    21884879.560    89614918.885 8       790.113          48.562
G10  23396122.680   122947457.847 7       -53.387          46.562    23396122.560   122947457.855 7       -53.387          44.937    23396132.440    95803248.117 7       -41.600          45.000    23396132.740    95803245.128 7       -41.600          46.687
R21  23193264.320   124111839.448 6       316.905          41.000    23193263.640   124111839.479 6       316.905          41.062    23193281.880    96531490.409 7       246.482          47.500    23193281.240    96531491.414 7       246.482          47.312
G03  23780195.580   124965770.891 7      6219.878          42.500    23780195.340   124965770.886 5      6219.878          30.750    23780214.160    97375980.044 5      4846.658          30.812    23780214.960    97376003.035 7      4846.658          46.500
> 2024 05 09 13 38 28.0000000  0 15
G02  21614492.960   113584926.593 8      2889.822          48.250    21614491.320   113584926.598 6      2889.822          39.562    21614495.740    88507751.359 6      2251.809          38.937
R08  23628932.420   126531873.001 7      6269.674          43.375    23628938.160   126531873.059 6      6269.674          40.812    23628956.680    98413779.653 6      4876.413          41.937    23628957.000    98413776.675 7      4876.413          42.875
G21  20812158.460   109368630.927 7      1899.266          47.250    20812156.600   109368630.934 6      1899.266          40.312    20812162.280    85222322.241 6      1479.947          40.375
G32  25389373.380   133422066.239 6      3668.152          40.687    25389372.260   133422066.244 5      3668.152          33.937    25389394.540   103965338.517 5      2858.301          33.937    25389396.200   103965347.536 6      2858.301          41.062
R07  21937694.640   117434208.411 7      4923.296          45.000    21937696.240   117434208.429 7      4923.296          44.250    21937715.980    91337812.700 7      3829.230          47.500    21937716.240    91337816.707 7      3829.230          47.750
G08  20811056.660   109362836.924 8      2713.238          48.250    20811055.340   109362836.927 8      2713.238          48.750    20811063.460    85217821.147 8      2114.211          48.687    20811064.460    85217828.156 8      2114.211          50.375
R22  20740607.640   110714770.111 8      1534.395          49.375    20740609.520   110714770.115 8      1534.395          49.500    20740617.660    86111528.591 8      1193.418          50.250    20740617.320    86111529.586 8      1193.418          50.000
R12  20073577.740   107229438.091 8      1304.711          51.875    20073578.080   107229438.090 8      1304.711          50.437    20073589.020    83400726.092 8      1014.775          50.312    20073589.020    83400723.085 8      1014.775          50.812
R23  21873018.960   117005904.597 6      3561.622          39.250    21873017.600   117005904.577 6      3561.622          38.875
G16  22868519.800   120174866.795 7      -773.662          43.875    22868518.380   120174866.803 5      -773.662          32.625    22868531.500    93642787.707 5      -602.853          32.812
R11  22496250.660   120213145.418 7     -1805.325          45.937    22496249.780   120213145.408 7     -1805.325          45.937    22496269.320    93499181.073 7     -1404.142          45.125    22496269.540    93499184.070 7     -1404.142          45.625
G27  21884677.940   115004752.934 7      1013.754          47.125    21884676.620   115004752.944 7      1013.754          47.187    21884686.620    89614125.882 7       789.938          46.750    21884686.940    89614128.890 8       789.938          48.687
G10  23396132.840   122947511.465 7       -53.777          46.187    23396132.720   122947511.467 7       -53.777          44.875    23396142.560    95803289.895 7       -41.904          45.125    23396142.740    95803286.902 7       -41.904          47.000
R21  23193204.920   124111522.614 7       316.987          42.250    23193205.040   124111522.640 6       316.987          41.062    23193222.620    96531243.974 7       246.545          47.750    23193221.900    96531244.984 7       246.545          47.625
G03  23779011.860   124959551.081 7      6219.799          42.750    23779011.560   124959551.076 5      6219.799          30.750    23779030.600    97371133.435 5      4846.596          30.812    23779031.280    97371156.430 7      4846.596          46.187
> 2024 05 09 13 38 29.0000000  0 15
G02  21613943.200   113582037.028 7      2889.449          47.875    21613941.440   113582037.030 6      2889.449          39.500    21613945.820    88505499.749 6      2251.519          39.375
R08  23627761.680   126525603.339 7      6269.751          43.375    23627767.580   126525603.411 6      6269.751          40.812    23627785.900    98408903.258 6      4876.473          41.875    23627786.260    98408900.274 7      4876.473          42.500
G21  20811797.180   109366731.846 7      1898.965          46.375    20811795.180   109366731.854 6      1898.965          40.875    20811800.860    85220842.438 6      1479.713          40.687
G32  25388675.140   133418398.450 6      3667.735          40.125    25388674.340   133418398.450 5      3667.735          33.937    25388696.480   103962480.512 5      2857.975          33.750    25388698.420   103962489.529 6      2857.975          41.187
R07  21936775.240   117429285.514 7      4922.725          44.812    21936776.420   117429285.537 7      4922.725          43.625    21936796.520    91333983.801 7      3828.786          47.625    21936796.480    91333987.808 8      3828.786          48.187
G08  20810540.280   109360123.926 7      2712.958          47.000    20810539.060   109360123.931 8      2712.958          48.250    20810547.080    85215707.127 8      2113.993          49.062    20810548.060    85215714.135 8      2113.993          50.750
R22  20740320.340   110713235.868 8      1534.251          49.437    20740321.700   110713235.871 8      1534.251          49.187    20740330.140    86110335.284 8      1193.307          50.125    20740329.980    86110336.281 8      1193.307          50.375
R12  20073333.420   107228133.838 8      1303.897          50.187    20073333.720   107228133.842 8      1303.897          50.437    20073344.780    83399711.677 8      1014.142          50.375    20073344.840    83399708.667 8      1014.142          50.812
R23  21872352.780   117002343.005 6      3561.603          40.687    21872350.840   117002342.996 6      3561.603          39.375
G16  22868666.860   120175640.741 7      -773.882          42.812    22868665.760   120175640.746 5      -773.882          32.437    22868678.660    93643390.763 5      -603.025          32.812
R11  22496588.340   120214950.850 7     -1805.389          45.000    22496587.380   120214950.851 7     -1805.389          45.687    22496607.080    93500585.310 7     -1404.192          45.000    22496607.180    93500588.312 7     -1404.192          46.062
G27  21884485.040   115003739.327 7      1013.584          46.437    21884483.720   115003739.334 7      1013.584          47.000    21884493.760    89613336.054 7       789.806          46.937    21884494.160    89613339.058 8       789.806          49.000
G10  23396143.340   122947565.468 7       -54.065          46.250    23396143.000   122947565.473 7       -54.065          44.812    23396152.960    95803331.973 7       -42.129          44.750    23396153.200    95803328.982 7       -42.129          47.000
R21  23193145.780   124111205.641 7       317.091          42.250    23193146.060   124111205.677 6       317.091          41.062    23193163.240    96530997.442 7       246.626          47.687    23193162.560    96530998.447 7       246.626          47.250
G03  23777828.480   124953331.358 6      6219.783          41.937    23777828.000   124953331.352 5      6219.783          30.625    23777846.920    97366286.901 5      4846.584          30.500    23777847.700    97366309.888 7      4846.584          46.375
> 2024 05 09 13 38 30.0000000  0 15
G02  21613393.340   113579147.741 7      2889.097          47.625    21613391.640   113579147.746 6      2889.097          39.500    21613396.140    88503248.355 6      2251.244          39.250
R08  23626591.100   126519333.619 7      6269.648          43.250    23626596.380   126519333.701 6      6269.648          40.750    23626615.020    98404026.822 6      4876.393          41.875    23626615.400    98404023.842 7      4876.393          42.562
G21  20811435.820   109364833.037 7      1898.740          47.500    20811433.760   109364833.039 6      1898.740          40.375    20811439.600    85219362.842 6      1479.538          40.000
G32  25387976.920   133414730.877 6      3667.526          40.937    25387976.520   133414730.871 5      3667.526          33.812    25387998.560   103959622.673 5      2857.812          33.750    25388000.540   103959631.690 6      2857.812          41.187
R07  21935855.340   117424363.121 7      4922.235          44.625    21935856.640   117424363.128 7      4922.235          43.750    21935876.920    91330155.262 7      3828.405          47.375    21935877.080    91330159.276 8      3828.405          48.000
G08  20810024.000   109357411.163 7      2712.667          47.937    20810022.900   109357411.168 8      2712.667          48.500    20810030.900    85213593.284 8      2113.766          48.937    20810031.840    85213600.292 8      2113.766          50.562
R22  20740032.720   110711701.670 8      1534.172          49.812    20740034.220   110711701.679 8      1534.172          48.437    20740042.720    86109142.025 8      1193.245          50.062    20740042.680    86109143.020 8      1193.245          50.187
R12  20073089.300   107226830.452 8      1302.948          50.000    20073089.740   107226830.456 8      1302.948          50.562    20073100.880    83398697.924 8      1013.404          50.000    20073100.900    83398694.917 8      1013.404          50.500
R23  21871687.100   116998781.614 6      3561.157          40.687    21871685.000   116998781.624 6      3561.157          39.375
G16  22868814.600   120176414.960 7      -774.313          42.625    22868812.960   120176414.970 5      -774.313          32.437    22868825.960    93643994.040 5      -603.361          32.062
R11  22496926.280   120216756.485 7     -1805.644          46.187    22496925.260   120216756.489 7     -1805.644          45.062    22496945.100    93501989.689 7     -1404.389          45.000    22496944.860    93501992.690 7     -1404.389          45.812
G27  21884292.220   115002725.946 7      1013.347          46.375    21884290.820   115002725.953 7      1013.347          47.250    21884300.940    89612546.405 7       789.621          47.062    21884301.100    89612549.410 8       789.621          48.875
G10  23396153.620   122947619.897 7       -54.702          46.187    23396153.300   122947619.899 7       -54.702          44.937    23396163.260    95803374.377 7       -42.625          44.562    23396163.380    95803371.390 7       -42.625          46.937
R21  23193086.360   124110888.625 6       317.064          41.375    23193086.540   124110888.653 6       317.064          41.187    23193104.120    96530750.861 7       246.606          47.812    23193103.180    96530751.865 7       246.606          47.125
G03  23776645.100   124947111.753 6      6219.544          41.875    23776644.300   124947111.747 5      6219.544          30.625    23776663.340    97361440.454 5      4846.398          30.500    23776664.100    97361463.442 7      4846.398          46.562
> 2024 05 09 13 38 31.0000000  0 15
G02  21612843.520   113576258.712 7      2888.779          47.875    21612841.960   113576258.714 6      2888.779          39.125    21612846.380    88500997.161 6      2250.997          39.375
R08  23625420.320   126513063.838 7      6269.798          43.250    23625426.340   126513063.909 6      6269.798          40.750    23625444.480    98399150.304 7      4876.509          42.125    23625444.740    98399147.333 7      4876.509          42.625
G21  20811074.500   109362934.529 7      1898.310          47.187    20811072.640   109362934.531 6      1898.310          40.687    20811078.300    85217883.489 6      1479.203          40.375
G32  25387279.040   133411063.559 6      3667.196          41.562    25387278.520   133411063.561 5      3667.196          34.062    25387300.820   103956765.041 5      2857.556          33.937    25387302.500   103956774.066 6      2857.556          41.687
R07  21934935.380   117419441.209 7      4921.528          45.312    21934936.900   117419441.240 7      4921.528          44.312    21934957.240    91326327.141 7      3827.855          47.562    21934957.240    91326331.153 7      3827.855          47.375
G08  20809508.120   109354698.630 8      2712.328          48.750    20809506.600   109354698.632 8      2712.328          48.625    20809514.620    85211479.621 8      2113.503          48.437    20809515.580    85211486.632 8      2113.503          50.437
R22  20739745.500   110710167.570 8      1533.995          49.687    20739746.600   110710167.577 8      1533.995          49.187    20739755.420    86107948.831 8      1193.107          49.187    20739755.180    86107949.828 8      1193.107          49.062
R12  20072845.420   107225527.935 8      1302.014          50.625    20072845.700   107225527.936 8      1302.014          50.437    20072856.960    83397684.849 8      1012.677          49.562    20072856.940    83397681.841 8      1012.677          49.562
R23  21871021.400   116995220.373 6      3560.894          40.687    21871018.520   116995220.374 6      3560.894          39.375
G16  22868962.160   120177189.458 7      -774.809          42.750    22868960.240   120177189.471 5      -774.809          32.000    22868973.120    93644597.533 5      -603.747          32.062
R11  22497263.900   120218562.238 7     -1805.807          46.625    22497263.300   120218562.247 7     -1805.807          45.937    22497283.040    93503394.167 7     -1404.516          44.437    22497282.560    93503397.169 7     -1404.516          45.187
G27  21884099.400   115001712.817 7      1013.027          46.375    21884097.920   115001712.824 7      1013.027          46.937    21884108.140    89611756.950 7       789.372          46.562    21884108.240    89611759.951 8       789.372          48.562
G10  23396164.020   122947674.696 7       -55.069          46.687    23396163.760   122947674.699 7       -55.069          44.625    23396173.740    95803417.076 7       -42.911          44.812    23396173.840    95803414.085 7       -42.911          46.812
R21  23193027.720   124110571.548 6       317.015          41.375    23193027.180   124110571.560 6       317.015          41.187    23193044.880    96530504.235 7       246.567          47.250    23193044.300    96530505.238 7       246.567          46.687
G03  23775461.360   124940892.221 7      6219.474          42.375    23775460.900   124940892.216 5      6219.474          30.625    23775479.560    97356594.065 5      4846.343          30.500    23775480.540    97356617.058 7      4846.343          45.875
> 2024 05 09 13 38 32.0000000  0 15
G02  21612293.700   113573370.064 7      2888.362          47.437    21612292.140   113573370.063 6      2888.362          39.500    21612296.700    88498746.272 6      2250.672          39.625
R08  23624249.880   126506794.086 7      6269.552          42.687    23624254.880   126506794.162 6      6269.552          40.750    23624273.700    98394273.841 7      4876.318          42.562    23624274.120    98394270.863 7      4876.318          43.000
G21  20810713.160   109361036.407 7      1897.793          46.750    20810711.440   109361036.412 6      1897.793          40.375    20810717.020    85216404.432 6      1478.800          40.625
G32  25386580.800   133407396.632 7      3666.702          42.312    25386580.740   133407396.639 5      3666.702          34.062    25386603.000   103953907.709 5      2857.170          33.937    25386604.760   103953916.720 6      2857.170          41.750
R07  21934016.340   117414519.899 7      4920.905          45.312    21934017.440   117414519.922 7      4920.905          44.312    21934037.960    91322499.466 7      3827.371          47.812    21934037.960    91322503.476 8      3827.371          48.187
G08  20808991.840   109351986.430 8      2711.938          48.750    20808990.540   109351986.432 8      2711.938          48.750    20808998.520    85209366.219 8      2113.198          48.625    20808999.660    85209373.229 8      2113.198          51.000
R22  20739458.260   110708633.637 8      1533.832          49.062    20739458.980   110708633.645 8      1533.832          48.812    20739467.980    86106755.775 8      1192.980          50.062    20739467.740    86106756.768 8      1192.980          50.312
R12  20072601.700   107224226.387 8      1300.981          51.000    20072601.800   107224226.385 8      1300.981          50.125    20072613.440    83396672.530 8      1011.874          50.062    20072613.460    83396669.522 8      1011.874          50.750
R23  21870355.260   116991659.362 6      3560.752          39.875    21870352.480   116991659.350 6      3560.752          39.375
G16  22869109.460   120177964.292 7      -775.103          43.062    22869107.340   120177964.302 5      -775.103          32.000    22869120.720    93645201.285 5      -603.977          32.062
R11  22497602.140   120220368.295 7     -1806.331          46.000    22497601.120   120220368.294 7     -1806.331          45.187    22497620.800    93504798.879 7     -1404.924          45.000    22497621.020    93504801.880 7     -1404.924          45.437
G27  21883906.500   115000700.003 7      1012.677          47.187    21883905.140   115000700.011 7      1012.677          47.187    21883915.400    89610967.740 7       789.099          46.812    21883915.420    89610970.746 8       789.099          48.937
G10  23396174.500   122947730.008 7       -55.662          46.250    23396174.340   122947730.008 7       -55.662          44.937    23396184.200    95803460.174 7       -43.373          44.687    23396184.300    95803457.181 7       -43.373          47.375
R21  23192968.600   124110254.473 6       317.049          41.375    23192968.040   124110254.490 6       317.049          40.812    23192985.600    96530257.617 7       246.593          47.312    23192985.000    96530258.623 7       246.593          47.750
G03  23774278.000   124934672.916 7      6219.007          42.187    23774277.300   124934672.913 5      6219.007          30.625    23774296.140    97351747.853 5      4845.979          30.812    23774296.420    97351770.844 7      4845.979          46.000
> 2024 05 09 13 38 33.0000000  0 15
G02  21611744.100   113570481.686 7      2888.169          47.375    21611742.560   113570481.693 6      2888.169          39.312    21611747.080    88496495.589 6      2250.522          39.250
R08  23623078.640   126500524.208 7      6269.864          42.687    23623084.040   126500524.276 6      6269.864          40.937    23623103.040    98389397.267 7      4876.561          42.812    23623103.320    98389394.293 7      4876.561          43.500
G21  20810352.200   109359138.541 8      1897.670          48.250    20810350.320   109359138.543 6      1897.670          40.687    20810355.940    85214925.577 6      1478.704          40.812
G32  25385883.120   133403729.928 6      3666.529          41.375    25385883.200   133403729.933 5      3666.529          33.812    25385905.100   103951050.550 5      2857.036          33.750    25385907.000   103951059.565 6      2857.036          41.750
R07  21933096.940   117409599.090 7      4920.466          44.875    21933098.820   117409599.105 7      4920.466          43.375    21933118.740    91318672.177 7      3827.029          47.500    21933118.920    91318676.188 8      3827.029          48.125
G08  20808475.760   109349274.464 8      2711.716          48.687    20808474.340   109349274.468 8      2711.716          48.562    20808482.480    85207252.998 8      2113.025          48.875    20808483.420    85207260.007 8      2113.025          50.250
R22  20739170.980   110707099.788 8      1533.749          49.500    20739171.420   110707099.794 8      1533.749          48.812    20739180.580    86105562.774 8      1192.916          49.812    20739180.380    86105563.769 8      1192.916          50.375
R12  20072358.260   107222925.648 8      1300.284          49.187    20072358.000   107222925.641 8      1300.284          50.625    20072369.880    83395660.834 8      1011.332          50.250    20072370.120    83395657.833 8      1011.332          51.062
R23  21869689.980   116988098.503 6      3560.848          39.875    21869686.720   116988098.488 6      3560.848          38.812
G16  22869256.860   120178739.394 7      -775.343          42.750    22869254.620   120178739.406 5      -775.343          32.000    22869268.240    93645805.244 5      -604.163          32.125
R11  22497940.200   120222174.470 7     -1806.312          45.812    22497938.960   120222174.468 7     -1806.312          44.937    22497958.880    93506203.675 7     -1404.909          44.687    22497958.920    93506206.681 7     -1404.909          45.500
G27  21883714.100   114999687.424 7      1012.478          45.937    21883712.580   114999687.426 7      1012.478          47.250    21883722.700    89610178.713 7       788.944          46.812    21883722.900    89610181.715 8       788.944          48.875
G10  23396185.160   122947785.693 7       -55.889          47.000    23396184.980   122947785.693 7       -55.889          44.687    23396194.780    95803503.563 7       -43.550          45.312    23396194.860    95803500.574 7       -43.550          47.000
R21  23192908.660   124109937.294 6       317.102          41.062    23192908.540   124109937.311 6       317.102          40.812    23192926.200    96530010.914 7       246.635          47.375    23192925.800    96530011.922 7       246.635          47.312
G03  23773094.560   124928453.647 7      6219.272          42.625    23773093.860   124928453.644 5      6219.272          30.625    23773112.420    97346901.670 5      4846.186          30.812    23773112.980    97346924.669 7      4846.186          45.937
> 2024 05 09 13 38 34.0000000  0 15
G02  21611194.620   113567593.671 7      2887.854          47.375    21611193.040   113567593.676 6      2887.854          39.125    21611197.360    88494245.187 6      2250.276          39.687
R08  23621908.060   126494254.330 7      6269.781          42.000    23621912.780   126494254.393 6      6269.781          40.937    23621932.900    98384520.707 7      4876.496          42.812    23621932.580    98384517.727 7      4876.496          43.687
G21  20809990.880   109357241.066 8      1897.318          48.062    20809989.280   109357241.068 6      1897.318          40.500    20809994.940    85213447.025 6      1478.429          40.500
G32  25385185.200   133400063.571 6      3666.243          41.250    25385185.560   133400063.576 5      3666.243          33.812    25385207.600   103948193.665 5      2856.813          33.750    25385208.860   103948202.692 6      2856.813          41.875
R07  21932177.780   117404678.894 7      4919.928          45.750    21932179.800   117404678.906 7      4919.928          44.437    21932199.740    91314845.364 8      3826.611          48.187    21932199.800    91314849.379 7      3826.611          47.562
G08  20807959.560   109346562.813 8      2711.497          48.875    20807958.440   109346562.810 8      2711.497          48.750    20807966.480    85205140.021 8      2112.855          48.687    20807967.580    85205147.034 8      2112.855          50.625
R22  20738883.720   110705566.113 8      1533.542          49.187    20738883.820   110705566.122 8      1533.542          48.812    20738893.040    86104369.915 8      1192.755          50.187    20738893.140    86104370.911 8      1192.755          50.437
R12  20072115.080   107221625.821 8      1299.337          50.500    20072114.460   107221625.816 8      1299.337          50.125    20072126.780    83394649.858 8      1010.595          50.437    20072126.640    83394646.855 8      1010.595          50.562
R23  21869024.720   116984537.930 6      3560.419          39.875    21869021.180   116984537.915 6      3560.419          38.812
G16  22869404.720   120179514.861 7      -775.710          43.187    22869402.320   120179514.874 5      -775.710          31.937    22869415.700    93646409.496 5      -604.449          32.125
R11  22498278.220   120223980.875 7     -1806.426          46.000    22498276.820   120223980.876 7     -1806.426          45.125    22498296.800    93507608.654 7     -1404.998          45.000    22498297.080    93507611.658 7     -1404.998          45.375
G27  21883521.480   114998675.154 7      1012.206          45.875    21883519.720   114998675.159 7      1012.206          47.437    21883529.920    89609389.931 7       788.732          47.062    21883530.200    89609392.927 8       788.732          48.750
G10  23396195.880   122947841.875 7       -56.338          47.375    23396195.620   122947841.877 7       -56.338          45.687    23396205.560    95803547.341 7       -43.900          45.500    23396205.600    95803544.352 7       -43.900          47.187
R21  23192849.500   124109620.069 6       317.227          41.062    23192849.900   124109620.081 6       317.227          40.812    23192867.100    96529764.175 8       246.732          48.062    23192866.560    96529765.183 7       246.732          47.625
G03  23771911.340   124922234.628 6      6218.929          41.875    23771910.420   124922234.630 5      6218.929          30.625    23771928.760    97342055.685 5      4845.918          30.812    23771929.760    97342078.680 7      4845.918          46.187
> 2024 05 09 13 38 35.0000000  0 15
G02  21610645.040   113564706.037 7      2887.535          47.250    21610643.320   113564706.042 6      2887.535          39.875    21610648.020    88491995.085 6      2250.027          39.187
R08  23620736.920   126487984.438 7      6270.040          42.000    23620742.060   126487984.501 6      6270.040          40.937    23620761.840    98379644.125 7      4876.697          42.937    23620761.940    98379641.154 7      4876.697          43.562
G21  20809630.220   109355343.974 8      1896.918          48.312    20809628.320   109355343.974 6      1896.918          40.687    20809633.940    85211968.771 6      1478.118          40.375
G32  25384487.760   133396397.609 6      3665.814          41.187    25384487.820   133396397.611 5      3665.814          33.812    25384509.880   103945337.083 5      2856.478          33.687    25384511.720   103945346.096 6      2856.478          41.875
R07  21931259.200   117399759.321 7      4919.382          45.375    21931260.560   117399759.323 7      4919.382          44.437    21931280.560    91311019.044 7      3826.186          47.812    21931281.060    91311023.056 7      3826.186          47.812
G08  20807443.640   109343851.511 8      2711.173          48.750    20807442.600   109343851.514 8      2711.173          48.375    20807450.580    85203027.323 8      2112.603          48.812    20807451.660    85203034.336 8      2112.603          50.312
R22  20738596.240   110704032.617 8      1533.447          48.812    20738596.360   110704032.626 8      1533.447          48.312    20738605.720    86103177.194 8      1192.681          49.625    20738605.820    86103178.187 8      1192.681          49.875
R12  20071871.780   107220326.944 8      1298.500          48.875    20071871.540   107220326.942 8      1298.500          49.562    20071883.600    83393639.619 8      1009.944          50.562    20071883.640    83393636.620 8      1009.944          51.562
R23  21868360.020   116980977.571 6      3560.371          39.375    21868356.360   116980977.557 6      3560.371          38.812
G16  22869551.900   120180290.685 7      -775.942          43.312    22869549.800   120180290.698 5      -775.942          31.937    22869563.560    93647014.020 5      -604.630          31.687
R11  22498616.280   120225787.557 7     -1806.764          45.687    22498614.620   120225787.564 7     -1806.764          44.500    22498634.960    93509013.846 7     -1405.261          44.875    22498635.020    93509016.851 7     -1405.261          45.687
G27  21883328.740   114997663.239 7      1011.790          45.875    21883327.260   114997663.249 7      1011.790          46.750    21883337.360    89608601.426 7       788.408          46.687    21883337.560    89608604.422 8       788.408          48.750
G10  23396206.680   122947898.579 7       -56.969          47.062    23396206.540   122947898.584 7       -56.969          45.312    23396216.360    95803591.528 7       -44.392          45.625    23396216.080    95803588.535 7       -44.392          47.250
R21  23192790.980   124109302.853 6       317.417          41.312    23192790.680   124109302.857 6       317.417          40.937    23192807.360    96529517.439 7       246.880          47.562    23192807.320    96529518.446 7       246.880          47.000
G03  23770727.840   124916015.777 6      6218.875          41.562    23770726.900   124916015.782 5      6218.875          30.625    23770745.320    97337209.829 5      4845.877          30.812    23770745.860    97337232.826 7      4845.877          45.500
> 2024 05 09 13 38 36.0000000  0 15
G02  21610095.580   113561818.744 7      2887.067          47.000    21610094.080   113561818.749 6      2887.067          39.375    21610098.520    88489745.242 6      2249.663          39.562
R08  23619566.560   126481714.536 7      6269.814          42.000    23619570.200   126481714.605 6      6269.814          40.937    23619590.800    98374767.535 7      4876.522          42.937    23619591.100    98374764.559 7      4876.522          43.500
G21  20809269.120   109353447.209 7      1896.525          47.500    20809267.360   109353447.208 6      1896.525          40.687    20809272.940    85210490.768 6      1477.812          41.187
G32  25383790.060   133392731.898 6      3665.479          41.000    25383790.400   133392731.906 5      3665.479          33.812    25383812.180   103942480.704 5      2856.217          33.687    25383814.280   103942489.723 6      2856.217          41.312
R07  21930340.340   117394840.308 7      4918.671          44.937    21930341.580   117394840.315 7      4918.671          43.187    21930361.440    91307193.159 7      3825.633          47.562    21930361.920    91307197.173 8      3825.633          48.500
G08  20806927.900   109341140.504 7      2710.736          47.937    20806926.620   109341140.499 8      2710.736          48.375    20806934.620    85200914.840 8      2112.262          48.937    20806935.720    85200921.850 8      2112.262          50.062
R22  20738309.020   110702499.270 7      1533.119          47.375    20738308.980   110702499.271 7      1533.119          47.937    20738318.320    86101984.579 8      1192.426          49.750    20738318.420    86101985.570 8      1192.426          50.125
R12  20071628.840   107219029.001 8      1297.371          50.000    20071628.760   107219029.000 8      1297.371          49.312    20071640.700    83392630.102 8      1009.066          50.375    20071640.720    83392627.105 8      1009.066          51.062
R23  21867694.520   116977417.416 6      3559.965          39.375    21867691.060   116977417.423 6      3559.965          38.812
G16  22869699.600   120181066.844 7      -776.419          43.125    22869697.500   120181066.859 5      -776.419          31.937    22869711.100    93647618.807 5      -605.002          31.687
R11  22498954.280   120227594.451 7     -1807.071          46.000    22498952.440   120227594.457 7     -1807.071          45.312    22498973.140    93510419.203 7     -1405.500          45.062    22498973.040    93510422.211 7     -1405.500          46.000
G27  21883136.140   114996651.579 7      1011.511          46.562    21883134.820   114996651.592 7      1011.511          46.687    21883144.900    89607813.118 7       788.190          46.500    21883144.920    89607816.113 8       788.190          48.625
G10  23396217.760   122947955.723 7       -57.545          46.750    23396217.300   122947955.725 7       -57.545          45.187    23396227.380    95803636.052 7       -44.840          45.312    23396227.320    95803633.060 7       -44.840          47.062
R21  23192731.420   124108985.631 6       317.149          41.312    23192731.060   124108985.643 6       317.149          40.937    23192748.320    96529270.713 7       246.671          47.437    23192747.780    96529271.718 7       246.671          46.750
G03  23769544.680   124909797.094 7      6218.560          42.250    23769543.460   124909797.096 5      6218.560          30.125    23769561.960    97332364.104 4      4845.631          29.875    23769562.340    97332387.091 7      4845.631          45.562
> 2024 05 09 13 38 37.0000000  0 15
G02  21609546.320   113558931.996 7      2886.654          47.312    21609544.740   113558932.006 6      2886.654          39.562    21609549.080    88487495.832 6      2249.341          39.437
R08  23618395.060   126475444.805 7      6269.824          42.000    23618398.760   126475444.882 6      6269.824          40.312    23618420.080    98369891.090 7      4876.530          43.062    23618420.580    98369888.114 7      4876.530          44.000
G21  20808908.480   109351551.026 7      1896.047          47.687    20808906.440   109351551.031 6      1896.047          40.375    20808912.100    85209013.228 6      1477.439          39.875
G32  25383092.660   133389066.774 6      3665.072          40.000    25383093.000   133389066.784 5      3665.072          34.000    25383114.700   103939624.779 5      2855.901          33.875    25383116.500   103939633.804 6      2855.901          41.312
R07  21929421.220   117389922.084 7      4917.958          45.812    21929423.080   117389922.102 7      4917.958          43.937    21929442.760    91303367.893 8      3825.079          48.000    21929443.200    91303371.907 8      3825.079          48.125
G08  20806412.120   109338429.996 8      2710.448          48.500    20806410.880   109338429.991 8      2710.448          48.500    20806418.900    85198802.758 8      2112.037          48.812    20806419.840    85198809.768 8      2112.037          49.937
R22  20738022.100   110700966.255 8      1533.028          48.062    20738021.840   110700966.258 8      1533.028          48.562    20738031.300    86100792.235 8      1192.355          50.312    20738031.320    86100793.230 8      1192.355          50.250
R12  20071386.080   107217732.178 8      1296.405          49.750    20071385.760   107217732.179 8      1296.405          50.437    20071398.060    83391621.460 8      1008.315          50.687    20071398.080    83391618.465 8      1008.315          51.437
R23  21867028.920   116973857.718 6      3559.690          39.375    21867025.020   116973857.741 6      3559.690          38.875
G16  22869847.440   120181843.554 7      -776.889          42.937    22869845.360   120181843.566 5      -776.889          31.687    22869858.920    93648224.023 5      -605.368          31.687
R11  22499292.540   120229401.798 7     -1807.434          46.375    22499290.840   120229401.808 7     -1807.434          45.375    22499311.580    93511824.922 7     -1405.782          45.312    22499311.620    93511827.928 7     -1405.782          46.062
G27  21882943.740   114995640.468 7      1011.039          45.500    21882942.420   114995640.476 7      1011.039          47.062    21882952.400    89607025.233 7       787.823          46.500    21882952.540    89607028.233 8       787.823          49.000
G10  23396228.580   122948013.533 7       -57.949          46.500    23396228.360   122948013.541 7       -57.949          45.000    23396238.200    95803681.097 7       -45.155          45.500    23396238.260    95803678.106 7       -45.155          47.187
R21  23192671.980   124108668.593 6       317.145          41.312    23192672.260   124108668.622 6       317.145          40.625    23192688.760    96529024.132 7       246.669          47.437    23192688.400    96529025.140 7       246.669          46.625
G03  23768360.820   124903578.797 6      6218.250          41.437    23768360.260   124903578.805 5      6218.250          30.125    23768378.560    97327518.678 4      4845.390          29.875    23768379.260    97327541.677 7      4845.390          45.250
> 2024 05 09 13 38 38.0000000  0 15
G02  21608997.300   113556045.680 7      2886.089          47.562    21608995.460   113556045.688 6      2886.089          39.875    21608999.740    88485246.755 6      2248.901          39.750
R08  23617224.380   126469175.200 6      6269.392          40.000    23617228.080   126469175.272 6      6269.392          40.312    23617249.080    98365014.730 7      4876.194          42.812    23617249.460    98365011.751 7      4876.194          43.750
G21  20808547.680   109349655.262 7      1895.518          47.562    20808545.680   109349655.267 6      1895.518          40.625    20808551.480    85207536.008 6      1477.027          40.437
G32  25382395.500   133385402.043 6      3664.577          40.312    25382395.620   133385402.051 5      3664.577          34.000    25382417.340   103936769.161 5      2855.514          33.875    25382419.200   103936778.188 6      2855.514          41.812
R07  21928502.400   117385004.495 7      4917.179          45.750    21928504.140   117385004.515 7      4917.179          44.375    21928524.060    91299543.118 7      3824.473          47.812    21928524.400    91299547.132 8      3824.473          48.000
G08  20805896.260   109335719.885 8      2709.869          49.187    20805895.140   109335719.882 8      2709.869          49.062    20805903.120    85196690.985 8      2111.586          49.062    20805904.040    85196697.991 8      2111.586          50.125
R22  20737734.780   110699433.495 8      1532.594          48.687    20737734.300   110699433.504 8      1532.594          48.625    20737743.900    86099600.095 8      1192.017          50.187    20737744.000    86099601.090 8      1192.017          49.937
R12  20071143.700   107216436.333 8      1295.300          50.562    20071143.420   107216436.334 8      1295.300          50.000    20071155.560    83390613.576 8      1007.456          50.625    20071155.420    83390610.581 8      1007.456          51.937
R23  21866362.980   116970298.362 6      3559.147          39.375    21866360.480   116970298.377 6      3559.147          38.875
G16  22869995.640   120182620.663 7      -777.300          43.812    22869993.240   120182620.673 5      -777.300          31.687    22870006.840    93648829.544 5      -605.688          31.625
R11  22499630.600   120231209.459 7     -1807.897          45.937    22499629.420   120231209.460 7     -1807.897          44.812    22499649.920    93513230.876 7     -1406.142          44.812    22499649.840    93513233.882 7     -1406.142          45.875
G27  21882751.340   114994629.725 7      1010.569          45.937    21882750.020   114994629.730 7      1010.569          46.937    21882760.060    89606237.635 7       787.457          46.687    21882760.480    89606240.633 8       787.457          48.875
G10  23396239.680   122948071.911 7       -58.701          46.750    23396239.520   122948071.919 7       -58.701          45.437    23396249.440    95803726.582 7       -45.741          44.875    23396249.180    95803723.591 7       -45.741          47.562
R21  23192612.440   124108351.583 6       317.021          41.250    23192612.320   124108351.619 6       317.021          40.625    23192629.720    96528777.573 7       246.572          47.062    23192629.100    96528778.582 7       246.572          46.812
G03  23767177.760   124897360.748 7      6217.937          42.062    23767177.040   124897360.753 5      6217.937          30.125    23767195.320    97322673.445 4      4845.146          29.875    23767195.760    97322696.427 7      4845.146          45.375
> 2024 05 09 13 38 39.0000000  0 15
G02  21608448.040   113553159.644 7      2885.824          47.312    21608446.220   113553159.651 6      2885.824          40.062    21608450.560    88482997.898 6      2248.694          40.250
R08  23616053.360   126462905.475 6      6269.767          40.000    23616057.000   126462905.533 6      6269.767          40.312    23616078.240    98360138.275 7      4876.485          43.375    23616078.680    98360135.297 7      4876.485          43.812
G21  20808186.860   109347759.815 8      1895.197          48.062    20808185.080   109347759.815 6      1895.197          40.562    20808190.660    85206059.035 6      1476.777          40.562
G32  25381697.840   133381737.586 6      3664.308          40.500    25381698.260   133381737.599 5      3664.308          33.750    25381719.860   103933913.756 5      2855.305          33.750    25381721.540   103933922.780 6      2855.305          41.812
R07  21927583.820   117380087.398 7      4916.758          45.625    21927585.180   117380087.418 7      4916.758          44.375    21927605.620    91295718.728 8      3824.145          48.062    21927605.660    91295722.740 8      3824.145          48.000
G08  20805380.580   109333010.018 8      2709.657          48.437    20805379.340   109333010.013 8      2709.657          48.812    20805387.520    85194579.398 8      2111.421          49.125    20805388.240    85194586.409 8      2111.421          50.250
R22  20737447.720   110697900.829 8      1532.472          48.750    20737446.940   110697900.841 8      1532.472          48.562    20737456.640    86098408.019 8      1191.923          49.875    20737456.920    86098409.013 8      1191.923          49.562
R12  20070900.860   107215141.355 8      1294.473          50.125    20070900.680   107215141.359 8      1294.473          50.625    20070913.180    83389606.369 8      1006.812          50.437    20070913.100    83389603.374 8      1006.812          51.250
R23  21865697.240   116966739.129 6      3559.160          40.125    21865695.100   116966739.144 6      3559.160          38.875
G16  22870143.580   120183398.061 7      -777.599          43.500    22870141.180   120183398.069 5      -777.599          31.812    22870154.800    93649435.295 5      -605.922          31.625
R11  22499968.920   120233017.269 7     -1807.884          47.000    22499968.240   120233017.267 7     -1807.884          45.312    22499988.120    93514636.942 7     -1406.132          45.312    22499988.100    93514639.946 7     -1406.132          45.500
G27  21882559.140   114993619.232 7      1010.329          45.625    21882557.820   114993619.234 7      1010.329          46.937    21882567.820    89605450.231 7       787.270          46.812    21882568.280    89605453.231 8       787.270          48.625
G10  23396250.700   122948130.697 7       -59.121          46.937    23396250.700   122948130.699 7       -59.121          45.375    23396260.780    95803772.383 7       -46.068          45.312    23396260.260    95803769.394 7       -46.068          47.062
R21  23192553.100   124108034.503 6       317.070          41.250    23192553.040   124108034.531 6       317.070          40.625    23192570.440    96528530.936 7       246.610          47.125    23192569.780    96528531.942 7       246.610          47.187
G03  23765994.820   124891142.808 6      6217.892          41.562    23765993.720   124891142.808 5      6217.892          30.125    23766012.080    97317828.293 4      4845.111          29.875    23766012.580    97317851.276 7      4845.111          45.125
> 2024 05 09 13 38 40.0000000  0 15
G02  21607898.960   113550273.988 7      2885.460          47.812    21607897.120   113550273.996 6      2885.460          39.937    21607901.500    88480749.337 6      2248.410          39.625
R08  23614883.000   126456635.840 6      6269.587          40.000    23614885.780   126456635.901 6      6269.587          40.312    23614907.620    98355261.899 7      4876.346          43.437    23614907.840    98355258.919 7      4876.346          43.937
G21  20807826.180   109345864.744 8      1894.851          48.000    20807824.380   109345864.744 6      1894.851          40.437    20807830.080    85204582.356 6      1476.507          40.625
G32  25381000.600   133378073.521 6      3663.819          40.812    25381001.000   133378073.528 5      3663.819          33.500    25381022.700   103931058.655 5      2854.924          33.750    25381024.220   103931067.672 6      2854.924          41.187
R07  21926664.940   117375170.957 7      4916.113          45.187    21926666.660   117375170.974 7      4916.113          44.125    21926686.980    91291894.836 7      3823.644          47.812    21926687.280    91291898.849 7      3823.644          47.375
G08  20804865.040   109330300.491 7      2709.319          47.625    20804863.860   109330300.488 8      2709.319          48.437    20804871.860    85192468.078 8      2111.157          48.687    20804872.580    85192475.087 8      2111.157          50.125
R22  20737160.380   110696368.342 7      1532.367          47.875    20737159.880   110696368.348 8      1532.367          48.500    20737169.500    86097216.079 8      1191.841          50.312    20737169.880    86097217.078 8      1191.841          49.312
R12  20070658.660   107213847.355 8      1293.532          50.062    20070658.520   107213847.356 8      1293.532          50.500    20070671.300    83388599.918 8      1006.080          50.687    20070671.020    83388596.928 8      1006.080          50.812
R23  21865031.820   116963180.180 6      3558.784          40.125    21865029.720   116963180.208 6      3558.784          39.312
G16  22870291.280   120184175.843 7      -778.022          42.937    22870289.340   120184175.854 5      -778.022          31.812    22870303.060    93650041.347 5      -606.251          31.625
R11  22500307.260   120234825.349 7     -1808.163          45.750    22500306.780   120234825.350 7     -1808.163          45.500    22500326.260    93516043.221 7     -1406.349          45.312    22500326.400    93516046.226 7     -1406.349          46.500
G27  21882366.740   114992609.075 7      1009.949          46.312    21882365.460   114992609.080 7      1009.949          47.312    21882375.560    89604663.100 7       786.974          46.937    21882375.860    89604666.098 8       786.974          48.875
G10  23396262.160   122948189.963 7       -59.528          47.000    23396262.000   122948189.971 7       -59.528          45.500    23396272.040    95803818.566 7       -46.385          45.687    23396271.860    95803815.579 7       -46.385          47.125
R21  23192493.620   124107717.393 6       317.074          41.125    23192493.840   124107717.437 6       317.074          40.687    23192511.320    96528284.300 7       246.613          47.312    23192510.600    96528285.305 7       246.613          47.062
G03  23764811.440   124884925.090 7      6217.545          42.500    23764810.420   124884925.084 5      6217.545          30.000    23764828.820    97312983.318 5      4844.840          30.062    23764829.740    97313006.300 7      4844.840          45.812
> 2024 05 09 13 38 41.0000000  0 15
G02  21607349.840   113547388.729 7      2885.141          47.875    21607348.160   113547388.740 6      2885.141          39.562    21607352.440    88478501.085 6      2248.162          39.312
R08  23613712.480   126450366.203 6      6269.712          40.000    23613713.680   126450366.264 6      6269.712          39.250    23613736.400    98350385.523 7      4876.443          43.062    23613737.040    98350382.535 7      4876.443          43.250
G21  20807465.640   109343970.075 7      1894.568          47.687    20807464.020   109343970.075 6      1894.568          40.812    20807469.500    85203105.991 6      1476.287          40.625
G32  25380303.520   133374409.791 6      3663.650          39.687    25380303.600   133374409.799 5      3663.650          33.500    25380325.380   103928203.815 5      2854.792          33.375    25380327.480   103928212.834 6      2854.792          41.187
R07  21925746.520   117370255.137 7      4915.608          45.125    21925748.880   117370255.149 7      4915.608          43.750    21925768.680    91288071.432 7      3823.250          47.125    21925769.000    91288075.450 7      3823.250          47.250
G08  20804349.640   109327591.317 8      2709.084          48.250    20804348.340   109327591.317 7      2709.084          47.812    20804356.080    85190357.036 8      2110.974          48.375    20804357.040    85190364.038 8      2110.974          50.000
R22  20736873.440   110694836.052 7      1532.278          46.500    20736872.680   110694836.064 7      1532.278          47.312    20736882.300    86096024.304 8      1191.772          48.812    20736882.540    86096025.301 8      1191.772          48.937
R12  20070416.680   107212554.309 8      1292.648          49.062    20070416.460   107212554.310 8      1292.648          49.687    20070429.400    83387594.215 8      1005.393          50.250    20070429.020    83387591.223 8      1005.393          50.562
R23  21864366.900   116959621.522 6      3558.499          40.125    21864364.500   116959621.551 6      3558.499          39.312
G16  22870439.260   120184953.993 7      -778.207          43.000    22870437.400   120184954.001 5      -778.207          31.812    22870451.020    93650647.687 5      -606.395          31.500
R11  22500645.900   120236633.712 7     -1808.339          46.250    22500645.400   120236633.716 7     -1808.339          45.562    22500664.920    93517449.742 7     -1406.486          45.125    22500664.880    93517452.749 7     -1406.486          45.312
G27  21882174.680   114991599.246 7      1009.800          45.750    21882173.220   114991599.254 7      1009.800          46.250    21882183.380    89603876.221 7       786.857          46.187    21882183.760    89603879.220 8       786.857          48.812
G10  23396273.660   122948249.758 7       -59.848          46.625    23396273.460   122948249.765 7       -59.848          45.062    23396283.420    95803865.162 7       -46.635          45.312    23396283.120    95803862.175 7       -46.635          47.187
R21  23192434.440   124107400.337 6       317.109          41.125    23192434.600   124107400.381 6       317.109          40.687    23192452.140    96528037.701 7       246.640          46.812    23192451.300    96528038.700 7       246.640          46.437
G03  23763628.080   124878707.563 6      6217.467          41.625    23763627.080   124878707.563 5      6217.467          30.000    23763645.780    97308138.492 5      4844.779          30.062    23763646.140    97308161.476 7      4844.779          45.437
> 2024 05 09 13 38 42.0000000  0 15
G02  21606800.840   113544503.762 7      2884.844          47.875    21606799.300   113544503.767 6      2884.844          40.125    21606803.540    88476253.057 6      2247.930          39.937
R08  23612541.260   126444096.497 6      6269.828          39.562    23612544.120   126444096.541 6      6269.828          39.250    23612565.580    98345509.074 7      4876.533          42.812    23612566.320    98345506.088 7      4876.533          43.500
G21  20807105.180   109342075.685 8      1894.379          48.375    20807103.460   109342075.687 6      1894.379          40.750    20807108.940    85201629.845 6      1476.140          40.312
G32  25379606.460   133370746.359 6      3663.277          39.875    25379606.440   133370746.366 5      3663.277          33.500    25379628.020   103925349.207 5      2854.502          33.375    25379630.160   103925358.218 6      2854.502          41.125
R07  21924828.240   117365339.820 7      4915.187          45.000    21924830.560   117365339.835 7      4915.187          44.312    21924850.700    91284248.416 7      3822.923          47.750    21924850.700    91284252.434 8      3822.923          48.562
G08  20803834.000   109324882.391 8      2708.859          48.937    20803832.780   109324882.388 8      2708.859          48.812    20803840.720    85188246.178 8      2110.799          48.812    20803841.660    85188253.187 8      2110.799          50.500
R22  20736586.360   110693303.851 7      1532.194          47.875    20736585.500   110693303.862 8      1532.194          48.437    20736595.240    86094832.587 8      1191.706          50.062    20736595.520    86094833.583 8      1191.706          49.687
R12  20070174.760   107211262.115 8      1291.838          49.812    20070174.440   107211262.116 8      1291.838          50.500    20070187.560    83386589.171 8      1004.763          51.125    20070187.180    83386586.176 8      1004.763          51.687
R23  21863701.540   116956063.004 6      3558.401          39.750    21863699.980   116956063.024 6      3558.401          39.312
G16  22870587.640   120185732.430 7      -778.561          43.812    22870585.540   120185732.440 5      -778.561          31.937    22870598.960    93651254.248 5      -606.671          31.500
R11  22500984.560   120238442.257 7     -1808.508          45.875    22500983.880   120238442.263 7     -1808.508          45.250    22501003.220    93518856.369 7     -1406.617          45.500    22501003.380    93518859.379 7     -1406.617          45.812
G27  21881982.500   114990589.680 7      1009.555          45.812    21881980.980   114990589.688 7      1009.555          47.125    21881991.300    89603089.540 7       786.666          46.812    21881991.680    89603092.541 8       786.666          48.250
G10  23396285.080   122948309.972 7       -60.231          47.000    23396284.880   122948309.975 7       -60.231          45.625    23396294.840    95803912.074 7       -46.933          45.750    23396294.740    95803909.081 7       -46.933          47.437
R21  23192375.280   124107083.225 6       317.254          41.125    23192375.100   124107083.261 6       317.254          40.687    23192392.940    96527791.049 7       246.753          47.687    23192392.080    96527792.042 7       246.753          46.812
G03  23762444.720   124872490.160 6      6217.374          41.937    23762444.100   124872490.157 5      6217.374          30.000    23762462.600    97303293.758 5      4844.707          30.062    23762463.360    97303316.746 7      4844.707          45.875
> 2024 05 09 13 38 43.0000000  0 15
G02  21606251.840   113541619.097 8      2884.638          49.000    21606250.340   113541619.102 6      2884.638          39.812    21606254.660    88474005.270 6      2247.770          39.812
R08  23611371.080   126437826.728 6      6269.854          39.562    23611373.160   126437826.778 6      6269.854          39.250    23611394.880    98340632.600 7      4876.553          42.875    23611395.420    98340629.618 7      4876.553          43.812
G21  20806744.720   109340181.657 8      1893.938          48.312    20806743.020   109340181.662 6      1893.938          41.250    20806748.580    85200153.979 6      1475.796          40.250
G32  25378909.280   133367083.218 6      3663.047          40.375    25378909.420   133367083.218 5      3663.047          33.187    25378930.800   103922494.820 5      2854.323          33.312    25378932.900   103922503.835 6      2854.323          41.125
R07  21923910.180   117360425.081 7      4914.545          45.687    21923912.340   117360425.099 7      4914.545          44.312    21923932.820    91280425.859 7      3822.424          47.875    21923932.760    91280429.874 8      3822.424          48.000
G08  20803318.380   109322173.741 8      2708.635          49.562    20803317.380   109322173.738 8      2708.635          48.625    20803325.200    85186135.546 8      2110.625          49.125    20803326.340    85186142.550 8      2110.625          50.000
R22  20736299.360   110691771.766 7      1532.165          47.937    20736298.240   110691771.775 8      1532.165          48.250    20736308.160    86093640.971 8      1191.684          49.625    20736308.420    86093641.968 8      1191.684          49.812
R12  20069933.080   107209970.786 8      1291.091          49.500    20069932.520   107209970.792 8      1291.091          49.250    20069945.840    83385584.806 8      1004.182          51.375    20069945.320    83385581.811 8      1004.182          51.625
R23  21863036.480   116952504.686 6      3558.399          39.750    21863034.560   116952504.698 6      3558.399          39.437
G16  22870735.720   120186511.173 7      -778.782          43.562    22870733.840   120186511.183 5      -778.782          31.937    22870747.300    93651861.045 5      -606.843          31.500
R11  22501322.920   120240250.986 7     -1808.700          45.937    22501322.240   120240250.995 7     -1808.700          45.937    22501341.540    93520263.165 7     -1406.766          45.500    22501341.880    93520266.168 7     -1406.766          46.000
G27  21881790.500   114989580.401 7      1009.197          46.687    21881788.920   114989580.406 7      1009.197          46.937    21881799.200    89602303.084 7       786.387          46.562    21881799.860    89602306.088 8       786.387          49.125
G10  23396296.860   122948370.634 7       -60.792          47.375    23396296.380   122948370.644 7       -60.792          45.125    23396306.440    95803959.349 7       -47.370          45.062    23396306.440    95803956.358 7       -47.370          47.312
R21  23192316.260   124106766.062 6       317.274          40.875    23192315.920   124106766.087 6       317.274          40.500    23192333.640    96527544.352 7       246.769          47.375    23192332.500    96527545.350 7       246.769          47.437
G03  23761261.680   124866272.885 6      6217.283          41.750    23761261.020   124866272.882 5      6217.283          30.000    23761279.460    97298449.130 5      4844.636          30.062    23761280.120    97298472.123 7      4844.636          45.500
> 2024 05 09 13 38 44.0000000  0 15
G02  21605702.840   113538734.732 8      2884.441          48.687    21605701.500   113538734.737 6      2884.441          39.750    21605705.800    88471757.710 6      2247.616          39.500
R08  23610200.520   126431556.856 6      6270.222          39.562    23610203.040   126431556.892 6      6270.222          39.250    23610223.560    98335756.028 7      4876.840          43.000    23610224.540    98335753.046 7      4876.840          43.500
G21  20806384.360   109338287.892 8      1893.867          48.125    20806382.640   109338287.900 6      1893.867          40.875    20806388.340    85198678.320 6      1475.740          40.812
G32  25378212.360   133363420.348 6      3662.831          40.562    25378212.500   133363420.350 5      3662.831          33.625    25378233.960   103919640.649 5      2854.154          33.312    25378236.040   103919649.666 6      2854.154          41.062
R07  21922992.200   117355510.861 7      4914.111          45.625    21922994.320   117355510.890 7      4914.111          43.562    21923014.980    91276603.709 8      3822.087          48.187    21923014.920    91276607.724 8      3822.087          48.625
G08  20802803.320   109319465.333 8      2708.512          48.750    20802802.120   109319465.330 8      2708.512          48.437    20802809.900    85184025.096 8      2110.529          48.812    20802810.780    85184032.102 8      2110.529          50.125
R22  20736012.420   110690239.781 8      1532.187          48.062    20736011.360   110690239.792 8      1532.187          48.000    20736021.100    86092449.424 8      1191.701          49.750    20736021.340    86092450.417 8      1191.701          49.312
R12  20069691.460   107208680.300 8      1290.358          49.375    20069690.880   107208680.310 8      1290.358          50.312    20069704.420    83384581.092 8      1003.612          51.187    20069703.820    83384578.095 8      1003.612          51.500
R23  21862371.160   116948946.569 6      3558.164          40.500    21862369.940   116948946.589 6      3558.164          39.437
G16  22870883.800   120187290.185 7      -778.841          43.187    22870882.040   120187290.195 5      -778.841          31.937    22870895.640    93652468.055 5      -606.889          32.000
R11  22501661.220   120242059.894 7     -1808.777          45.812    22501660.680   120242059.892 7     -1808.777          45.437    22501679.960    93521670.085 7     -1406.826          45.125    22501680.260    93521673.097 7     -1406.826          45.937
G27  21881598.400   114988571.334 7      1009.217          45.687    21881597.000   114988571.336 7      1009.217          46.875    21881607.260    89601516.792 7       786.403          46.625    21881607.700    89601519.794 8       786.403          49.000
G10  23396308.440   122948431.679 7       -61.008          47.250    23396307.960   122948431.687 7       -61.008          45.875    23396318.120    95804006.910 7       -47.539          45.875    23396318.220    95804003.917 7       -47.539          47.500
R21  23192256.940   124106448.762 6       317.621          40.875    23192256.500   124106448.785 6       317.621          40.500    23192274.180    96527297.558 7       247.039          47.375    23192273.320    96527298.549 7       247.039          46.937
G03  23760078.760   124860055.721 7      6217.316          42.375    23760078.120   124860055.723 5      6217.316          30.437    23760096.380    97293604.587 5      4844.662          30.187    23760096.900    97293627.573 7      4844.662          45.750
> 2024 05 09 13 38 45.0000000  0 15
G02  21605153.980   113535850.327 8      2884.180          49.125    21605152.540   113535850.334 6      2884.180          39.562    21605156.840    88469510.122 6      2247.413          39.562
R08  23609029.380   126425286.571 6      6270.294          40.937    23609032.180   126425286.615 6      6270.294          39.500    23609052.580    98330879.151 7      4876.896          42.687    23609053.500    98330876.166 7      4876.896          43.687
G21  20806023.760   109336394.127 8      1893.514          48.875    20806022.200   109336394.135 6      1893.514          41.125    20806027.820    85197202.659 6      1475.465          40.500
G32  25377514.940   133359757.383 6      3662.860          40.375    25377515.340   133359757.386 5      3662.860          33.625    25377537.140   103916786.404 5      2854.177          33.500    25377537.980   103916795.425 6      2854.177          41.062
R07  21922074.420   117350596.853 7      4913.660          45.687    21922076.320   117350596.879 7      4913.660          44.437    21922096.820    91272781.715 7      3821.735          47.375    21922096.940    91272785.731 8      3821.735          48.125
G08  20802288.060   109316756.851 8      2708.291          49.625    20802286.620   109316756.848 8      2708.291          48.687    20802294.440    85181914.592 8      2110.357          48.562    20802295.240    85181921.597 8      2110.357          49.375
R22  20735725.460   110688707.547 8      1532.132          48.062    20735724.240   110688707.556 8      1532.132          48.437    20735734.060    86091257.683 8      1191.658          49.312    20735734.400    86091258.680 8      1191.658          49.437
R12  20069450.120   107207390.352 8      1289.471          50.062    20069449.280   107207390.353 8      1289.471          49.187    20069463.280    83383577.794 8      1002.922          50.937    20069462.360    83383574.797 8      1002.922          51.000
R23  21861705.980   116945388.259 6      3558.051          40.500    21861704.540   116945388.279 6      3558.051          39.437
G16  22871032.220   120188069.157 7      -779.191          43.062    22871030.400   120188069.167 5      -779.191          32.000    22871043.960    93653075.032 5      -607.162          32.000
R11  22501999.780   120243868.618 7     -1808.798          46.125    22501999.360   120243868.611 7     -1808.798          46.125    22502018.800    93523076.866 7     -1406.843          45.500    22502018.720    93523079.878 7     -1406.843          44.437
G27  21881406.380   114987562.194 7      1009.008          46.812    21881404.900   114987562.199 7      1009.008          46.750    21881415.240    89600730.449 7       786.240          46.500    21881415.660    89600733.453 8       786.240          48.812
G10  23396319.940   122948492.827 7       -61.410          47.062    23396319.620   122948492.831 7       -61.410          45.125    23396329.780    95804054.556 7       -47.852          45.562    23396329.920    95804051.567 7       -47.852          47.562
R21  23192197.920   124106131.059 6       317.757          40.875    23192196.100   124106131.092 6       317.757          40.500    23192214.840    96527050.453 7       247.144          46.625    23192213.940    96527051.450 7       247.144          47.062
G03  23758895.520   124853838.339 7      6217.357          42.125    23758895.200   124853838.339 5      6217.357          30.437    23758913.260    97288759.875 5      4844.694          30.187    23758914.000    97288782.862 7      4844.694          45.687
> 2024 05 09 13 38 46.0000000  0 15
G02  21604605.160   113532966.416 8      2883.593          48.062    21604603.740   113532966.421 6      2883.593          39.625    21604608.120    88467262.921 6      2246.955          39.500
R08  23607858.480   126419016.436 6      6269.906          40.937    23607860.560   126419016.499 6      6269.906          39.500    23607881.340    98326002.404 7      4876.593          42.750    23607882.420    98325999.428 7      4876.593          42.625
G21  20805663.380   109334500.846 7      1892.967          47.562    20805661.920   109334500.851 6      1892.967          40.437    20805667.680    85195727.379 6      1475.039          40.687
G32  25376818.500   133356094.926 6      3662.198          39.250    25376818.420   133356094.933 5      3662.198          33.625    25376840.260   103913932.561 5      2853.661          33.500    25376841.240   103913941.586 6      2853.661          41.375
R07  21921156.460   117345683.603 7      4912.755          44.625    21921158.820   117345683.618 7      4912.755          43.500    21921179.420    91268960.304 7      3821.031          47.375    21921179.240    91268964.320 8      3821.031          48.375
G08  20801772.860   109314048.818 8      2707.768          48.187    20801771.380   109314048.817 8      2707.768          48.312    20801779.100    85179804.437 8      2109.949          48.625    20801779.780    85179811.441 8      2109.949          49.750
R22  20735438.300   110687175.623 8      1531.669          48.437    20735437.220   110687175.632 7      1531.669          47.812    20735446.960    86090066.190 8      1191.298          49.312    20735447.680    86090067.186 8      1191.298          49.375
R12  20069208.780   107206101.497 8      1288.230          48.500    20069207.780   107206101.492 8      1288.230          49.437    20069222.060    83382575.349 8      1001.956          50.875    20069221.180    83382572.354 8      1001.956          52.562
R23  21861040.920   116941830.334 6      3557.664          40.500    21861039.180   116941830.343 6      3557.664          39.437
G16  22871180.800   120188848.595 7      -779.649          43.375    22871178.620   120188848.607 5      -779.649          32.000    22871192.100    93653682.374 5      -607.518          32.000
R11  22502338.560   120245677.748 7     -1809.425          44.937    22502337.920   120245677.746 7     -1809.425          44.750    22502357.020    93524483.969 7     -1407.331          44.875    22502357.240    93524486.979 7     -1407.331          45.875
G27  21881214.540   114986553.519 7      1008.329          46.250    21881212.880   114986553.526 7      1008.329          46.437    21881223.360    89599944.471 7       785.711          46.312    21881224.020    89599947.476 8       785.711          49.125
G10  23396331.640   122948554.584 7       -62.100          46.375    23396331.380   122948554.583 7       -62.100          45.750    23396341.500    95804102.676 7       -48.390          45.500    23396341.520    95804099.685 7       -48.390          47.187
R21  23192139.400   124105813.551 6       317.285          40.187    23192136.500   124105813.568 6       317.285          40.437    23192155.440    96526803.487 7       246.777          47.000    23192154.860    96526804.485 7       246.777          47.250
G03  23757712.500   124847621.314 6      6216.745          41.875    23757712.240   124847621.311 5      6216.745          30.437    23757730.240    97283915.434 5      4844.217          30.187    23757731.000    97283938.423 7      4844.217          46.125
> 2024 05 09 13 38 47.0000000  0 15
G02  21604056.320   113530082.907 7      2883.348          47.687    21604055.020   113530082.912 6      2883.348          39.812    21604059.360    88465016.035 6      2246.765          39.687
R08  23606687.680   126412746.365 6      6270.049          40.937    23606690.760   126412746.431 6      6270.049          39.500    23606710.360    98321125.680 7      4876.705          42.750    23606711.120    98321122.702 7      4876.705          42.687
G21  20805303.360   109332607.998 8      1892.617          48.250    20805301.680   109332608.003 6      1892.617          40.875    20805307.480    85194252.428 6      1474.766          40.750
G32  25376121.600   133352432.886 6      3661.879          40.312    25376121.440   133352432.894 5      3661.879          33.000    25376143.340   103911079.038 5      2853.412          33.000    25376145.140   103911088.049 6      2853.412          41.375
R07  21920238.700   117340770.946 7      4912.228          45.625    21920241.260   117340770.969 7      4912.228          43.500    21920261.600    91265139.368 7      3820.622          47.687    21920261.420    91265143.383 8      3820.622          48.500
G08  20801257.680   109311341.163 8      2707.415          49.375    20801256.200   109311341.166 8      2707.415          49.187    20801263.800    85177694.574 8      2109.674          49.312    20801264.440    85177701.579 8      2109.674          49.875
R22  20735151.220   110685643.915 7      1531.598          47.937    20735150.260   110685643.921 8      1531.598          48.500    20735159.980    86088874.862 8      1191.243          49.312    20735160.520    86088875.857 8      1191.243          49.687
R12  20068967.400   107204813.634 8      1287.379          49.875    20068966.720   107204813.633 8      1287.379          50.062    20068981.060    83381573.676 8      1001.295          50.687    20068980.300    83381570.679 8      1001.295          52.375
R23  21860375.280   116938272.703 6      3557.530          40.000    21860374.080   116938272.721 6      3557.530          39.312
G16  22871329.200   120189628.460 7      -780.048          43.437    22871327.140   120189628.473 5      -780.048          31.937    22871340.540    93654290.047 5      -607.830          31.812
R11  22502676.820   120247487.134 7     -1809.501          45.500    22502676.100   120247487.133 7     -1809.501          44.875    22502695.040    93525891.272 7     -1407.390          45.187    22502695.840    93525894.279 7     -1407.390          45.375
G27  21881022.760   114985545.198 7      1008.136          46.750    21881020.900   114985545.203 7      1008.136          47.250    21881031.480    89599158.760 7       785.560          46.750    21881032.240    89599161.768 8       785.560          49.187
G10  23396343.600   122948616.872 8       -62.550          48.062    23396343.220   122948616.874 7       -62.550          45.125    23396353.340    95804151.208 7       -48.740          45.437    23396353.300    95804148.213 7       -48.740          47.562
R21  23192079.820   124105496.045 6       317.430          40.187    23192077.140   124105496.049 6       317.430          40.437    23192096.240    96526556.528 7       246.890          46.875    23192095.620    96526557.521 7       246.890          47.125
G03  23756529.600   124841404.513 7      6216.617          42.562    23756529.160   124841404.510 5      6216.617          30.625    23756547.180    97279071.169 5      4844.117          30.687    23756547.820    97279094.152 7      4844.117          46.187
> 2024 05 09 13 38 48.0000000  0 15
G02  21603507.680   113527199.750 7      2883.088          47.937    21603506.400   113527199.755 6      2883.088          39.250    21603510.780    88462769.417 6      2246.562          39.812
R08  23605516.620   126406476.318 6      6270.167          40.812    23605519.440   126406476.379 6      6270.167          39.875    23605539.240    98316248.971 7      4876.797          42.750    23605540.400    98316245.997 7      4876.797          42.687
G21  20804943.200   109330715.462 8      1892.527          48.375    20804941.580   109330715.470 6      1892.527          40.937    20804947.400    85192777.723 6      1474.697          40.812
G32  25375425.160   133348771.133 6      3661.663          40.312    25375424.660   133348771.140 5      3661.663          33.000    25375446.340   103908225.740 5      2853.244          33.000    25375448.180   103908234.767 6      2853.244          41.375
R07  21919321.480   117335858.822 7      4911.977          46.312    21919323.700   117335858.845 7      4911.977          44.000    21919343.880    91261318.833 7      3820.426          47.750    21919343.820    91261322.851 8      3820.426          48.375
G08  20800742.440   109308633.782 8      2707.377          48.625    20800740.920   109308633.782 8      2707.377          48.625    20800748.620    85175584.929 8      2109.644          48.750    20800749.160    85175591.933 8      2109.644          49.937
R22  20734864.180   110684112.328 8      1531.666          48.000    20734863.480   110684112.334 8      1531.666          48.250    20734872.740    86087683.623 8      1191.296          49.375    20734873.400    86087684.618 8      1191.296          49.312
R12  20068726.620   107203526.680 8      1286.626          49.562    20068725.320   107203526.681 8      1286.626          49.687    20068740.260    83380572.710 8      1000.709          51.437    20068739.460    83380569.715 8      1000.709          52.312
R23  21859709.960   116934715.284 6      3557.356          40.000    21859708.800   116934715.320 6      3557.356          39.312
G16  22871477.680   120190408.631 7      -780.185          43.500    22871475.440   120190408.644 5      -780.185          31.937    22871488.920    93654897.956 5      -607.937          31.812
R11  22503015.560   120249296.740 7     -1809.556          45.875    22503014.980   120249296.744 7     -1809.556          45.500    22503033.660    93527298.745 7     -1407.432          45.312    22503034.440    93527301.752 7     -1407.432          45.375
G27  21880830.880   114984537.164 7      1008.061          46.187    21880829.180   114984537.169 7      1008.061          47.000    21880839.620    89598373.269 7       785.502          46.625    21880840.260    89598376.275 8       785.502          49.375
G10  23396355.480   122948679.609 7       -62.833          47.250    23396355.160   122948679.609 7       -62.833          45.937    23396365.400    95804200.090 7       -48.960          45.562    23396365.180    95804197.097 7       -48.960          47.562
R21  23192020.060   124105178.478 6       317.742          40.187    23192017.540   124105178.479 6       317.742          40.437    23192036.700    96526309.515 7       247.133          47.312    23192036.100    96526310.514 7       247.133          47.187
G03  23755346.540   124835187.832 7      6216.732          42.562    23755346.120   124835187.826 5      6216.732          30.625    23755364.180    97274227.005 5      4844.207          30.687    23755364.680    97274250.003 7      4844.207          46.062
> 2024 05 09 13 38 49.0000000  0 15
G02  21602959.180   113524316.762 7      2882.855          47.000    21602957.860   113524316.767 6      2882.855          40.000    21602962.040    88460522.933 6      2246.381          39.437
R08  23604345.440   126400206.073 6      6270.289          40.812    23604349.260   126400206.142 6      6270.289          39.875    23604368.700    98311372.124 7      4876.892          42.562    23604369.240    98311369.138 7      4876.892          42.500
G21  20804583.160   109328823.153 8      1892.169          48.687    20804581.540   109328823.160 6      1892.169          40.437    20804587.320    85191303.194 6      1474.417          40.562
G32  25374728.180   133345109.548 6      3661.622          41.187    25374727.900   133345109.555 5      3661.622          33.187    25374749.540   103905372.567 5      2853.212          33.000    25374751.600   103905381.586 6      2853.212          41.375
R07  21918403.880   117330947.108 7      4911.474          46.500    21918406.100   117330947.136 7      4911.474          44.312    21918426.020    91257498.630 8      3820.036          48.062    21918426.220    91257502.643 8      3820.036          48.125
G08  20800227.020   109305926.577 8      2707.055          49.000    20800225.760   109305926.574 8      2707.055          49.000    20800233.420    85173475.414 8      2109.393          49.312    20800234.100    85173482.414 8      2109.393          49.875
R22  20734577.360   110682580.766 8      1531.440          49.312    20734576.660   110682580.770 8      1531.440          48.250    20734586.180    86086492.411 8      1191.120          48.875    20734586.320    86086493.404 8      1191.120          50.187
R12  20068485.580   107202240.520 8      1285.665          50.125    20068484.700   107202240.521 8      1285.665          49.562    20068499.520    83379572.361 8       999.961          51.437    20068498.840    83379569.368 8       999.961          52.562
R23  21859045.040   116931157.948 6      3557.395          40.000    21859044.440   116931157.970 6      3557.395          39.312
G16  22871625.960   120191188.967 7      -780.470          42.375    22871623.800   120191188.982 5      -780.470          31.937    22871637.600    93655505.997 5      -608.158          32.000
R11  22503354.080   120251106.439 7     -1809.803          46.000    22503353.540   120251106.437 7     -1809.803          45.687    22503372.520    93528706.286 7     -1407.624          45.125    22503372.980    93528709.292 7     -1407.624          44.875
G27  21880639.140   114983529.290 7      1007.683          45.750    21880637.280   114983529.301 7      1007.683          46.875    21880647.820    89597587.919 7       785.208          46.500    21880648.460    89597590.923 8       785.208          48.437
G10  23396367.500   122948742.659 7       -63.229          46.937    23396367.320   122948742.664 7       -63.229          45.812    23396377.440    95804249.220 7       -49.269          46.250    23396377.740    95804246.223 8       -49.269          48.000
R21  23191960.320   124104860.683 6       317.891          39.500    23191957.960   124104860.698 6       317.891          40.000    23191977.340    96526062.352 7       247.248          47.062    23191976.760    96526063.357 7       247.248          47.312
G03  23754163.400   124828971.201 7      6216.506          42.562    23754163.040   124828971.201 5      6216.506          30.625    23754181.280    97269382.877 5      4844.031          30.687    23754182.260    97269405.863 7      4844.031          45.812
> 2024 05 09 13 38 50.0000000  0 15
G02  21602410.480   113521434.088 7      2882.420          46.750    21602409.220   113521434.093 6      2882.420          39.625    21602413.580    88458276.694 6      2246.042          39.562
R08  23603174.540   126393935.764 6      6270.182          40.812    23603178.180   126393935.835 6      6270.182          39.875    23603197.700    98306495.225 7      4876.808          42.187    23603198.440    98306492.245 7      4876.808          42.750
G21  20804223.200   109326931.143 7      1891.775          47.937    20804221.500   109326931.148 6      1891.775          41.062    20804227.240    85189828.903 6      1474.110          40.812
G32  25374031.220   133341448.291 6      3660.994          41.125    25374031.200   133341448.290 5      3660.994          33.187    25374052.920   103902519.652 5      2852.723          33.187    25374054.520   103902528.667 6      2852.723          41.562
R07  21917486.700   117326035.921 7      4910.880          46.062    21917488.580   117326035.944 7      4910.880          44.187    21917508.900    91253678.822 7      3819.573          47.750    21917508.680    91253682.829 7      3819.573          47.937
G08  20799711.840   109303219.627 7      2706.698          47.937    20799710.680   109303219.627 8      2706.698          48.312    20799718.260    85171366.100 8      2109.116          48.750    20799718.940    85171373.105 8      2109.116          50.312
R22  20734290.600   110681049.293 8      1531.381          49.125    20734289.980   110681049.294 7      1531.381          47.562    20734299.060    86085301.257 8      1191.074          49.187    20734299.500    86085302.252 8      1191.074          49.062
R12  20068245.140   107200955.184 8      1284.842          49.875    20068244.040   107200955.182 8      1284.842          49.125    20068258.980    83378572.651 8       999.321          51.375    20068258.320    83378569.654 8       999.321          52.312
R23  21858379.840   116927600.815 6      3556.852          39.562    21858379.660   116927600.853 6      3556.852          39.750
G16  22871774.640   120191969.623 7      -780.841          42.875    22871772.380   120191969.639 5      -780.841          32.000    22871786.260    93656114.289 5      -608.447          32.000
R11  22503692.940   120252916.314 7     -1810.097          45.562    22503692.180   120252916.313 7     -1810.097          45.250    22503711.540    93530113.957 7     -1407.853          45.062    22503711.580    93530116.966 7     -1407.853          45.312
G27  21880447.400   114982521.661 7      1007.487          45.687    21880445.500   114982521.663 7      1007.487          46.937    21880456.080    89596802.747 7       785.055          46.625    21880456.400    89596805.753 8       785.055          49.000
G10  23396379.440   122948806.140 7       -63.748          47.312    23396379.420   122948806.147 7       -63.748          45.687    23396389.400    95804298.684 7       -49.674          45.625    23396389.760    95804295.690 7       -49.674          47.750
R21  23191900.940   124104542.884 6       317.589          39.500    23191898.560   124104542.904 6       317.589          40.000    23191917.820    96525815.174 7       247.014          47.062    23191917.480    96525816.175 7       247.014          47.250
G03  23752980.660   124822754.668 6      6216.428          41.937    23752980.000   124822754.667 5      6216.428          30.625    23752998.500    97264538.823 5      4843.970          31.062    23752999.360    97264561.817 7      4843.970          46.000
> 2024 05 09 13 38 51.0000000  0 15
G02  21601862.120   113518551.880 7      2882.159          46.062    21601860.780   113518551.885 6      2882.159          39.812    21601865.100    88456030.819 6      2245.838          39.437
R08  23602003.020   126387665.533 6      6270.268          41.625    23602007.520   126387665.617 6      6270.268          40.250    23602026.340    98301618.391 7      4876.875          42.312    23602027.320    98301615.419 7      4876.875          42.750
G21  20803863.180   109325039.617 7      1891.562          47.687    20803861.460   109325039.619 6      1891.562          40.625    20803867.260    85188354.986 6      1473.944          40.625
G32  25373334.600   133337787.460 6      3660.874          41.375    25373334.760   133337787.459 5      3660.874          33.125    25373356.120   103899667.070 5      2852.629          33.187    25373357.500   103899676.077 6      2852.629          41.562
R07  21916569.320   117321125.449 7      4910.390          46.125    21916571.340   117321125.477 7      4910.390          44.187    21916591.400    91249859.582 7      3819.192          47.187    21916591.520    91249863.587 7      3819.192          47.750
G08  20799196.880   109300513.105 8      2706.544          48.125    20799195.620   109300513.102 8      2706.544          48.312    20799203.200    85169257.122 8      2108.995          48.625    20799204.200    85169264.120 8      2108.995          49.500
R22  20734003.780   110679518.106 8      1531.260          48.125    20734003.240   110679518.110 8      1531.260          48.812    20734012.180    86084110.335 8      1190.980          49.312    20734012.500    86084111.335 8      1190.980          49.125
R12  20068004.900   107199670.904 8      1283.961          49.375    20068003.500   107199670.899 8      1283.961          49.937    20068018.320    83377573.760 8       998.637          50.625    20068017.900    83377570.763 8       998.637          51.250
R23  21857714.760   116924044.013 6      3556.809          39.562    21857715.060   116924044.047 6      3556.809          39.750
G16  22871923.440   120192750.734 7      -781.107          42.375    22871920.960   120192750.745 5      -781.107          32.000    22871934.740    93656722.930 5      -608.655          32.000
R11  22504031.720   120254726.547 7     -1810.201          44.812    22504030.800   120254726.543 7     -1810.201          45.125    22504049.880    93531521.914 7     -1407.934          44.750    22504050.700    93531524.924 7     -1407.934          44.937
G27  21880256.000   114981514.478 7      1007.161          44.125    21880253.740   114981514.491 7      1007.161          46.562    21880264.520    89596017.929 7       784.800          45.937    21880264.820    89596020.933 8       784.800          48.500
G10  23396391.700   122948870.214 8       -64.166          48.000    23396391.640   122948870.219 7       -64.166          46.062    23396401.620    95804348.612 7       -50.000          46.062    23396401.800    95804345.615 7       -50.000          47.312
R21  23191841.240   124104225.172 6       317.813          39.500    23191839.500   124104225.181 6       317.813          40.000    23191858.660    96525568.049 7       247.188          46.437    23191857.840    96525569.046 7       247.188          46.250
G03  23751798.200   124816538.476 7      6216.239          42.375    23751797.180   124816538.473 5      6216.239          31.062    23751815.520    97259695.035 5      4843.823          31.062    23751816.680    97259718.025 7      4843.823          46.500
> 2024 05 09 13 38 52.0000000  0 15
G02  21601313.720   113515669.906 7      2881.866          46.375    21601312.380   113515669.913 6      2881.866          39.375    21601316.760    88453785.127 6      2245.610          39.187
R08  23600832.180   126381395.197 6      6270.394          41.625    23600836.920   126381395.273 6      6270.394          40.250    23600856.120    98296741.457 7      4876.973          42.312    23600856.220    98296738.481 7      4876.973          42.375
G21  20803503.520   109323148.345 7      1891.202          47.250    20803501.520   109323148.350 6      1891.202          40.625    20803507.320    85186881.266 6      1473.664          40.937
G32  25372638.220   133334126.841 6      3660.563          41.375    25372638.180   133334126.846 5      3660.563          33.125    25372659.580   103896814.653 5      2852.387          33.187    25372661.380   103896823.680 6      2852.387          41.437
R07  21915652.100   117316215.477 7      4909.821          45.562    21915654.480   117316215.502 7      4909.821          44.500    21915674.480    91246040.727 7      3818.750          47.500    21915674.460    91246044.731 8      3818.750          48.000
G08  20798681.820   109297806.796 7      2706.208          47.250    20798680.560   109297806.790 7      2706.208          47.875    20798688.300    85167148.308 8      2108.734          48.875    20798689.220    85167155.306 8      2108.734          49.937
R22  20733716.960   110677986.929 7      1531.337          46.437    20733716.320   110677986.938 7      1531.337          47.437    20733725.360    86082919.420 8      1191.040          49.312    20733725.880    86082920.415 8      1191.040          49.250
R12  20067764.520   107198387.406 8      1283.091          48.000    20067763.180   107198387.401 8      1283.091          48.562    20067778.180    83376575.482 8       997.959          51.500    20067777.780    83376572.485 8       997.959          52.375
R23  21857049.340   116920487.324 6      3556.763          39.562    21857049.700   116920487.344 6      3556.763          39.750
G16  22872071.900   120193532.061 7      -781.363          42.812    22872069.740   120193532.074 5      -781.363          32.000    22872083.640    93657331.742 5      -608.854          31.562
R11  22504370.400   120256536.885 7     -1810.367          45.062    22504369.760   120256536.889 7     -1810.367          45.187    22504388.680    93532929.950 7     -1408.063          45.187    22504389.300    93532932.962 7     -1408.063          45.312
G27  21880064.320   114980507.485 7      1006.943          43.687    21880062.140   114980507.487 7      1006.943          46.125    21880072.920    89595233.249 7       784.631          46.375    21880073.140    89595236.255 8       784.631          49.250
G10  23396403.940   122948934.636 7       -64.512          46.687    23396403.880   122948934.635 7       -64.512          45.875    23396413.780    95804398.802 7       -50.269          46.375    23396413.720    95804395.807 7       -50.269          47.875
R21  23191781.460   124103907.319 6       317.921          39.000    23191780.440   124103907.336 6       317.921          40.187    23191799.260    96525320.827 7       247.272          46.750    23191798.660    96525321.822 7       247.272          47.250
G03  23750615.080   124810322.323 7      6216.076          42.125    23750614.300   124810322.320 5      6216.076          31.062    23750632.700    97254851.283 5      4843.696          31.062    23750633.420    97254874.272 7      4843.696          46.125
> 2024 05 09 13 38 53.0000000  0 15
G02  21600765.500   113512788.210 7      2881.519          47.062    21600763.900   113512788.217 6      2881.519          39.062    21600768.420    88451539.655 6      2245.340          39.312
R08  23599660.980   126375124.794 6      6270.439          41.625    23599665.980   126375124.871 6      6270.439          40.250    23599684.440    98291864.471 6      4877.008          41.937    23599685.260    98291861.495 7      4877.008          42.125
G21  20803143.680   109321257.365 7      1890.746          47.750    20803141.760   109321257.368 6      1890.746          40.687    20803147.560    85185407.780 6      1473.309          40.687
G32  25371941.000   133330466.515 6      3660.139          40.000    25371941.580   133330466.522 5      3660.139          33.250    25371962.840   103893962.475 5      2852.056          33.187    25371964.740   103893971.490 6      2852.056          41.437
R07  21914734.620   117311306.027 7      4909.076          45.625    21914737.060   117311306.050 7      4909.076          43.875    21914757.300    91242222.281 7      3818.170          47.625    21914757.380    91242226.282 8      3818.170          48.875
G08  20798166.680   109295100.713 7      2705.830          47.437    20798165.500   109295100.712 8      2705.830          48.062    20798173.340    85165039.676 8      2108.439          48.312    20798174.180    85165046.672 8      2108.439          50.437
R22  20733429.960   110676455.873 7      1531.022          47.562    20733429.520   110676455.874 8      1531.022          48.062    20733438.600    86081728.594 8      1190.795          49.812    20733439.180    86081729.592 8      1190.795          49.312
R12  20067524.280   107197104.754 8      1282.115          49.187    20067523.140   107197104.750 8      1282.115          48.250    20067537.960    83375577.866 8       997.201          51.250    20067537.640    83375574.865 8       997.201          52.250
R23  21856384.540   116916930.787 6      3556.409          40.062    21856383.960   116916930.810 6      3556.409          39.625
G16  22872220.900   120194313.687 7      -781.844          42.812    22872218.460   120194313.697 5      -781.844          31.625    22872232.320    93657940.787 5      -609.229          31.562
R11  22504709.260   120258347.378 7     -1810.618          44.875    22504708.280   120258347.371 7     -1810.618          45.625    22504727.160    93534338.111 7     -1408.258          45.312    22504728.280    93534341.123 7     -1408.258          45.312
G27  21879872.960   114979500.730 7      1006.510          44.875    21879870.580   114979500.738 7      1006.510          46.812    21879881.340    89594448.767 7       784.294          46.625    21879881.720    89594451.773 8       784.294          48.937
G10  23396416.120   122948999.472 7       -65.060          47.562    23396416.220   122948999.477 7       -65.060          45.750    23396426.160    95804449.328 7       -50.696          46.125    23396426.320    95804446.333 7       -50.696          47.750
R21  23191722.200   124103589.358 6       318.012          39.000    23191720.960   124103589.376 6       318.012          40.187    23191739.720    96525073.527 7       247.343          46.437    23191739.100    96525074.524 7       247.343          46.625
G03  23749432.520   124804106.262 6      6215.979          41.812    23749431.300   124804106.259 5      6215.979          31.062    23749449.880    97250007.598 5      4843.620          31.062    23749450.720    97250030.588 7      4843.620          46.312
> 2024 05 09 13 38 54.0000000  0 15
G02  21600217.100   113509906.803 7      2881.258          47.625    21600215.600   113509906.816 6      2881.258          39.187    21600219.980    88449294.407 6      2245.136          39.375
R08  23598490.300   126368854.364 6      6270.419          41.000    23598495.300   126368854.446 6      6270.419          40.437    23598513.340    98286987.466 6      4876.993          41.937    23598514.000    98286984.486 7      4876.993          42.312
G21  20802783.880   109319366.675 8      1890.517          48.812    20802781.980   109319366.682 6      1890.517          40.750    20802787.740    85183934.512 6      1473.130          40.437
G32  25371245.100   133326806.448 6      3659.930          40.937    25371244.940   133326806.456 5      3659.930          33.250    25371266.440   103891110.489 5      2851.893          33.062    25371267.040   103891119.488 6      2851.893          40.687
R07  21913817.780   117306397.083 7      4908.671          45.500    21913819.660   117306397.111 7      4908.671          45.000    21913840.020    91238404.232 7      3817.855          47.812    21913840.440    91238408.235 8      3817.855          48.812
G08  20797651.940   109292394.887 8      2705.628          49.125    20797650.520   109292394.884 8      2705.628          49.375    20797658.460    85162931.238 8      2108.282          49.187    20797659.160    85162938.240 8      2108.282          50.000
R22  20733142.940   110674924.917 8      1530.872          48.250    20733142.600   110674924.921 8      1530.872          48.562    20733151.300    86080537.855 8      1190.678          48.562    20733152.360    86080538.855 8      1190.678          48.750
R12  20067284.280   107195822.977 8      1281.256          49.312    20067282.920   107195822.970 8      1281.256          49.625    20067297.860    83374580.920 8       996.533          51.062    20067297.480    83374577.918 8       996.533          52.187
R23  21855719.880   116913374.411 6      3556.278          40.062    21855718.900   116913374.445 6      3556.278          39.625
G16  22872369.600   120195095.571 7      -782.095          43.250    22872367.360   120195095.583 5      -782.095          31.625    22872381.040    93658550.035 5      -609.425          31.562
R11  22505048.060   120260158.033 7     -1810.786          45.812    22505047.440   120260158.032 7     -1810.786          45.562    22505066.260    93535746.411 7     -1408.389          45.312    22505066.860    93535749.425 7     -1408.389          44.937
G27  21879681.160   114978494.218 7      1006.365          45.750    21879679.180   114978494.225 7      1006.365          47.062    21879689.740    89593664.465 7       784.180          46.500    21879690.100    89593667.471 8       784.180          49.125
G10  23396428.540   122949064.727 7       -65.524          47.000    23396428.520   122949064.734 7       -65.524          45.750    23396438.560    95804500.176 7       -51.058          46.250    23396438.640    95804497.179 7       -51.058          47.937
R21  23191663.020   124103271.350 6       317.981          39.000    23191661.900   124103271.370 6       317.981          40.062    23191680.380    96524826.176 7       247.318          46.562    23191679.840    96524827.173 7       247.318          47.062
G03  23748250.140   124797890.338 7      6215.884          42.750    23748248.560   124797890.335 5      6215.884          31.375    23748267.040    97245164.023 5      4843.546          31.187    23748267.940    97245187.013 7      4843.546          46.375
> 2024 05 09 13 38 55.0000000  0 15
G02  21599669.060   113507025.814 7      2880.875          47.437    21599667.420   113507025.821 6      2880.875          39.500    21599671.780    88447049.477 6      2244.838          39.375
R08  23597319.340   126362583.945 6      6270.550          41.000    23597324.040   126362584.025 6      6270.550          40.437    23597342.380    98282110.475 7      4877.095          42.187    23597343.320    98282107.493 7      4877.095          42.312
G21  20802423.980   109317476.388 8      1890.218          48.125    20802422.220   109317476.393 6      1890.218          41.250    20802427.920    85182461.568 6      1472.897          41.125
G32  25370548.300   133323146.747 6      3659.738          41.437    25370548.540   133323146.760 5      3659.738          33.187    25370569.960   103888258.792 5      2851.744          33.062    25370570.500   103888267.799 6      2851.744          40.687
R07  21912900.600   117301488.802 7      4907.998          45.812    21912902.320   117301488.831 7      4907.998          44.625    21912923.220    91234586.691 7      3817.332          47.312    21912923.400    91234590.692 8      3817.332          48.625
G08  20797137.080   109289689.414 8      2705.320          48.500    20797135.660   109289689.416 8      2705.320          48.812    20797143.640    85160823.077 8      2108.042          49.187    20797144.480    85160830.079 8      2108.042          50.312
R22  20732856.240   110673394.162 8      1530.651          48.687    20732855.900   110673394.163 8      1530.651          48.750    20732864.640    86079347.272 8      1190.506          49.250    20732865.280    86079348.272 8      1190.506          48.687
R12  20067044.360   107194542.163 8      1280.397          48.437    20067043.100   107194542.159 8      1280.397          49.062    20067057.960    83373584.731 8       995.864          51.687    20067057.880    83373581.732 8       995.864          51.937
R23  21855055.000   116909818.337 6      3556.120          40.062    21855054.840   116909818.365 6      3556.120          39.625
G16  22872518.660   120195877.841 7      -782.371          44.062    22872516.180   120195877.853 5      -782.371          31.937    22872529.940    93659159.579 5      -609.640          31.687
R11  22505386.820   120261968.980 7     -1810.868          46.187    22505386.520   120261968.978 7     -1810.868          45.812    22505405.220    93537154.911 7     -1408.453          45.312    22505405.660    93537157.925 7     -1408.453          45.062
G27  21879489.800   114977488.073 7      1005.978          45.375    21879487.820   114977488.083 7      1005.978          47.250    21879498.280    89592880.452 7       783.879          46.937    21879498.720    89592883.460 8       783.879          48.562
G10  23396441.200   122949130.499 7       -65.959          47.750    23396441.040   122949130.504 7       -65.959          46.000    23396451.060    95804551.425 7       -51.397          46.250    23396451.360    95804548.432 7       -51.397          47.750
R21  23191603.180   124102953.346 6       318.117          40.375    23191602.400   124102953.361 6       318.117          40.062    23191620.760    96524578.832 7       247.424          46.687    23191620.700    96524579.829 7       247.424          46.812
G03  23747067.140   124791674.651 7      6215.570          42.500    23747065.720   124791674.651 5      6215.570          31.375    23747084.420    97240320.634 5      4843.301          31.187    23747084.860    97240343.627 7      4843.301          46.812
> 2024 05 09 13 38 56.0000000  0 15
G02  21599120.820   113504145.085 8      2880.334          48.437    21599119.200   113504145.092 6      2880.334          39.375    21599123.580    88444804.753 6      2244.416          39.187
R08  23596149.040   126356313.457 6      6270.210          41.000    23596153.280   126356313.528 6      6270.210          40.437    23596171.800    98277233.422 6      4876.830          41.812    23596172.580    98277230.447 7      4876.830          42.375
G21  20802064.520   109315586.389 8      1889.722          48.437    20802062.680   109315586.394 6      1889.722          40.812    20802068.380    85180988.839 6      1472.511          40.687
G32  25369852.060   133319487.332 6      3659.071          41.125    25369852.080   133319487.350 5      3659.071          33.187    25369873.600   103885407.321 5      2851.224          33.187    25369873.900   103885416.321 6      2851.224          40.125
R07  21911983.940   117296581.020 7      4907.295          45.437    21911985.800   117296581.040 7      4907.295          44.625    21912006.360    91230769.529 7      3816.785          47.500    21912006.660    91230773.532 8      3816.785          48.437
G08  20796622.300   109286984.166 8      2704.899          48.812    20796620.840   109286984.168 8      2704.899          48.937    20796628.840    85158715.090 8      2107.713          48.875    20796629.800    85158722.088 8      2107.713          50.062
R22  20732569.640   110671863.447 8      1530.448          48.625    20732569.180   110671863.451 8      1530.448          48.437    20732577.960    86078156.706 8      1190.348          49.062    20732578.540    86078157.709 8      1190.348          48.875
R12  20066804.940   107193262.199 7      1279.403          47.812    20066803.620   107193262.192 8      1279.403          48.875    20066818.280    83372589.197 8       995.091          51.375    20066818.020    83372586.196 8       995.091          52.000
R23  21854390.660   116906262.416 6      3555.606          39.875    21854390.800   116906262.449 6      3555.606          39.750
G16  22872667.300   120196660.365 7      -782.821          43.250    22872665.220   120196660.373 5      -782.821          31.937    22872678.620    93659769.324 5      -609.990          31.687
R11  22505726.120   120263780.100 7     -1811.442          46.062    22505725.660   120263780.096 7     -1811.442          45.250    22505744.200    93538563.562 7     -1408.899          45.437    22505744.800    93538566.574 7     -1408.899          46.125
G27  21879298.200   114976482.141 7      1005.603          45.375    21879296.400   114976482.143 7      1005.603          46.937    21879306.780    89592096.603 7       783.587          46.562    21879307.400    89592099.606 8       783.587          48.750
G10  23396453.720   122949196.644 7       -66.508          47.687    23396453.700   122949196.646 7       -66.508          45.750    23396463.580    95804602.962 7       -51.824          46.000    23396463.940    95804599.967 7       -51.824          47.375
R21  23191543.940   124102635.244 6       317.998          40.375    23191543.620   124102635.240 6       317.998          40.062    23191561.280    96524331.399 7       247.332          46.750    23191561.120    96524332.402 7       247.332          47.125
G03  23745883.960   124785459.037 7      6215.368          42.375    23745883.040   124785459.037 5      6215.368          32.125    23745901.900    97235477.294 5      4843.144          32.000    23745902.280    97235500.277 7      4843.144          46.937
> 2024 05 09 13 38 57.0000000  0 15
G02  21598572.860   113501264.768 7      2880.027          47.812    21598571.040   113501264.776 6      2880.027          39.687    21598575.480    88442560.353 6      2244.177          39.625
R08  23594978.600   126350042.990 6      6270.388          41.562    23594982.580   126350043.061 6      6270.388          40.562    23595001.220    98272356.397 7      4876.969          42.375    23595001.980    98272353.417 7      4876.969          42.187
G21  20801704.780   109313696.817 8      1889.377          48.062    20801702.960   109313696.822 6      1889.377          40.750    20801708.780    85179516.447 6      1472.242          40.375
G32  25369155.840   133315828.322 6      3658.695          40.937    25369155.740   133315828.337 5      3658.695          33.000    25369177.320   103882556.162 5      2850.931          33.187    25369177.500   103882565.155 6      2850.931          40.125
R07  21911066.900   117291673.907 7      4906.668          44.937    21911068.660   117291673.932 7      4906.668          44.437    21911089.520    91226952.900 7      3816.297          47.375    21911090.040    91226956.903 8      3816.297          48.312
G08  20796107.660   109284279.310 8      2704.556          49.000    20796106.020   109284279.312 8      2704.556          48.875    20796114.020    85156607.412 8      2107.446          48.687    20796115.060    85156614.408 8      2107.446          49.750
R22  20732282.780   110670332.989 8      1530.214          48.125    20732282.700   110670332.987 8      1530.214          48.062    20732291.160    86076966.351 8      1190.166          49.062    20732291.760    86076967.351 8      1190.166          49.000
R12  20066565.460   107191983.215 8      1278.428          48.562    20066564.020   107191983.210 8      1278.428          48.750    20066578.720    83371594.432 8       994.333          51.062    20066578.560    83371591.435 8       994.333          51.750
R23  21853726.200   116902706.791 6      3555.458          39.875    21853726.920   116902706.814 6      3555.458          39.750
G16  22872816.500   120197443.310 7      -783.186          43.500    22872814.260   120197443.318 5      -783.186          31.937    22872827.840    93660379.395 5      -610.275          31.687
R11  22506065.140   120265591.499 7     -1811.632          44.375    22506064.560   120265591.495 7     -1811.632          43.937    22506082.940    93539972.432 7     -1409.047          45.250    22506083.980    93539975.443 7     -1409.047          45.437
G27  21879106.660   114975476.579 7      1005.323          45.562    21879104.980   114975476.589 7      1005.323          47.000    21879115.540    89591313.050 7       783.369          46.812    21879115.800    89591316.052 8       783.369          48.937
G10  23396466.320   122949263.349 7       -67.054          47.625    23396466.280   122949263.356 7       -67.054          46.312    23396476.320    95804654.944 7       -52.250          46.000    23396476.480    95804651.949 7       -52.250          47.187
R21  23191484.400   124102317.217 6       317.878          40.375    23191484.080   124102317.224 6       317.878          40.750    23191501.780    96524084.046 7       247.239          47.125    23191501.840    96524085.052 7       247.239          47.062
G03  23744701.040   124779243.696 7      6215.060          42.437    23744700.380   124779243.688 5      6215.060          32.125    23744719.160    97230634.168 5      4842.904          32.000    23744720.020    97230657.156 7      4842.904          47.187
> 2024 05 09 13 38 58.0000000  0 15
G02  21598024.560   113498384.841 8      2879.670          48.562    21598023.020   113498384.851 6      2879.670          39.187    21598027.440    88440316.257 6      2243.899          39.062
R08  23593807.200   126343772.576 6      6270.303          41.562    23593811.080   126343772.648 6      6270.303          40.562    23593830.460    98267479.415 7      4876.903          42.437    23593830.460    98267476.433 7      4876.903          42.250
G21  20801345.300   109311807.648 8      1888.925          48.562    20801343.540   109311807.655 6      1888.925          41.000    20801349.300    85178044.369 6      1471.889          40.437
G32  25368459.920   133312169.674 6      3658.390          40.875    25368459.320   133312169.684 5      3658.390          33.000    25368481.220   103879705.280 5      2850.693          33.187    25368481.080   103879714.275 6      2850.693          40.125
R07  21910150.600   117286767.419 7      4906.066          45.187    21910152.100   117286767.437 7      4906.066          44.375    21910172.820    91223136.756 7      3815.829          47.875    21910173.360    91223140.755 7      3815.829          47.875
G08  20795593.180   109281574.801 8      2704.319          49.000    20795591.460   109281574.798 8      2704.319          49.062    20795599.480    85154499.996 8      2107.261          48.875    20795600.640    85154506.996 8      2107.261          49.875
R22  20731995.940   110668802.685 8      1530.221          49.062    20731995.820   110668802.686 8      1530.221          48.375    20732004.460    86075776.115 8      1190.172          48.875    20732005.280    86075777.118 8      1190.172          48.750
R12  20066326.220   107190705.149 8      1277.613          49.312    20066324.840   107190705.142 8      1277.613          49.562    20066339.380    83370600.379 8       993.699          51.437    20066339.260    83370597.382 8       993.699          52.375
R23  21853061.340   116899151.431 6      3555.220          40.562    21853062.460   116899151.462 6      3555.220          39.750
G16  22872965.900   120198226.610 7      -783.446          43.625    22872963.300   120198226.623 5      -783.446          31.750    22872977.020    93660989.746 5      -610.478          31.812
R11  22506404.240   120267403.132 7     -1811.584          45.562    22506403.880   120267403.120 7     -1811.584          45.000    22506421.920    93541381.463 7     -1409.009          45.062    22506422.980    93541384.477 7     -1409.009          45.500
G27  21878915.560   114974471.372 7      1005.087          45.750    21878913.600   114974471.383 7      1005.087          47.125    21878924.260    89590529.768 7       783.185          46.500    21878924.280    89590532.774 8       783.185          48.875
G10  23396479.300   122949330.566 7       -67.563          47.562    23396479.040   122949330.571 7       -67.563          46.375    23396489.040    95804707.317 7       -52.647          46.187    23396489.200    95804704.322 7       -52.647          47.562
R21  23191425.460   124101999.224 6       317.820          41.062    23191425.100   124101999.234 6       317.820          40.750    23191442.460    96523836.712 7       247.193          46.562    23191442.340    96523837.718 7       247.193          46.812
G03  23743518.120   124773028.540 7      6214.911          43.000    23743517.560   124773028.537 5      6214.911          32.125    23743536.560    97225791.193 5      4842.788          32.000    23743537.340    97225814.179 7      4842.788          46.750
> 2024 05 09 13 38 59.0000000  0 15
G02  21597476.700   113495505.231 8      2879.611          48.000    21597475.040   113495505.238 6      2879.611          39.500    21597479.280    88438072.403 6      2243.852          39.062
R08  23592636.080   126337502.064 6      6270.677          41.562    23592639.140   126337502.156 6      6270.677          40.562    23592659.140    98262602.372 7      4877.193          42.500    23592659.440    98262599.390 7      4877.193          42.812
G21  20800985.920   109309918.796 7      1888.805          47.875    20800984.200   109309918.801 6      1888.805          40.500    20800990.000    85176572.535 6      1471.796          40.625
G32  25367763.800   133308511.326 6      3658.233          41.000    25367762.980   133308511.333 5      3658.233          32.312    25367785.080   103876854.632 5      2850.571          32.687    25367784.780   103876863.637 6      2850.571          39.687
R07  21909234.200   117281861.500 7      4905.723          45.187    21909235.940   117281861.515 7      4905.723          44.687    21909256.560    91219321.045 7      3815.563          47.562    21909256.760    91219325.044 7      3815.563          47.937
G08  20795078.440   109278870.575 8      2704.163          48.062    20795076.800   109278870.577 8      2704.163          49.062    20795084.840    85152392.809 8      2107.140          48.937    20795086.040    85152399.807 8      2107.140          50.062
R22  20731709.800   110667272.522 8      1530.238          48.250    20731709.300   110667272.520 8      1530.238          48.937    20731717.900    86074585.984 8      1190.185          49.375    20731718.620    86074586.984 8      1190.185          48.312
R12  20066087.340   107189428.005 8      1276.797          48.250    20066085.560   107189427.996 8      1276.797          48.812    20066100.040    83369607.039 8       993.064          51.250    20066100.240    83369604.042 8       993.064          52.187
R23  21852397.060   116895596.310 6      3555.068          40.562    21852398.520   116895596.322 6      3555.068          40.000
G16  22873114.780   120199010.257 7      -783.773          43.000    22873112.560   120199010.270 5      -783.773          31.750    22873126.240    93661600.370 5      -610.733          31.812
R11  22506743.040   120269214.974 7     -1811.783          45.375    22506742.720   120269214.973 7     -1811.783          45.062    22506761.240    93542790.688 7     -1409.165          45.312    22506762.020    93542793.702 7     -1409.165          45.500
G27  21878724.220   114973466.468 7      1004.823          44.750    21878722.460   114973466.473 7      1004.823          47.062    21878733.080    89589746.719 7       782.979          46.625    21878733.360    89589749.721 8       782.979          49.000
G10  23396492.140   122949398.214 7       -67.771          46.937    23396491.940   122949398.214 7       -67.771          46.312    23396502.000    95804760.024 7       -52.809          46.125    23396502.120    95804757.033 7       -52.809          47.500
R21  23191366.420   124101681.149 6       318.203          41.062    23191366.140   124101681.148 6       318.203          40.812    23191382.820    96523589.304 7       247.491          46.875    23191382.700    96523590.309 7       247.491          47.062
G03  23742335.540   124766813.522 7      6215.008          43.125    23742334.960   124766813.519 5      6215.008          32.250    23742353.900    97220948.326 5      4842.863          32.125    23742354.920    97220971.308 7      4842.863          47.437
> 2024 05 09 13 39  0.0000000  0 15
G02  21596928.740   113492625.792 7      2879.266          47.812    21596927.040   113492625.802 6      2879.266          39.625    21596931.440    88435828.689 6      2243.584          39.500
R08  23591464.420   126331231.361 6      6270.889          39.562    23591468.700   126331231.454 6      6270.889          40.375    23591488.340    98257725.159 7      4877.358          42.437    23591488.540    98257722.175 6      4877.358          41.875
G21  20800626.440   109308030.123 8      1888.509          48.250    20800624.700   109308030.131 6      1888.509          40.687    20800630.460    85175100.844 6      1471.565          40.625
G32  25367067.160   133304853.133 6      3657.987          40.625    25367066.820   133304853.140 5      3657.987          32.312    25367088.980   103874004.106 5      2850.380          32.687    25367089.060   103874013.117 6      2850.380          39.687
R07  21908317.700   117276955.952 7      4905.262          45.250    21908319.640   117276955.978 7      4905.262          44.812    21908339.720    91215505.642 7      3815.204          47.562    21908340.280    91215509.641 8      3815.204          48.062
G08  20794563.800   109276166.465 8      2704.024          49.062    20794562.180   109276166.462 8      2704.024          48.875    20794570.260    85150285.704 8      2107.032          49.187    20794571.560    85150292.705 8      2107.032          50.312
R22  20731423.080   110665742.338 8      1530.127          49.562    20731422.720   110665742.339 8      1530.127          48.437    20731431.080    86073395.845 8      1190.099          49.375    20731431.780    86073396.843 8      1190.099          48.125
R12  20065848.300   107188151.620 8      1275.912          49.562    20065846.600   107188151.605 8      1275.912          49.500    20065861.140    83368614.288 8       992.376          51.812    20065861.240    83368611.296 8       992.376          51.750
R23  21851732.720   116892041.177 7      3555.081          42.125    21851733.520   116892041.195 6      3555.081          40.000
G16  22873264.000   120199794.032 7      -783.935          43.437    22873261.720   120199794.042 5      -783.935          31.750    22873275.380    93662211.085 5      -610.859          31.875
R11  22507081.700   120271026.880 7     -1811.971          45.187    22507082.000   120271026.884 7     -1811.971          45.000    22507099.980    93544199.948 7     -1409.311          45.437    22507100.900    93544202.966 7     -1409.311          45.250
G27  21878533.060   114972461.637 7      1004.756          45.937    21878531.280   114972461.644 7      1004.756          47.562    21878541.880    89588963.734 7       782.927          46.875    21878542.220    89588966.734 8       782.927          48.937
G10  23396505.240   122949466.143 7       -68.140          47.437    23396504.700   122949466.148 7       -68.140          46.562    23396515.000    95804812.958 7       -53.096          46.687    23396515.160    95804809.963 7       -53.096          47.125
R21  23191306.660   124101362.876 6       318.428          41.875    23191306.940   124101362.866 6       318.428          40.812    23191323.420    96523341.743 7       247.666          46.812    23191323.460    96523342.749 7       247.666          46.625
G03  23741152.740   124760598.510 7      6215.021          43.437    23741152.140   124760598.510 5      6215.021          32.250    23741171.280    97216105.455 5      4842.873          32.125    23741172.120    97216128.444 7      4842.873          47.312
> 2024 05 09 13 39  1.0000000  0 15
G02  21596381.000   113489746.682 7      2879.055          47.000    21596379.280   113489746.689 6      2879.055          39.375    21596383.640    88433585.228 6      2243.419          39.312
R08  23590293.360   126324960.645 6      6270.925          39.562    23590296.920   126324960.732 6      6270.925          40.375    23590317.580    98252847.942 7      4877.386          42.437    23590317.780    98252844.962 7      4877.386          43.000
G21  20800267.100   109306141.776 7      1888.420          47.687    20800265.460   109306141.778 6      1888.420          40.500    20800271.180    85173629.402 6      1471.496          40.437
G32  25366371.160   133301195.268 6      3657.824          39.437    25366370.600   133301195.268 5      3657.824          32.312    25366392.900   103871153.834 5      2850.252          32.000    25366393.540   103871162.835 6      2850.252          39.687
R07  21907401.300   117272050.967 7      4904.734          45.812    21907403.620   117272050.998 7      4904.734          44.937    21907423.380    91211690.667 7      3814.793          47.312    21907423.700    91211694.665 7      3814.793          47.375
G08  20794049.320   109273462.652 8      2703.784          48.375    20794047.560   109273462.652 8      2703.784          48.250    20794055.760    85148178.841 8      2106.845          48.375    20794057.100    85148185.841 8      2106.845          49.687
R22  20731136.220   110664212.283 8      1530.113          48.437    20731136.200   110664212.278 7      1530.113          47.812    20731144.540    86072205.796 8      1190.088          48.625    20731145.020    86072206.787 8      1190.088          48.312
R12  20065609.620   107186876.106 8      1275.283          49.187    20065607.920   107186876.088 8      1275.283          48.562    20065622.240    83367622.219 8       991.887          50.500    20065622.140    83367619.227 8       991.887          50.687
R23  21851068.620   116888486.286 7      3554.908          42.125    21851068.520   116888486.306 6      3554.908          40.000
G16  22873413.060   120200578.126 7      -784.126          43.750    22873410.880   120200578.136 5      -784.126          31.937    22873424.640    93662822.053 5      -611.007          31.875
R11  22507421.000   120272838.970 7     -1811.923          45.687    22507421.180   120272838.966 7     -1811.923          45.250    22507439.340    93545609.335 7     -1409.273          45.625    22507439.940    93545612.349 7     -1409.273          45.750
G27  21878341.820   114971457.123 7      1004.531          44.312    21878340.160   114971457.134 7      1004.531          46.812    21878350.740    89588180.997 7       782.752          46.562    21878351.000    89588183.994 8       782.752          48.937
G10  23396518.060   122949534.538 8       -68.489          48.125    23396517.720   122949534.542 7       -68.489          45.625    23396528.080    95804866.248 7       -53.368          45.812    23396527.920    95804863.255 7       -53.368          47.250
R21  23191247.460   124101044.581 6       318.446          41.875    23191247.380   124101044.582 6       318.446          40.812    23191264.360    96523094.178 7       247.680          46.437    23191263.860    96523095.184 7       247.680          46.562
G03  23739970.240   124754383.653 7      6214.948          42.937    23739969.660   124754383.652 5      6214.948          32.500    23739988.660    97211262.709 5      4842.816          32.187    23739989.440    97211285.704 7      4842.816          47.000
> 2024 05 09 13 39  2.0000000  0 15
G02  21595833.200   113486867.965 7      2878.430          47.875    21595831.640   113486867.975 6      2878.430          39.125    21595835.760    88431342.073 6      2242.932          39.437
R08  23589122.320   126318689.974 6      6270.505          39.562    23589126.160   126318690.048 6      6270.505          40.375    23589146.240    98247970.749 7      4877.060          42.875    23589146.280    98247967.771 7      4877.060          42.625
G21  20799907.940   109304253.852 8      1887.579          48.375    20799906.100   109304253.857 6      1887.579          40.687    20799911.900    85172158.293 6      1470.840          41.000
G32  25365675.100   133297537.758 6      3657.233          39.750    25365674.620   133297537.755 5      3657.233          32.312    25365696.860   103868303.839 5      2849.792          32.000    25365697.680   103868312.841 6      2849.792          39.750
R07  21906485.100   117267146.600 7      4903.856          45.125    21906487.120   117267146.628 7      4903.856          44.937    21906507.740    91207876.166 7      3814.110          47.625    21906507.580    91207880.165 8      3814.110          48.062
G08  20793534.880   109270759.199 8      2703.114          48.500    20793533.060   109270759.199 8      2703.114          48.000    20793541.260    85146072.254 8      2106.323          48.437    20793542.440    85146079.251 8      2106.323          50.187
R22  20730849.780   110662682.416 8      1529.655          49.250    20730849.560   110662682.409 7      1529.655          47.750    20730857.960    86071015.898 8      1189.732          48.937    20730858.740    86071016.889 8      1189.732          48.875
R12  20065370.880   107185601.561 8      1273.928          48.562    20065369.560   107185601.551 8      1273.928          48.125    20065383.600    83366630.904 8       990.833          50.812    20065383.700    83366627.914 8       990.833          51.500
R23  21850404.380   116884931.664 6      3554.390          41.875    21850404.160   116884931.681 6      3554.390          40.312
G16  22873562.580   120201362.613 7      -784.887          43.937    22873560.440   120201362.626 5      -784.887          31.937    22873573.840    93663433.334 5      -611.600          31.875
R11  22507760.300   120274651.360 7     -1812.684          45.312    22507760.340   120274651.356 7     -1812.684          44.062    22507778.340    93547018.982 7     -1409.865          46.000    22507779.180    93547021.994 7     -1409.865          45.687
G27  21878150.540   114970452.954 7      1003.883          46.125    21878149.080   114970452.965 7      1003.883          46.562    21878159.640    89587398.523 7       782.247          46.437    21878159.620    89587401.525 8       782.247          48.375
G10  23396531.280   122949603.444 7       -69.365          47.500    23396530.620   122949603.446 7       -69.365          46.500    23396541.120    95804919.939 7       -54.051          46.375    23396541.360    95804916.946 7       -54.051          47.687
R21  23191187.600   124100726.289 6       318.131          41.875    23191187.640   124100726.301 6       318.131          41.312    23191204.700    96522846.616 7       247.435          46.937    23191204.140    96522847.623 7       247.435          47.187
G03  23738787.980   124748169.030 7      6214.385          42.250    23738787.040   124748169.027 5      6214.385          32.500    23738806.040    97206420.148 5      4842.378          32.187    23738806.740    97206443.138 7      4842.378          47.250
> 2024 05 09 13 39  3.0000000  0 15
G02  21595285.320   113483989.903 7      2877.835          47.562    21595283.880   113483989.908 6      2877.835          39.250    21595288.060    88429099.427 6      2242.469          39.312
R08  23587951.520   126312419.582 6      6270.398          39.562    23587954.860   126312419.654 6      6270.398          40.375    23587975.320    98243093.782 7      4876.976          42.812    23587975.380    98243090.806 7      4876.976          42.500
G21  20799548.840   109302366.559 7      1887.106          47.750    20799546.860   109302366.566 6      1887.106          41.312    20799552.660    85170687.677 6      1470.473          41.187
G32  25364979.220   133293880.910 6      3656.589          39.187    25364978.800   133293880.907 5      3656.589          32.312    25365001.000   103865454.363 5      2849.290          32.000    25365001.620   103865463.378 6      2849.290          39.750
R07  21905568.820   117262243.105 7      4903.173          44.500    21905571.160   117262243.139 7      4903.173          44.187    21905591.580    91204062.353 7      3813.579          47.812    21905591.080    91204066.359 7      3813.579          47.937
G08  20793020.620   109268056.332 7      2702.718          47.375    20793018.780   109268056.334 8      2702.718          48.500    20793027.000    85143966.124 8      2106.014          48.562    20793028.040    85143973.127 8      2106.014          50.812
R22  20730563.120   110661153.014 8      1529.277          48.187    20730563.000   110661153.010 8      1529.277          48.687    20730571.400    86069826.365 8      1189.438          49.250    20730572.240    86069827.356 8      1189.438          49.062
R12  20065132.600   107184328.223 8      1272.821          48.062    20065130.960   107184328.211 8      1272.821          48.437    20065145.120    83365640.531 8       989.972          51.250    20065145.260    83365637.536 8       989.972          51.312
R23  21849739.820   116881377.599 6      3553.798          41.875    21849739.740   116881377.624 6      3553.798          40.312
G16  22873711.840   120202147.723 7      -785.324          43.937    22873709.880   120202147.739 5      -785.324          32.187    22873723.260    93664045.094 5      -611.941          31.875
R11  22508099.500   120276464.257 7     -1813.045          45.937    22508099.620   120276464.258 7     -1813.045          44.937    22508117.520    93548429.022 7     -1410.146          45.375    22508118.400    93548432.038 7     -1410.146          45.625
G27  21877959.580   114969449.398 7      1003.391          45.750    21877958.160   114969449.405 7      1003.391          47.000    21877968.540    89586616.525 7       781.863          46.625    21877968.880    89586619.527 8       781.863          49.000
G10  23396544.680   122949673.110 7       -69.961          46.625    23396543.860   122949673.112 7       -69.961          45.437    23396554.480    95804974.222 7       -54.515          46.000    23396554.680    95804971.229 7       -54.515          47.750
R21  23191127.940   124100408.237 6       318.011          41.875    23191129.140   124100408.263 6       318.011          41.312    23191145.220    96522599.253 7       247.342          46.750    23191144.980    96522600.258 7       247.342          46.875
G03  23737605.480   124741954.884 7      6213.860          42.437    23737604.400   124741954.881 5      6213.860          32.500    23737623.580    97201577.961 5      4841.969          32.187    23737624.360    97201600.947 7      4841.969          47.500
> 2024 05 09 13 39  4.0000000  0 15
G02  21594737.680   113481112.178 8      2877.604          48.125    21594736.180   113481112.185 6      2877.604          39.437    21594740.580    88426857.049 6      2242.289          39.125
R08  23586780.100   126306149.198 6      6270.583          39.250    23586784.340   126306149.264 6      6270.583          39.875    23586804.580    98238216.823 7      4877.120          42.937    23586804.560    98238213.836 7      4877.120          42.500
G21  20799189.760   109300479.617 7      1886.897          47.875    20799187.760   109300479.622 6      1886.897          41.250    20799193.580    85169217.335 6      1470.309          40.937
G32  25364283.440   133290224.344 6      3656.570          38.937    25364282.880   133290224.343 5      3656.570          32.250    25364305.260   103862605.107 5      2849.275          32.437    25364305.560   103862614.128 6      2849.275          39.875
R07  21904652.700   117257340.210 7      4902.753          45.187    21904655.280   117257340.241 7      4902.753          44.625    21904675.560    91200248.999 7      3813.252          47.750    21904675.140    91200253.002 7      3813.252          47.375
G08  20792506.240   109265353.794 8      2702.456          48.187    20792504.480   109265353.793 8      2702.456          48.437    20792512.660    85141860.250 8      2105.810          48.562    20792513.740    85141867.248 8      2105.810          50.187
R22  20730276.520   110659623.749 8      1529.331          49.000    20730276.740   110659623.744 8      1529.331          48.875    20730284.940    86068636.936 8      1189.479          49.000    20730285.860    86068637.929 8      1189.479          49.375
R12  20064894.420   107183055.823 8      1271.958          48.250    20064892.760   107183055.816 8      1271.958          49.250    20064906.920    83364650.886 8       989.301          51.500    20064907.140    83364647.891 8       989.301          51.562
R23  21849075.780   116877823.734 6      3553.738          41.875    21849075.860   116877823.760 6      3553.738          40.312
G16  22873861.180   120202933.172 7      -785.543          43.562    22873859.420   120202933.185 5      -785.543          32.187    22873872.580    93664657.122 5      -612.112          31.875
R11  22508438.700   120278277.400 7     -1813.198          45.562    22508438.900   120278277.399 7     -1813.198          45.437    22508456.740    93549839.242 7     -1410.265          45.625    22508457.760    93549842.264 7     -1410.265          44.812
G27  21877768.900   114968446.125 7      1003.271          45.500    21877767.260   114968446.127 7      1003.271          47.312    21877777.660    89585834.747 7       781.769          46.750    21877778.020    89585837.745 8       781.769          48.562
G10  23396558.120   122949743.236 7       -70.291          47.250    23396557.100   122949743.241 7       -70.291          46.375    23396567.840    95805028.864 7       -54.772          46.125    23396567.700    95805025.871 7       -54.772          47.562
R21  23191068.720   124100090.178 6       318.236          41.500    23191069.820   124100090.190 6       318.236          41.187    23191086.020    96522351.853 7       247.517          46.750    23191085.420    96522352.858 7       247.517          46.937
G03  23736422.800   124735740.860 7      6213.905          42.500    23736421.800   124735740.865 5      6213.905          32.687    23736441.000    97196735.868 5      4842.004          32.750    23736441.860    97196758.873 7      4842.004          46.937
> 2024 05 09 13 39  5.0000000  0 15
G02  21594190.080   113478234.672 8      2877.565          48.125    21594188.620   113478234.683 6      2877.565          39.312    21594192.960    88424614.840 6      2242.258          39.187
R08  23585609.060   126299878.696 6      6270.591          39.250    23585612.200   126299878.778 6      6270.591          39.875    23585633.580    98233339.788 7      4877.127          43.125    23585633.800    98233336.811 7      4877.127          42.687
G21  20798830.580   109298592.939 7      1886.708          47.312    20798828.720   109298592.944 6      1886.708          40.812    20798834.760    85167747.193 6      1470.162          40.750
G32  25363587.400   133286568.048 6      3656.287          38.437    25363587.020   133286568.050 5      3656.287          32.250    25363609.480   103859756.061 5      2849.055          32.437    25363609.860   103859765.074 6      2849.055          39.875
R07  21903737.220   117252437.802 7      4902.331          45.687    21903739.440   117252437.828 7      4902.331          44.562    21903759.500    91196436.023 7      3812.924          47.500    21903759.400    91196440.029 7      3812.924          47.500
G08  20791992.040   109262651.444 8      2702.353          48.562    20791990.180   109262651.446 8      2702.353          48.562    20791998.340    85139754.521 8      2105.730          48.437    20791999.420    85139761.521 8      2105.730          50.312
R22  20729990.040   110658094.542 8      1529.301          49.437    20729990.420   110658094.537 8      1529.301          48.687    20729998.560    86067447.549 8      1189.457          49.187    20729999.300    86067448.546 8      1189.457          49.000
R12  20064656.180   107181784.237 8      1271.313          48.937    20064654.880   107181784.235 8      1271.313          49.375    20064668.940    83363661.873 8       988.799          50.875    20064668.940    83363658.876 8       988.799          51.687
R23  21848411.320   116874269.987 6      3553.758          41.125    21848411.780   116874270.005 6      3553.758          40.437
G16  22874010.500   120203718.824 7      -785.537          43.812    22874009.060   120203718.837 5      -785.537          32.187    22874021.880    93665269.299 5      -612.107          31.875
R11  22508778.280   120280090.698 7     -1813.208          46.062    22508778.660   120280090.686 7     -1813.208          45.187    22508796.260    93551249.570 7     -1410.273          45.875    22508796.900    93551252.588 7     -1410.273          45.312
G27  21877578.240   114967443.057 7      1003.158          45.187    21877576.380   114967443.064 7      1003.158          47.375    21877586.760    89585053.136 7       781.682          47.000    21877587.140    89585056.136 8       781.682          48.875
G10  23396571.340   122949813.727 7       -70.598          47.500    23396570.520   122949813.729 7       -70.598          46.312    23396581.280    95805083.788 7       -55.011          46.250    23396580.840    95805080.795 7       -55.011          47.875
R21  23191008.640   124099772.014 6       318.356          41.500    23191009.960   124099772.018 6       318.356          41.187    23191026.400    96522104.377 7       247.610          47.062    23191026.100    96522105.389 7       247.610          46.812
G03  23735240.220   124729526.946 7      6213.882          42.812    23735239.220   124729526.951 5      6213.882          32.687    23735258.640    97191893.861 5      4841.986          32.750    23735259.580    97191916.854 7      4841.986          47.375
> 2024 05 09 13 39  6.0000000  0 15
G02  21593642.420   113475357.386 8      2877.065          48.375    21593641.120   113475357.396 6      2877.065          39.437    21593645.500    88422372.804 6      2241.869          39.437
R08  23584438.560   126293608.044 6      6270.598          39.250    23584441.780   126293608.097 6      6270.598          39.875    23584462.980    98228462.604 7      4877.132          43.062    23584462.840    98228459.624 7      4877.132          42.937
G21  20798471.780   109296706.449 7      1886.269          47.562    20798469.700   109296706.459 6      1886.269          40.937    20798475.700    85166277.202 6      1469.820          41.500
G32  25362891.520   133282911.894 6      3655.953          38.750    25362891.200   133282911.899 5      3655.953          32.250    25362913.740   103856907.127 5      2848.794          32.437    25362914.440   103856916.148 6      2848.794          39.875
R07  21902821.380   117247535.803 7      4901.779          45.875    21902823.920   117247535.832 7      4901.779          44.937    21902843.860    91192623.374 7      3812.495          47.500    21902843.420    91192627.380 7      3812.495          47.312
G08  20791477.520   109259949.252 8      2701.965          48.312    20791475.920   109259949.255 8      2701.965          48.125    20791484.200    85137648.915 8      2105.427          48.562    20791485.100    85137655.913 8      2105.427          49.875
R22  20729703.720   110656565.327 8      1529.085          49.437    20729703.860   110656565.320 8      1529.085          48.250    20729712.060    86066258.159 8      1189.289          49.500    20729712.780    86066259.152 8      1189.289          49.187
R12  20064418.260   107180513.402 8      1270.406          48.687    20064417.040   107180513.398 8      1270.406          48.750    20064431.200    83362673.441 8       988.094          51.437    20064431.140    83362670.444 8       988.094          51.687
R23  21847747.220   116870716.312 6      3553.516          41.125    21847747.900   116870716.325 6      3553.516          40.437
G16  22874160.320   120204504.693 7      -786.058          44.687    22874158.680   120204504.706 5      -786.058          31.937    22874171.660    93665881.653 5      -612.513          31.875
R11  22509117.260   120281904.039 7     -1813.542          45.687    22509117.600   120281904.027 7     -1813.542          45.250    22509135.760    93552659.946 7     -1410.532          45.000    22509136.440    93552662.962 7     -1410.532          45.625
G27  21877387.200   114966440.141 7      1002.796          45.875    21877385.540   114966440.151 7      1002.796          46.812    21877395.980    89584271.647 7       781.399          46.562    21877396.260    89584274.645 8       781.399          48.812
G10  23396584.780   122949884.526 7       -71.065          47.187    23396583.940   122949884.533 7       -71.065          46.125    23396594.720    95805138.958 7       -55.375          46.062    23396594.600    95805135.969 7       -55.375          47.937
R21  23190949.440   124099453.647 6       318.385          41.500    23190950.060   124099453.665 6       318.385          41.437    23190967.020    96521856.756 7       247.633          46.812    23190966.640    96521857.772 7       247.633          46.750
G03  23734057.740   124723313.032 7      6213.794          42.000    23734056.580   124723313.040 5      6213.794          32.187    23734076.240    97187051.855 5      4841.918          32.750    23734076.940    97187074.847 7      4841.918          47.312
> 2024 05 09 13 39  7.0000000  0 15
G02  21593095.100   113472480.477 8      2876.465          48.125    21593093.700   113472480.487 6      2876.465          39.500    21593098.040    88420131.053 6      2241.401          39.875
R08  23583267.400   126287337.427 6      6270.240          39.250    23583271.120   126287337.483 6      6270.240          39.875    23583292.060    98223585.468 7      4876.854          43.312    23583291.720    98223582.482 7      4876.854          42.687
G21  20798112.980   109294820.351 7      1885.747          47.250    20798110.820   109294820.359 6      1885.747          40.937    20798116.820    85164807.515 6      1469.413          40.687
G32  25362196.240   133279256.149 6      3655.278          38.437    25362195.420   133279256.152 5      3655.278          32.000    25362218.040   103854058.511 5      2848.268          32.062    25362219.560   103854067.528 6      2848.268          40.312
R07  21901905.900   117242634.431 7      4900.937          45.812    21901908.300   117242634.462 7      4900.937          44.625    21901927.960    91188811.215 7      3811.840          47.187    21901927.880    91188815.220 7      3811.840          47.875
G08  20790963.320   109257247.400 8      2701.461          48.875    20790961.860   109257247.399 8      2701.461          48.125    20790970.120    85135543.571 8      2105.034          48.187    20790971.180    85135550.571 8      2105.034          49.812
R22  20729417.460   110655036.293 8      1528.716          49.250    20729417.440   110655036.281 8      1528.716          48.312    20729425.580    86065068.905 8      1189.001          49.625    20729426.280    86065069.904 8      1189.001          49.187
R12  20064180.420   107179243.531 8      1269.181          48.687    20064179.340   107179243.527 8      1269.181          49.312    20064193.500    83361685.760 8       987.141          50.875    20064193.360    83361682.763 8       987.141          52.250
R23  21847082.460   116867162.886 6      3553.081          41.750    21847082.760   116867162.904 6      3553.081          40.625
G16  22874309.760   120205290.910 7      -786.600          44.312    22874308.220   120205290.920 5      -786.600          31.937    22874321.200    93666494.281 5      -612.935          31.875
R11  22509456.920   120283717.636 7     -1813.948          46.500    22509457.060   120283717.629 7     -1813.948          44.937    22509475.100    93554070.522 7     -1410.848          45.562    22509475.760    93554073.538 7     -1410.848          45.000
G27  21877196.460   114965437.564 7      1002.206          46.062    21877194.740   114965437.575 7      1002.206          47.125    21877205.180    89583490.413 7       780.940          46.625    21877205.200    89583493.410 8       780.940          49.187
G10  23396598.480   122949955.842 7       -71.832          47.312    23396597.400   122949955.844 7       -71.832          46.375    23396608.300    95805194.522 7       -55.973          46.187    23396607.620    95805191.525 7       -55.973          47.500
R21  23190890.020   124099135.352 6       318.062          41.812    23190890.580   124099135.364 6       318.062          41.437    23190907.620    96521609.187 7       247.381          46.562    23190906.960    96521610.199 7       247.381          46.625
G03  23732875.240   124717099.347 7      6213.310          42.062    23732874.040   124717099.355 5      6213.310          32.187    23732893.780    97182210.022 5      4841.540          32.062    23732894.640    97182233.015 7      4841.540          47.312
> 2024 05 09 13 39  8.0000000  0 15
G02  21592547.960   113469603.857 8      2876.359          48.500    21592546.340   113469603.865 6      2876.359          39.687    21592550.580    88417889.533 6      2241.319          39.250
R08  23582096.600   126281066.738 6      6270.607          39.625    23582100.860   126281066.796 6      6270.607          39.687    23582121.320    98218708.268 7      4877.139          43.250    23582120.480    98218705.286 7      4877.139          42.625
G21  20797754.260   109292934.569 7      1885.512          47.437    20797752.020   109292934.576 6      1885.512          41.187    20797758.100    85163338.076 6      1469.230          41.062
G32  25361500.360   133275600.655 6      3655.261          39.375    25361499.700   133275600.652 5      3655.261          32.000    25361522.540   103851210.086 5      2848.255          32.062    25361523.900   103851219.105 6      2848.255          40.312
R07  21900990.680   117237733.613 7      4900.454          45.625    21900992.660   117237733.649 7      4900.454          44.625    21901012.560    91184999.478 7      3811.464          47.437    21901012.500    91185003.487 7      3811.464          47.937
G08  20790449.160   109254545.804 8      2701.439          48.437    20790447.660   109254545.801 8      2701.439          48.187    20790455.920    85133438.430 8      2105.018          48.687    20790456.940    85133445.432 8      2105.018          50.187
R22  20729130.920   110653507.343 8      1528.810          48.125    20729130.920   110653507.338 8      1528.810          48.562    20729139.100    86063879.731 8      1189.075          49.187    20729139.900    86063880.729 8      1189.075          48.687
R12  20063942.760   107177974.539 8      1268.488          48.812    20063942.000   107177974.529 8      1268.488          48.187    20063955.860    83360698.760 8       986.601          50.937    20063955.920    83360695.765 8       986.601          51.875
R23  21846417.840   116863609.637 6      3553.143          41.750    21846418.940   116863609.660 6      3553.143          40.625
G16  22874459.120   120206077.433 7      -786.749          44.875    22874458.000   120206077.444 5      -786.749          32.437    22874470.700    93667107.142 5      -613.051          32.312
R11  22509796.420   120285531.421 7     -1813.956          45.562    22509796.380   120285531.416 7     -1813.956          45.000    22509814.420    93555481.245 7     -1410.855          45.812    22509815.120    93555484.259 7     -1410.855          45.312
G27  21877005.860   114964435.250 7      1002.143          46.125    21877004.120   114964435.250 7      1002.143          46.937    21877014.560    89582709.379 7       780.890          46.875    21877014.880    89582712.376 8       780.890          48.875
G10  23396611.980   122950027.557 7       -72.018          46.625    23396611.040   122950027.565 7       -72.018          46.187    23396622.060    95805250.405 7       -56.118          46.250    23396621.520    95805247.411 7       -56.118          47.562
R21  23190830.680   124098816.953 6       318.410          41.812    23190830.980   124098816.968 6       318.410          41.437    23190848.060    96521361.542 7       247.653          47.312    23190847.400    96521362.551 7       247.653          47.000
G03  23731692.760   124710885.764 6      6213.446          41.062    23731691.560   124710885.766 5      6213.446          32.187    23731711.260    97177368.269 5      4841.646          32.062    23731712.240    97177391.264 7      4841.646          46.812
> 2024 05 09 13 39  9.0000000  0 15
G02  21592000.640   113466727.635 8      2876.103          49.187    21591998.980   113466727.642 6      2876.103          39.500    21592003.180    88415648.321 6      2241.119          39.500
R08  23580925.440   126274796.089 6      6270.749          39.625    23580930.260   126274796.147 6      6270.749          39.687    23580950.040    98213831.106 7      4877.249          43.187    23580949.480    98213828.120 7      4877.249          42.437
G21  20797395.380   109291049.186 7      1885.275          47.812    20797393.340   109291049.190 6      1885.275          41.187    20797399.240    85161868.944 6      1469.045          40.812
G32  25360804.580   133271945.549 6      3654.906          39.625    25360804.160   133271945.554 5      3654.906          32.125    25360826.880   103848361.972 5      2847.979          32.125    25360827.920   103848370.991 6      2847.979          40.687
R07  21900075.160   117232833.427 7      4899.912          45.062    21900077.500   117232833.466 7      4899.912          44.187    21900097.000    91181188.240 7      3811.043          47.750    21900096.920    91181192.246 8      3811.043          48.000
G08  20789935.380   109251844.571 8      2701.149          49.187    20789933.660   109251844.576 8      2701.149          48.250    20789941.840    85131333.577 8      2104.791          48.750    20789942.920    85131340.578 8      2104.791          49.937
R22  20728844.800   110651978.624 8      1528.711          48.937    20728844.520   110651978.614 8      1528.711          48.125    20728852.780    86062690.718 8      1188.997          49.562    20728853.660    86062691.717 8      1188.997          48.750
R12  20063705.640   107176706.516 8      1267.628          48.937    20063704.620   107176706.506 8      1267.628          48.875    20063718.660    83359712.520 8       985.933          51.062    20063718.640    83359709.525 8       985.933          51.500
R23  21845754.380   116860056.703 6      3552.824          41.500    21845755.160   116860056.715 6      3552.824          40.625
G16  22874609.180   120206864.330 7      -787.024          44.375    22874607.920   120206864.343 5      -787.024          32.437    22874620.440    93667720.292 5      -613.265          32.312
R11  22510135.600   120287345.496 7     -1814.174          45.250    22510136.020   120287345.489 7     -1814.174          44.812    22510154.020    93556892.197 7     -1411.024          45.812    22510154.500    93556895.207 7     -1411.024          45.062
G27  21876815.140   114963433.286 7      1001.883          46.812    21876813.340   114963433.288 7      1001.883          46.625    21876823.820    89581928.623 7       780.688          46.375    21876824.100    89581931.623 8       780.688          48.687
G10  23396625.820   122950099.795 7       -72.333          46.000    23396624.680   122950099.800 7       -72.333          46.437    23396635.860    95805306.688 7       -56.364          45.937    23396635.540    95805303.699 7       -56.364          47.625
R21  23190771.220   124098498.575 6       318.521          41.375    23190771.940   124098498.582 6       318.521          40.812    23190788.580    96521113.902 7       247.738          47.062    23190788.060    96521114.914 7       247.738          46.750
G03  23730510.860   124704672.431 6      6213.324          41.562    23730509.120   124704672.428 5      6213.324          32.000    23730528.860    97172526.713 5      4841.551          31.750    23730529.740    97172549.707 7      4841.551          47.437
> 2024 05 09 13 39 10.0000000  0 15
G02  21591453.340   113463851.509 8      2876.189          48.875    21591451.680   113463851.517 6      2876.189          39.750    21591455.920    88413407.184 6      2241.186          39.687
R08  23579754.120   126268525.159 6      6271.236          39.625    23579759.560   126268525.225 6      6271.236          39.687    23579779.160    98208953.720 7      4877.628          43.187    23579778.340    98208950.738 7      4877.628          42.875
G21  20797036.560   109289163.907 7      1885.306          47.812    20797034.540   109289163.912 6      1885.306          41.437    20797040.460    85160399.896 6      1469.069          41.312
G32  25360109.460   133268290.551 6      3654.981          39.625    25360108.620   133268290.553 5      3654.981          32.125    25360131.380   103845513.932 5      2848.037          32.125    25360132.600   103845522.939 6      2848.037          40.687
R07  21899159.920   117227933.577 7      4899.818          45.625    21899161.920   117227933.614 7      4899.818          44.750    21899181.700    91177377.255 7      3810.970          47.625    21899181.620    91177381.258 8      3810.970          48.000
G08  20789421.360   109249143.402 8      2701.239          48.812    20789419.620   109249143.401 8      2701.239          48.437    20789427.920    85129228.766 8      2104.861          48.562    20789429.140    85129235.768 8      2104.861          50.250
R22  20728558.500   110650449.793 8      1528.927          48.750    20728558.040   110650449.781 8      1528.927          49.000    20728566.440    86061501.625 8      1189.165          49.437    20728567.060    86061502.620 8      1189.165          48.812
R12  20063468.380   107175439.121 8      1267.247          49.562    20063467.260   107175439.111 8      1267.247          49.500    20063481.320    83358726.764 8       985.636          50.812    20063481.360    83358723.769 8       985.636          51.625
R23  21845090.020   116856503.705 6      3553.091          41.500    21845090.720   116856503.717 6      3553.091          40.437
G16  22874759.320   120207651.309 7      -786.908          44.750    22874757.700   120207651.319 5      -786.908          32.437    22874770.100    93668333.505 5      -613.175          32.312
R11  22510474.960   120289159.526 7     -1814.027          45.750    22510475.060   120289159.522 7     -1814.027          45.500    22510493.500    93558303.103 7     -1410.910          45.562    22510493.960    93558306.119 7     -1410.910          44.937
G27  21876624.420   114962431.366 7      1001.967          46.937    21876622.640   114962431.371 7      1001.967          47.125    21876633.200    89581147.908 7       780.754          46.812    21876633.880    89581150.906 8       780.754          49.562
G10  23396639.500   122950172.257 7       -72.403          47.500    23396638.480   122950172.259 7       -72.403          46.000    23396649.700    95805363.146 7       -56.418          46.062    23396649.240    95805360.152 7       -56.418          47.937
R21  23190712.220   124098179.906 6       318.876          41.375    23190712.200   124098179.902 6       318.876          40.812    23190728.840    96520866.033 7       248.015          47.375    23190728.500    96520867.043 7       248.015          46.375
G03  23729328.120   124698459.003 6      6213.615          41.000    23729326.760   124698459.003 5      6213.615          32.000    23729346.520    97167685.083 5      4841.778          31.750    23729346.980    97167708.071 7      4841.778          47.062
> 2024 05 09 13 39 11.0000000  0 15
G02  21590906.000   113460975.812 8      2875.586          48.312    21590904.520   113460975.817 6      2875.586          39.562    21590908.780    88411166.381 6      2240.716          39.187
R08  23578583.620   126262254.344 6      6270.878          41.125    23578589.480   126262254.393 6      6270.878          39.750    23578608.280    98204076.411 7      4877.350          43.125    23578607.240    98204073.427 7      4877.350          42.875
G21  20796677.980   109287279.044 8      1884.775          48.250    20796675.840   109287279.052 6      1884.775          40.812    20796681.800    85158931.172 6      1468.656          40.750
G32  25359414.060   133264635.929 6      3654.418          38.125    25359413.260   133264635.934 5      3654.418          32.125    25359436.000   103842666.193 5      2847.598          32.125    25359436.840   103842675.200 6      2847.598          40.937
R07  21898244.540   117223034.387 7      4898.855          46.312    21898246.840   117223034.420 7      4898.855          45.062    21898266.500    91173566.786 7      3810.221          47.375    21898266.260    91173570.789 7      3810.221          47.375
G08  20788907.540   109246442.608 8      2700.671          48.625    20788905.740   109246442.613 8      2700.671          48.375    20788913.940    85127124.251 8      2104.419          48.312    20788915.160    85127131.255 8      2104.419          49.812
R22  20728272.140   110648921.174 8      1528.551          49.625    20728271.780   110648921.169 8      1528.551          48.312    20728280.060    86060312.698 8      1188.873          48.625    20728280.580    86060313.700 8      1188.873          48.750
R12  20063231.620   107174172.725 8      1265.966          49.312    20063230.220   107174172.718 8      1265.966          48.625    20063244.380    83357741.787 8       984.640          50.937    20063244.220    83357738.792 8       984.640          51.625
R23  21844425.660   116852951.015 7      3552.713          42.375    21844426.940   116852951.032 6      3552.713          40.437
G16  22874909.180   120208438.715 7      -787.608          44.125    22874907.580   120208438.725 5      -787.608          32.187    22874920.180    93668947.055 5      -613.720          32.312
R11  22510814.640   120290973.832 7     -1814.370          45.125    22510814.540   120290973.830 7     -1814.370          45.250    22510833.180    93559714.227 7     -1411.177          45.750    22510833.760    93559717.241 7     -1411.177          45.062
G27  21876433.620   114961429.835 7      1001.397          46.500    21876432.220   114961429.840 7      1001.397          46.812    21876442.600    89580367.488 7       780.310          46.500    21876443.020    89580370.492 8       780.310          48.875
G10  23396653.600   122950245.255 7       -73.144          46.437    23396652.340   122950245.262 7       -73.144          46.062    23396663.540    95805420.025 7       -56.995          46.187    23396663.480    95805417.034 7       -56.995          47.062
R21  23190653.080   124097861.260 6       318.727          41.250    23190651.940   124097861.243 6       318.727          40.812    23190669.620    96520618.186 7       247.898          47.125    23190668.880    96520619.195 7       247.898          46.687
G03  23728145.940   124692245.830 6      6213.100          41.437    23728144.280   124692245.830 5      6213.100          32.000    23728164.160    97162843.649 5      4841.377          31.750    23728164.860    97162866.648 7      4841.377          46.750
> 2024 05 09 13 39 12.0000000  0 15
G02  21590358.980   113458100.377 8      2875.107          48.687    21590357.220   113458100.385 6      2875.107          39.375    21590361.700    88408925.787 6      2240.343          39.875
R08  23577412.840   126255983.387 6      6270.794          41.125    23577417.760   126255983.444 6      6270.794          39.750    23577436.640    98199199.009 7      4877.285          43.000    23577436.120    98199196.025 7      4877.285          42.250
G21  20796319.240   109285394.473 8      1884.375          48.437    20796317.200   109285394.481 6      1884.375          41.125    20796323.180    85157462.677 6      1468.344          41.000
G32  25358718.640   133260981.577 6      3653.987          38.500    25358717.960   133260981.577 5      3653.987          32.250    25358740.460   103839818.660 5      2847.263          32.250    25358741.900   103839827.661 6      2847.263          40.937
R07  21897329.820   117218135.645 7      4898.423          46.625    21897331.820   117218135.669 7      4898.423          45.000    21897351.380    91169756.658 7      3809.884          47.500    21897351.340    91169760.663 7      3809.884          47.687
G08  20788393.720   109243742.058 8      2700.228          48.937    20788391.880   109243742.055 8      2700.228          48.875    20788400.080    85125019.926 8      2104.074          48.687    20788401.340    85125026.931 8      2104.074          50.625
R22  20727985.640   110647392.626 8      1528.382          48.625    20727985.360   110647392.621 8      1528.382          48.875    20727993.920    86059123.828 8      1188.742          48.750    20727994.220    86059124.832 8      1188.742          48.687
R12  20062994.440   107172907.176 8      1264.932          48.875    20062993.200   107172907.166 8      1264.932          49.437    20063007.480    83356757.469 8       983.836          51.250    20063007.620    83356754.470 8       983.836          51.687
R23  21843761.400   116849398.543 7      3552.161          42.375    21843762.300   116849398.547 6      3552.161          40.437
G16  22875059.040   120209226.348 7      -787.910          44.687    22875057.480   120209226.358 5      -787.910          32.187    22875070.220    93669560.780 5      -613.956          32.312
R11  22511154.020   120292788.318 7     -1814.685          45.312    22511154.080   120292788.306 7     -1814.685          44.750    22511173.000    93561125.489 7     -1411.421          45.750    22511173.260    93561128.503 7     -1411.421          45.562
G27  21876242.940   114960428.520 7      1001.049          46.812    21876241.620   114960428.525 7      1001.049          47.187    21876252.120    89579587.245 7       780.038          47.062    21876252.520    89579590.244 8       780.038          48.812
G10  23396667.360   122950318.657 7       -73.774          46.812    23396666.320   122950318.662 7       -73.774          46.125    23396677.540    95805477.221 7       -57.486          46.125    23396677.400    95805474.230 7       -57.486          47.625
R21  23190593.520   124097542.524 6       318.773          41.250    23190592.280   124097542.528 6       318.773          41.125    23190610.120    96520370.296 7       247.935          47.250    23190609.460    96520371.306 7       247.935          46.375
G03  23726963.340   124686032.760 6      6212.876          41.562    23726961.960   124686032.757 5      6212.876          31.687    23726981.900    97158002.298 5      4841.202          31.625    23726982.240    97158025.282 7      4841.202          47.062
> 2024 05 09 13 39 13.0000000  0 15
G02  21589811.940   113455225.397 8      2874.622          48.812    21589810.140   113455225.405 6      2874.622          39.062    21589814.520    88406685.545 6      2239.966          39.187
R08  23576241.620   126249712.537 6      6270.894          41.125    23576247.340   126249712.586 6      6270.894          39.750    23576265.520    98194321.677 7      4877.362          43.687    23576264.860    98194318.695 7      4877.362          42.437
G21  20795960.580   109283510.367 8      1883.896          48.250    20795958.640   109283510.372 6      1883.896          41.062    20795964.740    85155994.538 6      1467.971          41.312
G32  25358023.120   133257327.667 6      3653.625          38.875    25358022.640   133257327.664 5      3653.625          32.250    25358045.220   103836971.466 5      2846.980          32.250    25358046.720   103836980.462 6      2846.980          40.437
R07  21896414.680   117213237.622 7      4897.696          46.375    21896416.960   117213237.655 7      4897.696          44.562    21896436.200    91165947.100 7      3809.319          47.437    21896436.020    91165951.108 7      3809.319          47.562
G08  20787880.040   109241041.898 8      2699.978          49.250    20787878.000   109241041.897 8      2699.978          48.125    20787886.220    85122915.901 8      2103.879          48.687    20787887.640    85122922.907 8      2103.879          50.000
R22  20727699.560   110645864.350 8      1528.108          49.687    20727699.200   110645864.349 8      1528.108          48.687    20727707.540    86057935.167 8      1188.528          49.812    20727708.080    86057936.173 8      1188.528          49.062
R12  20062757.780   107171642.652 8      1263.972          49.062    20062756.620   107171642.642 8      1263.972          49.375    20062770.720    83355773.944 8       983.090          51.250    20062770.560    83355770.945 8       983.090          52.125
R23  21843097.700   116845846.318 7      3552.120          42.062    21843097.760   116845846.330 6      3552.120          40.437
G16  22875208.660   120210014.440 7      -788.397          43.750    22875207.440   120210014.450 5      -788.397          32.125    22875220.240    93670174.868 5      -614.336          32.250
R11  22511494.000   120294603.123 7     -1815.042          44.875    22511493.560   120294603.111 7     -1815.042          44.250    22511512.700    93562537.002 7     -1411.699          46.125    22511512.720    93562540.011 7     -1411.699          45.562
G27  21876052.480   114959427.619 7      1000.694          47.000    21876051.160   114959427.627 7      1000.694          47.000    21876061.620    89578807.318 7       779.761          46.812    21876062.120    89578810.322 8       779.761          49.000
G10  23396681.420   122950392.617 7       -74.269          46.500    23396680.440   122950392.621 7       -74.269          46.000    23396691.680    95805534.848 7       -57.872          45.812    23396691.360    95805531.857 7       -57.872          47.750
R21  23190533.820   124097223.948 6       318.530          41.687    23190533.140   124097223.952 6       318.530          41.125    23190550.340    96520122.511 7       247.745          47.000    23190549.900    96520123.518 7       247.745          46.500
G03  23725781.120   124679819.955 6      6212.689          41.437    23725779.800   124679819.946 5      6212.689          31.687    23725799.700    97153161.149 5      4841.057          31.625    23725800.120    97153184.143 7      4841.057          46.625
