     3.05           OBSERVATION DATA    MIXED               RINEX VERSION / TYPE
TPS2RIN 1.0.29.3920 TPS-USER            20240511 194050 UTC PGM / RUN BY / DATE
Win64 build Feb 23, 2024 (c) Topcon Positioning Systems     COMMENT
SRC: 20240509_FA14.tps                                      COMMENT
OPT: -S -v 3.05                                             COMMENT
Observer            Agency                                  OBSERVER / AGENCY
O0M3X53SBGM         TPS HIPER_SR        4.8 HSR Jul,08,2022 REC # / TYPE / VERS
FW: 4.8 HSR Jul,08,2022 p3                                  COMMENT
SN: HiPer SR 1212-12575                                     COMMENT
000                 TPSHIPER_SR     NONE                    ANT # / TYPE
        1.8000        0.0000        0.0000                  ANTENNA: DELTA H/E/N
FA14                                                        MARKER NAME
  5391876.1014 -1595201.7655  3003517.1218                  APPROX POSITION XYZ
  2024     5     9    14    44   59.0000000     GPS         TIME OF FIRST OBS
  2024     5     9    14    59   59.0000000     GPS         TIME OF LAST OBS
     1.000                                                  INTERVAL
   901 EPOCHS                                               COMMENT
G   16 C1C L1C D1C S1C C1W L1W D1W S1W C2W L2W D2W S2W C2X  SYS / # / OBS TYPES
       L2X D2X S2X                                          SYS / # / OBS TYPES
R   16 C1C L1C D1C S1C C1P L1P D1P S1P C2P L2P D2P S2P C2C  SYS / # / OBS TYPES
       L2C D2C S2C                                          SYS / # / OBS TYPES
    15                                                      # OF SATELLITES
   G02   901   901   901   901   901   901   901   901   901PRN / # OF OBS
         901   901   901     0     0     0     0            PRN / # OF OBS
   G03   901   901   901   901   901   901   901   901   901PRN / # OF OBS
         901   901   901   901   901   901   901            PRN / # OF OBS
   G04   267   267   267   267   267   267   267   267   267PRN / # OF OBS
         267   267   267   267   267   267   267            PRN / # OF OBS
   G08   901   901   901   901   901   901   901   901   901PRN / # OF OBS
         901   901   901   901   901   901   901            PRN / # OF OBS
   G14   901   901   901   901   901   901   901   901   901PRN / # OF OBS
         901   901   901   901   901   901   901            PRN / # OF OBS
   G16   356   356   356   356   356   356   356   356   356PRN / # OF OBS
         356   356   356     0     0     0     0            PRN / # OF OBS
   G21   901   901   901   901   901   901   901   901   901PRN / # OF OBS
         901   901   901     0     0     0     0            PRN / # OF OBS
   G27   901   901   901   901   901   901   901   901   901PRN / # OF OBS
         901   901   901   901   901   901   901            PRN / # OF OBS
   G32   901   901   901   901   901   901   901   901   901PRN / # OF OBS
         901   901   901   901   901   901   901            PRN / # OF OBS
   R01   730   730   730   730   725   725   725   725   725PRN / # OF OBS
         725   725   725   724   724   724   724            PRN / # OF OBS
   R07   901   901   901   901   901   901   901   901   901PRN / # OF OBS
         901   901   901   901   901   901   901            PRN / # OF OBS
   R08   901   901   901   901   901   901   901   901   901PRN / # OF OBS
         901   901   901   901   901   901   901            PRN / # OF OBS
   R12   901   901   901   901   901   901   901   901   901PRN / # OF OBS
         901   901   901   901   901   901   901            PRN / # OF OBS
   R22   901   901   901   901   901   901   901   901   901PRN / # OF OBS
         901   901   901   901   901   901   901            PRN / # OF OBS
   R23   901   901   901   901   901   901   901   901     0PRN / # OF OBS
           0     0     0     0     0     0     0            PRN / # OF OBS
G L1C                                                       SYS / PHASE SHIFT
G L1W -0.25000                                              SYS / PHASE SHIFT
G L2W  0.00000                                              SYS / PHASE SHIFT
G L2X  0.25000                                              SYS / PHASE SHIFT
R L1C                                                       SYS / PHASE SHIFT
R L1P -0.25000                                              SYS / PHASE SHIFT
R L2P -0.25000                                              SYS / PHASE SHIFT
R L2C                                                       SYS / PHASE SHIFT
  6 R01  1 R07  5 R08  6 R12 -1 R22 -3 R23  3               GLONASS SLOT / FRQ #
                                                            GLONASS COD/PHS/BIS
    18    18  1929     7GPS                                 LEAP SECONDS
                                                            END OF HEADER
> 2024 05 09 14 44 59.0000000  0 13
G02  21557467.840   113285258.230 7      2154.150          47.250    21557466.300   113285258.238 6      2154.150          39.687    21557470.160    88274239.010 6      1678.558          40.125
R08  20953651.560   112205852.919 7      5326.568          46.000    20953652.480   112205852.956 7      5326.568          45.375    20953669.620    87271301.551 8      4142.887          49.312    20953669.340    87271303.557 8      4142.887          48.812
G03  21226359.860   111545276.723 7      5015.841          46.812    21226359.180   111545276.728 6      5015.841          40.062    21226370.780    86918443.501 6      3908.448          39.750    21226371.480    86918446.505 8      3908.448          50.437
G27  23305273.180   122470030.628 7         -.872          43.500    23305272.780   122470030.633 7         -.872          42.375    23305289.660    95431252.126 7         -.679          42.187    23305289.920    95431255.130 7         -.679          46.625
R12  21947191.940   117237959.210 7     -1083.308          44.062    21947191.200   117237959.212 7     -1083.308          44.687    21947213.540    91185163.988 7      -842.573          46.500    21947214.280    91185164.992 7      -842.573          47.312
G21  21487195.860   112915972.951 7      1247.080          47.125    21487194.140   112915972.956 6      1247.080          39.562    21487199.380    87986483.090 6       971.750          39.125
R23  21180160.440   113299577.442 7      3242.776          42.750    21180159.060   113299577.452 7      3242.776          43.375
G16  25506052.640   134035214.552 6     -1176.748          37.750    25506050.400   134035214.565 3     -1176.748          22.500    25506071.420   104443095.687 3      -916.946          22.812
G32  24964251.600   131188026.640 7      2056.455          43.875    24964251.600   131188026.640 6      2056.455          39.937    24964264.760   102224489.611 6      1602.432          39.750    24964265.580   102224495.618 7      1602.432          43.812
R22  21472974.240   114624192.875 7      1377.404          46.375    21472973.960   114624192.887 7      1377.404          46.187    21472984.600    89152189.690 8      1071.314          48.937    21472984.540    89152188.695 8      1071.314          49.187
G14  23192870.660   121879362.485 7      4855.349          42.750    23192870.040   121879362.500 5      4855.349          30.562    23192877.920    94970956.093 5      3783.389          30.625    23192879.320    94970961.084 7      3783.389          46.000
R07  21087794.520   112884614.045 7      1970.985          46.937    21087794.500   112884614.071 7      1970.985          45.250    21087807.280    87799201.141 8      1532.988          49.062    21087807.360    87799203.150 8      1532.988          49.062
G08  21000542.220   110358593.526 7      1461.171          47.500    21000540.980   110358593.529 7      1461.171          47.937    21000550.560    85993739.127 8      1138.574          48.500    21000552.120    85993747.127 8      1138.574          50.687
> 2024 05 09 14 45  0.0000000  0 13
G02  21557058.020   113283104.060 7      2154.117          47.250    21557056.400   113283104.067 6      2154.117          39.937    21557060.140    88272560.429 6      1678.533          39.875
R08  20952657.060   112200526.648 7      5325.987          45.375    20952657.540   112200526.693 7      5325.987          43.875    20952675.140    87267158.911 8      4142.434          49.312    20952674.660    87267160.916 8      4142.434          49.312
G03  21225405.580   111540261.097 7      5015.560          47.312    21225404.800   111540261.099 6      5015.560          39.937    21225416.460    86914535.217 6      3908.229          40.000    21225417.140    86914538.223 8      3908.229          50.750
G27  23305273.360   122470031.527 7         -.977          43.375    23305273.060   122470031.532 7         -.977          42.562    23305289.920    95431252.805 7         -.761          42.125    23305289.820    95431255.809 7         -.761          46.500
R12  21947394.600   117239042.684 7     -1083.641          43.875    21947394.080   117239042.680 7     -1083.641          44.562    21947416.520    91186006.665 7      -842.832          46.812    21947417.140    91186007.671 7      -842.832          47.250
G21  21486958.700   112914725.808 7      1247.125          46.875    21486956.840   112914725.813 6      1247.125          39.187    21486962.200    87985511.288 6       971.785          39.437
R23  21179553.820   113296334.753 7      3242.705          42.750    21179552.980   113296334.784 6      3242.705          41.375
G16  25506276.880   134036391.326 6     -1176.769          37.875    25506274.420   134036391.338 3     -1176.769          22.500    25506295.240   104444012.651 3      -916.963          22.812
G32  24963860.540   131185970.282 7      2056.166          44.125    24963860.300   131185970.286 6      2056.166          40.000    24963873.320   102222887.261 6      1602.207          39.875    24963874.040   102222893.263 7      1602.207          43.375
R22  21472715.900   114622815.443 7      1377.483          46.812    21472716.180   114622815.457 7      1377.483          46.062    21472726.780    89151118.354 8      1071.376          49.187    21472726.540    89151117.356 8      1071.376          49.875
G14  23191946.500   121874507.200 7      4855.113          42.812    23191946.240   121874507.215 5      4855.113          30.562    23191954.300    94967172.754 5      3783.205          30.625    23191955.300    94967177.739 7      3783.205          46.187
R07  21087426.060   112882643.456 7      1970.149          46.187    21087426.480   112882643.482 7      1970.149          44.375    21087439.340    87797668.461 8      1532.338          48.625    21087439.300    87797670.468 8      1532.338          48.875
G08  21000264.280   110357132.495 7      1460.927          47.750    21000262.900   110357132.497 8      1460.927          48.062    21000272.600    85992600.651 8      1138.385          48.750    21000274.020    85992608.651 8      1138.385          50.875
> 2024 05 09 14 45  1.0000000  0 13
G02  21556648.120   113280950.149 7      2153.832          47.812    21556646.660   113280950.157 6      2153.832          40.375    21556650.220    88270882.062 6      1678.310          40.375
R08  20951662.160   112195201.133 7      5325.166          46.500    20951663.260   112195201.177 7      5325.166          44.812    20951680.700    87263016.853 8      4141.796          49.250    20951680.300    87263018.863 8      4141.796          48.812
G03  21224451.380   111535246.151 7      5014.672          47.500    21224450.460   111535246.153 6      5014.672          39.937    21224462.060    86910627.473 6      3907.537          39.750    21224462.660    86910630.477 8      3907.537          50.687
G27  23305273.760   122470032.870 7        -1.489          43.437    23305273.320   122470032.869 7        -1.489          42.625    23305290.120    95431253.835 7        -1.160          42.437    23305290.360    95431256.831 7        -1.160          46.500
R12  21947597.760   117240126.622 7     -1084.134          45.500    21947596.760   117240126.618 7     -1084.134          45.125    21947619.480    91186849.707 7      -843.215          46.937    21947620.200    91186850.715 7      -843.215          47.750
G21  21486721.600   112913478.888 7      1246.854          47.812    21486719.540   112913478.893 6      1246.854          39.937    21486724.900    87984539.662 6       971.575          39.625
R23  21178947.840   113293092.278 6      3242.435          40.812    21178947.000   113293092.299 7      3242.435          42.437
G16  25506500.860   134037568.170 6     -1176.893          38.125    25506498.480   134037568.180 3     -1176.893          23.062    25506519.100   104444929.665 3      -917.059          22.812
G32  24963469.520   131183914.614 7      2055.514          44.250    24963469.280   131183914.616 6      2055.514          40.437    24963482.180   102221285.439 6      1601.699          40.437    24963483.460   102221291.442 7      1601.699          43.500
R22  21472458.220   114621438.235 7      1377.205          46.375    21472458.280   114621438.246 7      1377.205          45.812    21472468.840    89150047.198 8      1071.159          49.312    21472468.440    89150046.198 8      1071.159          49.625
G14  23191022.760   121869652.556 7      4854.335          43.000    23191022.360   121869652.571 5      4854.335          30.562    23191030.780    94963389.910 5      3782.599          30.625    23191031.260    94963394.896 7      3782.599          46.000
R07  21087058.240   112880673.920 7      1969.033          47.125    21087058.480   112880673.943 7      1969.033          45.750    21087071.260    87796136.601 8      1531.470          49.250    21087071.660    87796138.608 8      1531.470          48.562
G08  20999986.480   110355672.016 7      1460.327          47.250    20999985.060   110355672.018 8      1460.327          48.812    20999994.540    85991462.613 8      1137.917          48.500    20999996.440    85991470.617 8      1137.917          50.750
> 2024 05 09 14 45  2.0000000  0 13
G02  21556238.360   113278796.347 7      2153.756          47.937    21556236.940   113278796.352 6      2153.756          39.937    21556240.460    88269203.772 6      1678.252          40.000
R08  20950667.780   112189876.176 7      5324.677          46.937    20950668.780   112189876.224 7      5324.677          45.750    20950686.280    87258875.237 8      4141.415          49.250    20950685.840    87258877.247 8      4141.415          49.000
G03  21223497.060   111530231.667 7      5014.244          47.750    21223496.180   111530231.669 6      5014.244          39.937    21223507.820    86906720.091 6      3907.203          39.812    21223508.360    86906723.093 8      3907.203          50.062
G27  23305274.080   122470034.446 7        -1.767          43.937    23305273.720   122470034.448 7        -1.767          43.000    23305290.520    95431255.049 7        -1.377          42.625    23305290.700    95431258.053 7        -1.377          46.375
R12  21947800.540   117241210.835 7     -1084.348          45.437    21947799.960   117241210.834 7     -1084.348          45.687    21947822.640    91187692.968 7      -843.382          46.750    21947823.060    91187693.976 7      -843.382          47.750
G21  21486484.180   112912232.026 7      1246.867          47.937    21486482.200   112912232.036 6      1246.867          39.187    21486487.580    87983568.083 6       971.585          39.437
R23  21178341.340   113289849.790 7      3242.600          44.312    21178340.960   113289849.799 7      3242.600          42.437
G16  25506724.320   134038744.954 6     -1176.965          38.125    25506722.460   134038744.966 3     -1176.965          23.062    25506742.900   104445846.629 3      -917.116          22.812
G32  24963078.420   131181859.433 7      2054.994          44.875    24963078.240   131181859.440 6      2054.994          40.062    24963091.220   102219684.005 6      1601.294          40.375    24963092.200   102219690.016 7      1601.294          43.562
R22  21472199.940   114620061.088 7      1377.147          47.562    21472200.180   114620061.099 7      1377.147          47.000    21472211.120    89148976.076 8      1071.115          49.625    21472210.800    89148975.076 8      1071.115          50.187
G14  23190099.400   121864798.338 6      4854.000          40.937    23190098.540   121864798.356 5      4854.000          30.562    23190107.140    94959607.405 5      3782.338          30.625    23190107.820    94959612.407 7      3782.338          46.125
R07  21086690.160   112878705.245 8      1968.330          48.312    21086690.660   112878705.263 7      1968.330          46.125    21086703.520    87794605.408 8      1530.923          49.250    21086703.700    87794607.417 8      1530.923          48.937
G08  20999708.580   110354211.907 8      1459.957          48.375    20999707.180   110354211.909 8      1459.957          48.562    20999716.800    85990324.864 8      1137.629          48.750    20999718.820    85990332.868 8      1137.629          51.000
> 2024 05 09 14 45  3.0000000  0 13
G02  21555828.340   113276642.607 8      2153.687          48.750    21555827.000   113276642.607 6      2153.687          39.812    21555830.740    88267525.531 6      1678.197          39.812
R08  20949673.520   112184551.799 7      5324.131          47.875    20949674.540   112184551.848 7      5324.131          46.187    20949692.080    87254734.069 8      4140.991          48.687    20949691.700    87254736.081 8      4140.991          49.062
G03  21222542.900   111525217.643 7      5013.832          47.937    21222541.900   111525217.643 6      5013.832          40.375    21222553.640    86902813.064 6      3906.882          40.250    21222553.840    86902816.070 8      3906.882          49.875
G27  23305274.420   122470036.230 7        -1.936          44.312    23305273.960   122470036.235 7        -1.936          42.750    23305290.840    95431256.425 7        -1.509          42.437    23305290.900    95431259.423 7        -1.509          46.812
R12  21948003.360   117242295.284 7     -1084.609          45.000    21948002.820   117242295.287 7     -1084.609          45.750    21948025.560    91188536.417 7      -843.585          47.062    21948026.040    91188537.421 7      -843.585          47.625
G21  21486246.840   112910985.211 8      1246.798          48.437    21486244.940   112910985.218 6      1246.798          39.500    21486250.240    87982596.535 6       971.531          39.437
R23  21177735.100   113286607.304 7      3242.486          43.250    21177734.460   113286607.322 7      3242.486          43.250
G16  25506948.360   134039921.609 6     -1176.678          38.687    25506946.400   134039921.619 3     -1176.678          23.062    25506966.660   104446763.501 3      -916.892          22.812
G32  24962687.460   131179804.743 7      2054.483          44.500    24962687.100   131179804.750 6      2054.483          40.437    24962700.220   102218082.950 6      1600.895          40.687    24962701.300   102218088.955 7      1600.895          43.937
R22  21471941.640   114618683.928 7      1377.083          46.562    21471942.260   114618683.937 7      1377.083          46.687    21471953.040    89147904.953 8      1071.065          49.375    21471952.700    89147903.949 8      1071.065          50.000
G14  23189175.560   121859944.579 6      4853.516          41.437    23189174.700   121859944.595 5      4853.516          30.937    23189183.720    94955825.253 5      3781.960          30.875    23189183.920    94955830.257 7      3781.960          46.250
R07  21086322.640   112876737.459 7      1967.271          45.812    21086322.900   112876737.479 7      1967.271          47.000    21086335.940    87793074.915 8      1530.099          49.250    21086336.340    87793076.920 8      1530.099          48.812
G08  20999430.760   110352752.150 8      1459.613          48.500    20999429.460   110352752.147 8      1459.613          49.187    20999438.940    85989187.387 8      1137.361          48.812    20999440.700    85989195.389 8      1137.361          50.437
> 2024 05 09 14 45  4.0000000  0 13
G02  21555418.420   113274488.991 8      2153.562          48.625    21555417.280   113274488.999 6      2153.562          39.937    21555420.820    88265847.395 6      1678.101          39.750
R08  20948679.340   112179228.034 7      5323.492          46.937    20948680.280   112179228.086 7      5323.492          46.750    20948697.860    87250593.380 8      4140.494          49.187    20948697.540    87250595.386 8      4140.494          49.437
G03  21221588.980   111520204.127 8      5013.284          48.187    21221588.080   111520204.126 6      5013.284          40.312    21221599.580    86898906.434 6      3906.455          40.187    21221600.020    86898909.433 8      3906.455          50.500
G27  23305274.760   122470038.311 7        -2.248          44.187    23305274.560   122470038.316 7        -2.248          43.062    23305291.220    95431258.035 7        -1.751          42.812    23305291.300    95431261.030 7        -1.751          46.687
R12  21948206.140   117243380.061 7     -1085.019          46.062    21948206.080   117243380.064 7     -1085.019          45.937    21948228.900    91189380.114 7      -843.904          47.000    21948229.140    91189381.124 7      -843.904          47.250
G21  21486009.500   112909738.464 8      1246.704          48.000    21486007.700   112909738.471 6      1246.704          39.750    21486013.040    87981625.044 6       971.458          39.937
R23  21177128.380   113283364.877 7      3242.308          43.250    21177128.000   113283364.903 7      3242.308          43.250
G16  25507172.440   134041098.227 6     -1176.598          38.562    25507170.400   134041098.237 3     -1176.598          23.062    25507190.560   104447680.340 3      -916.830          22.812
G32  24962296.500   131177750.563 7      2053.914          44.625    24962295.960   131177750.568 6      2053.914          39.937    24962309.320   102216482.294 6      1600.453          40.125    24962310.840   102216488.301 7      1600.453          43.562
R22  21471684.080   114617306.826 7      1377.081          47.187    21471684.140   114617306.838 7      1377.081          46.875    21471695.060    89146833.874 8      1071.063          49.250    21471694.660    89146832.873 8      1071.063          49.437
G14  23188252.160   121855091.281 6      4853.043          41.187    23188250.920   121855091.296 5      4853.043          30.937    23188260.280    94952043.466 5      3781.592          30.875    23188260.900    94952048.479 7      3781.592          45.812
R07  21085954.900   112874770.545 7      1966.457          47.812    21085955.740   112874770.565 7      1966.457          46.312    21085968.540    87791545.098 8      1529.467          49.062    21085968.880    87791547.103 8      1529.467          48.562
G08  20999153.040   110351292.800 8      1459.150          48.750    20999151.660   110351292.802 8      1459.150          49.312    20999161.220    85988050.232 8      1137.000          49.125    20999162.960    85988058.235 8      1137.000          50.875
> 2024 05 09 14 45  5.0000000  0 13
G02  21555008.540   113272335.446 8      2153.304          48.312    21555007.380   113272335.451 6      2153.304          40.000    21555011.100    88264169.304 6      1677.899          39.937
R08  20947685.260   112173904.773 7      5322.807          46.375    20947686.520   112173904.823 7      5322.807          46.562    20947703.900    87246453.072 8      4139.961          49.625    20947703.400    87246455.075 8      4139.961          49.687
G03  21220634.660   111515191.049 7      5012.647          47.937    21220634.220   111515191.048 6      5012.647          40.062    21220645.600    86895000.145 6      3905.959          40.187    21220646.240    86895003.149 8      3905.959          50.000
G27  23305275.340   122470040.608 7        -2.706          42.875    23305275.080   122470040.610 7        -2.706          42.687    23305291.580    95431259.806 7        -2.109          43.000    23305291.820    95431262.805 7        -2.109          46.500
R12  21948409.120   117244465.080 7     -1085.409          45.750    21948408.980   117244465.076 7     -1085.409          44.812    21948432.080    91190223.991 7      -844.207          46.875    21948432.260    91190225.001 7      -844.207          47.562
G21  21485772.180   112908491.741 8      1246.518          48.437    21485770.460   112908491.748 6      1246.518          39.562    21485775.640    87980653.568 6       971.313          39.250
R23  21176522.400   113280122.442 7      3242.107          43.000    21176521.520   113280122.468 7      3242.107          43.250
G16  25507396.200   134042274.779 6     -1176.826          39.062    25507394.300   134042274.792 3     -1176.826          23.062    25507414.560   104448597.126 3      -917.007          22.812
G32  24961905.640   131175696.850 7      2053.243          44.187    24961905.200   131175696.855 6      2053.243          39.750    24961918.460   102214881.998 6      1599.930          39.937    24961919.700   102214887.993 7      1599.930          43.562
R22  21471425.860   114615929.746 7      1376.865          47.812    21471426.040   114615929.758 7      1376.865          46.562    21471437.080    89145762.795 8      1070.895          49.375    21471436.860    89145761.794 8      1070.895          50.312
G14  23187328.420   121850238.384 6      4852.531          41.375    23187326.960   121850238.402 5      4852.531          30.937    23187336.820    94948261.995 5      3781.193          30.875    23187337.060    94948267.007 7      3781.193          45.312
R07  21085587.980   112872804.453 7      1965.450          47.250    21085588.200   112872804.468 7      1965.450          45.875    21085601.260    87790015.909 8      1528.683          49.125    21085601.440    87790017.918 8      1528.683          49.062
G08  20998875.400   110349833.784 8      1458.626          48.562    20998874.060   110349833.787 8      1458.626          48.687    20998883.640    85986913.332 8      1136.592          48.562    20998885.280    85986921.333 8      1136.592          51.000
> 2024 05 09 14 45  6.0000000  0 13
G02  21554598.880   113270182.159 8      2153.277          48.250    21554597.740   113270182.163 6      2153.277          40.187    21554601.240    88262491.418 6      1677.878          40.125
R08  20946691.400   112168582.229 7      5322.372          46.937    20946692.600   112168582.281 7      5322.372          45.687    20946710.040    87242313.330 8      4139.623          49.312    20946709.580    87242315.334 8      4139.623          49.187
G03  21219680.920   111510178.617 8      5012.257          48.062    21219680.340   111510178.620 6      5012.257          40.125    21219691.780    86891094.365 6      3905.655          39.812    21219692.360    86891097.364 8      3905.655          50.125
G27  23305275.520   122470043.309 7        -2.845          43.500    23305275.620   122470043.311 7        -2.845          43.125    23305292.060    95431261.898 7        -2.217          42.625    23305292.420    95431264.898 7        -2.217          46.625
R12  21948612.720   117245550.506 7     -1085.471          44.687    21948612.240   117245550.497 7     -1085.471          45.125    21948635.420    91191068.190 7      -844.256          47.125    21948635.600    91191069.199 7      -844.256          47.437
G21  21485535.100   112907245.223 7      1246.637          47.875    21485533.180   112907245.228 6      1246.637          39.187    21485538.520    87979682.255 6       971.405          39.687
R23  21175916.480   113276880.235 7      3242.174          43.812    21175915.520   113276880.234 7      3242.174          43.000
G16  25507619.900   134043451.392 6     -1176.647          39.062    25507618.240   134043451.402 3     -1176.647          23.062    25507638.440   104449513.961 3      -916.868          22.812
G32  24961514.960   131173643.787 7      2052.840          44.250    24961514.500   131173643.786 6      2052.840          39.875    24961527.800   102213282.205 6      1599.616          40.062    24961528.680   102213288.204 7      1599.616          43.625
R22  21471168.220   114614552.866 7      1376.949          46.875    21471168.040   114614552.873 7      1376.949          45.937    21471179.400    89144691.883 8      1070.960          49.687    21471178.600    89144690.881 8      1070.960          49.437
G14  23186405.020   121845386.118 6      4852.155          41.375    23186403.380   121845386.139 5      4852.155          30.250    23186413.580    94944481.014 5      3780.900          30.875    23186413.520    94944486.021 7      3780.900          45.625
R07  21085220.940   112870839.330 7      1964.778          47.312    21085220.860   112870839.345 7      1964.778          46.250    21085234.200    87788487.486 8      1528.161          49.250    21085234.280    87788489.491 8      1528.161          49.562
G08  20998597.760   110348375.304 7      1458.283          47.750    20998596.460   110348375.304 8      1458.283          48.687    20998606.020    85985776.850 8      1136.324          49.000    20998607.700    85985784.851 8      1136.324          50.750
> 2024 05 09 14 45  7.0000000  0 13
G02  21554189.080   113268028.916 8      2153.302          48.875    21554187.920   113268028.923 6      2153.302          40.562    21554191.580    88260813.570 6      1677.898          40.375
R08  20945697.700   112163260.234 7      5321.810          46.937    20945699.140   112163260.284 7      5321.810          46.250    20945716.180    87238174.007 8      4139.185          49.187    20945715.680    87238176.013 8      4139.185          49.500
G03  21218727.080   111505166.633 8      5011.921          48.250    21218726.440   111505166.635 6      5011.921          40.187    21218738.060    86887188.924 6      3905.393          40.125    21218738.500    86887191.926 8      3905.393          50.500
G27  23305275.800   122470046.228 7        -3.013          43.875    23305276.240   122470046.230 7        -3.013          43.187    23305292.540    95431264.162 7        -2.347          42.687    23305293.140    95431267.162 7        -2.347          46.562
R12  21948816.020   117246636.213 7     -1085.821          45.250    21948815.360   117246636.208 7     -1085.821          44.187    21948838.540    91191912.610 7      -844.527          47.187    21948838.940    91191913.620 7      -844.527          47.812
G21  21485297.880   112905998.763 7      1246.537          47.812    21485296.100   112905998.770 6      1246.537          39.250    21485301.340    87978710.987 6       971.327          39.375
R23  21175310.860   113273638.003 7      3242.293          43.812    21175309.480   113273638.005 7      3242.293          42.812
G16  25507843.560   134044627.897 6     -1176.364          37.812    25507841.980   134044627.908 3     -1176.364          23.062    25507862.500   104450430.712 3      -916.647          22.812
G32  24961124.260   131171591.183 7      2052.474          45.062    24961123.740   131171591.180 6      2052.474          40.000    24961137.100   102211682.773 6      1599.331          39.937    24961138.000   102211688.770 7      1599.331          43.687
R22  21470910.340   114613175.981 7      1376.959          47.812    21470909.820   114613175.995 7      1376.959          47.000    21470921.360    89143620.982 8      1070.968          49.500    21470920.660    89143619.981 8      1070.968          49.375
G14  23185481.900   121840534.297 6      4851.716          41.312    23185479.720   121840534.312 5      4851.716          30.250    23185490.480    94940700.378 5      3780.558          30.125    23185490.480    94940705.386 7      3780.558          45.875
R07  21084853.920   112868875.045 7      1963.872          47.687    21084853.960   112868875.062 7      1963.872          45.562    21084867.260    87786959.715 8      1527.456          48.812    21084867.400    87786961.724 8      1527.456          49.187
G08  20998320.420   110346917.161 8      1458.015          48.062    20998319.000   110346917.166 8      1458.015          49.437    20998328.580    85984640.638 8      1136.116          49.062    20998330.160    85984648.638 8      1136.116          50.500
> 2024 05 09 14 45  8.0000000  0 13
G02  21553779.580   113265875.736 8      2153.047          48.375    21553778.140   113265875.741 6      2153.047          40.500    21553781.800    88259135.764 6      1677.699          40.437
R08  20944704.200   112157938.735 7      5321.112          47.062    20944705.160   112157938.782 7      5321.112          46.937    20944722.380    87234035.078 8      4138.643          49.125    20944721.600    87234037.079 8      4138.643          49.375
G03  21217773.460   111500155.081 8      5011.240          48.312    21217772.900   111500155.078 6      5011.240          40.375    21217784.380    86883283.827 6      3904.862          40.687    21217785.020    86883286.829 8      3904.862          50.687
G27  23305276.440   122470049.321 7        -3.223          44.375    23305276.920   122470049.325 7        -3.223          43.625    23305293.140    95431266.556 7        -2.511          43.187    23305293.760    95431269.558 7        -2.511          46.375
R12  21949019.760   117247722.127 7     -1086.175          46.187    21949018.680   117247722.128 7     -1086.175          45.937    21949042.220    91192757.200 7      -844.803          47.062    21949042.200    91192758.206 7      -844.803          47.625
G21  21485060.860   112904752.279 8      1246.369          48.125    21485058.680   112904752.284 6      1246.369          39.937    21485064.220    87977739.701 6       971.197          39.750
R23  21174704.560   113270395.739 7      3242.109          43.562    21174703.160   113270395.754 7      3242.109          42.812
G16  25508067.360   134045804.253 6     -1176.382          37.875    25508065.820   134045804.263 3     -1176.382          23.062    25508086.500   104451347.347 3      -916.661          22.562
G32  24960733.400   131169539.007 7      2051.833          44.375    24960733.200   131169539.012 6      2051.833          39.937    24960746.440   102210083.688 6      1598.831          39.812    24960747.320   102210089.687 7      1598.831          43.812
R22  21470652.400   114611799.088 7      1376.780          47.187    21470651.920   114611799.094 7      1376.780          46.687    21470663.460    89142550.059 8      1070.829          49.500    21470662.840    89142549.057 8      1070.829          50.062
G14  23184558.500   121835682.848 6      4851.108          41.562    23184556.340   121835682.863 5      4851.108          30.250    23184567.300    94936920.032 5      3780.084          30.125    23184567.180    94936925.051 7      3780.084          46.500
R07  21084487.340   112866911.525 7      1962.994          47.000    21084487.280   112866911.540 7      1962.994          46.187    21084500.480    87785432.529 8      1526.773          49.312    21084500.520    87785434.538 8      1526.773          49.125
G08  20998042.900   110345459.343 7      1457.553          47.875    20998041.600   110345459.345 8      1457.553          49.187    20998051.160    85983504.670 8      1135.756          49.125    20998052.840    85983512.670 8      1135.756          50.625
> 2024 05 09 14 45  9.0000000  0 13
G02  21553369.820   113263722.706 7      2152.957          47.812    21553368.560   113263722.711 6      2152.957          40.125    21553372.160    88257458.078 6      1677.629          39.937
R08  20943710.180   112152617.862 7      5320.529          47.125    20943711.720   112152617.906 7      5320.529          46.062    20943728.500    87229896.627 8      4138.189          49.312    20943728.020    87229898.629 8      4138.189          49.500
G03  21216819.960   111495144.076 8      5010.697          48.375    21216819.380   111495144.076 6      5010.697          40.312    21216830.820    86879379.154 6      3904.439          40.125    21216831.340    86879382.154 8      3904.439          50.187
G27  23305277.360   122470052.768 7        -3.666          44.250    23305277.660   122470052.770 7        -3.666          43.062    23305293.840    95431269.226 7        -2.857          43.125    23305294.300    95431272.225 7        -2.857          46.687
R12  21949222.920   117248808.403 7     -1086.393          46.000    21949222.080   117248808.412 7     -1086.393          45.437    21949245.460    91193602.062 7      -844.973          46.875    21949245.440    91193603.066 7      -844.973          47.562
G21  21484823.820   112903505.931 7      1246.283          47.500    21484821.600   112903505.939 6      1246.283          39.125    21484827.140    87976768.519 6       971.130          39.437
R23  21174098.240   113267153.577 7      3242.164          43.437    21174097.840   113267153.592 7      3242.164          43.437
G16  25508290.960   134046980.671 6     -1176.550          38.437    25508289.680   134046980.679 3     -1176.550          23.062    25508310.340   104452264.030 3      -916.793          22.562
G32  24960343.280   131167487.394 7      2051.344          43.875    24960342.640   131167487.402 6      2051.344          39.937    24960355.920   102208485.030 6      1598.450          39.812    24960357.000   102208491.035 7      1598.450          43.500
R22  21470394.140   114610422.304 7      1376.685          47.312    21470393.920   114610422.308 7      1376.685          47.312    21470405.320    89141479.219 8      1070.755          49.562    21470405.220    89141478.221 8      1070.755          49.687
G14  23183635.460   121830831.938 6      4850.665          41.187    23183633.260   121830831.956 5      4850.665          30.250    23183644.280    94933140.105 5      3779.739          30.125    23183644.400    94933145.117 7      3779.739          46.500
R07  21084120.480   112864948.942 7      1962.083          47.250    21084120.320   112864948.957 7      1962.083          45.937    21084133.760    87783906.079 8      1526.065          48.687    21084134.040    87783908.084 8      1526.065          48.625
G08  20997765.560   110344001.959 7      1457.243          47.687    20997764.240   110344001.958 8      1457.243          48.750    20997773.820    85982369.036 8      1135.514          49.125    20997775.440    85982377.039 8      1135.514          50.625
> 2024 05 09 14 45 10.0000000  0 13
G02  21552960.160   113261569.702 8      2152.750          48.000    21552958.800   113261569.709 6      2152.750          39.687    21552962.360    88255780.413 6      1677.468          39.812
R08  20942716.660   112147297.503 7      5319.882          46.875    20942718.300   112147297.542 7      5319.882          46.250    20942735.040    87225758.574 8      4137.686          49.687    20942734.700    87225760.576 8      4137.686          49.312
G03  21215866.240   111490133.461 7      5010.139          47.562    21215865.880   111490133.458 6      5010.139          40.375    21215877.420    86875474.787 6      3904.004          40.125    21215878.180    86875477.786 8      3904.004          50.562
G27  23305278.180   122470056.360 7        -3.858          44.000    23305278.280   122470056.359 7        -3.858          43.312    23305294.440    95431272.008 7        -3.006          42.750    23305294.660    95431275.010 7        -3.006          46.187
R12  21949426.320   117249894.889 7     -1086.794          45.437    21949425.780   117249894.892 7     -1086.794          45.562    21949448.920    91194447.080 7      -845.284          47.312    21949449.120    91194448.086 7      -845.284          47.875
G21  21484586.720   112902259.555 7      1246.156          46.562    21484584.300   112902259.563 6      1246.156          39.187    21484590.040    87975797.315 6       971.031          39.125
R23  21173492.520   113263911.383 7      3241.990          43.437    21173492.260   113263911.398 7      3241.990          43.625
G16  25508515.360   134048156.856 6     -1176.256          38.437    25508513.600   134048156.866 3     -1176.256          22.500    25508534.000   104453180.534 3      -916.563          22.562
G32  24959952.860   131165436.217 7      2050.770          43.812    24959952.200   131165436.222 6      2050.770          40.062    24959965.560   102206886.710 6      1598.002          39.750    24959966.560   102206892.707 7      1598.002          43.500
R22  21470136.400   114609045.464 7      1376.665          47.187    21470135.880   114609045.463 7      1376.665          46.875    21470147.480    89140408.337 8      1070.739          49.812    21470147.100    89140407.338 8      1070.739          49.875
G14  23182712.240   121825981.406 7      4850.049          42.250    23182710.280   121825981.419 5      4850.049          30.000    23182721.320    94929360.474 5      3779.259          30.187    23182721.320    94929365.488 7      3779.259          46.812
R07  21083754.100   112862987.146 7      1961.144          47.250    21083753.440   112862987.166 7      1961.144          46.000    21083767.280    87782380.246 8      1525.334          49.187    21083767.820    87782382.249 8      1525.334          48.500
G08  20997488.300   110342544.866 7      1456.756          46.812    20997486.960   110342544.874 8      1456.756          49.000    20997496.600    85981233.643 8      1135.135          48.562    20997498.300    85981241.647 8      1135.135          50.062
> 2024 05 09 14 45 11.0000000  0 13
G02  21552550.500   113259416.840 8      2152.857          48.500    21552549.180   113259416.842 6      2152.857          39.625    21552552.780    88254102.856 6      1677.551          39.750
R08  20941723.380   112141977.752 7      5319.504          47.000    20941725.100   112141977.793 7      5319.504          46.000    20941741.680    87221621.001 8      4137.392          49.250    20941741.020    87221623.000 8      4137.392          49.250
G03  21214912.880   111485123.381 8      5009.848          48.000    21214912.440   111485123.380 6      5009.848          40.375    21214924.140    86871570.834 6      3903.778          40.250    21214924.880    86871573.840 8      3903.778          50.750
G27  23305278.660   122470060.248 7        -3.937          43.812    23305278.960   122470060.256 7        -3.937          43.312    23305295.180    95431275.030 7        -3.068          42.875    23305295.560    95431278.034 7        -3.068          46.250
R12  21949629.840   117250981.677 7     -1086.780          44.625    21949629.280   117250981.681 7     -1086.780          44.812    21949652.200    91195292.339 7      -845.273          46.937    21949652.400    91195293.347 7      -845.273          47.937
G21  21484349.540   112901013.284 7      1246.351          46.687    21484347.320   112901013.292 6      1246.351          39.250    21484352.740    87974826.199 6       971.182          39.562
R23  21172886.340   113260669.277 7      3242.132          42.812    21172886.400   113260669.292 7      3242.132          43.625
G16  25508739.240   134049333.093 6     -1176.213          38.125    25508737.520   134049333.101 3     -1176.213          22.500    25508757.680   104454097.076 3      -916.530          22.562
G32  24959562.720   131163385.587 7      2050.386          44.187    24959561.960   131163385.592 6      2050.386          39.625    24959575.420   102205288.819 6      1597.703          39.687    24959576.780   102205294.818 7      1597.703          43.250
R22  21469877.940   114607668.718 7      1376.735          46.687    21469877.920   114607668.724 7      1376.735          46.750    21469889.660    89139337.537 8      1070.794          49.562    21469889.220    89139336.541 8      1070.794          49.750
G14  23181789.280   121821131.347 7      4849.882          42.125    23181787.240   121821131.355 5      4849.882          30.000    23181798.320    94925581.213 5      3779.129          30.187    23181797.920    94925586.227 7      3779.129          46.562
R07  21083387.740   112861026.305 7      1960.535          47.000    21083387.120   112861026.317 7      1960.535          45.625    21083401.180    87780855.146 8      1524.860          49.062    21083401.580    87780857.143 8      1524.860          49.500
G08  20997211.280   110341088.204 8      1456.613          48.312    20997209.800   110341088.212 8      1456.613          48.437    20997219.360    85980098.580 8      1135.023          48.375    20997221.160    85980106.582 8      1135.023          50.125
> 2024 05 09 14 45 12.0000000  0 13
G02  21552140.880   113257263.826 8      2153.099          48.187    21552139.400   113257263.828 6      2153.099          40.062    21552143.160    88252425.182 6      1677.740          40.250
R08  20940729.460   112136658.282 7      5319.330          46.437    20940731.660   112136658.337 7      5319.330          45.437    20940748.040    87217483.656 8      4137.256          49.562    20940747.680    87217485.657 8      4137.256          49.187
G03  21213959.720   111480113.532 7      5009.765          47.937    21213959.080   111480113.534 6      5009.765          40.375    21213970.900    86867667.064 6      3903.713          40.312    21213971.540    86867670.066 8      3903.713          51.062
G27  23305279.580   122470064.158 7        -3.858          43.062    23305279.600   122470064.158 7        -3.858          42.562    23305295.900    95431278.056 7        -3.006          42.687    23305296.360    95431281.054 7        -3.006          45.875
R12  21949833.600   117252068.545 7     -1086.850          44.500    21949832.460   117252068.541 7     -1086.850          45.437    21949855.780    91196137.651 7      -845.327          47.562    21949856.060    91196138.655 7      -845.327          47.875
G21  21484112.440   112899766.829 7      1246.584          46.687    21484109.960   112899766.842 6      1246.584          39.500    21484115.460    87973854.933 6       971.365          39.375
R23  21172280.640   113257426.914 7      3242.450          43.500    21172280.720   113257426.937 7      3242.450          42.687
G16  25508963.420   134050508.955 6     -1175.650          38.000    25508961.420   134050508.962 3     -1175.650          22.500    25508981.600   104455013.324 3      -916.091          22.562
G32  24959172.540   131161335.188 7      2050.229          44.312    24959171.760   131161335.195 6      2050.229          39.750    24959185.100   102203691.109 6      1597.581          39.562    24959186.720   102203697.110 7      1597.581          43.187
R22  21469620.120   114606291.755 7      1377.075          46.875    21469620.060   114606291.761 7      1377.075          46.625    21469631.600    89138266.564 8      1071.058          49.625    21469631.140    89138265.568 8      1071.058          49.562
G14  23180866.640   121816281.520 6      4849.676          41.750    23180864.420   121816281.527 5      4849.676          30.000    23180875.200    94921802.131 5      3778.968          30.187    23180875.260    94921807.157 7      3778.968          46.437
R07  21083021.360   112859066.101 7      1959.930          46.437    21083020.800   112859066.116 7      1959.930          45.062    21083034.960    87779330.543 8      1524.390          49.125    21083035.280    87779332.544 8      1524.390          49.437
G08  20996934.000   110339631.677 7      1456.506          47.187    20996932.680   110339631.679 8      1456.506          48.125    20996942.120    85978963.621 8      1134.940          48.250    20996943.600    85978971.619 8      1134.940          50.375
> 2024 05 09 14 45 13.0000000  0 13
G02  21551731.360   113255110.743 8      2152.836          49.250    21551729.680   113255110.748 6      2152.836          40.125    21551733.560    88250747.456 6      1677.535          39.750
R08  20939736.120   112131339.240 7      5318.620          46.812    20939738.760   112131339.293 7      5318.620          45.750    20939754.780    87213346.632 8      4136.705          49.500    20939754.340    87213348.631 8      4136.705          49.000
G03  21213006.480   111475104.007 8      5009.099          48.125    21213005.860   111475104.009 6      5009.099          40.687    21213017.540    86863763.546 6      3903.194          40.625    21213018.220    86863766.546 8      3903.194          50.625
G27  23305280.320   122470068.149 7        -4.368          43.250    23305280.380   122470068.154 7        -4.368          43.062    23305296.600    95431281.154 7        -3.403          42.625    23305296.900    95431284.158 7        -3.403          45.937
R12  21950036.920   117253155.501 7     -1087.171          45.625    21950035.900   117253155.497 7     -1087.171          45.875    21950059.260    91196983.041 7      -845.577          47.187    21950059.340    91196984.047 7      -845.577          47.875
G21  21483874.860   112898520.272 7      1246.338          47.125    21483872.680   112898520.282 6      1246.338          39.625    21483878.380    87972883.590 6       971.172          39.000
R23  21171674.300   113254184.418 7      3242.352          44.187    21171674.460   113254184.433 7      3242.352          43.687
G16  25509187.220   134051684.622 6     -1175.928          38.000    25509185.180   134051684.629 3     -1175.928          22.500    25509205.260   104455929.428 3      -916.307          22.562
G32  24958782.200   131159285.127 7      2049.661          45.625    24958781.700   131159285.130 6      2049.661          39.750    24958795.000   102202093.655 6      1597.138          39.687    24958796.440   102202099.656 7      1597.138          43.125
R22  21469361.940   114604914.681 7      1376.890          46.750    21469361.840   114604914.679 7      1376.890          46.625    21469373.620    89137195.503 8      1070.914          50.312    21469373.420    89137194.506 8      1070.914          49.437
G14  23179943.780   121811431.968 6      4849.121          41.312    23179941.680   121811431.978 5      4849.121          30.562    23179952.480    94918023.265 5      3778.536          30.187    23179952.740    94918028.286 7      3778.536          46.750
R07  21082655.480   112857106.564 7      1958.995          47.437    21082654.800   112857106.574 7      1958.995          45.687    21082668.800    87777806.457 8      1523.663          48.812    21082669.460    87777808.455 8      1523.663          49.000
G08  20996656.880   110338175.351 8      1456.028          48.125    20996655.540   110338175.351 8      1456.028          49.312    20996665.020    85977828.812 8      1134.567          49.187    20996666.480    85977836.810 8      1134.567          50.750
> 2024 05 09 14 45 14.0000000  0 13
G02  21551321.620   113252957.776 7      2152.809          47.625    21551320.040   113252957.784 6      2152.809          40.125    21551323.840    88249069.819 6      1677.513          39.750
R08  20938743.100   112126020.801 7      5317.997          46.875    20938745.240   112126020.851 7      5317.997          46.750    20938761.640    87209210.078 8      4136.220          49.500    20938760.920    87209212.076 8      4136.220          49.125
G03  21212053.200   111470094.991 8      5008.595          48.062    21212052.780   111470094.991 6      5008.595          40.375    21212064.300    86859860.419 6      3902.801          40.000    21212065.220    86859863.417 8      3902.801          50.562
G27  23305281.580   122470072.398 7        -4.509          43.312    23305281.220   122470072.400 7        -4.509          42.750    23305297.280    95431284.446 7        -3.514          42.562    23305297.560    95431287.444 7        -3.514          45.750
R12  21950240.860   117254242.775 7     -1087.525          44.625    21950239.460   117254242.776 7     -1087.525          45.625    21950262.740    91197828.684 7      -845.853          47.250    21950262.940    91197829.688 7      -845.853          47.687
G21  21483637.820   112897273.790 7      1246.323          47.062    21483635.460   112897273.798 6      1246.323          39.375    21483641.040    87971912.301 6       971.161          39.187
R23  21171067.980   113250941.943 7      3242.469          44.625    21171068.580   113250941.963 7      3242.469          43.812
G16  25509411.040   134052860.218 6     -1175.639          38.000    25509408.740   134052860.225 3     -1175.639          22.500    25509428.860   104456845.470 3      -916.082          22.562
G32  24958392.300   131157235.582 7      2049.201          44.625    24958391.620   131157235.584 6      2049.201          39.625    24958405.080   102200496.605 6      1596.780          39.625    24958406.420   102200502.612 7      1596.780          43.125
R22  21469104.220   114603537.643 7      1376.923          46.062    21469103.820   114603537.649 7      1376.923          47.062    21469115.460    89136124.479 8      1070.940          49.437    21469115.200    89136123.481 8      1070.940          49.187
G14  23179021.060   121806582.902 7      4848.707          42.062    23179019.220   121806582.910 5      4848.707          30.562    23179029.460    94914244.777 5      3778.214          30.500    23179030.040    94914249.787 7      3778.214          46.625
R07  21082289.420   112855147.894 7      1958.079          46.937    21082288.900   112855147.899 7      1958.079          45.875    21082302.820    87776283.045 8      1522.950          49.187    21082303.140    87776285.045 8      1522.950          49.375
G08  20996379.840   110336719.436 7      1455.605          47.812    20996378.540   110336719.438 8      1455.605          49.312    20996387.940    85976694.328 8      1134.238          49.562    20996389.620    85976702.330 8      1134.238          50.687
> 2024 05 09 14 45 15.0000000  0 13
G02  21550911.720   113250804.880 7      2152.984          47.937    21550910.440   113250804.888 6      2152.984          41.062    21550914.120    88247392.238 6      1677.650          40.562
R08  20937749.980   112120702.894 7      5317.663          46.937    20937752.220   112120702.947 7      5317.663          46.062    20937768.440    87205073.940 8      4135.960          49.375    20937767.900    87205075.937 8      4135.960          48.625
G03  21211100.000   111465086.417 7      5008.350          47.437    21211099.660   111465086.416 6      5008.350          40.187    21211111.300    86855957.642 6      3902.611          40.000    21211112.040    86855960.642 8      3902.611          51.000
G27  23305282.600   122470076.881 7        -4.553          44.125    23305282.120   122470076.880 7        -4.553          42.937    23305298.040    95431287.927 7        -3.548          42.500    23305298.520    95431290.924 7        -3.548          45.750
R12  21950444.560   117255330.271 7     -1087.495          45.125    21950443.520   117255330.267 7     -1087.495          45.250    21950466.360    91198674.489 7      -845.829          47.500    21950466.380    91198675.491 8      -845.829          48.000
G21  21483400.540   112896027.346 7      1246.389          47.250    21483398.360   112896027.356 6      1246.389          39.625    21483403.840    87970941.048 6       971.212          39.562
R23  21170461.900   113247699.519 7      3242.457          44.437    21170462.500   113247699.536 7      3242.457          43.812
G16  25509634.600   134054035.712 6     -1175.378          37.812    25509632.500   134054035.722 3     -1175.378          22.500    25509652.380   104457761.433 3      -915.879          22.562
G32  24958002.540   131155186.515 7      2048.794          44.687    24958001.620   131155186.517 6      2048.794          39.750    24958015.200   102198899.933 6      1596.463          39.687    24958016.420   102198905.937 7      1596.463          43.187
R22  21468846.040   114602160.641 7      1377.068          47.000    21468846.060   114602160.647 7      1377.068          47.125    21468857.500    89135053.470 8      1071.053          49.625    21468857.000    89135052.466 8      1071.053          49.625
G14  23178098.560   121801734.281 7      4848.403          42.687    23178096.760   121801734.286 5      4848.403          30.562    23178106.700    94910466.634 5      3777.976          30.500    23178106.920    94910471.636 7      3777.976          46.437
R07  21081923.520   112853190.017 7      1957.456          46.125    21081922.820   112853190.032 7      1957.456          45.750    21081937.080    87774760.261 8      1522.466          49.000    21081937.320    87774762.260 8      1522.466          49.312
G08  20996102.920   110335263.867 7      1455.441          47.250    20996101.480   110335263.867 8      1455.441          49.250    20996110.980    85975560.117 8      1134.110          48.937    20996112.600    85975568.117 8      1134.110          50.687
> 2024 05 09 14 45 16.0000000  0 13
G02  21550502.140   113248652.147 8      2152.785          48.250    21550500.780   113248652.149 6      2152.785          40.187    21550504.360    88245714.781 6      1677.495          40.250
R08  20936757.080   112115385.604 7      5317.050          47.125    20936759.580   112115385.654 7      5317.050          46.500    20936775.560    87200938.280 8      4135.483          49.312    20936774.880    87200940.279 8      4135.483          49.062
G03  21210146.840   111460078.391 7      5007.810          47.500    21210146.600   111460078.391 6      5007.810          40.625    21210158.220    86852055.291 6      3902.190          40.062    21210159.040    86852058.289 8      3902.190          50.812
G27  23305283.600   122470081.652 7        -4.821          43.312    23305282.920   122470081.657 7        -4.821          43.000    23305299.080    95431291.635 7        -3.757          42.937    23305299.400    95431294.636 7        -3.757          45.937
R12  21950648.640   117256418.085 7     -1087.883          45.125    21950647.180   117256418.083 7     -1087.883          45.500    21950669.820    91199520.548 7      -846.131          47.187    21950670.320    91199521.548 7      -846.131          47.562
G21  21483163.400   112894781.009 7      1246.293          47.000    21483161.240   112894781.017 6      1246.293          39.562    21483166.680    87969969.872 6       971.137          39.812
R23  21169855.820   113244457.132 7      3242.447          45.000    21169856.280   113244457.152 7      3242.447          44.375
G16  25509858.180   134055211.239 6     -1175.582          37.812    25509856.140   134055211.249 3     -1175.582          22.500    25509875.900   104458677.427 3      -916.038          22.562
G32  24957612.680   131153137.971 7      2048.362          44.687    24957611.780   131153137.981 6      2048.362          39.875    24957625.340   102197303.673 6      1596.126          39.625    24957626.200   102197309.673 7      1596.126          43.187
R22  21468588.540   114600783.726 7      1376.934          46.750    21468588.280   114600783.727 7      1376.934          46.187    21468599.620    89133982.533 8      1070.949          49.375    21468599.200    89133981.529 8      1070.949          49.500
G14  23177175.440   121796886.143 7      4847.945          44.062    23177174.440   121796886.148 5      4847.945          30.937    23177184.260    94906688.864 5      3777.619          30.500    23177184.500    94906693.873 7      3777.619          46.437
R07  21081558.340   112851233.052 7      1956.669          46.125    21081557.240   112851233.064 7      1956.669          45.812    21081571.440    87773238.175 8      1521.853          49.375    21081571.640    87773240.176 8      1521.853          49.437
G08  20995826.100   110333808.719 7      1454.996          46.937    20995824.640   110333808.721 8      1454.996          48.500    20995834.020    85974426.229 8      1133.763          48.562    20995835.680    85974434.229 8      1133.763          50.437
> 2024 05 09 14 45 17.0000000  0 13
G02  21550092.320   113246499.537 7      2152.852          47.312    21550090.980   113246499.542 6      2152.852          39.812    21550094.700    88244037.419 6      1677.547          39.750
R08  20935764.440   112110068.913 7      5316.692          46.187    20935766.680   112110068.960 7      5316.692          45.875    20935782.740    87196803.082 8      4135.205          49.125    20935782.220    87196805.081 8      4135.205          48.875
G03  21209193.960   111455070.873 7      5007.532          47.937    21209193.580   111455070.876 6      5007.532          40.562    21209205.240    86848153.337 6      3901.973          40.375    21209206.200    86848156.337 8      3901.973          50.937
G27  23305284.740   122470086.734 7        -4.966          43.312    23305283.720   122470086.741 7        -4.966          42.687    23305300.020    95431295.582 7        -3.870          42.375    23305300.240    95431298.582 7        -3.870          45.812
R12  21950851.840   117257506.246 7     -1088.143          45.062    21950850.980   117257506.247 7     -1088.143          45.500    21950873.520    91200366.875 7      -846.334          47.187    21950873.800    91200367.874 7      -846.334          47.812
G21  21482926.300   112893534.759 7      1246.463          46.750    21482923.900   112893534.767 6      1246.463          39.312    21482929.500    87968998.768 6       971.270          39.250
R23  21169249.580   113241214.823 7      3242.584          43.312    21169250.100   113241214.843 7      3242.584          43.750
G16  25510081.800   134056386.678 6     -1175.189          37.812    25510079.860   134056386.685 3     -1175.189          22.500    25510099.580   104459593.345 3      -915.732          22.562
G32  24957223.200   131151090.007 7      2047.896          44.062    24957222.140   131151090.015 6      2047.896          39.625    24957235.640   102195707.856 6      1595.763          39.625    24957236.260   102195713.853 7      1595.763          43.062
R22  21468330.380   114599406.883 7      1377.095          46.625    21468330.220   114599406.890 7      1377.095          46.750    21468341.580    89132911.653 8      1071.074          49.687    21468341.380    89132910.651 8      1071.074          49.812
G14  23176252.980   121792038.520 7      4847.576          43.937    23176252.080   121792038.522 5      4847.576          30.937    23176261.520    94902911.496 5      3777.332          31.062    23176261.860    94902916.502 7      3777.332          46.562
R07  21081192.880   112849277.018 7      1955.809          46.625    21081191.800   112849277.031 7      1955.809          44.625    21081206.140    87771716.818 8      1521.185          48.812    21081206.260    87771718.819 8      1521.185          48.937
G08  20995549.240   110332353.981 7      1454.790          47.687    20995547.760   110332353.986 8      1454.790          48.687    20995557.200    85973292.667 8      1133.603          48.750    20995558.780    85973300.668 8      1133.603          50.687
> 2024 05 09 14 45 18.0000000  0 13
G02  21549682.760   113244347.127 7      2152.335          47.437    21549681.600   113244347.132 6      2152.335          40.437    21549685.220    88242360.220 6      1677.144          40.562
R08  20934771.800   112104752.860 7      5315.773          46.812    20934773.700   112104752.901 7      5315.773          45.750    20934790.020    87192668.382 8      4134.490          49.750    20934789.500    87192670.383 8      4134.490          49.312
G03  21208241.100   111450063.939 8      5006.655          48.000    21208240.940   111450063.941 6      5006.655          40.562    21208252.520    86844251.838 6      3901.290          40.500    21208253.420    86844254.837 8      3901.290          50.937
G27  23305285.380   122470092.146 7        -5.487          44.437    23305284.860   122470092.149 7        -5.487          43.562    23305301.100    95431299.781 7        -4.275          43.125    23305301.320    95431302.775 7        -4.275          45.875
R12  21951055.620   117258594.770 7     -1088.660          46.625    21951054.860   117258594.763 7     -1088.660          45.937    21951077.380    91201213.479 7      -846.736          47.062    21951077.620    91201214.475 7      -846.736          47.750
G21  21482689.060   112892288.675 7      1246.035          47.312    21482686.860   112892288.679 6      1246.035          39.687    21482692.400    87968027.791 6       970.936          39.500
R23  21168643.720   113237972.647 7      3242.124          43.312    21168643.660   113237972.659 7      3242.124          43.250
G16  25510305.320   134057562.129 6     -1175.478          38.437    25510303.460   134057562.134 3     -1175.478          21.437    25510323.240   104460509.277 3      -915.957          21.812
G32  24956833.500   131149042.582 7      2047.193          44.687    24956832.520   131149042.587 6      2047.193          39.750    24956846.080   102194112.462 6      1595.215          40.000    24956846.560   102194118.465 7      1595.215          43.187
R22  21468072.660   114598030.182 7      1376.663          47.500    21468072.360   114598030.186 7      1376.663          46.750    21468083.600    89131840.879 8      1070.738          49.437    21468083.360    89131839.877 8      1070.738          49.500
G14  23175330.960   121787191.417 7      4846.955          43.500    23175329.660   121787191.422 5      4846.955          30.937    23175339.040    94899134.533 5      3776.848          31.062    23175339.700    94899139.531 7      3776.848          46.500
R07  21080827.620   112847321.892 7      1954.735          46.187    21080826.660   112847321.910 7      1954.735          45.625    21080840.920    87770196.173 8      1520.349          49.312    21080841.040    87770198.175 8      1520.349          48.437
G08  20995272.560   110330899.713 8      1454.094          48.125    20995271.100   110330899.715 8      1454.094          49.187    20995280.520    85972159.467 8      1133.061          49.062    20995281.920    85972167.468 8      1133.061          50.437
> 2024 05 09 14 45 19.0000000  0 13
G02  21549273.080   113242194.683 8      2152.328          48.000    21549271.940   113242194.688 6      2152.328          40.312    21549275.560    88240682.991 6      1677.139          40.250
R08  20933779.280   112099437.251 7      5315.261          47.000    20933780.840   112099437.292 7      5315.261          46.437    20933797.440    87188534.034 8      4134.092          49.687    20933796.740    87188536.033 8      4134.092          49.375
G03  21207288.400   111445057.364 7      5006.272          47.375    21207288.180   111445057.369 6      5006.272          40.500    21207299.820    86840350.619 6      3900.991          40.187    21207300.440    86840353.619 8      3900.991          50.750
G27  23305286.480   122470097.712 7        -5.835          44.187    23305285.780   122470097.714 7        -5.835          42.625    23305302.140    95431304.101 7        -4.547          42.562    23305302.500    95431307.103 7        -4.547          46.000
R12  21951259.800   117259683.462 7     -1088.891          46.375    21951258.900   117259683.466 7     -1088.891          46.625    21951281.100    91202060.230 7      -846.916          47.000    21951281.460    91202061.230 7      -846.916          47.812
G21  21482451.980   112891042.516 7      1246.058          46.562    21482449.760   112891042.521 6      1246.058          39.625    21482455.280    87967056.757 6       970.954          39.562
R23  21168037.160   113234730.351 7      3242.192          45.000    21168037.580   113234730.369 7      3242.192          43.250
G16  25510528.920   134058737.439 6     -1175.363          38.187    25510526.940   134058737.444 3     -1175.363          21.437    25510546.920   104461425.099 3      -915.868          21.812
G32  24956443.800   131146995.557 7      2046.732          45.062    24956443.000   131146995.567 6      2046.732          39.375    24956456.760   102192517.383 6      1594.856          39.437    24956456.940   102192523.384 7      1594.856          43.187
R22  21467814.460   114596653.388 7      1376.728          47.687    21467814.400   114596653.394 7      1376.728          46.687    21467825.800    89130770.039 8      1070.789          49.812    21467825.500    89130769.037 8      1070.789          49.875
G14  23174408.720   121782344.682 7      4846.468          43.375    23174407.460   121782344.687 5      4846.468          31.062    23174416.680    94895357.856 5      3776.468          31.062    23174417.580    94895362.854 7      3776.468          46.687
R07  21080462.540   112845367.547 7      1953.829          47.062    21080461.480   112845367.570 7      1953.829          45.750    21080475.680    87768676.131 8      1519.645          49.125    21080476.000    87768678.134 8      1519.645          48.687
G08  20994995.800   110329445.715 7      1453.712          47.625    20994994.440   110329445.718 8      1453.712          49.062    20995003.800    85971026.480 8      1132.763          49.187    20995005.180    85971034.481 8      1132.763          50.875
> 2024 05 09 14 45 20.0000000  0 13
G02  21548863.260   113240042.415 7      2152.262          46.875    21548862.360   113240042.420 6      2152.262          40.437    21548866.020    88239005.901 6      1677.087          40.562
R08  20932786.600   112094122.322 7      5314.676          47.125    20932788.200   112094122.371 7      5314.676          45.875    20932804.960    87184400.219 8      4133.637          49.625    20932804.360    87184402.214 8      4133.637          49.875
G03  21206336.040   111440051.338 8      5005.860          48.312    21206335.420   111440051.341 6      5005.860          40.250    21206347.160    86836449.826 6      3900.670          40.062    21206347.960    86836452.828 8      3900.670          50.875
G27  23305287.720   122470103.574 7        -5.965          43.687    23305286.940   122470103.573 7        -5.965          42.937    23305303.240    95431308.653 7        -4.648          42.625    23305303.600    95431311.657 7        -4.648          45.750
R12  21951463.580   117260772.502 7     -1089.163          46.625    21951463.100   117260772.514 7     -1089.163          46.125    21951484.780    91202907.244 7      -847.127          46.937    21951485.240    91202908.242 7      -847.127          47.875
G21  21482215.080   112889796.500 7      1246.019          46.937    21482212.580   112889796.508 6      1246.019          38.937    21482218.160    87966085.838 6       970.924          39.125
R23  21167431.440   113231488.168 7      3242.204          44.312    21167431.420   113231488.183 7      3242.204          43.812
G16  25510753.140   134059912.715 6     -1175.268          37.750    25510750.540   134059912.720 3     -1175.268          21.437    25510770.560   104462340.888 3      -915.793          21.812
G32  24956054.460   131144949.107 7      2046.232          44.250    24956053.500   131144949.120 6      2046.232          39.375    24956067.460   102190922.751 6      1594.467          39.250    24956067.820   102190928.752 7      1594.467          43.312
R22  21467557.120   114595276.714 7      1376.786          46.312    21467556.160   114595276.717 7      1376.786          46.812    21467567.740    89129699.286 8      1070.833          49.187    21467567.640    89129698.288 8      1070.833          49.937
G14  23173486.680   121777498.457 7      4846.079          43.000    23173485.300   121777498.464 5      4846.079          31.062    23173494.340    94891581.585 5      3776.166          30.750    23173495.120    94891586.577 7      3776.166          46.687
R07  21080097.580   112843414.145 7      1952.969          45.500    21080096.900   112843414.160 7      1952.969          46.187    21080110.880    87767156.814 8      1518.976          49.250    21080111.540    87767158.817 8      1518.976          48.625
G08  20994719.000   110327992.144 7      1453.445          47.750    20994717.740   110327992.154 8      1453.445          49.062    20994727.220    85969893.827 8      1132.555          49.187    20994728.560    85969901.826 8      1132.555          50.750
> 2024 05 09 14 45 21.0000000  0 13
G02  21548453.960   113237890.115 7      2152.238          46.187    21548452.740   113237890.123 6      2152.238          40.312    21548456.540    88237328.783 6      1677.069          40.250
R08  20931794.320   112088807.848 7      5314.182          46.375    20931796.080   112088807.898 7      5314.182          46.000    20931812.580    87180266.750 8      4133.253          49.625    20931812.000    87180268.749 8      4133.253          49.812
G03  21205383.520   111435045.694 7      5005.322          47.937    21205382.880   111435045.701 6      5005.322          40.500    21205394.540    86832549.332 6      3900.251          40.125    21205395.260    86832552.336 8      3900.251          51.187
G27  23305288.640   122470109.564 7        -6.084          43.062    23305288.100   122470109.561 7        -6.084          42.750    23305304.340    95431313.307 7        -4.741          42.375    23305305.280    95431316.310 7        -4.741          46.062
R12  21951667.340   117261861.707 7     -1089.349          46.187    21951666.900   117261861.711 7     -1089.349          46.500    21951688.820    91203754.381 7      -847.271          46.625    21951689.080    91203755.381 7      -847.271          47.437
G21  21481977.860   112888550.416 7      1246.068          46.500    21481975.420   112888550.421 6      1246.068          39.250    21481981.020    87965114.858 6       970.962          39.250
R23  21166825.100   113228245.867 7      3242.384          44.437    21166825.240   113228245.879 7      3242.384          43.562
G16  25510976.500   134061087.780 6     -1174.861          37.750    25510974.020   134061087.782 3     -1174.861          21.437    25510994.260   104463256.515 3      -915.476          21.812
G32  24955665.220   131142903.019 7      2045.849          44.562    24955664.160   131142903.027 6      2045.849          40.000    24955678.120   102189328.397 6      1594.168          39.687    24955678.800   102189334.394 7      1594.168          43.750
R22  21467299.160   114593899.972 7      1376.767          46.812    21467298.400   114593899.971 7      1376.767          46.937    21467309.800    89128628.487 8      1070.819          49.750    21467309.420    89128627.484 8      1070.819          49.875
G14  23172564.380   121772652.560 7      4845.802          43.312    23172563.080   121772652.567 5      4845.802          31.062    23172572.100    94887805.565 5      3775.950          30.750    23172573.460    94887810.549 7      3775.950          46.875
R07  21079732.540   112841461.465 7      1952.277          47.500    21079732.040   112841461.480 7      1952.277          45.375    21079746.080    87765638.063 8      1518.437          49.000    21079746.280    87765640.066 8      1518.437          48.937
G08  20994442.480   110326538.837 7      1453.134          47.812    20994441.280   110326538.842 8      1453.134          49.312    20994450.660    85968761.374 8      1132.313          49.437    20994452.020    85968769.376 8      1132.313          50.500
> 2024 05 09 14 45 22.0000000  0 13
G02  21548044.420   113235737.947 7      2151.930          47.437    21548043.220   113235737.952 6      2151.930          40.500    21548046.900    88235651.768 6      1676.829          40.687
R08  20930802.060   112083493.966 7      5313.481          47.187    20930803.540   112083494.010 7      5313.481          46.500    20930820.420    87176133.739 8      4132.707          49.625    20930819.820    87176135.740 8      4132.707          49.187
G03  21204431.160   111430040.535 7      5004.723          47.562    21204430.320   111430040.540 6      5004.723          40.500    21204442.140    86828649.212 6      3899.785          40.125    21204443.040    86828652.214 8      3899.785          50.875
G27  23305289.700   122470115.839 7        -6.628          44.562    23305289.260   122470115.838 7        -6.628          43.000    23305305.640    95431318.182 7        -5.165          42.812    23305306.140    95431321.185 7        -5.165          46.250
R12  21951871.180   117262951.212 7     -1089.862          47.187    21951871.160   117262951.215 7     -1089.862          46.937    21951892.700    91204601.759 7      -847.671          46.562    21951892.860    91204602.761 7      -847.671          47.500
G21  21481740.640   112887304.413 7      1245.838          46.687    21481738.340   112887304.420 6      1245.838          39.375    21481743.900    87964143.945 6       970.783          39.375
R23  21166219.360   113225003.638 7      3242.016          44.562    21166219.240   113225003.658 7      3242.016          43.562
G16  25511200.000   134062262.840 6     -1175.214          38.062    25511197.940   134062262.840 3     -1175.214          21.437    25511217.940   104464172.142 3      -915.751          21.812
G32  24955275.860   131140857.457 7      2045.154          44.250    24955274.720   131140857.465 6      2045.154          39.312    24955288.840   102187734.450 6      1593.626          39.500    24955289.500   102187740.454 7      1593.626          43.875
R22  21467041.000   114592523.274 7      1376.499          46.187    21467040.360   114592523.278 7      1376.499          46.437    21467051.960    89127557.726 8      1070.610          49.187    21467051.540    89127556.724 8      1070.610          49.312
G14  23171642.020   121767807.173 7      4844.975          44.187    23171641.160   121767807.183 5      4844.975          30.750    23171650.080    94884029.937 5      3775.305          30.750    23171651.500    94884034.927 7      3775.305          46.562
R07  21079368.260   112839509.695 7      1951.079          46.437    21079367.100   112839509.713 7      1951.079          45.125    21079381.640    87764120.024 8      1517.506          49.250    21079381.640    87764122.027 8      1517.506          48.625
G08  20994166.040   110325085.930 7      1452.522          47.250    20994164.760   110325085.941 8      1452.522          49.437    20994174.120    85967629.237 8      1131.835          49.000    20994175.680    85967637.242 8      1131.835          50.250
> 2024 05 09 14 45 23.0000000  0 13
G02  21547635.060   113233586.008 7      2151.904          47.000    21547633.660   113233586.007 6      2151.904          39.687    21547637.360    88233974.930 6      1676.808          39.875
R08  20929809.900   112078180.812 7      5312.889          46.500    20929811.360   112078180.856 7      5312.889          46.062    20929828.080    87172001.294 8      4132.247          49.812    20929827.660    87172003.293 8      4132.247          49.500
G03  21203478.640   111425035.991 7      5004.385          46.750    21203478.000   111425035.994 6      5004.385          39.812    21203489.700    86824749.574 6      3899.520          39.812    21203490.600    86824752.574 8      3899.520          50.187
G27  23305291.000   122470122.476 7        -6.656          43.312    23305290.400   122470122.481 7        -6.656          42.875    23305306.800    95431323.341 7        -5.186          42.750    23305307.220    95431326.345 7        -5.186          46.000
R12  21952075.400   117264041.114 7     -1090.031          45.562    21952075.320   117264041.118 7     -1090.031          46.437    21952096.820    91205449.437 7      -847.802          46.687    21952096.940    91205450.444 7      -847.802          47.000
G21  21481503.540   112886058.622 7      1245.723          46.312    21481501.240   112886058.627 6      1245.723          38.687    21481506.880    87963173.197 6       970.693          39.125
R23  21165613.180   113221761.564 7      3242.154          44.562    21165612.900   113221761.587 7      3242.154          42.750
G16  25511423.840   134063437.929 6     -1174.950          38.437    25511421.660   134063437.931 3     -1174.950          21.437    25511441.380   104465087.790 3      -915.546          21.812
G32  24954886.480   131138812.542 7      2044.608          44.250    24954885.680   131138812.544 6      2044.608          39.625    24954899.780   102186141.010 6      1593.201          39.875    24954900.840   102186147.013 7      1593.201          43.625
R22  21466782.960   114591146.762 7      1376.591          45.812    21466782.380   114591146.763 7      1376.591          46.437    21466793.940    89126487.094 8      1070.682          49.375    21466793.640    89126486.096 8      1070.682          49.437
G14  23170720.440   121762962.358 7      4844.625          42.437    23170719.160   121762962.369 5      4844.625          30.750    23170728.080    94880254.759 5      3775.033          30.750    23170729.400    94880259.743 7      3775.033          46.875
R07  21079003.460   112837558.886 7      1950.440          46.125    21079002.980   112837558.909 7      1950.440          45.000    21079017.240    87762602.730 8      1517.009          49.062    21079017.320    87762604.731 8      1517.009          48.625
G08  20993889.780   110323633.538 7      1452.285          47.875    20993888.440   110323633.543 7      1452.285          47.687    20993897.840    85966497.497 8      1131.651          48.250    20993899.480    85966505.500 8      1131.651          50.562
> 2024 05 09 14 45 24.0000000  0 13
G02  21547225.680   113231434.042 8      2151.887          48.500    21547224.220   113231434.046 6      2151.887          40.312    21547227.940    88232298.074 6      1676.795          40.062
R08  20928817.460   112072868.121 7      5312.373          47.562    20928819.540   112072868.160 7      5312.373          46.500    20928835.960    87167869.212 8      4131.845          49.312    20928835.520    87167871.207 8      4131.845          49.875
G03  21202526.240   111420031.850 8      5003.881          48.562    21202525.580   111420031.852 6      5003.881          40.687    21202537.560    86820850.249 6      3899.128          40.312    21202538.460    86820853.249 8      3899.128          51.000
G27  23305292.400   122470129.292 7        -7.056          42.812    23305291.720   122470129.299 7        -7.056          42.437    23305308.220    95431328.640 7        -5.499          42.375    23305308.300    95431331.637 7        -5.499          46.125
R12  21952279.580   117265131.179 7     -1090.194          47.500    21952279.340   117265131.191 7     -1090.194          47.250    21952300.960    91206297.256 7      -847.928          46.875    21952301.040    91206298.262 7      -847.928          46.937
G21  21481266.580   112884812.759 7      1245.799          47.000    21481264.240   112884812.764 6      1245.799          39.187    21481269.720    87962202.392 6       970.752          39.187
R23  21165006.820   113218519.444 7      3242.041          44.312    21165006.860   113218519.459 7      3242.041          43.375
G16  25511647.020   134064612.874 6     -1174.860          38.437    25511645.240   134064612.876 3     -1174.860          21.437    25511665.180   104466003.325 3      -915.476          21.812
G32  24954497.280   131136767.976 7      2044.362          43.625    24954496.560   131136767.983 6      2044.362          39.625    24954510.600   102184547.849 6      1593.009          39.187    24954511.420   102184553.849 7      1593.009          43.812
R22  21466525.420   114589770.176 7      1376.547          46.312    21466524.640   114589770.177 7      1376.547          47.062    21466535.980    89125416.415 8      1070.648          49.625    21466535.700    89125415.416 8      1070.648          49.500
G14  23169798.960   121758117.902 7      4844.168          43.187    23169797.300   121758117.909 5      4844.168          30.750    23169806.320    94876479.851 5      3774.676          30.937    23169807.700    94876484.839 7      3774.676          46.750
R07  21078638.800   112835608.848 7      1949.568          46.812    21078638.560   112835608.874 7      1949.568          46.187    21078652.880    87761086.034 8      1516.331          49.062    21078653.100    87761088.034 8      1516.331          48.437
G08  20993613.580   110322181.415 7      1451.931          47.812    20993612.060   110322181.414 8      1451.931          49.437    20993621.460    85965365.965 8      1131.375          48.937    20993623.140    85965373.969 8      1131.375          50.875
> 2024 05 09 14 45 25.0000000  0 13
G02  21546816.200   113229282.283 7      2151.731          47.812    21546814.700   113229282.291 6      2151.731          40.125    21546818.540    88230621.381 6      1676.673          40.000
R08  20927825.480   112067556.105 8      5311.724          48.375    20927827.620   112067556.145 7      5311.724          46.500    20927843.920    87163737.656 8      4131.341          50.000    20927843.400    87163739.651 8      4131.341          50.062
G03  21201574.300   111415028.273 7      5003.324          47.812    21201573.580   111415028.273 6      5003.324          40.500    21201585.520    86816951.364 6      3898.694          40.062    21201586.240    86816954.364 8      3898.694          50.875
G27  23305294.040   122470136.433 7        -7.284          44.312    23305292.960   122470136.435 7        -7.284          42.937    23305309.580    95431334.184 7        -5.676          42.500    23305309.800    95431337.186 7        -5.676          46.125
R12  21952483.680   117266221.637 7     -1090.637          47.312    21952483.880   117266221.651 7     -1090.637          47.125    21952504.920    91207145.375 7      -848.273          46.562    21952505.200    91207146.385 7      -848.273          46.250
G21  21481029.380   112883567.050 7      1245.731          47.125    21481027.040   112883567.060 6      1245.731          39.500    21481032.740    87961231.714 6       970.700          39.187
R23  21164400.920   113215277.429 7      3241.958          44.562    21164400.760   113215277.447 7      3241.958          43.875
G16  25511870.420   134065787.836 6     -1174.999          38.312    25511868.880   134065787.841 3     -1174.999          21.437    25511888.760   104466918.874 3      -915.584          21.812
G32  24954108.100   131134724.032 7      2043.719          43.250    24954107.400   131134724.042 6      2043.719          39.312    24954121.700   102182955.168 6      1592.508          39.312    24954122.140   102182961.180 7      1592.508          43.750
R22  21466267.360   114588393.745 7      1376.383          47.062    21466266.940   114588393.743 7      1376.383          46.500    21466278.100    89124345.853 8      1070.520          49.375    21466278.040    89124344.852 8      1070.520          49.375
G14  23168877.040   121753273.991 7      4843.669          43.062    23168875.580   121753273.996 5      4843.669          31.000    23168884.560    94872705.376 5      3774.288          30.937    23168885.580    94872710.364 7      3774.288          46.687
R07  21078274.800   112833659.752 7      1948.663          47.750    21078274.940   112833659.781 7      1948.663          45.687    21078288.920    87759570.076 8      1515.627          48.562    21078288.980    87759572.075 8      1515.627          49.062
G08  20993337.140   110320729.745 7      1451.525          47.687    20993335.900   110320729.750 8      1451.525          48.937    20993345.200    85964234.798 8      1131.058          49.625    20993346.620    85964242.800 8      1131.058          50.375
> 2024 05 09 14 45 26.0000000  0 13
G02  21546406.680   113227130.554 7      2151.632          47.750    21546405.260   113227130.559 6      2151.632          40.062    21546409.080    88228944.707 6      1676.597          40.000
R08  20926833.660   112062244.577 7      5311.157          47.875    20926836.280   112062244.616 7      5311.157          46.812    20926852.280    87159606.474 8      4130.900          49.750    20926851.580    87159608.475 8      4130.900          50.125
G03  21200622.300   111410025.088 7      5002.977          47.437    21200621.520   111410025.090 6      5002.977          40.750    21200633.380    86813052.784 6      3898.424          40.562    21200634.060    86813055.784 8      3898.424          51.125
G27  23305295.340   122470143.764 7        -7.622          44.062    23305294.400   122470143.774 7        -7.622          42.875    23305310.940    95431339.890 7        -5.939          42.437    23305311.120    95431342.894 7        -5.939          46.250
R12  21952687.760   117267312.290 7     -1090.861          47.500    21952688.000   117267312.296 7     -1090.861          46.750    21952709.020    91207993.636 7      -848.447          46.187    21952709.280    91207994.646 7      -848.447          46.562
G21  21480792.280   112882321.349 7      1245.569          47.000    21480789.960   112882321.359 6      1245.569          39.312    21480795.660    87960261.034 6       970.573          39.312
R23  21163794.840   113212035.348 7      3242.003          44.937    21163794.400   113212035.360 7      3242.003          43.875
G16  25512094.280   134066962.650 6     -1174.981          38.187    25512092.420   134066962.654 3     -1174.981          21.437    25512112.140   104467834.307 3      -915.570          21.812
G32  24953719.320   131132680.515 7      2043.153          42.812    24953718.640   131132680.522 6      2043.153          39.062    24953732.920   102181362.819 6      1592.068          39.125    24953733.520   102181368.832 7      1592.068          43.625
R22  21466009.400   114587017.268 7      1376.254          46.812    21466008.980   114587017.274 7      1376.254          46.437    21466020.180    89123275.264 8      1070.420          49.125    21466020.120    89123274.263 8      1070.420          49.500
G14  23167955.120   121748430.456 7      4843.303          44.250    23167954.080   121748430.461 5      4843.303          31.000    23167962.660    94868931.193 5      3774.002          30.937    23167963.720    94868936.181 7      3774.002          46.187
R07  21077910.900   112831711.451 7      1947.752          46.625    21077911.160   112831711.477 7      1947.752          45.750    21077925.040    87758054.733 8      1514.918          49.312    21077925.180    87758056.734 8      1514.918          48.625
G08  20993061.160   110319278.407 8      1451.056          48.187    20993059.700   110319278.412 8      1451.056          49.687    20993069.020    85963103.879 8      1130.693          49.312    20993070.600    85963111.883 8      1130.693          50.750
> 2024 05 09 14 45 27.0000000  0 13
G02  21545997.300   113224978.851 7      2151.742          47.312    21545995.720   113224978.855 6      2151.742          40.125    21545999.540    88227268.057 6      1676.682          39.812
R08  20925841.860   112056933.535 7      5310.807          47.937    20925844.820   112056933.575 7      5310.807          45.937    20925860.340    87155475.676 8      4130.628          49.625    20925859.920    87155477.678 8      4130.628          49.562
G03  21199670.240   111405022.352 7      5002.598          47.687    21199669.400   111405022.354 6      5002.598          40.937    21199681.240    86809154.559 6      3898.128          40.437    21199682.140    86809157.558 8      3898.128          51.125
G27  23305296.340   122470151.273 7        -7.596          43.937    23305295.760   122470151.276 7        -7.596          42.812    23305312.440    95431345.719 7        -5.919          42.312    23305312.700    95431348.719 7        -5.919          46.125
R12  21952892.140   117268403.178 7     -1090.985          46.562    21952892.300   117268403.189 7     -1090.985          47.062    21952913.280    91208842.096 7      -848.544          46.562    21952913.180    91208843.108 7      -848.544          46.250
G21  21480555.020   112881075.630 7      1245.734          47.312    21480552.940   112881075.635 6      1245.734          38.937    21480558.660    87959290.344 6       970.702          39.125
R23  21163188.860   113208793.244 7      3242.152          44.437    21163188.840   113208793.248 7      3242.152          43.437
G16  25512317.760   134068137.321 6     -1174.667          38.000    25512315.760   134068137.328 3     -1174.667          21.687    25512335.580   104468749.633 3      -915.325          21.500
G32  24953330.280   131130637.430 7      2042.758          42.187    24953329.860   131130637.446 6      2042.758          39.437    24953344.020   102179770.813 6      1591.760          39.000    24953344.600   102179776.827 7      1591.760          43.625
R22  21465751.760   114585640.770 7      1376.491          46.250    21465751.200   114585640.768 7      1376.491          46.875    21465762.300    89122204.651 8      1070.604          49.062    21465762.260    89122203.649 8      1070.604          49.562
G14  23167033.580   121743587.326 7      4843.026          43.875    23167032.500   121743587.331 5      4843.026          31.000    23167041.100    94865157.323 5      3773.787          31.125    23167042.120    94865162.315 7      3773.787          46.687
R07  21077547.080   112829763.961 7      1947.063          46.437    21077547.100   112829763.984 7      1947.063          45.750    21077561.120    87756540.017 8      1514.382          49.437    21077561.120    87756542.019 8      1514.382          48.500
G08  20992785.120   110317827.365 8      1450.910          48.312    20992783.660   110317827.368 8      1450.910          49.187    20992792.900    85961973.194 8      1130.579          48.875    20992794.340    85961981.197 8      1130.579          50.625
> 2024 05 09 14 45 28.0000000  0 13
G02  21545587.720   113222827.187 7      2151.605          47.500    21545586.140   113222827.192 6      2151.605          40.125    21545590.060    88225591.438 6      1676.575          39.937
R08  20924850.320   112051622.971 7      5310.289          47.500    20924852.980   112051623.013 7      5310.289          46.187    20924868.600    87151345.252 8      4130.225          49.812    20924868.100    87151347.251 8      4130.225          50.437
G03  21198718.320   111400020.039 7      5002.032          47.375    21198717.520   111400020.041 6      5002.032          40.687    21198729.420    86805256.661 6      3897.687          40.312    21198730.220    86805259.658 8      3897.687          50.875
G27  23305297.840   122470158.980 7        -7.899          43.687    23305297.260   122470158.980 7        -7.899          42.437    23305313.940    95431351.712 7        -6.155          42.125    23305314.180    95431354.710 7        -6.155          46.062
R12  21953096.080   117269494.306 7     -1091.360          47.125    21953096.660   117269494.315 7     -1091.360          46.375    21953117.520    91209690.732 7      -848.835          46.062    21953117.360    91209691.745 7      -848.835          46.562
G21  21480318.020   112879829.913 7      1245.583          47.562    21480315.920   112879829.918 6      1245.583          39.562    21480321.520    87958319.653 6       970.585          39.625
R23  21162582.980   113205551.077 7      3242.082          44.687    21162582.760   113205551.094 7      3242.082          43.312
G16  25512541.520   134069311.868 6     -1174.716          38.000    25512539.300   134069311.876 3     -1174.716          21.687    25512559.000   104469664.859 3      -915.363          21.500
G32  24952941.840   131128594.759 7      2042.393          42.437    24952941.100   131128594.766 6      2042.393          38.937    24952955.240   102178179.119 6      1591.475          38.875    24952956.120   102178185.128 7      1591.475          43.187
R22  21465494.000   114584264.258 7      1376.424          45.750    21465493.120   114584264.248 7      1376.424          46.062    21465504.420    89121134.016 8      1070.552          49.187    21465504.460    89121133.016 8      1070.552          49.625
G14  23166111.920   121738744.591 7      4842.449          44.000    23166111.000   121738744.601 5      4842.449          31.625    23166119.480    94861383.767 5      3773.337          31.125    23166120.780    94861388.763 7      3773.337          46.500
R07  21077183.600   112827817.245 7      1946.287          45.937    21077183.320   112827817.268 7      1946.287          44.812    21077197.600    87755025.908 8      1513.779          49.625    21077197.460    87755027.911 8      1513.779          49.125
G08  20992508.940   110316376.639 7      1450.551          47.875    20992507.560   110316376.642 8      1450.551          48.750    20992516.860    85960842.754 8      1130.300          48.750    20992518.120    85960850.759 8      1130.300          50.562
> 2024 05 09 14 45 29.0000000  0 13
G02  21545178.480   113220675.662 7      2151.540          47.562    21545176.800   113220675.667 6      2151.540          40.312    21545180.740    88223914.923 6      1676.525          40.000
R08  20923858.740   112046313.038 8      5309.806          48.125    20923861.180   112046313.077 7      5309.806          46.187    20923876.960    87147215.312 8      4129.849          50.000    20923876.500    87147217.314 8      4129.849          50.000
G03  21197766.380   111395018.233 7      5001.680          47.875    21197765.640   111395018.235 6      5001.680          40.687    21197777.520    86801359.152 6      3897.413          40.062    21197778.300    86801362.151 8      3897.413          51.062
G27  23305299.540   122470166.965 7        -8.092          44.375    23305298.720   122470166.973 7        -8.092          42.375    23305315.360    95431357.924 7        -6.305          42.125    23305315.740    95431360.922 7        -6.305          46.125
R12  21953300.520   117270585.717 7     -1091.424          47.812    21953301.100   117270585.724 7     -1091.424          47.312    21953321.760    91210539.587 7      -848.885          46.312    21953321.840    91210540.597 7      -848.885          46.125
G21  21480081.060   112878584.273 7      1245.722          47.625    21480078.980   112878584.275 6      1245.722          39.187    21480084.440    87957349.022 6       970.692          39.000
R23  21161976.980   113202309.016 7      3242.118          44.375    21161976.500   113202309.018 7      3242.118          43.312
G16  25512765.220   134070486.324 6     -1174.086          38.062    25512762.920   134070486.332 3     -1174.086          21.687    25512782.440   104470580.013 3      -914.872          21.500
G32  24952553.400   131126552.628 7      2042.042          42.750    24952552.520   131126552.641 6      2042.042          39.250    24952566.500   102176587.851 6      1591.202          39.312    24952567.160   102176593.870 7      1591.202          43.437
R22  21465236.040   114582887.803 7      1376.526          47.375    21465235.560   114582887.798 7      1376.526          46.500    21465246.520    89120063.444 8      1070.631          49.062    21465246.800    89120062.440 8      1070.631          49.187
G14  23165190.660   121733902.357 7      4842.016          45.000    23165189.620   121733902.367 5      4842.016          31.625    23165198.100    94857610.600 5      3773.000          31.125    23165199.680    94857615.589 7      3773.000          46.500
R07  21076819.940   112825871.411 7      1945.506          45.375    21076819.660   112825871.437 7      1945.506          46.000    21076834.120    87753512.486 8      1513.172          49.187    21076834.040    87753514.489 8      1513.172          49.500
G08  20992232.900   110314926.328 8      1450.200          49.000    20992231.580   110314926.331 8      1450.200          49.500    20992240.860    85959712.639 8      1130.026          49.187    20992242.080    85959720.643 8      1130.026          50.437
> 2024 05 09 14 45 30.0000000  0 13
G02  21544769.080   113218524.269 7      2151.562          47.187    21544767.420   113218524.271 6      2151.562          40.250    21544771.280    88222238.511 6      1676.542          39.875
R08  20922867.140   112041003.748 8      5309.215          48.812    20922869.880   112041003.787 7      5309.215          46.875    20922885.660    87143085.875 8      4129.389          49.625    20922885.200    87143087.876 8      4129.389          49.812
G03  21196814.680   111390016.955 7      5001.164          47.625    21196813.900   111390016.960 6      5001.164          40.375    21196825.760    86797462.063 6      3897.011          40.312    21196826.620    86797465.064 8      3897.011          50.750
G27  23305301.280   122470175.250 7        -8.288          43.625    23305300.260   122470175.254 7        -8.288          42.750    23305317.060    95431364.361 7        -6.458          42.312    23305317.300    95431367.357 7        -6.458          46.312
R12  21953504.980   117271677.441 7     -1091.669          47.375    21953505.340   117271677.453 7     -1091.669          47.312    21953526.180    91211388.695 7      -849.076          46.125    21953526.320    91211389.701 7      -849.076          46.437
G21  21479844.000   112877338.750 7      1245.687          47.437    21479841.860   112877338.755 6      1245.687          38.875    21479847.400    87956378.486 6       970.666          39.000
R23  21161370.640   113199066.996 7      3242.180          45.125    21161371.120   113199067.000 7      3242.180          43.625
G16  25512988.580   134071660.835 6     -1174.244          38.312    25512986.440   134071660.848 3     -1174.244          21.687    25513005.880   104471495.208 3      -914.995          21.500
G32  24952164.720   131124511.055 7      2041.609          42.250    24952164.080   131124511.060 6      2041.609          39.312    24952178.140   102174997.012 6      1590.864          39.062    24952178.820   102175003.026 7      1590.864          43.125
R22  21464978.100   114581511.448 7      1376.505          46.812    21464977.780   114581511.444 7      1376.505          46.875    21464988.600    89118992.944 8      1070.615          49.125    21464988.840    89118991.942 8      1070.615          49.187
G14  23164269.320   121729060.606 7      4841.738          43.875    23164268.340   121729060.616 5      4841.738          31.625    23164276.940    94853837.809 5      3772.783          31.375    23164278.020    94853842.791 7      3772.783          46.500
R07  21076457.000   112823926.453 7      1944.715          46.437    21076456.420   112823926.471 7      1944.715          45.375    21076470.800    87751999.739 8      1512.556          49.312    21076470.720    87752001.742 8      1512.556          49.250
G08  20991956.800   110313476.435 8      1449.894          48.937    20991955.640   110313476.443 8      1449.894          49.062    20991965.000    85958582.850 8      1129.788          49.125    20991966.200    85958590.854 8      1129.788          50.250
> 2024 05 09 14 45 31.0000000  0 13
G02  21544359.720   113216372.900 7      2151.508          47.437    21544357.920   113216372.899 6      2151.508          40.187    21544361.880    88220562.119 6      1676.500          40.062
R08  20921875.680   112035694.972 8      5308.653          48.000    20921877.980   112035695.019 7      5308.653          46.562    20921894.180    87138956.845 8      4128.952          50.250    20921893.480    87138958.845 8      4128.952          50.125
G03  21195863.140   111385016.093 8      5000.690          48.000    21195862.240   111385016.098 6      5000.690          40.625    21195874.040    86793565.295 6      3896.642          40.312    21195875.040    86793568.292 8      3896.642          51.125
G27  23305302.960   122470183.684 7        -8.278          43.687    23305301.780   122470183.684 7        -8.278          42.812    23305318.740    95431370.915 7        -6.451          42.500    23305318.900    95431373.914 7        -6.451          46.375
R12  21953709.240   117272769.352 7     -1091.832          47.562    21953709.640   117272769.366 7     -1091.832          47.500    21953730.440    91212237.949 7      -849.203          45.937    21953730.720    91212238.953 7      -849.203          46.687
G21  21479607.000   112876093.210 7      1245.657          47.875    21479604.820   112876093.215 6      1245.657          38.812    21479610.600    87955407.932 6       970.642          38.937
R23  21160764.680   113195824.944 7      3242.196          45.687    21160764.720   113195824.942 7      3242.196          44.125
G16  25513211.800   134072835.181 6     -1174.133          37.937    25513209.920   134072835.191 3     -1174.133          21.687    25513229.460   104472410.274 3      -914.909          21.500
G32  24951776.460   131122469.904 7      2040.977          43.000    24951775.500   131122469.909 6      2040.977          38.500    24951789.720   102173406.509 6      1590.372          38.562    24951790.340   102173412.525 7      1590.372          43.125
R22  21464720.320   114580135.062 7      1376.394          47.000    21464720.140   114580135.058 7      1376.394          47.187    21464730.520    89117922.417 8      1070.529          49.250    21464730.660    89117921.418 8      1070.529          49.187
G14  23163348.020   121724219.257 7      4841.235          43.500    23163346.900   121724219.270 5      4841.235          31.625    23163355.620    94850065.334 5      3772.391          31.375    23163356.340    94850070.315 7      3772.391          46.562
R07  21076093.760   112821982.280 7      1943.871          46.187    21076093.480   112821982.300 7      1943.871          45.937    21076107.840    87750487.604 8      1511.899          49.125    21076107.760    87750489.605 8      1511.899          49.000
G08  20991680.880   110312026.844 8      1449.540          48.812    20991679.820   110312026.849 8      1449.540          49.062    20991689.140    85957453.297 8      1129.512          48.750    20991690.400    85957461.300 8      1129.512          50.375
> 2024 05 09 14 45 32.0000000  0 13
G02  21543950.240   113214221.633 7      2151.124          47.312    21543948.560   113214221.640 6      2151.124          40.500    21543952.440    88218885.811 6      1676.201          40.437
R08  20920884.260   112030386.798 7      5307.808          47.187    20920886.900   112030386.845 7      5307.808          46.500    20920902.880    87134828.278 8      4128.295          50.000    20920902.440    87134830.278 8      4128.295          50.062
G03  21194911.800   111380015.716 7      5000.003          47.125    21194910.840   111380015.716 6      5000.003          40.562    21194922.520    86789668.897 6      3896.106          40.500    21194923.360    86789671.897 8      3896.106          50.187
G27  23305304.760   122470192.402 7        -8.808          42.562    23305303.480   122470192.407 7        -8.808          43.000    23305320.360    95431377.698 7        -6.863          42.500    23305320.380    95431380.693 7        -6.863          46.312
R12  21953913.560   117273861.589 7     -1092.471          46.687    21953913.980   117273861.598 7     -1092.471          46.875    21953934.660    91213087.445 7      -849.699          46.062    21953935.160    91213088.452 7      -849.699          46.312
G21  21479369.960   112874847.732 7      1245.374          47.375    21479367.820   112874847.740 6      1245.374          38.937    21479373.520    87954437.430 6       970.422          38.937
R23  21160158.500   113192582.926 7      3241.977          44.875    21160158.860   113192582.938 7      3241.977          43.375
G16  25513434.580   134074009.426 6     -1174.227          37.937    25513433.280   134074009.431 3     -1174.227          21.687    25513453.020   104473325.262 3      -914.982          21.500
G32  24951388.320   131120429.259 7      2040.261          42.812    24951387.280   131120429.255 6      2040.261          38.812    24951401.500   102171816.392 6      1589.814          39.062    24951401.860   102171822.409 7      1589.814          43.250
R22  21464462.300   114578758.706 7      1376.257          46.562    21464462.380   114578758.696 7      1376.257          46.687    21464472.700    89116851.911 8      1070.422          48.812    21464472.720    89116850.912 8      1070.422          49.187
G14  23162426.780   121719378.350 7      4840.568          43.187    23162425.460   121719378.366 5      4840.568          31.625    23162434.520    94846293.198 5      3771.871          31.375    23162435.400    94846298.184 7      3771.871          46.312
R07  21075730.860   112820038.984 7      1942.850          46.687    21075730.340   112820039.004 7      1942.850          45.437    21075744.860    87748976.152 8      1511.105          49.187    21075744.620    87748978.156 8      1511.105          50.000
G08  20991405.240   110310577.629 8      1448.983          48.812    20991404.040   110310577.634 8      1448.983          49.250    20991413.380    85956324.034 8      1129.078          49.437    20991414.540    85956332.037 8      1129.078          50.312
> 2024 05 09 14 45 33.0000000  0 13
G02  21543540.880   113212070.405 7      2151.342          47.625    21543539.160   113212070.407 6      2151.342          40.062    21543543.080    88217209.524 6      1676.370          40.000
R08  20919892.820   112025079.114 7      5307.548          47.375    20919895.600   112025079.164 7      5307.548          46.500    20919911.860    87130700.096 8      4128.093          49.500    20919911.300    87130702.094 8      4128.093          49.375
G03  21193960.240   111375015.755 8      4999.886          48.125    21193959.120   111375015.757 6      4999.886          40.500    21193971.180    86785772.834 6      3896.015          40.125    21193972.040    86785775.830 8      3896.015          50.687
G27  23305306.440   122470201.296 7        -8.773          43.562    23305305.020   122470201.301 7        -8.773          42.187    23305322.180    95431384.616 6        -6.836          41.812    23305322.100    95431387.610 7        -6.836          46.250
R12  21954118.080   117274954.010 7     -1092.325          45.687    21954118.340   117274954.019 7     -1092.325          47.187    21954139.280    91213937.090 7      -849.586          45.750    21954139.620    91213938.094 7      -849.586          47.000
G21  21479133.100   112873602.247 7      1245.682          47.500    21479130.720   112873602.249 6      1245.682          39.250    21479136.440    87953466.920 6       970.661          39.250
R23  21159552.660   113189340.919 7      3242.134          44.187    21159553.360   113189340.918 7      3242.134          43.812
G16  25513657.820   134075183.548 6     -1173.837          38.125    25513656.600   134075183.556 3     -1173.837          21.687    25513676.520   104474240.159 3      -914.679          21.500
G32  24951000.180   131118389.020 7      2040.122          42.875    24950998.920   131118389.022 6      2040.122          39.187    24951013.160   102170226.599 6      1589.706          39.125    24951013.600   102170232.611 7      1589.706          43.000
R22  21464204.600   114577382.330 7      1376.520          46.000    21464204.420   114577382.331 7      1376.520          46.437    21464214.800    89115781.401 8      1070.627          49.375    21464215.100    89115780.404 8      1070.627          49.125
G14  23161505.900   121714537.842 7      4840.472          42.750    23161504.280   121714537.855 5      4840.472          31.625    23161513.380    94842521.374 5      3771.796          31.625    23161513.940    94842526.362 7      3771.796          46.375
R07  21075367.920   112818096.499 7      1942.247          45.750    21075367.380   112818096.527 7      1942.247          45.437    21075382.040    87747465.336 8      1510.636          49.312    21075382.020    87747467.341 8      1510.636          49.750
G08  20991129.660   110309128.739 8      1448.908          48.625    20991128.340   110309128.742 8      1448.908          49.125    20991137.620    85955195.025 8      1129.019          49.250    20991138.920    85955203.026 8      1129.019          50.562
> 2024 05 09 14 45 34.0000000  0 13
G02  21543131.580   113209919.304 7      2150.945          46.687    21543129.880   113209919.309 6      2150.945          39.812    21543133.540    88215533.345 6      1676.061          39.812
R08  20918901.800   112019772.019 7      5306.755          47.187    20918904.400   112019772.069 7      5306.755          45.562    20918920.800    87126572.364 8      4127.476          49.875    20918920.280    87126574.360 8      4127.476          49.937
G03  21193008.840   111370016.317 7      4999.142          46.375    21193007.760   111370016.321 6      4999.142          40.062    21193019.760    86781877.174 6      3895.435          40.062    21193020.760    86781880.169 8      3895.435          50.875
G27  23305307.760   122470210.498 7        -9.415          43.500    23305306.620   122470210.505 7        -9.415          42.562    23305323.980    95431391.774 7        -7.337          42.000    23305324.380    95431394.761 7        -7.337          46.562
R12  21954322.740   117276046.789 7     -1093.029          45.062    21954322.940   117276046.795 7     -1093.029          46.125    21954343.860    91214787.004 7      -850.134          45.750    21954344.440    91214788.008 7      -850.134          46.812
G21  21478896.120   112872356.874 7      1245.229          46.312    21478893.720   112872356.879 6      1245.229          38.812    21478899.580    87952496.498 6       970.308          38.625
R23  21158946.500   113186098.955 7      3241.769          45.187    21158947.060   113186098.953 7      3241.769          43.812
G16  25513881.420   134076357.654 6     -1174.107          37.687    25513880.060   134076357.662 3     -1174.107          21.687    25513899.940   104475155.040 3      -914.888          21.500
G32  24950612.020   131116349.341 7      2039.233          42.625    24950610.960   131116349.346 6      2039.233          38.562    24950624.940   102168637.245 6      1589.012          38.937    24950624.980   102168643.263 7      1589.012          42.937
R22  21463946.780   114576006.053 7      1376.125          47.312    21463946.560   114576006.052 7      1376.125          47.000    21463956.700    89114710.960 8      1070.319          49.250    21463957.300    89114709.960 8      1070.319          49.312
G14  23160584.860   121709697.844 7      4839.710          44.312    23160583.600   121709697.862 5      4839.710          31.687    23160592.440    94838749.953 5      3771.202          31.625    23160593.080    94838754.939 7      3771.202          46.437
R07  21075004.980   112816154.921 7      1941.098          46.562    21075004.760   112816154.942 7      1941.098          45.250    21075019.440    87745955.216 8      1509.743          49.562    21075019.180    87745957.221 8      1509.743          49.187
G08  20990854.140   110307680.268 8      1448.175          49.000    20990852.680   110307680.270 8      1448.175          48.687    20990862.040    85954066.340 8      1128.448          49.125    20990863.260    85954074.341 8      1128.448          50.500
> 2024 05 09 14 45 35.0000000  0 13
G02  21542722.060   113207768.292 7      2151.109          47.937    21542720.540   113207768.299 6      2151.109          40.125    21542724.360    88213857.231 6      1676.189          40.312
R08  20917911.220   112014465.468 7      5306.475          46.812    20917913.140   112014465.518 7      5306.475          46.312    20917929.980    87122445.064 8      4127.258          49.500    20917929.240    87122447.061 8      4127.258          49.875
G03  21192057.720   111365017.362 7      4998.845          47.875    21192056.420   111365017.364 6      4998.845          40.437    21192068.540    86777981.890 6      3895.204          39.875    21192069.340    86777984.892 8      3895.204          50.750
G27  23305309.680   122470219.925 7        -9.383          43.250    23305308.440   122470219.930 7        -9.383          42.562    23305325.760    95431399.104 7        -7.311          42.125    23305326.000    95431402.089 7        -7.311          45.937
R12  21954527.460   117277139.829 7     -1093.062          47.562    21954527.420   117277139.836 7     -1093.062          47.312    21954548.240    91215637.136 7      -850.159          46.000    21954548.940    91215638.138 7      -850.159          46.750
G21  21478659.260   112871111.546 7      1245.408          47.937    21478656.840   112871111.551 6      1245.408          38.687    21478662.500    87951526.113 6       970.448          39.000
R23  21158340.720   113182856.980 7      3242.125          44.750    21158340.880   113182856.987 7      3242.125          43.625
G16  25514105.060   134077531.703 6     -1173.860          38.250    25514103.480   134077531.708 3     -1173.860          21.687    25514123.220   104476069.875 3      -914.696          21.500
G32  24950223.860   131114310.122 7      2039.117          42.875    24950222.920   131114310.124 6      2039.117          38.750    24950236.900   102167048.243 6      1588.922          38.625    24950237.680   102167054.267 7      1588.922          42.937
R22  21463689.120   114574629.787 7      1376.363          46.750    21463689.000   114574629.780 7      1376.363          46.250    21463698.760    89113640.522 8      1070.505          48.750    21463699.280    89113639.523 8      1070.505          48.562
G14  23159663.980   121704858.288 7      4839.563          44.937    23159662.800   121704858.303 5      4839.563          31.687    23159671.680    94834978.868 5      3771.088          31.625    23159672.240    94834983.860 7      3771.088          46.312
R07  21074642.320   112814214.171 7      1940.473          46.937    21074642.440   112814214.196 7      1940.473          45.750    21074657.000    87744445.748 8      1509.257          49.312    21074656.660    87744447.755 8      1509.257          49.000
G08  20990578.400   110306232.145 8      1448.066          48.312    20990577.120   110306232.156 8      1448.066          48.500    20990586.440    85952937.939 8      1128.363          48.250    20990587.940    85952945.938 8      1128.363          50.125
> 2024 05 09 14 45 36.0000000  0 13
G02  21542312.960   113205617.595 7      2150.459          47.875    21542311.300   113205617.600 6      2150.459          40.250    21542315.160    88212181.364 6      1675.682          40.125
R08  20916920.380   112009159.718 7      5305.291          47.750    20916922.360   112009159.768 7      5305.291          46.125    20916939.180    87118318.377 8      4126.337          50.437    20916938.480    87118320.374 8      4126.337          50.125
G03  21191106.640   111360019.108 7      4997.797          47.625    21191105.320   111360019.110 6      4997.797          40.250    21191117.320    86774087.154 6      3894.387          39.875    21191117.980    86774090.151 8      3894.387          51.312
G27  23305311.600   122470229.844 7       -10.296          43.562    23305310.240   122470229.849 7       -10.296          42.125    23305327.760    95431406.814 7        -8.023          42.250    23305327.660    95431409.804 7        -8.023          46.312
R12  21954732.140   117278233.372 7     -1093.958          47.437    21954731.980   117278233.381 7     -1093.958          46.562    21954753.180    91216487.653 7      -850.856          46.500    21954753.840    91216488.661 7      -850.856          46.750
G21  21478422.420   112869866.489 7      1244.803          47.562    21478419.920   112869866.497 6      1244.803          39.187    21478425.540    87950555.936 6       969.976          39.000
R23  21157734.200   113179615.291 7      3241.408          44.750    21157734.680   113179615.298 7      3241.408          44.000
G16  25514328.140   134078705.862 6     -1174.449          38.250    25514326.900   134078705.864 3     -1174.449          21.687    25514346.480   104476984.796 3      -915.155          21.500
G32  24949836.120   131112271.638 7      2037.959          43.125    24949834.800   131112271.648 6      2037.959          38.875    24949849.120   102165459.825 6      1588.020          38.750    24949850.320   102165465.845 7      1588.020          43.312
R22  21463431.140   114573253.802 7      1375.738          46.875    21463431.140   114573253.795 7      1375.738          46.875    21463441.080    89112570.307 8      1070.019          48.687    21463441.260    89112569.309 8      1070.019          48.812
G14  23158743.260   121700019.422 7      4838.425          44.812    23158742.160   121700019.438 5      4838.425          31.812    23158750.740    94831208.321 5      3770.201          31.750    23158751.220    94831213.319 7      3770.201          46.500
R07  21074280.080   112812274.485 7      1939.099          45.937    21074279.960   112812274.508 7      1939.099          46.000    21074294.620    87742937.102 8      1508.188          49.562    21074294.700    87742939.109 8      1508.188          49.625
G08  20990303.020   110304784.635 8      1447.125          48.437    20990301.760   110304784.640 8      1447.125          49.375    20990310.940    85951810.001 8      1127.630          49.437    20990312.540    85951818.002 8      1127.630          50.250
> 2024 05 09 14 45 37.0000000  0 13
G02  21541903.520   113203466.858 8      2150.685          48.187    21541902.020   113203466.863 6      2150.685          40.250    21541905.860    88210505.467 6      1675.859          40.125
R08  20915929.540   112003854.406 7      5304.925          47.937    20915931.460   112003854.451 7      5304.925          46.437    20915948.600    87114192.034 8      4126.053          49.937    20915947.700    87114194.029 8      4126.053          50.250
G03  21190155.380   111355021.217 7      4997.547          47.750    21190154.280   111355021.217 6      4997.547          40.562    21190166.200    86770192.697 6      3894.192          40.562    21190167.180    86770195.697 8      3894.192          50.875
G27  23305313.560   122470239.863 7       -10.167          43.000    23305312.240   122470239.860 7       -10.167          42.312    23305329.620    95431414.603 7        -7.922          42.000    23305329.640    95431417.592 7        -7.922          46.250
R12  21954936.900   117279327.040 7     -1093.848          47.187    21954936.900   117279327.041 7     -1093.848          46.812    21954957.840    91217338.267 7      -850.771          45.875    21954958.620    91217339.275 7      -850.771          46.500
G21  21478185.400   112868621.359 7      1245.038          47.187    21478183.000   112868621.366 6      1245.038          39.062    21478188.620    87949585.711 6       970.159          39.375
R23  21157128.060   113176373.501 7      3241.697          44.875    21157128.660   113176373.497 7      3241.697          43.875
G16  25514551.980   134079879.824 6     -1174.067          38.125    25514550.260   134079879.823 3     -1174.067          21.312    25514569.920   104477899.567 3      -914.857          21.187
G32  24949447.980   131110233.536 7      2037.678          42.312    24949447.040   131110233.543 6      2037.678          39.062    24949461.280   102163871.697 6      1587.801          38.937    24949462.580   102163877.705 7      1587.801          43.937
R22  21463173.380   114571877.709 7      1376.058          46.562    21463173.500   114571877.710 7      1376.058          46.500    21463183.160    89111500.031 8      1070.267          49.062    21463183.520    89111499.030 8      1070.267          48.437
G14  23157822.340   121695180.877 7      4838.236          43.687    23157821.500   121695180.893 5      4838.236          31.812    23157829.880    94827438.025 5      3770.054          31.750    23157830.440    94827443.027 7      3770.054          46.125
R07  21073917.960   112810335.550 7      1938.434          46.937    21073918.080   112810335.570 7      1938.434          45.812    21073932.540    87741429.042 8      1507.671          50.125    21073932.260    87741431.047 8      1507.671          50.062
G08  20990027.620   110303337.364 8      1447.043          48.687    20990026.320   110303337.364 8      1447.043          48.875    20990035.600    85950682.251 8      1127.566          49.062    20990037.180    85950690.255 8      1127.566          50.812
> 2024 05 09 14 45 38.0000000  0 13
G02  21541494.100   113201316.330 7      2150.590          47.500    21541492.820   113201316.335 6      2150.590          40.312    21541496.660    88208829.731 6      1675.785          40.312
R08  20914938.960   111998549.775 7      5304.323          47.500    20914940.900   111998549.817 7      5304.323          46.187    20914957.980    87110066.220 8      4125.584          50.062    20914956.960    87110068.217 8      4125.584          50.312
G03  21189204.360   111350023.902 7      4997.121          47.250    21189203.280   111350023.902 6      4997.121          40.375    21189215.300    86766298.691 6      3893.860          40.250    21189216.340    86766301.689 8      3893.860          51.312
G27  23305315.620   122470250.231 7       -10.431          43.687    23305314.200   122470250.239 7       -10.431          42.437    23305331.700    95431422.676 7        -8.128          42.000    23305331.700    95431425.667 7        -8.128          46.312
R12  21955142.000   117280421.091 7     -1094.187          46.312    21955141.620   117280421.097 7     -1094.187          47.125    21955162.540    91218189.183 7      -851.034          45.750    21955163.620    91218190.193 7      -851.034          46.562
G21  21477948.540   112867376.409 7      1244.903          47.375    21477946.100   112867376.419 6      1244.903          38.937    21477951.640    87948615.616 6       970.055          39.187
R23  21156521.860   113173131.801 7      3241.774          44.875    21156522.040   113173131.816 7      3241.774          43.875
G16  25514775.340   134081053.796 6     -1173.909          38.937    25514773.600   134081053.798 3     -1173.909          21.312    25514793.440   104478814.347 3      -914.735          21.187
G32  24949060.200   131108196.001 7      2037.303          42.500    24949059.320   131108196.011 6      2037.303          38.875    24949073.700   102162284.010 6      1587.509          39.062    24949075.040   102162290.019 7      1587.509          43.937
R22  21462915.440   114570501.779 7      1375.931          46.937    21462915.620   114570501.786 7      1375.931          46.875    21462925.560    89110429.872 8      1070.168          48.687    21462925.760    89110428.870 8      1070.168          48.437
G14  23156901.400   121690342.876 7      4837.859          44.062    23156900.820   121690342.892 5      4837.859          31.812    23156909.000    94823668.154 5      3769.760          31.750    23156909.500    94823673.158 7      3769.760          45.750
R07  21073556.080   112808397.580 7      1937.544          47.312    21073556.200   112808397.606 7      1937.544          46.187    21073570.620    87739921.739 8      1506.978          49.500    21073570.340    87739923.744 8      1506.978          50.187
G08  20989752.400   110301890.585 8      1446.587          48.500    20989751.020   110301890.590 8      1446.587          49.125    20989760.240    85949554.892 8      1127.211          49.000    20989761.860    85949562.892 8      1127.211          50.750
> 2024 05 09 14 45 39.0000000  0 13
G02  21541084.860   113199165.798 7      2150.499          47.250    21541083.420   113199165.806 6      2150.499          40.000    21541087.460    88207153.992 6      1675.713          39.812
R08  20913948.900   111993245.588 7      5303.953          47.750    20913950.380   111993245.630 7      5303.953          45.562    20913967.480    87105940.752 8      4125.297          50.312    20913966.520    87105942.747 8      4125.297          50.437
G03  21188253.400   111345026.962 7      4996.736          46.875    21188252.380   111345026.962 6      4996.736          40.125    21188264.520    86762404.980 6      3893.560          40.250    21188265.220    86762407.976 8      3893.560          50.875
G27  23305317.540   122470260.767 7       -10.607          42.812    23305316.140   122470260.770 7       -10.607          42.125    23305333.680    95431430.865 6        -8.265          41.937    23305333.660    95431433.853 7        -8.265          46.375
R12  21955346.560   117281515.322 7     -1094.346          46.375    21955346.200   117281515.318 7     -1094.346          46.437    21955367.740    91219040.231 7      -851.158          45.687    21955368.280    91219041.241 7      -851.158          46.250
G21  21477711.540   112866131.397 7      1244.992          47.562    21477709.140   112866131.409 6      1244.992          39.437    21477714.680    87947645.481 6       970.124          39.625
R23  21155915.840   113169890.070 7      3241.702          44.500    21155916.200   113169890.079 7      3241.702          43.500
G16  25514998.540   134082227.626 6     -1173.658          38.125    25514997.020   134082227.631 3     -1173.658          21.312    25515016.840   104479729.012 3      -914.539          21.187
G32  24948672.780   131106158.868 6      2036.948          41.937    24948671.560   131106158.881 6      2036.948          38.812    24948686.000   102160696.638 6      1587.232          38.437    24948687.800   102160702.647 7      1587.232          43.937
R22  21462657.620   114569125.764 7      1376.076          46.500    21462657.980   114569125.768 7      1376.076          46.375    21462667.620    89109359.632 8      1070.282          48.812    21462667.680    89109358.634 8      1070.282          48.062
G14  23155980.880   121685505.232 7      4837.584          43.375    23155979.920   121685505.250 5      4837.584          32.062    23155988.280    94819898.563 5      3769.546          31.937    23155988.720    94819903.561 7      3769.546          45.812
R07  21073194.080   112806460.344 7      1936.891          45.312    21073194.160   112806460.372 7      1936.891          45.250    21073208.660    87738415.000 8      1506.471          49.937    21073208.300    87738417.003 8      1506.471          49.875
G08  20989477.260   110300444.065 7      1446.379          47.750    20989475.740   110300444.068 7      1446.379          47.937    20989484.980    85948427.730 8      1127.049          49.000    20989486.540    85948435.730 8      1127.049          50.875
> 2024 05 09 14 45 40.0000000  0 13
G02  21540675.720   113197015.372 7      2150.458          47.562    21540674.240   113197015.377 6      2150.458          40.000    21540678.140    88205478.335 6      1675.682          39.687
R08  20912958.140   111987942.006 8      5303.318          48.250    20912959.900   111987942.048 7      5303.318          47.187    20912977.000    87101815.758 8      4124.803          49.687    20912976.100    87101817.757 8      4124.803          50.187
G03  21187302.580   111340030.543 8      4996.173          48.000    21187301.740   111340030.540 6      4996.173          40.500    21187313.680    86758511.673 6      3893.122          40.500    21187314.520    86758514.670 8      3893.122          51.125
G27  23305319.740   122470271.559 7       -10.843          42.875    23305318.180   122470271.561 7       -10.843          42.187    23305335.720    95431439.260 6        -8.449          41.937    23305335.920    95431442.249 7        -8.449          46.062
R12  21955551.380   117282609.837 7     -1094.600          46.312    21955551.100   117282609.839 7     -1094.600          47.562    21955572.580    91219891.508 7      -851.356          45.562    21955573.260    91219892.525 7      -851.356          46.375
G21  21477474.820   112864886.481 7      1244.905          47.562    21477472.140   112864886.489 6      1244.905          39.125    21477477.820    87946675.409 6       970.056          39.437
R23  21155309.820   113166648.357 7      3241.768          44.125    21155310.580   113166648.364 7      3241.768          43.562
G16  25515222.460   134083401.407 6     -1173.557          38.125    25515220.440   134083401.414 3     -1173.557          21.312    25515240.060   104480643.640 3      -914.460          21.187
G32  24948285.200   131104122.284 6      2036.406          41.937    24948283.940   131104122.289 6      2036.406          39.437    24948298.540   102159109.683 6      1586.810          38.875    24948299.860   102159115.693 7      1586.810          43.812
R22  21462399.740   114567749.829 7      1375.978          46.937    21462400.160   114567749.833 7      1375.978          47.000    21462409.740    89108289.460 8      1070.205          48.625    21462410.140    89108288.465 8      1070.205          48.250
G14  23155060.400   121680668.112 7      4836.882          43.562    23155059.300   121680668.130 5      4836.882          32.062    23155067.620    94816129.376 5      3768.999          31.937    23155067.940    94816134.364 7      3768.999          45.500
R07  21072832.420   112804524.018 7      1935.952          46.875    21072832.360   112804524.038 7      1935.952          45.625    21072847.040    87736908.962 8      1505.740          49.687    21072846.580    87736910.967 8      1505.740          49.500
G08  20989201.760   110298997.951 8      1445.949          48.937    20989200.500   110298997.955 8      1445.949          48.875    20989209.840    85947300.885 8      1126.713          48.750    20989211.380    85947308.887 8      1126.713          50.250
> 2024 05 09 14 45 41.0000000  0 13
G02  21540266.380   113194864.954 7      2150.352          47.687    21540265.000   113194864.961 6      2150.352          39.937    21540268.860    88203802.685 6      1675.599          39.875
R08  20911967.720   111982638.893 7      5302.824          46.812    20911969.580   111982638.935 7      5302.824          45.875    20911986.640    87097691.125 8      4124.419          49.687    20911986.080    87097693.124 8      4124.419          49.750
G03  21186351.680   111335034.491 7      4995.828          47.750    21186350.980   111335034.494 6      4995.828          40.000    21186363.060    86754618.658 6      3892.853          40.437    21186363.760    86754621.653 8      3892.853          50.937
G27  23305321.840   122470282.513 7       -11.128          42.437    23305320.320   122470282.520 7       -11.128          42.625    23305337.960    95431447.781 7        -8.671          42.312    23305338.120    95431450.774 7        -8.671          46.250
R12  21955756.000   117283704.505 7     -1094.770          45.062    21955755.760   117283704.511 7     -1094.770          46.312    21955777.560    91220742.903 7      -851.488          46.000    21955777.980    91220743.922 7      -851.488          46.375
G21  21477237.820   112863641.500 7      1244.902          47.062    21477235.380   112863641.510 6      1244.902          39.000    21477240.940    87945705.296 6       970.054          39.312
R23  21154703.700   113163406.580 7      3241.834          43.625    21154705.120   113163406.579 7      3241.834          43.750
G16  25515445.960   134084575.035 6     -1173.698          37.875    25515443.820   134084575.048 3     -1173.698          21.312    25515463.320   104481558.151 3      -914.570          21.187
G32  24947897.760   131102086.074 6      2035.967          41.875    24947896.440   131102086.076 6      2035.967          38.687    24947910.980   102157523.026 6      1586.468          38.812    24947912.520   102157529.039 7      1586.468          44.125
R22  21462142.160   114566373.838 7      1375.928          46.125    21462142.340   114566373.836 7      1375.928          46.500    21462152.040    89107219.239 8      1070.166          48.562    21462152.100    89107218.243 7      1070.166          47.937
G14  23154140.340   121675831.303 7      4836.568          42.750    23154138.760   121675831.321 5      4836.568          32.062    23154147.080    94812360.435 5      3768.754          31.937    23154147.860    94812365.414 7      3768.754          45.375
R07  21072470.980   112802588.422 7      1935.145          46.625    21072471.080   112802588.451 7      1935.145          45.500    21072485.380    87735403.505 8      1505.113          49.187    21072485.160    87735405.504 8      1505.113          50.062
G08  20988926.860   110297552.112 7      1445.670          47.437    20988925.440   110297552.114 7      1445.670          47.812    20988934.780    85946174.252 8      1126.496          49.000    20988936.140    85946182.253 8      1126.496          50.375
> 2024 05 09 14 45 42.0000000  0 13
G02  21539857.340   113192714.496 7      2150.372          47.500    21539855.780   113192714.509 6      2150.372          40.000    21539859.660    88202127.003 6      1675.614          40.312
R08  20910977.500   111977336.256 8      5302.230          48.125    20910979.340   111977336.298 7      5302.230          46.625    20910996.200    87093566.862 8      4123.956          49.875    20910995.560    87093568.860 8      4123.956          50.187
G03  21185401.100   111330038.800 8      4995.427          48.437    21185400.180   111330038.802 6      4995.427          40.000    21185412.420    86750725.917 6      3892.541          39.937    21185413.320    86750728.913 8      3892.541          51.187
G27  23305323.960   122470293.577 7       -11.253          43.187    23305322.380   122470293.579 7       -11.253          42.687    23305340.120    95431456.386 7        -8.769          42.562    23305340.140    95431459.382 7        -8.769          45.875
R12  21955961.020   117284799.327 7     -1094.971          46.062    21955960.860   117284799.328 7     -1094.971          47.000    21955982.780    91221594.411 7      -851.644          45.687    21955982.920    91221595.428 7      -851.644          46.187
G21  21477001.020   112862396.459 7      1244.971          47.187    21476998.500   112862396.466 6      1244.971          38.875    21477004.020    87944735.131 6       970.107          39.125
R23  21154097.540   113160164.680 7      3241.905          45.250    21154098.880   113160164.695 7      3241.905          43.750
G16  25515668.900   134085748.403 6     -1173.227          38.437    25515667.080   134085748.416 3     -1173.227          21.312    25515686.640   104482472.462 3      -914.203          21.187
G32  24947510.340   131100050.241 7      2035.482          42.062    24947509.100   131100050.241 6      2035.482          38.812    24947523.620   102155936.661 6      1586.090          38.750    24947525.160   102155942.668 7      1586.090          44.000
R22  21461884.220   114564997.738 7      1376.008          46.875    21461884.380   114564997.739 7      1376.008          46.812    21461894.160    89106148.936 8      1070.228          48.500    21461894.600    89106147.945 8      1070.228          48.062
G14  23153219.800   121670994.850 7      4836.183          43.000    23153218.280   121670994.863 5      4836.183          31.375    23153226.800    94808591.771 5      3768.455          31.375    23153227.600    94808596.745 7      3768.455          45.687
R07  21072109.640   112800653.565 7      1934.450          47.062    21072109.460   112800653.588 7      1934.450          45.562    21072123.880    87733898.612 8      1504.572          50.000    21072123.480    87733900.611 8      1504.572          50.062
G08  20988651.600   110296106.522 8      1445.305          48.500    20988650.280   110296106.527 8      1445.305          49.500    20988659.680    85945047.818 8      1126.212          49.312    20988661.200    85945055.818 8      1126.212          50.562
> 2024 05 09 14 45 43.0000000  0 13
G02  21539448.200   113190564.285 7      2150.122          47.125    21539446.600   113190564.296 6      2150.122          40.250    21539450.460    88200451.512 6      1675.420          40.125
R08  20909987.140   111972034.342 7      5301.523          47.250    20909989.000   111972034.390 7      5301.523          46.250    20910006.100    87089443.170 8      4123.407          49.750    20910005.700    87089445.170 8      4123.407          50.125
G03  21184450.700   111325043.760 8      4994.723          48.125    21184449.680   111325043.762 6      4994.723          40.937    21184461.980    86746833.682 6      3891.992          40.375    21184462.700    86746836.680 8      3891.992          51.437
G27  23305326.220   122470305.044 7       -11.656          44.000    23305324.620   122470305.051 7       -11.656          42.625    23305342.400    95431465.309 7        -9.083          42.250    23305342.820    95431468.304 7        -9.083          46.375
R12  21956166.060   117285894.600 7     -1095.467          46.687    21956165.780   117285894.599 7     -1095.467          46.687    21956187.820    91222446.272 7      -852.030          46.437    21956187.820    91222447.288 7      -852.030          46.062
G21  21476764.180   112861151.615 7      1244.804          47.625    21476761.540   112861151.619 6      1244.804          38.687    21476767.140    87943765.119 6       969.977          39.000
R23  21153491.300   113156922.983 7      3241.655          45.062    21153492.860   113156923.001 7      3241.655          44.437
G16  25515892.400   134086921.897 6     -1173.477          38.187    25515890.380   134086921.907 3     -1173.477          21.312    25515910.060   104483386.864 3      -914.397          21.187
G32  24947122.860   131098015.032 7      2034.936          42.375    24947121.780   131098015.032 6      2034.936          38.937    24947136.320   102154350.783 6      1585.664          38.687    24947137.800   102154356.784 7      1585.664          43.625
R22  21461626.860   114563621.829 7      1375.852          46.687    21461626.840   114563621.830 7      1375.852          46.875    21461636.400    89105078.783 8      1070.107          48.625    21461636.900    89105077.788 8      1070.107          48.000
G14  23152299.540   121666158.969 7      4835.692          42.937    23152298.060   121666158.979 5      4835.692          31.375    23152306.360    94804823.551 5      3768.071          31.375    23152307.400    94804828.536 7      3768.071          45.687
R07  21071748.420   112798719.736 7      1933.310          46.687    21071748.380   112798719.757 7      1933.310          46.312    21071762.600    87732394.523 8      1503.686          49.812    21071762.440    87732396.524 8      1503.686          49.812
G08  20988376.640   110294661.443 8      1444.812          48.125    20988375.420   110294661.450 8      1444.812          49.312    20988384.600    85943921.780 8      1125.828          49.062    20988386.240    85943929.782 8      1125.828          50.687
> 2024 05 09 14 45 44.0000000  0 13
G02  21539039.120   113188414.203 7      2150.139          46.937    21539037.480   113188414.208 6      2150.139          40.000    21539041.340    88198776.120 6      1675.433          39.875
R08  20908997.300   111966733.052 7      5301.079          47.312    20908999.120   111966733.094 7      5301.079          46.375    20909015.980    87085319.953 8      4123.061          50.125    20909015.580    87085321.950 8      4123.061          50.250
G03  21183500.080   111320049.232 7      4994.279          47.250    21183499.280   111320049.237 6      4994.279          40.500    21183511.620    86742941.851 6      3891.646          40.187    21183512.200    86742944.849 8      3891.646          51.500
G27  23305328.580   122470316.765 7       -11.573          43.062    23305326.780   122470316.767 7       -11.573          42.500    23305344.560    95431474.426 6        -9.018          41.812    23305345.140    95431477.422 7        -9.018          46.187
R12  21956371.220   117286990.184 7     -1095.643          46.500    21956370.900   117286990.182 7     -1095.643          46.562    21956393.000    91223298.378 7      -852.167          45.875    21956393.160    91223299.394 7      -852.167          46.500
G21  21476527.240   112859906.860 7      1244.818          47.562    21476524.720   112859906.867 6      1244.818          38.875    21476530.420    87942795.180 6       969.988          39.062
R23  21152885.980   113153681.335 7      3241.773          45.500    21152886.900   113153681.355 7      3241.773          43.375
G16  25516115.920   134088095.320 6     -1173.331          38.187    25516113.760   134088095.335 3     -1173.331          21.312    25516133.360   104484301.220 3      -914.284          21.187
G32  24946735.680   131095980.353 7      2034.578          42.062    24946734.620   131095980.358 6      2034.578          38.875    24946749.240   102152765.321 6      1585.386          38.625    24946750.540   102152771.335 7      1585.386          43.625
R22  21461368.940   114562245.998 7      1375.916          46.562    21461369.260   114562246.002 7      1375.916          47.000    21461378.660    89104008.693 8      1070.157          48.187    21461379.240    89104007.695 8      1070.157          48.062
G14  23151379.560   121661323.614 7      4835.182          43.562    23151377.940   121661323.624 5      4835.182          31.875    23151386.420    94801055.744 5      3767.675          31.375    23151387.220    94801060.725 7      3767.675          45.625
R07  21071387.280   112796786.793 7      1932.498          46.937    21071387.120   112796786.824 7      1932.498          45.875    21071401.500    87730891.131 8      1503.054          50.125    21071401.340    87730893.130 8      1503.054          49.312
G08  20988101.820   110293216.773 8      1444.595          48.000    20988100.420   110293216.781 8      1444.595          49.000    20988109.720    85942796.062 8      1125.658          49.062    20988111.020    85942804.061 8      1125.658          50.375
> 2024 05 09 14 45 45.0000000  0 13
G02  21538630.140   113186264.166 7      2150.012          47.312    21538628.340   113186264.171 6      2150.012          40.375    21538632.220    88197100.770 6      1675.334          40.250
R08  20908007.460   111961432.287 7      5300.529          46.562    20908009.460   111961432.324 7      5300.529          45.875    20908026.080    87081197.142 8      4122.634          50.000    20908025.560    87081199.141 8      4122.634          50.062
G03  21182549.800   111315055.128 8      4993.861          48.312    21182549.000   111315055.125 6      4993.861          41.187    21182561.280    86739050.345 6      3891.320          40.812    21182562.000    86739053.341 8      3891.320          51.312
G27  23305330.820   122470328.723 7       -11.917          43.312    23305329.040   122470328.730 7       -11.917          42.437    23305346.840    95431483.725 7        -9.286          42.062    23305347.280    95431486.719 7        -9.286          46.375
R12  21956576.160   117288085.994 7     -1095.924          45.375    21956575.900   117288086.003 7     -1095.924          46.250    21956598.320    91224150.666 7      -852.385          46.437    21956598.320    91224151.679 7      -852.385          46.437
G21  21476290.140   112858662.123 7      1244.765          46.875    21476287.820   112858662.128 6      1244.765          39.187    21476293.420    87941825.251 6       969.947          39.125
R23  21152279.960   113150439.702 7      3241.620          45.000    21152280.620   113150439.725 7      3241.620          43.687
G16  25516338.640   134089268.667 6     -1173.392          38.000    25516337.120   134089268.682 3     -1173.392          21.312    25516356.820   104485215.508 3      -914.331          21.187
G32  24946348.520   131093946.139 6      2034.071          41.937    24946347.660   131093946.147 6      2034.071          38.562    24946362.140   102151180.224 6      1584.991          38.500    24946363.300   102151186.231 7      1584.991          43.812
R22  21461111.520   114560870.178 7      1375.803          47.875    21461111.420   114560870.174 7      1375.803          45.937    21461121.240    89102938.600 8      1070.069          48.750    21461121.540    89102937.600 8      1070.069          48.625
G14  23150459.560   121656488.653 7      4834.689          43.875    23150457.940   121656488.666 5      4834.689          31.875    23150466.380    94797288.241 5      3767.290          31.937    23150467.360    94797293.231 7      3767.290          46.375
R07  21071026.380   112794854.648 7      1931.794          47.000    21071026.320   112794854.679 7      1931.794          45.250    21071040.600    87729388.351 8      1502.506          49.750    21071040.440    87729390.354 8      1502.506          49.500
G08  20987826.920   110291772.442 7      1444.148          47.937    20987825.620   110291772.450 8      1444.148          49.250    20987834.960    85941670.605 8      1125.310          49.062    20987836.360    85941678.606 8      1125.310          50.625
> 2024 05 09 14 45 46.0000000  0 13
G02  21538221.020   113184114.260 7      2149.863          47.750    21538219.140   113184114.268 6      2149.863          39.937    21538223.240    88195425.521 6      1675.218          39.812
R08  20907017.580   111956132.111 7      5299.976          47.375    20907019.580   111956132.150 7      5299.976          46.687    20907036.280    87077074.798 8      4122.204          50.250    20907035.960    87077076.797 8      4122.204          50.250
G03  21181599.720   111310061.541 8      4993.288          48.000    21181598.680   111310061.543 6      4993.288          40.937    21181611.040    86735159.244 6      3890.874          40.312    21181611.640    86735162.246 8      3890.874          51.437
G27  23305333.100   122470340.954 7       -12.159          43.500    23305331.360   122470340.956 7       -12.159          42.812    23305349.220    95431493.236 7        -9.474          42.062    23305349.340    95431496.229 7        -9.474          46.312
R12  21956781.560   117289182.088 7     -1096.209          46.625    21956781.420   117289182.094 7     -1096.209          46.250    21956803.500    91225003.165 7      -852.607          46.312    21956803.720    91225004.173 7      -852.607          46.562
G21  21476053.480   112857417.471 7      1244.649          46.812    21476050.940   112857417.475 6      1244.649          39.125    21476056.520    87940855.392 6       969.856          39.437
R23  21151673.760   113147198.123 7      3241.671          45.812    21151674.640   113147198.133 7      3241.671          44.437
G16  25516561.880   134090441.901 6     -1173.150          38.687    25516560.440   134090441.919 3     -1173.150          21.125    25516579.980   104486129.710 3      -914.143          21.000
G32  24945961.340   131091912.462 6      2033.433          41.937    24945960.680   131091912.469 6      2033.433          38.812    24945975.160   102149595.540 6      1584.493          38.687    24945976.300   102149601.543 7      1584.493          43.937
R22  21460854.000   114559494.403 7      1375.769          46.875    21460853.680   114559494.407 7      1375.769          47.000    21460863.380    89101868.553 8      1070.042          48.437    21460864.040    89101867.549 8      1070.042          48.687
G14  23149539.440   121651654.186 7      4834.184          43.312    23149537.940   121651654.198 5      4834.184          31.875    23149546.580    94793521.128 5      3766.897          31.937    23149547.200    94793526.114 7      3766.897          46.562
R07  21070665.300   112792923.407 8      1930.756          48.375    21070665.620   112792923.441 7      1930.756          46.562    21070679.900    87727886.280 8      1501.699          49.625    21070679.880    87727888.282 8      1501.699          50.187
G08  20987552.140   110290328.516 8      1443.779          48.187    20987550.840   110290328.524 8      1443.779          49.187    20987560.200    85940545.464 8      1125.023          48.750    20987561.500    85940553.465 8      1125.023          51.125
> 2024 05 09 14 45 47.0000000  0 13
G02  21537811.780   113181964.352 7      2149.943          47.687    21537810.000   113181964.356 6      2149.943          40.250    21537814.020    88193750.263 6      1675.280          39.750
R08  20906027.840   111950832.404 7      5299.544          46.812    20906029.660   111950832.451 7      5299.544          46.875    20906046.520    87072952.817 8      4121.868          49.875    20906045.880    87072954.821 8      4121.868          50.062
G03  21180649.760   111305068.335 7      4993.073          47.625    21180648.600   111305068.337 6      4993.073          40.062    21180660.840    86731268.445 6      3890.706          39.812    21180661.640    86731271.440 8      3890.706          51.312
G27  23305335.180   122470353.345 7       -12.483          42.750    23305333.680   122470353.355 7       -12.483          42.062    23305351.680    95431502.883 6        -9.727          41.562    23305352.180    95431505.877 7        -9.727          46.625
R12  21956987.040   117290278.344 7     -1096.330          46.750    21956986.500   117290278.350 7     -1096.330          46.750    21957008.840    91225855.788 7      -852.701          46.187    21957009.180    91225856.796 7      -852.701          47.000
G21  21475816.540   112856172.765 7      1244.774          46.812    21475814.080   112856172.773 6      1244.774          39.187    21475819.700    87939885.492 6       969.954          39.000
R23  21151068.180   113143956.459 7      3241.781          45.375    21151068.420   113143956.473 7      3241.781          44.437
G16  25516785.660   134091615.006 6     -1172.851          38.375    25516783.640   134091615.024 3     -1172.851          21.125    25516803.240   104487043.810 3      -913.910          21.000
G32  24945574.440   131089879.160 7      2033.176          42.187    24945573.860   131089879.167 6      2033.176          38.625    24945588.240   102148011.147 6      1584.293          38.687    24945589.440   102148017.144 7      1584.293          43.875
R22  21460596.060   114558118.586 8      1375.865          48.000    21460595.880   114558118.581 7      1375.865          46.750    21460605.640    89100798.470 8      1070.117          48.250    21460606.360    89100797.475 8      1070.117          48.687
G14  23148619.520   121646820.073 7      4833.904          43.000    23148617.920   121646820.086 5      4833.904          32.312    23148626.760    94789754.285 5      3766.678          32.312    23148627.800    94789759.277 7      3766.678          46.687
R07  21070304.760   112790992.905 8      1930.161          48.000    21070305.060   112790992.939 7      1930.161          46.500    21070319.220    87726384.776 8      1501.237          50.125    21070319.100    87726386.781 8      1501.237          49.437
G08  20987277.520   110288884.866 7      1443.596          47.687    20987276.120   110288884.874 8      1443.596          48.937    20987285.440    85939420.537 8      1124.880          48.750    20987287.160    85939428.535 8      1124.880          50.812
> 2024 05 09 14 45 48.0000000  0 13
G02  21537402.680   113179814.567 8      2149.706          48.125    21537400.960   113179814.571 6      2149.706          40.250    21537404.960    88192075.108 6      1675.096          40.437
R08  20905038.000   111945533.331 7      5298.737          47.187    20905040.320   111945533.381 7      5298.737          46.437    20905056.960    87068831.329 8      4121.240          49.812    20905056.480    87068833.328 8      4121.240          49.812
G03  21179699.460   111300075.641 7      4992.469          47.250    21179698.520   111300075.641 6      4992.469          40.687    21179710.760    86727378.038 6      3890.236          40.250    21179711.400    86727381.040 8      3890.236          51.625
G27  23305337.580   122470366.013 7       -12.894          42.937    23305336.140   122470366.017 7       -12.894          42.187    23305354.220    95431512.733 7       -10.047          42.062    23305354.540    95431515.729 7       -10.047          46.375
R12  21957192.360   117291374.908 7     -1096.726          45.687    21957191.740   117291374.917 7     -1096.726          46.250    21957214.380    91226708.652 7      -853.009          46.500    21957214.080    91226709.658 7      -853.009          46.312
G21  21475579.560   112854928.163 7      1244.586          46.750    21475577.440   112854928.168 6      1244.586          39.875    21475582.880    87938915.670 6       969.807          39.625
R23  21150461.920   113140714.845 7      3241.653          44.500    21150461.980   113140714.854 7      3241.653          43.687
G16  25517009.120   134092788.054 6     -1172.941          38.375    25517007.040   134092788.069 3     -1172.941          21.125    25517026.340   104487957.867 3      -913.980          21.000
G32  24945188.260   131087846.404 7      2032.496          42.125    24945186.860   131087846.407 6      2032.496          39.250    24945201.440   102146427.179 6      1583.763          38.812    24945203.020   102146433.176 7      1583.763          44.187
R22  21460338.100   114556742.832 7      1375.655          47.750    21460338.300   114556742.838 7      1375.655          47.500    21460348.000    89099728.440 8      1069.954          48.187    21460348.700    89099727.444 8      1069.954          48.812
G14  23147699.780   121641986.418 7      4833.467          43.312    23147698.160   121641986.434 5      4833.467          32.312    23147707.000    94785987.801 5      3766.338          32.312    23147707.920    94785992.789 7      3766.338          46.562
R07  21069944.200   112789063.286 7      1929.191          47.562    21069944.940   112789063.325 7      1929.191          46.375    21069958.660    87724883.963 8      1500.482          50.375    21069958.300    87724885.966 8      1500.482          50.000
G08  20987002.940   110287441.613 8      1443.087          48.000    20987001.480   110287441.617 8      1443.087          48.812    20987010.860    85938295.918 8      1124.483          49.000    20987012.640    85938303.922 8      1124.483          50.625
> 2024 05 09 14 45 49.0000000  0 13
G02  21536993.600   113177664.858 7      2149.577          47.125    21536991.840   113177664.862 6      2149.577          39.937    21536995.780    88190400.006 6      1674.995          39.562
R08  20904048.140   111940234.815 7      5298.128          47.187    20904050.940   111940234.865 7      5298.128          46.250    20904067.440    87064710.273 8      4120.766          49.625    20904067.120    87064712.270 8      4120.766          49.625
G03  21178749.160   111295083.444 7      4991.820          46.812    21178748.480   111295083.444 6      4991.820          40.687    21178760.760    86723488.019 6      3889.730          40.312    21178761.480    86723491.019 8      3889.730          51.187
G27  23305340.220   122470378.895 7       -13.135          42.937    23305338.460   122470378.905 7       -13.135          42.187    23305356.560    95431522.759 6       -10.235          41.750    23305357.000    95431525.753 7       -10.235          46.812
R12  21957398.100   117292471.760 7     -1097.079          45.750    21957397.100   117292471.761 7     -1097.079          46.625    21957419.780    91227561.736 7      -853.284          46.500    21957419.840    91227562.742 7      -853.284          47.250
G21  21475342.660   112853683.602 7      1244.383          45.937    21475340.520   112853683.610 6      1244.383          39.375    21475346.120    87937945.880 6       969.649          39.562
R23  21149855.720   113137473.250 7      3241.465          45.375    21149855.680   113137473.270 7      3241.465          43.812
G16  25517232.300   134093961.062 6     -1173.073          38.562    25517230.360   134093961.074 3     -1173.073          21.125    25517249.720   104488871.895 3      -914.083          21.000
G32  24944801.260   131085814.114 7      2031.981          42.625    24944800.160   131085814.114 6      2031.981          38.625    24944814.760   102144843.578 6      1583.362          38.625    24944816.040   102144849.569 7      1583.362          44.000
R22  21460080.480   114555367.087 7      1375.673          47.312    21460080.460   114555367.085 7      1375.673          46.250    21460090.320    89098658.407 8      1069.968          48.062    21460090.780    89098657.407 8      1069.968          48.687
G14  23146779.860   121637153.257 7      4832.779          43.562    23146778.400   121637153.272 5      4832.779          32.687    23146787.380    94782221.705 5      3765.802          32.312    23146788.040    94782226.689 7      3765.802          46.500
R07  21069583.740   112787134.513 7      1928.298          47.625    21069584.720   112787134.547 7      1928.298          46.562    21069598.400    87723383.804 8      1499.788          49.812    21069598.180    87723385.805 8      1499.788          49.875
G08  20986728.360   110285998.740 8      1442.598          48.125    20986726.920   110285998.742 8      1442.598          49.250    20986736.260    85937171.598 8      1124.102          49.250    20986737.960    85937179.601 8      1124.102          50.687
> 2024 05 09 14 45 50.0000000  0 13
G02  21536584.580   113175515.272 7      2149.509          47.812    21536582.760   113175515.280 6      2149.509          40.125    21536586.780    88188725.009 6      1674.942          40.312
R08  20903058.880   111934936.904 7      5297.555          47.250    20903061.700   111934936.951 7      5297.555          46.000    20903077.940    87060589.686 8      4120.321          49.562    20903077.860    87060591.683 8      4120.321          49.812
G03  21177799.400   111290091.718 7      4991.442          46.875    21177798.580   111290091.720 6      4991.442          40.625    21177810.840    86719598.372 6      3889.435          40.437    21177811.620    86719601.376 8      3889.435          51.500
G27  23305342.700   122470392.078 7       -13.469          42.250    23305340.900   122470392.082 7       -13.469          42.312    23305359.180    95431533.013 7       -10.496          42.000    23305359.520    95431536.008 7       -10.496          46.437
R12  21957603.220   117293568.908 7     -1097.309          45.312    21957602.400   117293568.914 7     -1097.309          45.875    21957625.260    91228415.063 7      -853.462          46.250    21957625.220    91228416.065 7      -853.462          47.562
G21  21475106.000   112852439.105 7      1244.414          47.250    21475103.760   112852439.110 6      1244.414          39.437    21475109.200    87936976.140 6       969.674          39.750
R23  21149249.880   113134231.697 7      3241.524          44.750    21149250.000   113134231.710 7      3241.524          43.375
G16  25517455.240   134095133.991 6     -1173.019          38.687    25517453.600   134095134.009 3     -1173.019          21.125    25517472.900   104489785.858 3      -914.041          21.000
G32  24944414.800   131083782.328 7      2031.598          42.000    24944413.540   131083782.333 6      2031.598          38.312    24944428.020   102143260.373 6      1583.063          38.562    24944429.440   102143266.368 7      1583.063          43.937
R22  21459822.460   114553991.426 7      1375.573          46.062    21459822.720   114553991.435 7      1375.573          46.125    21459832.580    89097588.457 8      1069.890          48.312    21459832.740    89097587.458 8      1069.890          48.437
G14  23145860.380   121632320.553 7      4832.410          43.250    23145858.640   121632320.560 5      4832.410          32.687    23145867.740    94778455.960 5      3765.514          32.500    23145868.700    94778460.943 7      3765.514          46.750
R07  21069223.980   112785206.648 7      1927.402          47.562    21069224.820   112785206.679 7      1927.402          46.062    21069238.220    87721884.351 8      1499.091          49.750    21069237.940    87721886.354 8      1499.091          49.187
G08  20986453.740   110284556.257 8      1442.242          48.437    20986452.420   110284556.259 8      1442.242          48.562    20986461.780    85936047.583 8      1123.825          48.875    20986463.360    85936055.582 8      1123.825          51.125
> 2024 05 09 14 45 51.0000000  0 13
G02  21536175.480   113173365.850 7      2149.306          47.812    21536173.820   113173365.855 6      2149.306          40.187    21536177.880    88187050.130 6      1674.784          39.875
R08  20902069.540   111929639.633 7      5296.849          47.250    20902072.340   111929639.685 7      5296.849          46.375    20902088.780    87056469.599 8      4119.771          49.500    20902088.380    87056471.600 8      4119.771          49.875
G03  21176849.580   111285100.574 7      4990.784          47.750    21176848.680   111285100.574 6      4990.784          40.500    21176861.080    86715709.175 6      3888.922          40.250    21176862.000    86715712.177 8      3888.922          51.625
G27  23305345.000   122470405.567 7       -13.785          42.937    23305343.540   122470405.564 6       -13.785          41.875    23305361.780    95431543.502 6       -10.742          41.687    23305361.940    95431546.497 7       -10.742          46.000
R12  21957809.140   117294666.396 7     -1097.638          45.437    21957808.100   117294666.400 7     -1097.638          46.625    21957830.720    91229268.644 7      -853.718          46.687    21957830.960    91229269.644 7      -853.718          46.687
G21  21474869.280   112851194.747 7      1244.310          47.375    21474867.000   112851194.751 6      1244.310          39.187    21474872.480    87936006.510 6       969.592          39.500
R23  21148643.780   113130990.231 7      3241.359          44.562    21148644.120   113130990.246 7      3241.359          43.375
G16  25517678.280   134096306.909 6     -1172.965          38.812    25517676.820   134096306.925 3     -1172.965          21.125    25517696.220   104490699.814 3      -913.999          21.000
G32  24944028.320   131081751.125 6      2031.020          41.937    24944027.040   131081751.128 6      2031.020          39.000    24944041.640   102141677.615 6      1582.613          38.687    24944042.500   102141683.608 7      1582.613          43.937
R22  21459564.720   114552615.868 7      1375.497          47.062    21459564.900   114552615.869 7      1375.497          46.750    21459575.000    89096518.566 8      1069.831          48.125    21459575.120    89096517.566 8      1069.831          48.437
G14  23144941.020   121627488.377 7      4831.833          44.125    23144939.240   121627488.387 5      4831.833          32.687    23144948.400    94774690.628 5      3765.065          32.500    23144949.380    94774695.610 7      3765.065          47.000
R07  21068864.240   112783279.730 7      1926.401          47.937    21068864.580   112783279.755 7      1926.401          46.000    21068878.180    87720385.635 8      1498.312          49.812    21068877.900    87720387.632 8      1498.312          49.750
G08  20986179.260   110283114.212 8      1441.763          49.500    20986177.940   110283114.214 8      1441.763          48.812    20986187.340    85934923.907 8      1123.452          49.062    20986188.920    85934931.911 8      1123.452          50.500
> 2024 05 09 14 45 52.0000000  0 13
G02  21535766.480   113171216.451 7      2149.391          47.875    21535764.680   113171216.456 6      2149.391          39.687    21535768.840    88185375.274 6      1674.850          39.687
R08  20901080.580   111924342.876 7      5296.502          47.000    20901083.500   111924342.923 7      5296.502          46.250    20901099.560    87052349.910 8      4119.502          49.750    20901099.020    87052351.907 8      4119.502          49.437
G03  21175899.800   111280109.835 7      4990.503          47.875    21175899.080   111280109.830 6      4990.503          40.750    21175911.380    86711820.292 6      3888.704          40.750    21175912.280    86711823.298 8      3888.704          50.812
G27  23305347.720   122470419.204 7       -13.713          42.250    23305346.120   122470419.209 7       -13.713          42.250    23305364.180    95431554.118 6       -10.685          41.812    23305364.380    95431557.115 7       -10.685          46.187
R12  21958014.320   117295764.089 7     -1097.784          47.000    21958013.520   117295764.088 7     -1097.784          45.875    21958036.140    91230122.383 7      -853.832          46.500    21958036.260    91230123.387 7      -853.832          47.375
G21  21474632.420   112849950.383 7      1244.386          47.687    21474630.180   112849950.391 6      1244.386          39.312    21474635.780    87935036.876 6       969.652          39.625
R23  21148037.700   113127748.729 7      3241.618          44.187    21148038.260   113127748.731 7      3241.618          43.812
G16  25517901.480   134097479.699 6     -1172.713          38.812    25517900.040   134097479.717 3     -1172.713          21.125    25517919.600   104491613.672 3      -913.803          21.000
G32  24943641.540   131079720.383 6      2030.344          41.625    24943640.540   131079720.393 6      2030.344          39.500    24943655.140   102140095.223 6      1582.086          38.875    24943655.840   102140101.226 7      1582.086          43.750
R22  21459306.960   114551240.290 7      1375.627          45.812    21459307.240   114551240.294 7      1375.627          46.812    21459316.980    89095448.674 8      1069.932          48.000    21459317.380    89095447.671 8      1069.932          48.375
G14  23144021.680   121622656.585 7      4831.652          43.937    23144019.980   121622656.592 5      4831.652          32.750    23144028.940    94770925.597 5      3764.923          32.875    23144029.980    94770930.581 7      3764.923          47.250
R07  21068504.040   112781353.601 7      1925.752          47.687    21068504.700   112781353.632 7      1925.752          46.375    21068518.300    87718887.537 8      1497.807          49.750    21068518.060    87718889.538 8      1497.807          48.937
G08  20985904.960   110281672.485 8      1441.543          48.687    20985903.640   110281672.487 8      1441.543          48.625    20985913.080    85933800.480 8      1123.280          48.437    20985914.680    85933808.479 8      1123.280          50.812
> 2024 05 09 14 45 53.0000000  0 13
G02  21535357.360   113169067.152 7      2149.332          47.812    21535355.680   113169067.159 6      2149.332          40.000    21535359.840    88183700.499 6      1674.804          39.937
R08  20900091.600   111919046.681 7      5296.093          47.375    20900094.520   111919046.720 7      5296.093          46.875    20900110.620    87048230.649 8      4119.183          49.750    20900109.880    87048232.650 8      4119.183          49.687
G03  21174950.140   111275119.575 8      4990.155          48.125    21174949.580   111275119.575 6      4990.155          40.500    21174961.880    86707931.786 6      3888.433          40.062    21174962.700    86707934.790 8      3888.433          51.187
G27  23305350.460   122470433.130 7       -13.933          42.875    23305348.680   122470433.135 6       -13.933          41.687    23305367.040    95431564.950 6       -10.857          41.125    23305367.200    95431567.946 7       -10.857          46.187
R12  21958220.060   117296862.039 7     -1097.984          46.687    21958219.080   117296862.043 7     -1097.984          46.187    21958241.780    91230976.331 7      -853.987          46.812    21958242.040    91230977.335 7      -853.987          47.187
G21  21474395.640   112848706.083 8      1244.366          48.312    21474393.400   112848706.093 6      1244.366          39.062    21474398.940    87934067.291 6       969.636          39.562
R23  21147431.880   113124507.252 7      3241.567          44.187    21147432.240   113124507.275 7      3241.567          44.250
G16  25518124.680   134098652.410 6     -1172.592          38.187    25518123.140   134098652.428 3     -1172.592          21.125    25518142.760   104492527.463 3      -913.708          21.000
G32  24943255.280   131077690.081 7      2030.183          42.187    24943254.260   131077690.086 6      2030.183          39.000    24943268.840   102138513.167 6      1581.961          39.250    24943269.920   102138519.171 7      1581.961          43.750
R22  21459049.280   114549864.758 7      1375.603          46.437    21459049.380   114549864.759 7      1375.603          47.125    21459059.500    89094378.812 8      1069.913          48.437    21459059.500    89094377.806 8      1069.913          48.312
G14  23143102.100   121617825.276 7      4831.202          45.125    23143100.800   121617825.278 5      4831.202          32.750    23143109.760    94767160.939 5      3764.573          32.875    23143110.680    94767165.922 7      3764.573          47.125
R07  21068144.480   112779428.302 7      1925.000          47.687    21068145.640   112779428.333 7      1925.000          47.187    21068158.580    87717390.087 8      1497.222          49.375    21068158.420    87717392.083 8      1497.222          49.562
G08  20985630.540   110280231.136 8      1441.225          49.375    20985629.300   110280231.136 8      1441.225          49.562    20985638.720    85932677.347 8      1123.032          49.625    20985640.500    85932685.346 8      1123.032          50.812
> 2024 05 09 14 45 54.0000000  0 13
G02  21534948.640   113166917.947 7      2149.035          46.312    21534946.760   113166917.952 6      2149.035          39.687    21534950.980    88182025.793 6      1674.573          39.437
R08  20899102.500   111913751.027 7      5295.318          47.625    20899105.460   111913751.074 7      5295.318          46.687    20899121.720    87044111.824 8      4118.581          49.937    20899121.040    87044113.825 8      4118.581          49.812
G03  21174000.660   111270129.801 7      4989.494          46.875    21174000.100   111270129.800 6      4989.494          41.375    21174012.400    86704043.656 6      3887.917          41.000    21174013.040    86704046.662 8      3887.917          51.250
G27  23305353.240   122470447.305 7       -14.510          42.750    23305351.380   122470447.310 6       -14.510          41.812    23305369.580    95431575.984 6       -11.307          41.375    23305370.040    95431578.990 7       -11.307          46.375
R12  21958425.560   117297960.253 7     -1098.441          46.812    21958425.020   117297960.257 7     -1098.441          46.562    21958447.200    91231830.475 7      -854.343          46.625    21958447.580    91231831.485 7      -854.343          47.562
G21  21474158.780   112847461.832 8      1244.041          48.187    21474156.600   112847461.842 6      1244.041          39.625    21474162.180    87933097.747 6       969.382          39.875
R23  21146826.240   113121265.820 7      3241.250          44.062    21146826.140   113121265.837 7      3241.250          43.687
G16  25518347.760   134099825.030 6     -1172.630          38.750    25518346.280   134099825.048 3     -1172.630          21.125    25518366.020   104493441.188 3      -913.737          21.000
G32  24942869.100   131075660.295 6      2029.461          41.187    24942867.900   131075660.302 6      2029.461          39.062    24942882.700   102136931.516 6      1581.398          38.875    24942883.840   102136937.521 7      1581.398          43.750
R22  21458791.560   114548489.237 7      1375.401          46.687    21458791.700   114548489.248 7      1375.401          46.250    21458801.840    89093308.966 8      1069.756          48.625    21458801.820    89093307.958 8      1069.756          48.000
G14  23142182.740   121612994.403 7      4830.543          45.000    23142181.680   121612994.408 5      4830.543          33.250    23142190.560    94763396.624 5      3764.060          33.562    23142191.380    94763401.610 7      3764.060          46.875
R07  21067785.100   112777503.836 7      1923.908          47.812    21067786.080   112777503.861 7      1923.908          46.062    21067799.020    87715893.279 8      1496.373          49.500    21067798.840    87715895.278 8      1496.373          49.562
G08  20985356.480   110278790.140 8      1440.679          48.937    20985355.180   110278790.147 8      1440.679          49.500    20985364.560    85931554.494 8      1122.607          48.937    20985366.320    85931562.494 8      1122.607          50.750
> 2024 05 09 14 45 55.0000000  0 13
G02  21534539.700   113164769.163 7      2148.712          46.750    21534537.880   113164769.168 6      2148.712          39.500    21534542.000    88180351.415 6      1674.321          39.625
R08  20898113.840   111908456.286 7      5294.410          47.437    20898116.600   111908456.339 7      5294.410          46.437    20898132.980    87039993.705 8      4117.875          49.687    20898132.320    87039995.708 8      4117.875          49.750
G03  21173051.500   111265140.854 7      4988.690          47.562    21173050.660   111265140.851 6      4988.690          40.625    21173063.000    86700156.175 6      3887.291          40.375    21173063.620    86700159.179 8      3887.291          51.312
G27  23305356.140   122470462.025 7       -14.828          42.500    23305354.040   122470462.030 6       -14.828          41.562    23305372.500    95431587.435 6       -11.555          41.500    23305372.580    95431590.437 7       -11.555          46.312
R12  21958631.300   117299059.092 7     -1098.991          47.125    21958630.600   117299059.093 7     -1098.991          46.500    21958652.780    91232685.109 7      -854.771          47.125    21958653.340    91232686.117 7      -854.771          47.812
G21  21473922.020   112846217.949 8      1243.849          48.062    21473920.020   112846217.960 6      1243.849          39.437    21473925.440    87932128.486 6       969.233          39.500
R23  21146220.600   113118024.722 7      3241.049          44.687    21146220.380   113118024.734 7      3241.049          43.375
G16  25518571.200   134100997.922 6     -1172.819          38.812    25518569.280   134100997.937 3     -1172.819          21.687    25518589.060   104494355.124 3      -913.885          21.000
G32  24942482.980   131073631.344 7      2028.665          42.125    24942481.880   131073631.352 6      2028.665          38.687    24942496.600   102135350.521 6      1580.778          38.750    24942497.500   102135356.525 7      1580.778          43.750
R22  21458534.360   114547114.100 7      1375.206          46.562    21458534.140   114547114.098 7      1375.206          46.312    21458544.140    89092239.403 8      1069.605          48.125    21458544.420    89092238.397 8      1069.605          48.500
G14  23141263.720   121608164.324 7      4829.811          45.125    23141262.660   121608164.332 5      4829.811          33.625    23141271.680    94759632.928 5      3763.489          33.562    23141272.280    94759637.920 7      3763.489          47.500
R07  21067425.680   112775580.539 7      1922.867          46.500    21067427.060   112775580.570 7      1922.867          46.062    21067439.680    87714397.382 8      1495.563          49.625    21067439.380    87714399.385 8      1495.563          50.000
G08  20985082.560   110277349.869 8      1440.078          48.000    20985081.040   110277349.871 8      1440.078          49.250    20985090.480    85930432.199 8      1122.138          49.125    20985092.220    85930440.199 8      1122.138          51.000
> 2024 05 09 14 45 56.0000000  0 13
G02  21534130.800   113162620.440 7      2148.724          47.312    21534129.060   113162620.450 6      2148.724          39.937    21534133.040    88178677.087 6      1674.331          39.937
R08  20897125.260   111903162.049 8      5294.025          48.312    20897128.280   111903162.099 7      5294.025          46.062    20897144.260    87035875.975 8      4117.575          50.250    20897143.700    87035877.978 8      4117.575          49.562
G03  21172102.200   111260152.354 8      4988.327          48.187    21172101.460   111260152.353 6      4988.327          41.000    21172113.620    86696269.038 6      3887.008          40.562    21172114.280    86696272.040 8      3887.008          51.250
G27  23305358.980   122470476.983 7       -14.958          42.250    23305356.960   122470476.991 6       -14.958          41.812    23305375.420    95431599.079 6       -11.655          41.500    23305375.220    95431602.077 7       -11.655          46.375
R12  21958836.880   117300158.207 7     -1099.217          46.750    21958836.060   117300158.210 7     -1099.217          46.937    21958858.720    91233539.961 7      -854.947          47.250    21958859.020    91233540.972 7      -854.947          47.500
G21  21473685.280   112844974.111 7      1243.870          47.562    21473683.480   112844974.122 6      1243.870          39.375    21473688.660    87931159.256 6       969.249          39.250
R23  21145614.640   113114783.606 7      3241.184          43.937    21145614.360   113114783.629 7      3241.184          43.375
G16  25518794.300   134102170.717 6     -1172.791          38.812    25518792.500   134102170.733 3     -1172.791          21.687    25518812.420   104495268.984 3      -913.863          21.937
G32  24942096.800   131071602.858 7      2028.316          42.375    24942096.020   131071602.863 6      2028.316          39.187    24942110.620   102133769.879 6      1580.506          38.812    24942111.160   102133775.886 7      1580.506          43.625
R22  21458276.540   114545738.990 7      1375.159          47.500    21458276.560   114545738.990 7      1375.159          46.937    21458286.440    89091169.873 8      1069.568          48.312    21458286.760    89091168.863 8      1069.568          48.062
G14  23140344.580   121603334.673 7      4829.452          45.250    23140343.660   121603334.681 5      4829.452          33.625    23140352.840    94755869.566 5      3763.209          33.625    23140353.280    94755874.560 7      3763.209          47.375
R07  21067066.540   112773658.061 7      1922.107          47.375    21067067.920   112773658.095 7      1922.107          46.312    21067080.300    87712902.128 8      1494.972          50.000    21067080.200    87712904.128 8      1494.972          49.750
G08  20984808.480   110275909.944 8      1439.783          48.062    20984807.060   110275909.947 8      1439.783          48.375    20984816.480    85929310.174 8      1121.909          48.687    20984818.120    85929318.173 8      1121.909          50.500
> 2024 05 09 14 45 57.0000000  0 14
G02  21533721.860   113160471.766 7      2148.556          47.187    21533720.180   113160471.774 6      2148.556          40.187    21533724.140    88177002.794 6      1674.199          40.125
R08  20896136.520   111897868.344 7      5293.381          47.750    20896139.740   111897868.389 7      5293.381          46.375    20896155.540    87031758.653 8      4117.074          49.437    20896155.280    87031760.657 8      4117.074          49.562
G03  21171153.080   111255164.277 8      4987.785          48.312    21171152.200   111255164.282 6      4987.785          41.125    21171164.480    86692382.231 6      3886.586          40.750    21171165.120    86692385.237 8      3886.586          51.125
G27  23305361.880   122470492.157 7       -15.483          42.750    23305360.100   122470492.172 7       -15.483          42.187    23305378.140    95431610.890 6       -12.065          41.625    23305378.160    95431613.894 7       -12.065          46.500
R12  21959042.820   117301257.497 7     -1099.410          46.437    21959041.820   117301257.506 7     -1099.410          45.500    21959064.660    91234394.950 7      -855.097          47.500    21959065.080    91234395.959 7      -855.097          47.875
G21  21473448.700   112843730.260 8      1243.791          48.125    21473446.740   112843730.270 6      1243.791          39.625    21473452.060    87930190.023 6       969.188          39.312
R23  21145008.140   113111542.476 7      3241.108          44.062    21145008.360   113111542.494 7      3241.108          44.250
G16  25519017.180   134103343.336 6     -1172.593          38.125    25519015.620   134103343.352 3     -1172.593          21.687    25519035.520   104496182.705 3      -913.709          21.937
G32  24941710.800   131069574.806 7      2027.704          42.437    24941710.120   131069574.819 6      2027.704          39.437    24941724.780   102132189.585 6      1580.029          39.312    24941725.640   102132195.590 7      1580.029          43.812
R01  24128586.080   128981121.359 5      6775.106          34.375    24128585.080   128981121.333 5      6775.106          33.687    24128611.220   100318752.274 5      5269.527          31.625    24128609.280   100318747.283 5      5269.527          32.750
R22  21458019.120   114544363.853 7      1375.072          47.750    21458018.780   114544363.853 7      1375.072          47.000    21458028.740    89090100.320 8      1069.500          48.312    21458029.260    89090099.309 8      1069.500          48.187
G14  23139425.520   121598505.430 7      4828.881          44.562    23139424.940   121598505.440 5      4828.881          33.937    23139433.980    94752106.519 5      3762.764          33.625    23139434.200    94752111.517 7      3762.764          47.125
R07  21066707.120   112771736.426 7      1921.116          47.812    21066708.840   112771736.460 7      1921.116          47.062    21066721.420    87711407.523 8      1494.201          50.125    21066721.300    87711409.524 8      1494.201          48.812
G08  20984534.460   110274470.320 8      1439.406          48.187    20984533.140   110274470.324 8      1439.406          49.437    20984542.460    85928188.388 8      1121.615          49.250    20984544.300    85928196.392 8      1121.615          50.937
> 2024 05 09 14 45 58.0000000  0 14
G02  21533312.820   113158323.164 7      2148.572          47.625    21533311.180   113158323.174 6      2148.572          39.562    21533315.340    88175328.562 6      1674.212          39.562
R08  20895148.140   111892575.189 8      5292.912          48.125    20895151.220   111892575.241 7      5292.912          47.250    20895167.000    87027641.771 8      4116.709          49.937    20895166.740    87027643.776 8      4116.709          49.562
G03  21170203.760   111250176.667 7      4987.389          47.687    21170203.140   111250176.667 6      4987.389          41.312    21170215.320    86688495.789 6      3886.277          41.000    21170215.940    86688498.794 8      3886.277          51.000
G27  23305364.640   122470507.518 7       -15.371          42.562    23305362.980   122470507.525 7       -15.371          42.000    23305381.100    95431622.841 7       -11.977          42.187    23305381.580    95431625.841 7       -11.977          46.750
R12  21959248.440   117302357.015 7     -1099.575          45.937    21959247.660   117302357.024 7     -1099.575          46.375    21959270.640    91235250.110 7      -855.225          47.562    21959270.900    91235251.122 7      -855.225          47.812
G21  21473212.060   112842486.451 8      1243.825          48.562    21473209.980   112842486.459 6      1243.825          39.062    21473215.380    87929220.817 6       969.214          39.062
R23  21144402.400   113108301.355 7      3241.173          44.937    21144402.860   113108301.378 7      3241.173          44.062
G16  25519240.360   134104515.884 6     -1172.444          38.500    25519238.580   134104515.897 3     -1172.444          21.687    25519258.660   104497096.373 3      -913.592          21.937
G32  24941325.120   131067547.203 6      2027.473          41.812    24941324.300   131067547.219 6      2027.473          38.937    24941338.920   102130609.641 6      1579.849          38.812    24941339.800   102130615.642 7      1579.849          43.812
R01  24127318.300   128974346.157 5      6775.389          35.750    24127318.580   128974346.116 5      6775.389          33.687    24127342.700   100313482.685 5      5269.747          31.625    24127341.420   100313477.680 5      5269.747          32.750
R22  21457761.140   114542988.734 7      1375.113          47.187    21457761.200   114542988.732 7      1375.113          47.000    21457771.240    89089030.777 8      1069.532          48.187    21457771.720    89089029.769 7      1069.532          47.687
G14  23138506.520   121593676.606 7      4828.635          45.375    23138506.180   121593676.617 5      4828.635          33.937    23138515.220    94748343.800 5      3762.573          33.875    23138515.380    94748348.798 7      3762.573          47.250
R07  21066348.320   112769815.646 8      1920.391          48.500    21066350.100   112769815.682 7      1920.391          46.625    21066362.500    87709913.584 8      1493.637          49.937    21066362.380    87709915.589 8      1493.637          49.562
G08  20984260.560   110273031.068 8      1439.135          48.000    20984259.220   110273031.070 8      1439.135          49.437    20984268.620    85927066.889 8      1121.404          49.062    20984270.340    85927074.891 8      1121.404          50.750
> 2024 05 09 14 45 59.0000000  0 14
G02  21532904.080   113156174.703 7      2148.254          47.812    21532902.260   113156174.708 6      2148.254          40.000    21532906.620    88173654.433 6      1673.965          39.562
R08  20894159.560   111887282.686 7      5292.099          47.250    20894162.860   111887282.741 7      5292.099          46.625    20894178.580    87023525.395 8      4116.077          49.375    20894178.420    87023527.400 8      4116.077          49.500
G03  21169254.820   111245189.581 7      4986.737          47.187    21169254.220   111245189.581 6      4986.737          41.187    21169266.160    86684609.751 6      3885.769          40.937    21169266.920    86684612.757 8      3885.769          51.000
G27  23305367.760   122470523.204 7       -16.036          42.812    23305366.020   122470523.211 7       -16.036          42.000    23305384.060    95431635.048 6       -12.495          41.312    23305384.680    95431638.052 7       -12.495          46.437
R12  21959454.360   117303456.866 7     -1100.138          45.500    21959453.840   117303456.873 7     -1100.138          46.500    21959476.420    91236105.533 7      -855.663          47.125    21959476.720    91236106.542 7      -855.663          47.687
G21  21472975.500   112841242.724 8      1243.643          48.500    21472973.400   112841242.731 6      1243.643          39.437    21472978.760    87928251.675 6       969.072          39.250
R23  21143796.300   113105060.321 7      3240.907          44.937    21143796.840   113105060.344 7      3240.907          43.937
G16  25519463.720   134105688.412 6     -1172.670          38.187    25519461.700   134105688.424 3     -1172.670          21.687    25519481.900   104498010.024 3      -913.769          21.937
G32  24940939.500   131065520.171 6      2026.752          41.625    24940938.740   131065520.186 6      2026.752          39.125    24940953.220   102129030.132 6      1579.287          39.187    24940954.760   102129036.136 7      1579.287          43.812
R01  24126051.080   128967570.820 5      6775.272          35.750    24126050.360   128967570.813 5      6775.272          33.687    24126075.580   100308212.995 5      5269.656          31.625    24126074.180   100308208.000 5      5269.656          32.750
R22  21457503.980   114541613.683 7      1374.919          47.062    21457503.740   114541613.692 7      1374.919          46.937    21457513.600    89087961.296 8      1069.382          48.875    21457513.860    89087960.288 8      1069.382          48.125
G14  23137587.840   121588848.290 7      4828.006          45.250    23137587.520   121588848.301 5      4828.006          34.125    23137596.540    94744581.476 5      3762.083          33.875    23137596.640    94744586.472 7      3762.083          47.562
R07  21065989.940   112767895.775 8      1919.391          48.375    21065991.620   112767895.811 7      1919.391          46.937    21066003.880    87708420.356 8      1492.860          49.187    21066003.800    87708422.356 8      1492.860          49.062
G08  20983986.860   110271592.231 7      1438.491          47.875    20983985.360   110271592.233 8      1438.491          49.000    20983994.840    85925945.712 8      1120.902          48.875    20983996.320    85925953.715 8      1120.902          50.562
> 2024 05 09 14 46  0.0000000  0 14
G02  21532495.120   113154026.368 7      2148.491          47.875    21532493.400   113154026.370 6      2148.491          39.937    21532497.620    88171980.406 6      1674.149          39.875
R08  20893171.360   111881990.824 7      5291.778          47.687    20893174.560   111881990.882 7      5291.778          46.625    20893190.220    87019409.512 8      4115.827          49.750    20893190.120    87019411.518 8      4115.827          49.625
G03  21168305.860   111240203.025 8      4986.452          48.250    21168305.320   111240203.027 6      4986.452          41.062    21168317.360    86680724.134 6      3885.547          40.312    21168318.040    86680727.138 8      3885.547          51.062
G27  23305370.500   122470539.156 7       -15.917          43.187    23305369.100   122470539.168 6       -15.917          41.937    23305387.280    95431647.465 6       -12.403          41.562    23305387.840    95431650.463 7       -12.403          46.687
R12  21959659.960   117304557.070 7     -1100.182          46.250    21959659.640   117304557.071 7     -1100.182          46.312    21959682.660    91236961.225 7      -855.697          47.437    21959682.820    91236962.231 7      -855.697          47.875
G21  21472738.900   112839999.125 8      1243.700          49.062    21472736.820   112839999.132 6      1243.700          39.187    21472742.040    87927282.636 6       969.117          39.437
R23  21143190.480   113101819.371 7      3241.104          44.125    21143190.880   113101819.396 7      3241.104          43.937
G16  25519686.680   134106860.884 6     -1172.290          38.187    25519684.820   134106860.896 3     -1172.290          21.687    25519705.080   104498923.635 3      -913.472          21.937
G32  24940553.840   131063493.698 7      2026.316          42.750    24940553.160   131063493.708 6      2026.316          39.187    24940567.520   102127451.061 6      1578.947          38.875    24940568.540   102127457.064 7      1578.947          43.937
R01  24124783.240   128960795.394 5      6775.621          35.750    24124782.600   128960795.425 5      6775.621          33.687    24124807.280   100302943.259 5      5269.928          31.625    24124806.020   100302938.243 5      5269.928          32.750
R22  21457246.680   114540238.735 7      1375.027          46.312    21457246.280   114540238.744 7      1375.027          46.875    21457256.140    89086891.868 7      1069.466          47.937    21457256.320    89086890.864 7      1069.466          47.812
G14  23136669.180   121584020.489 7      4827.690          44.312    23136668.960   121584020.499 5      4827.690          34.125    23136677.740    94740819.555 5      3761.836          34.062    23136677.980    94740824.561 8      3761.836          48.000
R07  21065631.120   112765976.827 7      1918.663          47.500    21065632.860   112765976.861 7      1918.663          46.437    21065645.360    87706927.841 8      1492.293          49.562    21065645.360    87706929.842 8      1492.293          49.250
G08  20983713.120   110270153.802 7      1438.450          47.562    20983711.760   110270153.809 8      1438.450          49.000    20983721.140    85924824.860 8      1120.870          48.812    20983722.560    85924832.863 8      1120.870          50.312
> 2024 05 09 14 46  1.0000000  0 14
G02  21532086.340   113151878.165 7      2148.060          46.687    21532084.560   113151878.172 6      2148.060          39.812    21532088.720    88170306.481 6      1673.813          39.750
R08  20892183.300   111876699.596 7      5290.929          47.000    20892186.120   111876699.654 7      5290.929          46.000    20892202.080    87015294.123 8      4115.167          49.812    20892202.020    87015296.128 8      4115.167          49.500
G03  21167357.100   111235216.956 7      4985.848          46.937    21167356.520   111235216.955 6      4985.848          40.750    21167368.480    86676838.889 6      3885.076          40.875    21167369.140    86676841.897 8      3885.076          51.562
G27  23305373.840   122470555.378 7       -16.349          42.500    23305372.140   122470555.391 7       -16.349          42.062    23305390.300    95431660.092 6       -12.739          41.937    23305390.980    95431663.092 7       -12.739          46.437
R12  21959866.460   117305657.555 7     -1100.664          45.125    21959865.620   117305657.556 7     -1100.664          45.750    21959888.620    91237817.138 7      -856.072          47.250    21959888.840    91237818.149 8      -856.072          48.250
G21  21472502.080   112838755.573 7      1243.447          47.312    21472500.180   112838755.578 6      1243.447          39.062    21472505.300    87926313.637 6       968.920          39.062
R23  21142585.140   113098578.476 7      3240.790          44.000    21142584.980   113098578.502 7      3240.790          43.562
G16  25519909.680   134108033.314 6     -1172.374          38.187    25519907.840   134108033.326 3     -1172.374          21.687    25519928.180   104499837.208 3      -913.539          21.937
G32  24940168.160   131061467.697 7      2025.658          42.250    24940167.680   131061467.708 6      2025.658          39.125    24940182.120   102125872.359 6      1578.435          39.000    24940182.840   102125878.369 7      1578.435          43.562
R01  24123515.320   128954019.880 5      6775.532          35.750    24123515.440   128954019.903 5      6775.532          33.687    24123541.140   100297673.390 5      5269.858          31.625    24123538.920   100297668.384 5      5269.858          32.750
R22  21456989.080   114538863.817 7      1374.911          45.625    21456988.840   114538863.821 7      1374.911          46.437    21456998.580    89085822.481 8      1069.375          48.312    21456998.880    89085821.475 8      1069.375          48.375
G14  23135750.720   121579193.143 7      4827.015          44.000    23135750.380   121579193.158 5      4827.015          34.250    23135759.260    94737057.994 5      3761.310          34.062    23135759.280    94737063.002 7      3761.310          47.500
R07  21065272.680   112764058.715 7      1917.663          47.625    21065274.180   112764058.746 7      1917.663          45.875    21065286.860    87705435.978 8      1491.515          49.500    21065287.240    87705437.975 8      1491.515          49.500
G08  20983439.340   110268715.788 7      1437.710          46.812    20983438.140   110268715.793 8      1437.710          48.312    20983447.380    85923704.323 8      1120.293          48.875    20983448.800    85923712.325 8      1120.293          50.500
> 2024 05 09 14 46  2.0000000  0 14
G02  21531677.680   113149730.132 7      2148.023          47.812    21531675.980   113149730.140 6      2148.023          39.687    21531680.100    88168632.690 6      1673.784          39.437
R08  20891195.320   111871409.045 8      5290.209          48.062    20891198.300   111871409.103 7      5290.209          47.062    20891214.000    87011179.265 8      4114.607          49.687    20891213.960    87011181.270 8      4114.607          49.812
G03  21166408.160   111230231.482 7      4985.232          47.750    21166407.880   111230231.485 6      4985.232          41.250    21166419.820    86672954.115 6      3884.597          40.750    21166420.460    86672957.116 8      3884.597          51.375
G27  23305376.780   122470571.965 7       -16.759          43.562    23305375.420   122470571.981 7       -16.759          42.062    23305393.400    95431673.003 6       -13.059          41.687    23305394.280    95431676.001 7       -13.059          46.437
R12  21960072.540   117306758.381 7     -1100.960          45.437    21960071.800   117306758.385 7     -1100.960          46.187    21960094.680    91238673.322 7      -856.302          47.500    21960094.960    91238674.333 8      -856.302          48.125
G21  21472265.440   112837512.174 8      1243.355          48.125    21472263.560   112837512.184 6      1243.355          39.187    21472268.660    87925344.755 6       968.848          39.500
R23  21141979.600   113095337.700 7      3240.748          44.312    21141979.480   113095337.728 7      3240.748          43.500
G16  25520132.880   134109205.743 6     -1172.362          38.000    25520130.800   134109205.756 3     -1172.362          21.687    25520151.280   104500750.782 3      -913.529          21.937
G32  24939782.820   131059442.270 7      2025.273          42.875    24939782.400   131059442.280 6      2025.273          39.062    24939796.520   102124294.108 6      1578.135          39.562    24939796.960   102124300.118 7      1578.135          43.562
R01  24122248.460   128947244.289 5      6775.676          35.750    24122248.760   128947244.293 5      6775.676          34.812    24122272.680   100292403.475 5      5269.970          31.625    24122271.180   100292398.476 5      5269.970          32.750
R22  21456731.460   114537489.056 7      1374.783          46.875    21456731.400   114537489.052 7      1374.783          46.875    21456740.920    89084753.214 8      1069.276          48.250    21456741.360    89084752.212 7      1069.276          47.937
G14  23134832.340   121574366.364 7      4826.552          43.437    23134831.940   121574366.379 5      4826.552          33.875    23134840.840    94733296.868 5      3760.950          33.875    23134840.720    94733301.870 7      3760.950          47.312
R07  21064914.740   112762141.531 7      1916.749          46.562    21064915.920   112762141.560 7      1916.749          46.125    21064928.800    87703944.835 8      1490.804          49.500    21064928.920    87703946.830 8      1490.804          49.687
G08  20983165.680   110267278.215 7      1437.425          47.312    20983164.540   110267278.217 8      1437.425          49.062    20983173.900    85922584.133 8      1120.071          49.125    20983175.020    85922592.130 8      1120.071          50.625
> 2024 05 09 14 46  3.0000000  0 14
G02  21531268.940   113147582.118 7      2148.233          46.937    21531267.120   113147582.126 6      2148.233          39.437    21531271.460    88166958.912 6      1673.948          39.500
R08  20890207.220   111866118.955 7      5290.064          47.250    20890210.360   111866119.016 7      5290.064          46.812    20890226.140    87007064.759 8      4114.494          49.312    20890225.920    87007066.766 8      4114.494          49.187
G03  21165459.680   111225246.411 7      4985.055          47.125    21165459.260   111225246.413 6      4985.055          40.937    21165471.180    86669069.648 6      3884.458          40.687    21165471.960    86669072.654 8      3884.458          51.312
G27  23305380.140   122470588.697 7       -16.635          43.250    23305378.640   122470588.705 7       -16.635          42.250    23305396.480    95431686.020 6       -12.963          41.500    23305397.200    95431689.020 7       -12.963          46.250
R12  21960278.380   117307859.389 7     -1100.943          45.687    21960277.460   117307859.393 7     -1100.943          46.562    21960300.900    91239529.645 7      -856.289          47.625    21960301.160    91239530.655 8      -856.289          48.250
G21  21472028.780   112836268.751 7      1243.629          47.125    21472027.060   112836268.759 6      1243.629          39.562    21472032.180    87924375.852 6       969.062          39.562
R23  21141373.500   113092096.878 7      3240.955          43.312    21141373.740   113092096.901 7      3240.955          43.437
G16  25520355.660   134110378.029 6     -1171.969          38.312    25520354.100   134110378.042 3     -1171.969          21.687    25520374.400   104501664.247 3      -913.223          21.937
G32  24939397.480   131057417.297 7      2025.002          42.937    24939397.000   131057417.308 6      2025.002          39.250    24939411.140   102122716.209 6      1577.923          39.187    24939411.400   102122722.217 7      1577.923          43.562
R01  24120980.280   128940468.494 5      6776.110          35.750    24120981.240   128940468.488 5      6776.110          34.812    24121005.840   100287133.410 5      5270.308          31.625    24121003.660   100287128.395 5      5270.308          32.375
R22  21456473.680   114536114.240 7      1375.030          45.687    21456473.920   114536114.246 7      1375.030          46.625    21456483.300    89083683.919 8      1069.468          48.187    21456483.760    89083682.917 8      1069.468          48.312
G14  23133913.900   121569539.953 7      4826.397          43.937    23133913.380   121569539.968 5      4826.397          33.875    23133922.380    94729536.030 5      3760.829          33.875    23133922.120    94729541.042 7      3760.829          47.250
R07  21064556.920   112760225.097 8      1916.166          48.250    21064558.000   112760225.120 7      1916.166          46.375    21064570.660    87702454.273 8      1490.351          49.625    21064570.840    87702456.272 8      1490.351          49.000
G08  20982892.440   110265840.952 7      1437.327          47.000    20982891.120   110265840.954 8      1437.327          48.625    20982900.320    85921464.186 8      1119.995          49.062    20982901.660    85921472.187 8      1119.995          50.500
> 2024 05 09 14 46  4.0000000  0 14
G02  21530860.140   113145433.920 7      2148.212          47.437    21530858.300   113145433.927 6      2148.212          40.000    21530862.640    88165284.996 6      1673.932          39.875
R08  20889219.400   111860829.133 7      5289.712          47.375    20889222.600   111860829.191 7      5289.712          46.437    20889238.280    87002950.463 8      4114.220          49.312    20889237.940    87002952.468 8      4114.220          49.312
G03  21164511.180   111220261.542 8      4984.683          48.437    21164510.840   111220261.539 6      4984.683          41.000    21164522.500    86665185.341 6      3884.169          40.937    21164523.240    86665188.348 8      3884.169          51.125
G27  23305383.520   122470605.387 7       -16.590          42.875    23305381.880   122470605.390 7       -16.590          42.187    23305399.620    95431699.007 6       -12.927          41.687    23305400.240    95431701.997 7       -12.927          46.250
R12  21960484.500   117308960.376 7     -1100.982          46.187    21960483.840   117308960.377 7     -1100.982          46.250    21960507.100    91240385.947 7      -856.320          47.750    21960506.960    91240386.953 8      -856.320          48.062
G21  21471792.060   112835025.092 8      1243.742          48.875    21471790.420   112835025.097 6      1243.742          39.562    21471795.540    87923406.765 6       969.150          39.312
R23  21140767.460   113088855.751 7      3241.266          43.312    21140767.620   113088855.768 7      3241.266          43.437
G16  25520578.740   134111549.936 6     -1171.709          38.187    25520577.120   134111549.949 3     -1171.709          21.250    25520597.380   104502577.419 3      -913.020          21.937
G32  24939012.180   131055392.535 7      2024.596          43.125    24939011.780   131055392.542 6      2024.596          39.625    24939025.820   102121138.470 6      1577.607          39.562    24939026.320   102121144.476 7      1577.607          43.437
R01  24119712.780   128933692.224 5      6776.540          35.750    24119712.720   128933692.225 5      6776.540          34.812    24119737.800   100281862.970 5      5270.642          31.625    24119736.400   100281857.987 5      5270.642          32.375
R22  21456216.520   114534739.193 7      1375.119          46.875    21456216.560   114534739.197 7      1375.119          47.625    21456225.920    89082614.434 8      1069.537          48.500    21456226.200    89082613.430 8      1069.537          48.437
G14  23132995.220   121564713.720 7      4826.071          44.562    23132994.860   121564713.736 5      4826.071          34.312    23133003.880    94725775.331 5      3760.575          34.125    23133003.980    94725780.342 7      3760.575          47.437
R07  21064198.860   112758309.198 7      1915.499          46.500    21064200.040   112758309.224 7      1915.499          46.375    21064212.740    87700964.134 8      1489.833          49.750    21064212.840    87700966.137 8      1489.833          49.562
G08  20982619.060   110264403.776 8      1437.048          48.812    20982617.560   110264403.784 8      1437.048          48.875    20982626.840    85920344.308 8      1119.778          49.000    20982628.040    85920352.310 8      1119.778          50.375
> 2024 05 09 14 46  5.0000000  0 14
G02  21530451.380   113143285.990 7      2147.652          46.750    21530449.540   113143285.997 6      2147.652          39.500    21530453.820    88163611.280 6      1673.495          39.812
R08  20888231.980   111855540.050 7      5288.614          46.937    20888235.080   111855540.110 7      5288.614          46.125    20888250.600    86998836.744 8      4113.367          49.437    20888250.300    86998838.745 8      4113.367          49.437
G03  21163562.820   111215277.341 7      4983.644          47.187    21163562.260   111215277.343 6      4983.644          40.812    21163574.020    86661301.555 6      3883.359          40.500    21163574.720    86661304.561 8      3883.359          51.312
G27  23305386.580   122470622.527 7       -17.468          43.125    23305385.200   122470622.532 6       -17.468          41.687    23305402.800    95431712.348 6       -13.612          41.562    23305403.340    95431715.346 7       -13.612          46.187
R12  21960690.840   117310061.864 7     -1101.940          45.937    21960689.860   117310061.860 7     -1101.940          45.937    21960713.080    91241242.640 7      -857.064          47.500    21960713.420    91241243.652 7      -857.064          47.937
G21  21471555.420   112833781.669 7      1243.224          47.812    21471553.860   112833781.676 6      1243.224          39.187    21471558.860    87922437.862 6       968.746          39.375
R23  21140161.640   113085614.848 7      3240.677          44.000    21140162.140   113085614.863 7      3240.677          43.375
G16  25520801.700   134112721.982 6     -1172.247          38.187    25520800.140   134112721.992 3     -1172.247          21.250    25520820.380   104503490.692 3      -913.439          21.187
G32  24938626.940   131053368.440 7      2023.627          43.250    24938626.640   131053368.445 6      2023.627          39.500    24938640.560   102119561.255 6      1576.852          39.625    24938641.080   102119567.261 7      1576.852          43.125
R01  24118445.420   128926916.047 6      6776.145          36.437    24118445.880   128926916.027 5      6776.145          34.812    24118469.520   100276592.591 5      5270.335          31.625    24118468.940   100276587.596 5      5270.335          32.375
R22  21455958.780   114533364.355 7      1374.550          47.250    21455959.020   114533364.359 7      1374.550          46.750    21455968.340    89081545.111 8      1069.094          48.187    21455968.720    89081544.112 8      1069.094          48.437
G14  23132077.020   121559888.139 7      4825.064          44.062    23132076.320   121559888.147 5      4825.064          34.312    23132085.600    94722015.139 5      3759.790          34.125    23132085.580    94722020.145 7      3759.790          47.687
R07  21063841.400   112756394.370 7      1914.146          47.562    21063842.220   112756394.393 7      1914.146          46.187    21063854.840    87699474.821 8      1488.780          49.375    21063855.120    87699476.820 8      1488.780          49.187
G08  20982345.480   110262967.163 8      1436.185          48.312    20982344.200   110262967.167 8      1436.185          48.625    20982353.540    85919224.861 8      1119.106          48.812    20982354.740    85919232.860 8      1119.106          50.500
> 2024 05 09 14 46  6.0000000  0 14
G02  21530042.800   113141137.981 7      2148.228          46.500    21530040.700   113141137.989 6      2148.228          39.687    21530044.960    88161937.507 6      1673.944          39.812
R08  20887244.560   111850251.360 7      5288.679          47.562    20887247.480   111850251.418 7      5288.679          46.562    20887262.980    86994723.325 8      4113.417          49.625    20887262.760    86994725.324 8      4113.417          50.000
G03  21162614.280   111210293.442 7      4983.881          47.562    21162613.820   111210293.444 6      4983.881          41.312    21162625.560    86657418.004 6      3883.544          41.062    21162626.360    86657421.007 8      3883.544          51.500
G27  23305390.000   122470639.734 7       -16.990          42.437    23305388.520   122470639.742 7       -16.990          42.000    23305406.000    95431725.742 6       -13.239          41.750    23305406.460    95431728.734 7       -13.239          46.250
R12  21960896.980   117311163.425 7     -1101.340          45.062    21960896.060   117311163.410 7     -1101.340          45.125    21960919.560    91242099.380 7      -856.598          47.937    21960919.620    91242100.391 8      -856.598          48.312
G21  21471318.720   112832538.133 7      1243.826          47.750    21471317.280   112832538.143 6      1243.826          39.250    21471322.300    87921468.873 6       969.215          39.562
R23  21139555.520   113082373.748 7      3241.477          44.125    21139555.620   113082373.771 7      3241.477          44.125
G16  25521024.740   134113893.740 6     -1171.270          38.625    25521023.180   134113893.750 3     -1171.270          21.250    25521043.400   104504403.743 3      -912.678          21.187
G32  24938241.840   131051344.665 7      2023.820          42.937    24938241.560   131051344.673 6      2023.820          39.250    24938255.420   102117984.288 6      1577.002          39.187    24938255.640   102117990.298 7      1577.002          42.750
R01  24117177.460   128920139.526 6      6776.824          36.437    24117177.120   128920139.524 5      6776.824          34.812    24117203.160   100271321.982 5      5270.863          31.312    24117201.520   100271316.970 5      5270.863          32.375
R22  21455701.060   114531989.378 7      1375.272          47.562    21455701.960   114531989.385 7      1375.272          46.937    21455710.800    89080475.679 8      1069.656          48.250    21455711.180    89080474.679 8      1069.656          48.812
G14  23131158.680   121555062.816 7      4825.359          43.125    23131157.800   121555062.824 5      4825.359          33.750    23131167.320    94718255.146 5      3760.020          33.625    23131167.380    94718260.161 7      3760.020          47.875
R07  21063484.000   112754480.249 7      1913.912          47.250    21063484.800   112754480.272 7      1913.912          45.875    21063497.380    87697986.058 8      1488.598          49.500    21063497.280    87697988.065 8      1488.598          49.625
G08  20982072.100   110261530.746 8      1436.519          48.375    20982070.860   110261530.748 8      1436.519          48.875    20982080.180    85918105.573 8      1119.365          48.937    20982081.460    85918113.568 8      1119.365          50.437
> 2024 05 09 14 46  7.0000000  0 14
G02  21529633.820   113138989.909 7      2147.855          47.000    21529631.920   113138989.919 6      2147.855          39.750    21529636.200    88160263.683 6      1673.653          39.562
R08  20886256.960   111844963.040 7      5287.948          47.812    20886260.000   111844963.095 7      5287.948          46.875    20886275.440    86990610.193 8      4112.849          49.750    20886275.000    86990612.192 8      4112.849          49.687
G03  21161665.980   111205309.871 8      4983.130          48.625    21161665.500   111205309.873 6      4983.130          41.000    21161677.220    86653534.708 6      3882.959          40.812    21161677.920    86653537.714 8      3882.959          51.375
G27  23305393.340   122470657.047 7       -17.606          42.500    23305391.820   122470657.049 6       -17.606          41.812    23305409.220    95431739.212 6       -13.719          41.500    23305409.760    95431742.206 7       -13.719          45.937
R12  21961103.440   117312265.069 7     -1101.894          46.000    21961102.120   117312265.070 7     -1101.894          45.562    21961125.620    91242956.206 7      -857.029          47.687    21961125.740    91242957.216 8      -857.029          48.000
G21  21471082.100   112831294.503 8      1243.449          48.250    21471080.580   112831294.508 6      1243.449          39.125    21471085.660    87920499.808 6       968.921          39.062
R23  21138949.620   113079132.541 7      3241.115          43.625    21138949.720   113079132.558 7      3241.115          43.437
G16  25521247.320   134115065.313 6     -1171.779          38.500    25521246.180   134115065.326 3     -1171.779          21.250    25521266.300   104505316.650 3      -913.074          21.187
G32  24937856.860   131049321.230 7      2023.012          42.562    24937856.660   131049321.240 6      2023.012          39.562    24937870.300   102116407.587 6      1576.373          39.562    24937870.540   102116413.596 7      1576.373          42.750
R01  24115909.460   128913362.734 6      6776.604          36.437    24115909.380   128913362.738 5      6776.604          34.812    24115933.880   100266051.140 5      5270.692          31.312    24115933.880   100266046.122 5      5270.692          32.375
R22  21455443.180   114530614.295 8      1374.930          48.062    21455444.300   114530614.306 7      1374.930          46.750    21455453.300    89079406.167 8      1069.390          48.187    21455453.420    89079405.167 8      1069.390          48.375
G14  23130240.600   121550237.808 7      4824.608          44.625    23130239.660   121550237.821 5      4824.608          33.750    23130249.320    94714495.406 5      3759.435          33.625    23130249.220    94714500.416 8      3759.435          48.000
R07  21063126.680   112752566.826 7      1912.859          47.687    21063127.020   112752566.851 7      1912.859          46.125    21063139.880    87696497.844 8      1487.779          49.625    21063140.080    87696499.849 8      1487.779          48.250
G08  20981798.960   110260094.547 8      1435.839          48.875    20981797.620   110260094.550 8      1435.839          48.812    20981806.900    85916986.451 8      1118.836          48.937    20981808.040    85916994.448 8      1118.836          50.812
> 2024 05 09 14 46  8.0000000  0 14
G02  21529225.260   113136841.961 7      2147.806          47.375    21529223.200   113136841.968 6      2147.806          39.812    21529227.580    88158589.955 6      1673.615          39.562
R08  20885269.920   111839675.362 7      5287.241          47.937    20885272.200   111839675.417 7      5287.241          46.687    20885288.040    86986497.568 8      4112.299          49.687    20885287.820    86986499.567 8      4112.299          49.687
G03  21160717.680   111200326.833 7      4982.643          47.937    21160717.280   111200326.830 6      4982.643          41.125    21160729.060    86649651.826 6      3882.579          40.625    21160729.600    86649654.829 8      3882.579          51.375
G27  23305396.860   122470674.625 7       -17.886          43.125    23305395.200   122470674.638 7       -17.886          42.062    23305412.560    95431752.903 6       -13.937          41.750    23305412.820    95431755.899 7       -13.937          45.437
R12  21961309.820   117313367.020 7     -1102.182          45.875    21961308.480   117313367.023 7     -1102.182          45.625    21961332.140    91243813.264 8      -857.253          48.000    21961332.340    91243814.273 7      -857.253          47.937
G21  21470845.440   112830050.954 8      1243.361          48.000    21470843.980   112830050.959 6      1243.361          39.187    21470849.000    87919530.805 6       968.852          39.437
R23  21138343.680   113075891.371 7      3241.101          44.437    21138343.800   113075891.391 7      3241.101          43.437
G16  25521470.740   134116236.805 6     -1171.694          38.312    25521469.120   134116236.823 3     -1171.694          21.250    25521489.300   104506229.490 3      -913.008          21.187
G32  24937471.980   131047298.340 7      2022.469          43.437    24937471.720   131047298.345 6      2022.469          39.750    24937485.300   102114831.308 6      1575.950          39.750    24937485.080   102114837.313 7      1575.950          43.000
R01  24114641.440   128906585.806 6      6776.914          36.437    24114641.360   128906585.829 5      6776.914          34.812    24114668.000   100260780.196 5      5270.933          31.312    24114666.380   100260775.197 5      5270.933          32.375
R22  21455185.780   114529239.283 8      1374.896          48.250    21455186.880   114529239.289 7      1374.896          47.562    21455195.580    89078336.707 8      1069.363          48.562    21455195.920    89078335.712 8      1069.363          48.250
G14  23129322.740   121545413.291 7      4824.259          44.687    23129321.560   121545413.304 5      4824.259          34.125    23129331.240    94710736.040 5      3759.163          33.812    23129331.460    94710741.053 8      3759.163          48.062
R07  21062769.220   112750654.355 7      1911.959          47.937    21062769.920   112750654.376 7      1911.959          46.625    21062782.500    87695010.365 8      1487.079          49.187    21062782.740    87695012.372 8      1487.079          48.937
G08  20981525.480   110258658.764 8      1435.482          48.812    20981524.320   110258658.766 8      1435.482          49.312    20981533.720    85915867.655 8      1118.557          49.187    20981534.980    85915875.656 8      1118.557          50.125
> 2024 05 09 14 46  9.0000000  0 14
G02  21528816.700   113134694.178 8      2147.692          48.000    21528814.540   113134694.183 6      2147.692          39.625    21528818.760    88156916.357 6      1673.526          39.625
R08  20884282.520   111834388.308 7      5286.826          47.687    20884285.180   111834388.350 7      5286.826          46.125    20884300.820    86982385.419 8      4111.976          49.312    20884300.520    86982387.418 8      4111.976          50.062
G03  21159769.500   111195344.314 7      4982.245          47.500    21159769.020   111195344.316 6      4982.245          41.125    21159780.820    86645769.351 6      3882.269          40.875    21159781.580    86645772.357 8      3882.269          51.875
G27  23305400.300   122470692.503 7       -18.015          42.625    23305398.660   122470692.515 7       -18.015          42.062    23305415.940    95431766.818 6       -14.037          41.812    23305416.460    95431769.817 7       -14.037          45.625
R12  21961515.780   117314469.342 7     -1102.566          46.250    21961514.760   117314469.340 7     -1102.566          46.062    21961538.520    91244670.611 7      -857.552          47.687    21961538.600    91244671.613 8      -857.552          48.125
G21  21470608.860   112828807.510 8      1243.419          48.562    21470607.200   112828807.517 6      1243.419          39.000    21470612.460    87918561.889 6       968.898          39.625
R23  21137738.080   113072650.303 7      3241.042          44.687    21137737.800   113072650.323 7      3241.042          43.250
G16  25521693.440   134117408.278 6     -1171.397          38.875    25521692.020   134117408.299 3     -1171.397          21.250    25521712.260   104507142.323 3      -912.777          21.187
G32  24937087.040   131045275.969 7      2022.187          43.687    24937087.060   131045275.974 6      2022.187          39.500    24937100.480   102113255.436 6      1575.730          39.437    24937101.260   102113261.445 7      1575.730          43.187
R01  24113373.440   128899808.879 6      6777.058          36.437    24113373.920   128899808.883 5      6777.058          34.812    24113399.600   100255509.261 5      5271.045          31.312    24113398.260   100255504.253 5      5271.045          32.375
R22  21454928.160   114527864.370 7      1374.885          47.500    21454929.260   114527864.387 7      1374.885          47.375    21454938.080    89077267.341 8      1069.355          48.250    21454938.240    89077266.346 8      1069.355          48.500
G14  23128404.720   121540589.316 7      4823.656          44.125    23128403.480   121540589.329 5      4823.656          33.687    23128413.300    94706977.105 5      3758.693          33.812    23128413.760    94706982.123 8      3758.693          48.250
R07  21062412.040   112748742.760 7      1911.191          47.375    21062413.000   112748742.791 7      1911.191          46.687    21062425.560    87693523.583 8      1486.482          49.250    21062425.660    87693525.590 8      1486.482          49.500
G08  20981252.600   110257223.406 8      1435.204          48.062    20981251.180   110257223.411 8      1435.204          48.562    20981260.500    85914749.198 8      1118.341          49.187    20981261.920    85914757.198 8      1118.341          50.437
> 2024 05 09 14 46 10.0000000  0 14
G02  21528407.860   113132546.287 7      2147.770          47.375    21528405.800   113132546.295 6      2147.770          39.625    21528410.000    88155242.674 6      1673.587          39.750
R08  20883295.200   111829101.678 7      5286.316          47.500    20883297.820   111829101.725 7      5286.316          46.875    20883313.660    86978273.605 8      4111.579          49.500    20883313.280    86978275.607 8      4111.579          50.000
G03  21158821.600   111190362.112 7      4981.901          46.937    21158821.060   111190362.119 6      4981.901          41.312    21158832.660    86641887.122 6      3882.001          41.062    21158833.440    86641890.130 8      3882.001          51.625
G27  23305403.520   122470710.451 6       -18.083          41.937    23305402.060   122470710.461 7       -18.083          42.312    23305419.320    95431780.789 6       -14.090          41.937    23305419.780    95431783.785 7       -14.090          45.500
R12  21961722.240   117315571.712 7     -1102.505          46.000    21961721.140   117315571.713 7     -1102.505          45.937    21961744.900    91245527.990 7      -857.504          47.687    21961745.080    91245528.994 8      -857.504          48.125
G21  21470372.160   112827563.932 7      1243.530          47.687    21470370.580   112827563.939 6      1243.530          39.562    21470375.780    87917592.866 6       968.985          39.625
R23  21137132.460   113069409.069 7      3241.190          44.687    21137131.980   113069409.081 7      3241.190          44.000
G16  25521916.240   134118579.468 6     -1170.963          38.875    25521914.960   134118579.484 3     -1170.963          21.250    25521935.260   104508054.930 3      -912.439          21.187
G32  24936702.060   131043253.923 7      2021.838          43.500    24936702.300   131043253.928 6      2021.838          39.625    24936715.680   102111679.818 6      1575.458          39.687    24936716.480   102111685.825 7      1575.458          43.375
R01  24112105.020   128893031.619 6      6777.340          36.437    24112106.700   128893031.610 5      6777.340          35.312    24112132.360   100250238.036 5      5271.265          31.312    24112130.820   100250233.043 5      5271.265          32.375
R22  21454670.580   114526489.308 7      1375.039          47.875    21454671.800   114526489.320 7      1375.039          47.750    21454680.420    89076197.842 8      1069.475          48.437    21454680.720    89076196.844 8      1069.475          48.250
G14  23127486.780   121535765.587 7      4823.461          44.812    23127485.660   121535765.592 5      4823.461          33.687    23127495.300    94703218.351 5      3758.541          33.562    23127495.900    94703223.361 8      3758.541          48.250
R07  21062055.200   112746831.861 8      1910.413          48.125    21062055.780   112746831.887 7      1910.413          46.250    21062068.440    87692037.324 8      1485.877          48.750    21062068.560    87692039.327 8      1485.877          49.562
G08  20980979.420   110255788.238 7      1434.964          47.937    20980978.120   110255788.242 8      1434.964          49.312    20980987.440    85913630.877 8      1118.154          48.875    20980988.680    85913638.878 8      1118.154          50.125
> 2024 05 09 14 46 11.0000000  0 14
G02  21527999.180   113130398.622 7      2147.657          46.875    21527997.100   113130398.625 6      2147.657          39.562    21528001.320    88153569.171 6      1673.499          39.375
R08  20882308.240   111823815.743 7      5285.719          47.125    20882310.400   111823815.787 7      5285.719          46.312    20882326.600    86974162.337 8      4111.115          49.625    20882325.940    86974164.335 8      4111.115          50.000
G03  21157873.400   111185380.519 7      4981.366          47.500    21157873.000   111185380.522 6      4981.366          40.562    21157884.820    86638005.368 6      3881.584          40.375    21157885.520    86638008.373 8      3881.584          51.062
G27  23305406.900   122470728.783 7       -18.446          42.625    23305405.700   122470728.791 6       -18.446          41.812    23305422.820    95431795.058 6       -14.374          41.625    23305423.300    95431798.061 7       -14.374          45.437
R12  21961928.660   117316674.501 7     -1102.905          45.562    21961927.320   117316674.502 7     -1102.905          45.937    21961951.300    91246385.700 7      -857.815          47.687    21961951.580    91246386.700 8      -857.815          48.187
G21  21470135.580   112826320.554 8      1243.333          48.375    21470133.960   112826320.561 6      1243.333          39.562    21470139.140    87916623.998 6       968.831          39.625
R23  21136526.680   113066168.009 7      3241.026          45.312    21136526.000   113066168.023 7      3241.026          43.875
G16  25522139.040   134119750.755 6     -1171.131          37.687    25522137.740   134119750.768 3     -1171.131          21.250    25522158.240   104508967.615 3      -912.570          21.187
G32  24936317.640   131041232.521 7      2021.216          42.937    24936317.520   131041232.524 6      2021.216          39.500    24936331.080   102110104.702 6      1574.973          39.625    24936331.920   102110110.705 7      1574.973          43.125
R01  24110838.240   128886254.323 6      6777.520          36.500    24110838.520   128886254.332 5      6777.520          35.312    24110864.560   100244966.818 5      5271.404          31.312    24110863.060   100244961.806 5      5271.404          32.500
R22  21454413.000   114525114.414 7      1374.988          47.500    21454414.160   114525114.426 7      1374.988          47.562    21454422.860    89075128.474 8      1069.435          48.250    21454423.240    89075127.478 8      1069.435          48.500
G14  23126568.900   121530942.450 7      4822.943          44.375    23126568.020   121530942.452 5      4822.943          34.500    23126577.400    94699460.068 5      3758.137          34.437    23126578.180    94699465.077 7      3758.137          47.687
R07  21061698.300   112744921.904 7      1909.574          47.562    21061699.360   112744921.927 7      1909.574          46.750    21061711.580    87690551.800 8      1485.224          49.000    21061711.960    87690553.803 8      1485.224          49.187
G08  20980706.440   110254353.587 7      1434.504          47.812    20980705.100   110254353.591 8      1434.504          48.437    20980714.440    85912512.965 8      1117.796          48.875    20980715.640    85912520.964 8      1117.796          50.375
> 2024 05 09 14 46 12.0000000  0 14
G02  21527590.640   113128251.107 7      2147.565          46.375    21527588.600   113128251.115 6      2147.565          39.687    21527592.700    88151895.785 6      1673.427          39.500
R08  20881320.960   111818530.440 7      5285.039          47.125    20881323.540   111818530.495 7      5285.039          45.750    20881339.760    86970051.563 8      4110.586          50.062    20881339.360    86970053.562 8      4110.586          50.625
G03  21156925.720   111180399.463 7      4980.954          47.000    21156925.100   111180399.465 6      4980.954          40.687    21156937.000    86634124.031 6      3881.263          40.500    21156937.640    86634127.035 8      3881.263          51.375
G27  23305410.660   122470747.415 6       -18.731          41.812    23305409.280   122470747.431 6       -18.731          41.875    23305426.300    95431809.564 6       -14.595          41.562    23305426.660    95431812.567 7       -14.595          45.437
R12  21962135.120   117317777.614 7     -1103.145          45.000    21962133.880   117317777.610 7     -1103.145          44.812    21962158.060    91247243.646 7      -858.002          47.875    21962157.940    91247244.650 8      -858.002          48.000
G21  21469898.940   112825077.262 7      1243.376          47.125    21469897.440   112825077.267 6      1243.376          39.375    21469902.440    87915655.199 6       968.865          39.250
R23  21135920.560   113062927.029 7      3241.034          43.750    21135920.640   113062927.052 7      3241.034          43.875
G16  25522361.800   134120922.011 6     -1171.076          38.500    25522360.660   134120922.026 3     -1171.076          21.250    25522381.000   104509880.279 3      -912.527          21.187
G32  24935933.060   131039211.632 7      2020.880          44.687    24935932.920   131039211.637 6      2020.880          39.500    24935946.540   102108529.989 6      1574.712          39.625    24935946.900   102108535.994 7      1574.712          43.125
R01  24109570.840   128879476.962 6      6777.645          36.500    24109570.520   128879476.971 5      6777.645          35.312    24109595.580   100239695.533 5      5271.502          31.312    24109594.920   100239690.542 5      5271.502          32.500
R22  21454155.820   114523739.619 7      1374.912          47.562    21454156.720   114523739.630 7      1374.912          46.812    21454165.260    89074059.186 8      1069.376          48.562    21454165.680    89074058.189 8      1069.376          48.437
G14  23125651.160   121526119.831 7      4822.396          44.375    23125650.420   121526119.838 5      4822.396          34.562    23125659.640    94695702.189 5      3757.711          34.437    23125660.340    94695707.199 8      3757.711          48.000
R07  21061341.240   112743012.831 7      1908.716          45.875    21061342.480   112743012.854 7      1908.716          45.187    21061354.800    87689066.965 8      1484.557          49.062    21061355.100    87689068.970 8      1484.557          49.312
G08  20980433.600   110252919.348 8      1434.214          49.125    20980432.260   110252919.348 8      1434.214          48.375    20980441.540    85911395.366 8      1117.569          48.875    20980442.820    85911403.370 8      1117.569          50.062
> 2024 05 09 14 46 13.0000000  0 14
G02  21527181.820   113126103.614 7      2147.543          47.562    21527179.900   113126103.624 6      2147.543          39.875    21527183.980    88150222.413 6      1673.410          39.937
R08  20880334.080   111813245.628 7      5284.683          47.625    20880336.680   111813245.675 7      5284.683          46.437    20880352.860    86965941.157 8      4110.309          50.187    20880352.480    86965943.163 8      4110.309          50.437
G03  21155977.680   111175418.817 7      4980.596          47.687    21155977.220   111175418.816 6      4980.596          40.937    21155989.200    86630243.012 6      3880.984          41.187    21155990.000    86630246.018 8      3880.984          50.875
G27  23305414.040   122470766.228 7       -18.893          43.500    23305412.900   122470766.236 7       -18.893          42.312    23305429.980    95431824.203 6       -14.722          41.812    23305429.920    95431827.200 7       -14.722          45.562
R12  21962342.000   117318880.927 7     -1103.311          45.312    21962340.640   117318880.923 7     -1103.311          45.500    21962364.460    91248101.759 7      -858.131          47.812    21962364.560    91248102.763 8      -858.131          48.187
G21  21469662.400   112823833.973 8      1243.301          48.500    21469660.900   112823833.978 6      1243.301          39.687    21469665.960    87914686.398 6       968.806          39.500
R23  21135314.180   113059686.014 7      3241.068          43.562    21135314.620   113059686.048 7      3241.068          42.812
G16  25522584.920   134122093.108 6     -1170.977          38.250    25522583.400   134122093.124 3     -1170.977          20.812    25522603.840   104510792.821 3      -912.450          21.187
G32  24935548.360   131037191.215 7      2020.215          44.062    24935548.340   131037191.220 6      2020.215          40.000    24935562.020   102106955.640 6      1574.193          39.750    24935562.920   102106961.641 7      1574.193          43.500
R01  24108303.320   128872699.403 6      6777.648          36.500    24108302.520   128872699.407 5      6777.648          35.312    24108327.680   100234424.088 5      5271.504          31.312    24108327.200   100234419.089 5      5271.504          32.500
R22  21453897.960   114522364.799 7      1374.860          47.312    21453899.080   114522364.811 7      1374.860          47.875    21453907.760    89072989.880 8      1069.335          48.125    21453907.940    89072988.889 8      1069.335          48.375
G14  23124733.400   121521297.600 7      4822.085          43.812    23124732.960   121521297.607 5      4822.085          34.562    23124742.100    94691944.603 5      3757.469          34.437    23124742.620    94691949.609 8      3757.469          48.437
R07  21060985.300   112741104.512 7      1907.984          47.437    21060986.080   112741104.535 7      1907.984          46.187    21060998.540    87687582.726 8      1483.988          49.125    21060998.960    87687584.724 8      1483.988          48.812
G08  20980160.620   110251485.425 8      1433.799          48.750    20980159.300   110251485.433 8      1433.799          49.437    20980168.560    85910278.030 8      1117.246          49.500    20980169.940    85910286.031 8      1117.246          49.937
> 2024 05 09 14 46 14.0000000  0 14
G02  21526773.260   113123956.067 7      2147.663          47.375    21526771.180   113123956.075 6      2147.663          39.687    21526775.380    88148549.001 6      1673.504          39.750
R08  20879347.160   111807961.254 7      5284.192          47.187    20879349.820   111807961.298 7      5284.192          46.625    20879366.000    86961831.101 8      4109.927          49.937    20879365.540    86961833.105 8      4109.927          50.500
G03  21155030.080   111170438.530 7      4980.126          47.437    21155029.620   111170438.530 6      4980.126          40.937    21155041.600    86626362.278 6      3880.618          40.562    21155042.080    86626365.283 8      3880.618          51.125
G27  23305417.580   122470785.123 7       -18.899          43.125    23305416.580   122470785.133 7       -18.899          42.437    23305433.500    95431838.915 7       -14.726          42.125    23305433.540    95431841.915 7       -14.726          45.500
R12  21962548.640   117319984.360 7     -1103.465          45.687    21962547.060   117319984.361 7     -1103.465          46.250    21962571.200    91248959.970 8      -858.250          48.437    21962571.080    91248960.977 8      -858.250          48.562
G21  21469425.780   112822590.577 8      1243.426          48.312    21469424.320   112822590.582 6      1243.426          39.812    21469429.320    87913717.522 6       968.904          39.250
R23  21134708.440   113056444.895 7      3241.207          44.437    21134708.980   113056444.918 7      3241.207          44.000
G16  25522807.880   134123264.006 6     -1170.914          38.250    25522806.140   134123264.017 3     -1170.914          20.812    25522826.640   104511705.203 3      -912.400          21.187
G32  24935164.020   131035171.130 7      2019.746          44.500    24935163.860   131035171.142 6      2019.746          40.062    24935177.740   102105381.556 6      1573.828          39.875    24935179.120   102105387.561 7      1573.828          44.062
R01  24107035.240   128865921.503 6      6777.891          36.500    24107034.820   128865921.520 5      6777.891          35.312    24107060.840   100229152.400 5      5271.693          31.312    24107059.260   100229147.395 5      5271.693          32.500
R22  21453640.480   114520989.873 7      1374.936          47.250    21453641.440   114520989.879 7      1374.936          47.562    21453650.160    89071920.489 8      1069.395          48.500    21453650.500    89071919.496 8      1069.395          48.187
G14  23123815.860   121516475.682 7      4821.733          44.750    23123815.620   121516475.695 5      4821.733          34.687    23123824.400    94688187.266 5      3757.195          34.437    23123825.300    94688192.274 8      3757.195          48.687
R07  21060628.700   112739196.934 7      1907.149          47.500    21060629.740   112739196.968 7      1907.149          46.437    21060641.900    87686099.062 8      1483.338          49.000    21060642.340    87686101.061 8      1483.338          49.000
G08  20979887.860   110250051.730 8      1433.561          48.500    20979886.580   110250051.743 8      1433.561          48.750    20979895.740    85909160.865 8      1117.060          48.937    20979896.700    85909168.869 8      1117.060          49.937
> 2024 05 09 14 46 15.0000000  0 14
G02  21526364.560   113121808.600 7      2147.420          46.812    21526362.580   113121808.604 6      2147.420          40.125    21526366.740    88146875.647 6      1673.314          39.937
R08  20878360.400   111802677.400 7      5283.580          47.750    20878362.700   111802677.447 7      5283.580          46.312    20878379.340    86957721.452 8      4109.451          49.937    20878378.840    86957723.459 8      4109.451          49.937
G03  21154082.380   111165458.685 8      4979.599          48.062    21154081.800   111165458.685 6      4979.599          40.937    21154093.920    86622481.887 6      3880.207          40.687    21154094.320    86622484.889 8      3880.207          51.562
G27  23305421.420   122470804.264 7       -19.315          42.500    23305420.280   122470804.272 7       -19.315          42.500    23305437.200    95431853.812 6       -15.051          41.937    23305437.200    95431856.812 7       -15.051          45.250
R12  21962755.380   117321088.007 7     -1103.771          46.000    21962753.800   117321088.003 7     -1103.771          46.125    21962777.700    91249818.340 7      -858.489          47.500    21962777.980    91249819.344 8      -858.489          48.437
G21  21469189.160   112821347.214 7      1243.265          47.937    21469187.720   112821347.222 6      1243.265          39.500    21469192.680    87912748.664 6       968.778          39.187
R23  21134102.460   113053203.765 7      3241.009          45.187    21134103.320   113053203.788 7      3241.009          44.062
G16  25523030.660   134124434.752 6     -1170.898          38.875    25523028.940   134124434.762 3     -1170.898          20.812    25523049.300   104512617.466 3      -912.388          20.625
G32  24934780.060   131033151.475 7      2019.376          43.187    24934779.460   131033151.488 6      2019.376          39.937    24934793.540   102103807.801 6      1573.540          40.062    24934794.200   102103813.804 7      1573.540          43.625
R01  24105767.500   128859143.401 6      6778.280          36.500    24105767.220   128859143.419 5      6778.280          35.312    24105792.980   100223880.537 5      5271.996          31.312    24105790.940   100223875.545 5      5271.996          32.500
R22  21453382.900   114519614.928 8      1374.873          48.312    21453383.840   114519614.937 7      1374.873          47.687    21453392.440    89070851.088 8      1069.346          48.562    21453392.900    89070850.094 8      1069.346          48.125
G14  23122898.260   121511654.184 7      4821.309          45.812    23122898.300   121511654.192 5      4821.309          34.437    23122906.800    94684430.253 5      3756.864          34.687    23122907.780    94684435.257 8      3756.864          49.000
R07  21060272.440   112737290.213 7      1906.244          47.375    21060273.760   112737290.234 7      1906.244          46.062    21060285.780    87684616.049 8      1482.634          49.000    21060286.260    87684618.050 8      1482.634          48.937
G08  20979615.020   110248618.383 8      1433.061          49.187    20979613.800   110248618.390 8      1433.061          49.000    20979623.000    85908043.963 8      1116.671          48.812    20979623.900    85908051.966 8      1116.671          50.250
> 2024 05 09 14 46 16.0000000  0 14
G02  21525955.880   113119661.242 7      2147.327          46.562    21525953.960   113119661.247 6      2147.327          40.125    21525958.060    88145202.384 6      1673.242          40.000
R08  20877373.800   111797394.172 7      5282.949          47.250    20877376.060   111797394.227 7      5282.949          46.375    20877392.680    86953612.291 8      4108.961          49.750    20877392.400    86953614.301 8      4108.961          50.437
G03  21153134.980   111160479.342 7      4979.113          46.812    21153134.180   111160479.347 6      4979.113          40.937    21153146.340    86618601.888 6      3879.828          40.750    21153146.960    86618604.889 8      3879.828          51.750
G27  23305425.200   122470823.666 7       -19.608          42.625    23305424.020   122470823.679 7       -19.608          42.750    23305440.880    95431868.922 7       -15.279          42.062    23305440.680    95431871.932 7       -15.279          45.187
R12  21962962.180   117322191.958 7     -1104.060          45.625    21962960.640   117322191.951 7     -1104.060          45.625    21962984.480    91250676.945 7      -858.714          47.687    21962984.600    91250677.954 8      -858.714          48.500
G21  21468952.600   112820103.934 7      1243.236          47.312    21468951.040   112820103.938 6      1243.236          38.937    21468956.080    87911779.876 6       968.755          39.375
R23  21133496.660   113049962.654 7      3241.187          43.875    21133497.280   113049962.672 7      3241.187          44.062
G16  25523253.840   134125605.435 6     -1170.504          38.000    25523251.800   134125605.442 3     -1170.504          20.812    25523272.080   104513529.678 3      -912.081          20.625
G32  24934395.460   131031132.375 7      2018.868          43.500    24934395.260   131031132.385 6      2018.868          39.875    24934409.160   102102234.474 6      1573.144          40.125    24934409.920   102102240.473 7      1573.144          43.812
R01  24104499.640   128852365.225 6      6778.228          37.062    24104499.080   128852365.264 5      6778.228          35.875    24104525.100   100218608.635 5      5271.955          31.562    24104522.960   100218603.630 5      5271.955          32.500
R22  21453125.300   114518240.045 8      1374.929          48.375    21453125.960   114518240.062 7      1374.929          47.312    21453134.980    89069781.738 8      1069.389          48.562    21453135.380    89069780.740 8      1069.389          48.500
G14  23121980.860   121506833.183 7      4820.767          44.937    23121981.020   121506833.193 5      4820.767          34.437    23121989.320    94680673.631 5      3756.442          34.375    23121990.320    94680678.639 8      3756.442          48.687
R07  21059916.200   112735384.402 7      1905.400          46.937    21059917.220   112735384.431 7      1905.400          46.187    21059929.740    87683133.760 8      1481.978          49.000    21059929.900    87683135.761 8      1481.978          48.875
G08  20979342.300   110247185.434 8      1432.771          48.312    20979341.160   110247185.437 8      1432.771          48.250    20979350.320    85906927.373 8      1116.445          48.875    20979351.340    85906935.377 8      1116.445          49.625
> 2024 05 09 14 46 17.0000000  0 14
G02  21525547.120   113117513.893 7      2147.424          46.562    21525545.220   113117513.903 6      2147.424          39.750    21525549.360    88143529.125 6      1673.317          39.687
R08  20876387.640   111792111.469 7      5282.484          47.437    20876389.860   111792111.519 7      5282.484          46.500    20876406.080    86949503.531 8      4108.599          50.187    20876405.860    86949505.534 8      4108.599          50.312
G03  21152187.400   111155500.427 7      4978.701          47.750    21152186.680   111155500.429 6      4978.701          40.812    21152198.840    86614722.222 6      3879.507          40.437    21152199.620    86614725.224 8      3879.507          51.625
G27  23305428.640   122470843.243 7       -19.680          42.937    23305427.700   122470843.254 7       -19.680          42.312    23305444.700    95431884.155 7       -15.335          42.000    23305444.540    95431887.157 7       -15.335          45.187
R12  21963168.680   117323296.126 7     -1104.247          45.937    21963167.640   117323296.116 7     -1104.247          45.687    21963191.120    91251535.722 7      -858.859          47.937    21963191.420    91251536.726 8      -858.859          48.625
G21  21468715.860   112818860.624 7      1243.396          46.687    21468714.500   112818860.631 6      1243.396          39.312    21468719.620    87910811.065 6       968.880          39.375
R23  21132891.100   113046721.522 7      3241.198          44.437    21132892.040   113046721.537 7      3241.198          43.500
G16  25523476.260   134126776.005 6     -1170.475          38.250    25523474.680   134126776.012 3     -1170.475          20.812    25523494.640   104514441.806 3      -912.059          20.625
G32  24934010.960   131029113.692 7      2018.551          43.125    24934011.100   131029113.697 6      2018.551          40.000    24934025.120   102100661.475 6      1572.897          39.937    24934025.580   102100667.472 7      1572.897          44.000
R01  24103230.880   128845586.812 6      6778.693          37.062    24103231.280   128845586.834 5      6778.693          35.875    24103255.980   100213336.527 5      5272.317          31.562    24103254.540   100213331.516 5      5272.317          32.500
R22  21452867.760   114516865.161 7      1374.922          47.187    21452868.600   114516865.178 7      1374.922          47.250    21452877.320    89068712.382 8      1069.384          48.500    21452877.940    89068711.380 8      1069.384          48.312
G14  23121063.740   121502012.560 7      4820.468          44.625    23121063.680   121502012.570 5      4820.468          34.625    23121071.980    94676917.299 5      3756.209          34.375    23121072.640    94676922.307 8      3756.209          48.375
R07  21059560.220   112733479.397 7      1904.700          47.062    21059561.760   112733479.412 7      1904.700          46.125    21059573.880    87681652.079 8      1481.434          48.750    21059574.360    87681654.084 8      1481.434          48.437
G08  20979069.740   110245752.786 7      1432.500          47.875    20979068.380   110245752.785 8      1432.500          48.312    20979077.700    85905811.018 8      1116.234          48.937    20979078.900    85905819.021 8      1116.234          50.187
> 2024 05 09 14 46 18.0000000  0 14
G02  21525138.420   113115366.530 7      2147.049          47.500    21525136.640   113115366.541 6      2147.049          39.750    21525140.780    88141855.855 6      1673.025          39.250
R08  20875401.080   111786829.216 7      5281.813          47.437    20875403.280   111786829.266 7      5281.813          46.062    20875419.740    86945395.118 8      4108.076          49.812    20875419.660    86945397.123 8      4108.076          50.187
G03  21151240.020   111150521.851 7      4978.115          47.500    21151239.300   111150521.853 6      4978.115          40.937    21151251.440    86610842.818 6      3879.050          40.750    21151252.220    86610845.820 8      3879.050          51.625
G27  23305432.440   122470862.947 7       -20.145          42.687    23305431.600   122470862.949 7       -20.145          42.187    23305448.540    95431899.488 6       -15.698          41.875    23305448.320    95431902.496 7       -15.698          45.562
R12  21963375.600   117324400.414 7     -1104.625          44.437    21963374.160   117324400.407 7     -1104.625          46.125    21963397.840    91252394.594 8      -859.153          48.000    21963397.960    91252395.598 8      -859.153          48.562
G21  21468479.100   112817617.245 7      1243.210          47.125    21468477.980   112817617.253 6      1243.210          39.250    21468482.820    87909842.197 6       968.735          39.312
R23  21132285.420   113043480.272 7      3241.059          44.437    21132285.500   113043480.287 7      3241.059          43.312
G16  25523699.260   134127946.343 6     -1170.495          38.250    25523697.380   134127946.350 3     -1170.495          20.812    25523717.220   104515353.754 3      -912.074          20.625
G32  24933626.980   131027095.378 7      2017.881          43.750    24933626.940   131027095.380 6      2017.881          39.562    24933640.920   102099088.762 6      1572.375          39.812    24933641.620   102099094.761 7      1572.375          43.875
R01  24101963.540   128838808.184 6      6778.535          37.062    24101963.180   128838808.182 5      6778.535          35.875    24101987.660   100208064.226 5      5272.194          31.562    24101986.700   100208059.212 5      5272.194          32.500
R22  21452610.220   114515490.160 7      1374.807          47.437    21452610.600   114515490.172 7      1374.807          47.562    21452619.540    89067642.935 8      1069.294          48.437    21452620.120    89067641.929 8      1069.294          48.500
G14  23120146.340   121497192.269 7      4819.859          45.187    23120146.600   121497192.281 5      4819.859          34.687    23120154.780    94673161.232 5      3755.734          34.625    23120155.420    94673166.234 8      3755.734          48.437
R07  21059204.360   112731575.077 8      1903.748          48.000    21059205.720   112731575.092 7      1903.748          45.750    21059218.100    87680170.943 8      1480.693          48.750    21059218.420    87680172.946 8      1480.693          49.062
G08  20978797.340   110244320.384 8      1431.940          48.500    20978795.880   110244320.386 8      1431.940          48.937    20978805.140    85904694.858 8      1115.798          48.750    20978806.440    85904702.862 8      1115.798          50.437
> 2024 05 09 14 46 19.0000000  0 14
G02  21524729.860   113113219.344 7      2147.251          46.750    21524727.940   113113219.354 6      2147.251          39.875    21524732.180    88140182.723 6      1673.183          40.000
R08  20874414.800   111781547.659 7      5281.406          47.125    20874416.840   111781547.714 7      5281.406          46.500    20874433.440    86941287.255 8      4107.760          49.500    20874433.240    86941289.256 8      4107.760          49.937
G03  21150292.880   111145543.866 7      4977.877          47.437    21150291.920   111145543.871 6      4977.877          41.125    21150304.240    86606963.879 6      3878.865          40.500    21150304.980    86606966.881 8      3878.865          51.562
G27  23305436.000   122470882.956 7       -19.912          43.375    23305435.320   122470882.955 7       -19.912          42.437    23305452.300    95431915.061 6       -15.516          41.562    23305452.620    95431918.067 7       -15.516          45.625
R12  21963582.760   117325505.067 7     -1104.647          46.062    21963581.300   117325505.058 7     -1104.647          45.625    21963604.680    91253253.750 8      -859.170          48.437    21963604.820    91253254.754 8      -859.170          48.562
G21  21468242.540   112816374.025 7      1243.346          47.687    21468241.400   112816374.035 6      1243.346          39.312    21468246.300    87908873.451 6       968.841          39.250
R23  21131679.680   113040239.161 7      3241.195          44.500    21131679.860   113040239.184 7      3241.195          43.875
G16  25523922.240   134129116.713 6     -1170.092          38.437    25523920.140   134129116.720 3     -1170.092          20.812    25523940.020   104516265.725 3      -911.760          20.625
G32  24933243.180   131025077.641 6      2017.708          41.812    24933242.980   131025077.638 6      2017.708          40.000    24933256.980   102097516.502 6      1572.240          39.875    24933257.960   102097522.499 7      1572.240          43.625
R01  24100694.560   128832029.511 6      6778.890          37.062    24100695.120   128832029.499 5      6778.890          35.875    24100720.500   100202791.923 5      5272.470          31.562    24100718.900   100202786.911 5      5272.470          33.187
R22  21452352.840   114514115.320 7      1374.946          47.500    21452352.920   114514115.329 7      1374.946          47.187    21452362.220    89066573.610 8      1069.403          48.312    21452362.620    89066572.606 8      1069.403          48.500
G14  23119229.000   121492372.534 7      4819.696          45.062    23119229.280   121492372.544 5      4819.696          34.687    23119237.440    94669405.592 5      3755.607          34.625    23119238.180    94669410.590 8      3755.607          48.750
R07  21058848.580   112729671.686 8      1903.104          48.500    21058849.960   112729671.709 7      1903.104          46.062    21058862.520    87678690.536 8      1480.192          48.750    21058862.800    87678692.538 8      1480.192          49.187
G08  20978524.580   110242888.450 8      1431.881          48.812    20978523.420   110242888.452 8      1431.881          49.187    20978532.600    85903579.063 8      1115.751          49.062    20978534.080    85903587.065 8      1115.751          50.187
> 2024 05 09 14 46 20.0000000  0 14
G02  21524321.320   113111072.144 7      2146.967          47.625    21524319.400   113111072.152 6      2146.967          40.062    21524323.560    88138509.578 6      1672.961          39.750
R08  20873428.080   111776266.560 7      5280.610          47.437    20873430.660   111776266.615 7      5280.610          46.375    20873447.300    86937179.744 8      4107.141          49.937    20873447.040    86937181.747 8      4107.141          50.312
G03  21149345.840   111140566.263 7      4977.114          47.812    21149344.620   111140566.265 6      4977.114          41.312    21149357.060    86603085.229 6      3878.271          41.062    21149357.600    86603088.235 8      3878.271          51.750
G27  23305440.180   122470903.109 7       -20.409          43.625    23305439.180   122470903.122 7       -20.409          42.312    23305456.160    95431930.760 7       -15.903          42.250    23305456.120    95431933.772 7       -15.903          45.375
R12  21963789.620   117326609.860 7     -1105.174          45.937    21963788.180   117326609.858 7     -1105.174          46.312    21963811.420    91254113.019 8      -859.579          48.312    21963811.540    91254114.023 8      -859.579          48.187
G21  21468006.200   112815130.749 7      1243.046          47.500    21468004.740   112815130.759 6      1243.046          39.125    21468009.820    87907904.663 6       968.607          39.312
R23  21131073.380   113036997.938 7      3241.041          44.500    21131073.740   113036997.971 7      3241.041          43.937
G16  25524145.160   134130286.904 6     -1170.277          38.250    25524142.800   134130286.912 3     -1170.277          20.812    25524162.620   104517177.558 3      -911.904          20.625
G32  24932859.520   131023060.306 7      2016.835          42.625    24932859.000   131023060.311 6      2016.835          40.187    24932873.060   102095944.559 6      1571.560          40.187    24932874.180   102095950.564 7      1571.560          43.625
R01  24099426.520   128825250.546 6      6778.785          37.062    24099426.340   128825250.572 5      6778.785          35.875    24099452.200   100197519.409 5      5272.388          31.562    24099451.040   100197514.404 5      5272.388          33.187
R22  21452095.320   114512740.383 7      1374.672          47.625    21452095.400   114512740.394 7      1374.672          47.500    21452104.480    89065504.217 8      1069.190          48.437    21452105.220    89065503.209 8      1069.190          48.687
G14  23118311.980   121487553.149 7      4818.962          45.500    23118312.020   121487553.159 5      4818.962          34.000    23118320.520    94665650.227 5      3755.036          34.062    23118321.360    94665655.231 8      3755.036          48.375
R07  21058493.520   112727769.017 7      1902.003          47.812    21058494.440   112727769.037 7      1902.003          46.125    21058507.080    87677210.684 8      1479.336          48.937    21058507.400    87677212.685 8      1479.336          49.125
G08  20978252.280   110241456.773 8      1431.299          48.562    20978250.960   110241456.778 8      1431.299          49.062    20978260.240    85902463.469 8      1115.298          49.000    20978261.640    85902471.475 8      1115.298          50.562
> 2024 05 09 14 46 21.0000000  0 14
G02  21523912.580   113108925.002 7      2147.408          47.625    21523910.820   113108925.013 6      2147.408          39.500    21523915.000    88136836.481 6      1673.305          39.437
R08  20872442.200   111770986.002 8      5280.590          48.000    20872444.660   111770986.052 7      5280.590          46.500    20872461.120    86933072.653 8      4107.126          49.875    20872460.900    86933074.653 8      4107.126          49.937
G03  21148398.780   111135589.095 7      4977.199          47.937    21148397.500   111135589.097 6      4977.199          40.687    21148409.920    86599206.925 6      3878.337          40.375    21148410.740    86599209.927 8      3878.337          51.500
G27  23305444.460   122470923.514 7       -20.191          43.125    23305443.020   122470923.532 7       -20.191          42.000    23305460.000    95431946.648 6       -15.733          41.687    23305460.020    95431949.650 7       -15.733          45.312
R12  21963996.540   117327714.882 7     -1104.845          46.875    21963995.400   117327714.889 7     -1104.845          47.062    21964018.240    91254972.462 8      -859.324          48.687    21964018.540    91254973.468 8      -859.324          48.437
G21  21467769.580   112813887.492 8      1243.523          48.375    21467768.240   112813887.499 6      1243.523          39.375    21467773.100    87906935.889 6       968.979          39.437
R23  21130467.680   113033756.744 7      3241.548          44.375    21130468.120   113033756.767 7      3241.548          43.937
G16  25524367.660   134131456.977 6     -1169.755          38.750    25524365.240   134131456.985 3     -1169.755          20.812    25524385.160   104518089.301 3      -911.498          20.625
G32  24932475.520   131021043.413 7      2017.047          43.250    24932475.080   131021043.413 6      2017.047          39.875    24932489.440   102094372.950 6      1571.725          39.875    24932490.000   102094378.959 7      1571.725          43.625
R01  24098158.920   128818471.475 6      6779.420          37.437    24098158.800   128818471.471 5      6779.420          35.875    24098183.820   100192246.792 5      5272.882          31.562    24098183.040   100192241.774 5      5272.882          33.187
R22  21451837.500   114511365.459 7      1375.156          46.750    21451837.800   114511365.476 7      1375.156          47.062    21451847.020    89064434.834 8      1069.565          48.437    21451847.700    89064433.830 8      1069.565          48.625
G14  23117395.160   121482734.189 7      4819.057          45.062    23117394.840   121482734.200 5      4819.057          34.000    23117403.560    94661895.194 5      3755.109          33.812    23117404.260    94661900.198 8      3755.109          48.375
R07  21058137.900   112725867.159 8      1901.769          48.875    21058138.820   112725867.185 7      1901.769          46.250    21058151.700    87675731.464 8      1479.154          48.875    21058152.100    87675733.464 8      1479.154          48.625
G08  20977979.920   110240025.451 8      1431.460          49.250    20977978.540   110240025.453 8      1431.460          48.562    20977987.880    85901348.147 8      1115.424          49.187    20977989.260    85901356.155 8      1115.424          50.375
> 2024 05 09 14 46 22.0000000  0 14
G02  21523504.200   113106777.837 7      2147.134          46.937    21523502.220   113106777.847 6      2147.134          39.625    21523506.460    88135163.365 6      1673.092          39.500
R08  20871456.300   111765705.883 7      5279.962          47.562    20871458.400   111765705.930 7      5279.962          46.562    20871475.260    86928965.902 8      4106.637          49.937    20871474.700    86928967.904 8      4106.637          50.625
G03  21147451.480   111130612.303 7      4976.573          47.062    21147450.480   111130612.305 6      4976.573          40.875    21147462.960    86595328.913 6      3877.849          40.625    21147463.580    86595331.911 8      3877.849          51.937
G27  23305448.240   122470944.045 7       -20.681          42.937    23305446.940   122470944.056 7       -20.681          42.062    23305463.920    95431962.626 6       -16.115          41.750    23305463.900    95431965.624 7       -16.115          45.562
R12  21964203.240   117328820.092 7     -1105.376          45.312    21964202.480   117328820.101 7     -1105.376          45.937    21964225.200    91255832.059 8      -859.737          48.625    21964225.260    91255833.063 8      -859.737          48.812
G21  21467533.020   112812644.169 7      1243.341          47.875    21467531.580   112812644.176 6      1243.341          38.687    21467536.420    87905967.062 6       968.837          39.375
R23  21129861.720   113030515.435 7      3241.368          45.312    21129862.280   113030515.458 7      3241.368          43.750
G16  25524590.060   134132626.851 6     -1169.883          38.750    25524587.960   134132626.861 3     -1169.883          20.812    25524607.840   104519000.887 3      -911.597          20.625
G32  24932091.480   131019026.920 7      2016.303          42.812    24932091.500   131019026.919 6      2016.303          39.937    24932105.740   102092801.658 6      1571.145          40.312    24932106.160   102092807.665 7      1571.145          43.750
R01  24096891.560   128811692.120 6      6779.257          37.437    24096890.300   128811692.119 6      6779.257          36.625    24096915.380   100186973.950 5      5272.756          31.562    24096914.960   100186968.947 5      5272.756          33.187
R22  21451579.900   114509990.461 7      1375.043          47.687    21451580.360   114509990.470 7      1375.043          47.187    21451589.500    89063365.379 8      1069.478          48.500    21451590.080    89063364.371 8      1069.478          48.375
G14  23116478.300   121477915.572 7      4818.448          44.562    23116477.760   121477915.582 5      4818.448          34.250    23116486.540    94658140.427 5      3754.635          33.812    23116487.460    94658145.427 8      3754.635          48.375
R07  21057783.040   112723966.083 8      1900.676          48.312    21057783.840   112723966.101 7      1900.676          46.437    21057796.600    87674252.845 8      1478.303          49.312    21057796.960    87674254.845 8      1478.303          48.625
G08  20977707.540   110238594.395 8      1430.867          48.437    20977706.460   110238594.397 8      1430.867          49.312    20977715.480    85900233.038 8      1114.961          48.812    20977717.040    85900241.044 8      1114.961          50.375
> 2024 05 09 14 46 23.0000000  0 14
G02  21523095.520   113104630.698 7      2146.976          46.187    21523093.620   113104630.708 6      2146.976          39.125    21523097.880    88133490.271 6      1672.969          39.312
R08  20870470.400   111760426.323 7      5279.144          46.125    20870472.520   111760426.373 7      5279.144          45.750    20870489.220    86924859.595 8      4106.001          50.062    20870488.800    86924861.594 8      4106.001          50.000
G03  21146504.600   111125635.940 7      4976.001          47.000    21146503.520   111125635.942 6      4976.001          40.750    21146515.860    86591451.234 6      3877.403          40.625    21146516.640    86591454.233 8      3877.403          51.125
G27  23305452.180   122470964.740 7       -20.973          42.750    23305450.880   122470964.750 7       -20.973          42.000    23305468.060    95431978.735 6       -16.343          41.625    23305467.960    95431981.735 7       -16.343          45.312
R12  21964410.280   117329925.475 7     -1105.629          45.750    21964409.580   117329925.481 7     -1105.629          46.437    21964431.980    91256691.782 7      -859.934          47.625    21964432.260    91256692.782 8      -859.934          48.375
G21  21467296.400   112811400.835 7      1243.201          47.375    21467295.040   112811400.846 6      1243.201          38.937    21467299.820    87904998.235 6       968.728          39.250
R23  21129255.940   113027274.107 7      3241.160          43.375    21129255.960   113027274.130 7      3241.160          43.125
G16  25524812.640   134133796.598 6     -1169.877          38.500    25524810.620   134133796.605 3     -1169.877          20.812    25524830.320   104519912.376 3      -911.592          20.625
G32  24931707.960   131017010.844 7      2015.738          43.062    24931707.820   131017010.849 6      2015.738          39.750    24931722.160   102091230.700 6      1570.705          39.562    24931722.640   102091236.705 7      1570.705          43.812
R01  24095623.240   128804912.514 6      6779.704          37.437    24095622.100   128804912.513 6      6779.704          36.625    24095647.120   100181700.919 5      5273.103          31.562    24095647.120   100181695.920 5      5273.103          33.187
R22  21451322.420   114508615.442 7      1374.913          47.000    21451322.620   114508615.451 7      1374.913          47.000    21451331.860    89062295.917 8      1069.377          48.312    21451332.480    89062294.909 8      1069.377          48.500
G14  23115561.200   121473097.340 7      4817.930          44.500    23115560.720   121473097.350 5      4817.930          34.312    23115569.900    94654385.965 5      3754.231          34.125    23115570.280    94654390.967 7      3754.231          47.875
R07  21057428.160   112722065.813 7      1899.652          47.437    21057428.580   112722065.830 7      1899.652          45.000    21057441.440    87672774.863 8      1477.507          48.562    21057442.040    87672776.861 8      1477.507          48.750
G08  20977435.220   110237163.635 8      1430.412          48.312    20977434.060   110237163.635 7      1430.412          47.875    20977443.260    85899118.155 8      1114.606          48.437    20977444.720    85899126.158 8      1114.606          49.875
> 2024 05 09 14 46 24.0000000  0 14
G02  21522687.080   113102483.648 7      2146.918          47.687    21522685.060   113102483.658 6      2146.918          39.375    21522689.400    88131817.247 6      1672.923          39.187
R08  20869484.760   111755147.345 7      5278.515          47.375    20869487.100   111755147.389 7      5278.515          46.437    20869503.500    86920753.729 8      4105.511          50.062    20869503.240    86920755.728 8      4105.511          50.375
G03  21145557.640   111120660.038 7      4975.590          47.437    21145556.520   111120660.038 6      4975.590          41.000    21145569.020    86587573.916 6      3877.083          40.687    21145569.820    86587576.918 8      3877.083          52.062
G27  23305456.220   122470985.660 7       -21.079          43.687    23305454.880   122470985.673 7       -21.079          42.687    23305472.120    95431995.025 7       -16.425          42.062    23305471.840    95431998.024 7       -16.425          45.375
R12  21964617.380   117331031.098 7     -1105.783          47.687    21964616.740   117331031.099 7     -1105.783          46.562    21964639.100    91257551.684 8      -860.053          48.062    21964639.200    91257552.686 8      -860.053          48.062
G21  21467059.780   112810157.549 8      1243.143          48.062    21467058.300   112810157.554 6      1243.143          39.187    21467063.280    87904029.436 6       968.683          39.187
R23  21128650.060   113024032.782 7      3241.172          45.312    21128649.920   113024032.802 7      3241.172          44.062
G16  25525035.340   134134966.256 6     -1169.925          38.562    25525033.360   134134966.263 3     -1169.925          20.812    25525052.860   104520823.792 3      -911.630          20.625
G32  24931324.840   131014995.259 7      2015.255          43.562    24931324.500   131014995.264 6      2015.255          40.750    24931338.600   102089660.117 6      1570.329          40.437    24931339.080   102089666.128 7      1570.329          44.000
R01  24094354.600   128798132.828 6      6779.549          37.437    24094354.020   128798132.824 6      6779.549          36.625    24094378.400   100176427.842 5      5272.982          32.812    24094378.360   100176422.833 5      5272.982          33.187
R22  21451064.980   114507240.457 7      1374.882          46.937    21451064.960   114507240.458 7      1374.882          46.875    21451074.320    89061226.476 8      1069.353          48.375    21451074.940    89061225.474 8      1069.353          48.437
G14  23114644.140   121468279.568 7      4817.497          44.750    23114643.640   121468279.578 5      4817.497          34.312    23114653.180    94650631.863 5      3753.894          34.125    23114653.700    94650636.861 7      3753.894          47.937
R07  21057073.480   112720166.377 7      1898.937          47.500    21057073.700   112720166.392 7      1898.937          46.250    21057086.680    87671297.528 8      1476.951          48.937    21057087.320    87671299.523 8      1476.951          48.375
G08  20977163.060   110235733.225 8      1430.257          48.000    20977161.860   110235733.225 8      1430.257          49.562    20977171.140    85898003.547 8      1114.486          48.625    20977172.240    85898011.551 8      1114.486          50.062
> 2024 05 09 14 46 25.0000000  0 14
G02  21522278.440   113100336.714 7      2146.766          47.312    21522276.460   113100336.721 6      2146.766          39.437    21522280.880    88130144.312 6      1672.805          39.375
R08  20868499.100   111749868.942 8      5278.035          48.000    20868501.120   111749868.984 7      5278.035          46.625    20868517.840    86916648.313 8      4105.138          50.000    20868517.360    86916650.312 8      4105.138          49.875
G03  21144610.740   111115684.663 7      4975.037          47.687    21144609.820   111115684.665 6      4975.037          41.250    21144622.220    86583697.006 6      3876.652          40.625    21144623.240    86583700.006 8      3876.652          51.750
G27  23305460.440   122471006.893 7       -21.484          43.687    23305458.940   122471006.903 7       -21.484          42.187    23305476.120    95432011.558 6       -16.741          41.937    23305475.940    95432014.555 7       -16.741          45.500
R12  21964824.280   117332137.039 7     -1106.257          46.625    21964823.940   117332137.043 7     -1106.257          47.437    21964846.040    91258411.846 8      -860.422          48.312    21964846.100    91258412.848 8      -860.422          48.562
G21  21466823.400   112808914.334 8      1243.062          48.000    21466821.740   112808914.341 6      1243.062          39.375    21466826.780    87903060.699 6       968.620          39.312
R23  21128043.820   113020791.468 7      3241.247          44.437    21128044.100   113020791.496 7      3241.247          44.062
G16  25525258.200   134136135.814 6     -1169.558          38.562    25525255.780   134136135.824 3     -1169.558          20.812    25525275.320   104521735.132 3      -911.344          20.750
G32  24930941.740   131012980.197 7      2014.743          44.187    24930941.200   131012980.202 6      2014.743          40.437    24930955.180   102088089.937 6      1569.930          40.625    24930956.060   102088095.940 7      1569.930          43.937
R01  24093086.500   128791352.966 6      6779.949          37.437    24093085.560   128791352.970 6      6779.949          36.625    24093111.580   100171154.612 5      5273.293          32.812    24093111.240   100171149.600 5      5273.293          34.562
R22  21450807.540   114505865.512 7      1374.849          47.812    21450807.520   114505865.518 7      1374.849          47.625    21450816.660    89060157.079 8      1069.327          48.625    21450817.400    89060156.077 8      1069.327          48.562
G14  23113727.540   121463462.277 7      4816.980          44.687    23113726.780   121463462.290 5      4816.980          34.000    23113736.300    94646878.134 5      3753.491          34.000    23113736.940    94646883.128 8      3753.491          48.250
R07  21056718.680   112718267.846 7      1898.062          47.562    21056719.060   112718267.864 7      1898.062          46.375    21056732.040    87669820.891 8      1476.271          49.312    21056732.380    87669822.886 8      1476.271          49.062
G08  20976890.920   110234303.233 8      1429.774          49.687    20976889.800   110234303.237 8      1429.774          49.375    20976898.940    85896889.265 8      1114.110          49.437    20976900.160    85896897.267 8      1114.110          49.875
> 2024 05 09 14 46 26.0000000  0 14
G02  21521869.840   113098189.722 7      2147.146          47.187    21521867.900   113098189.732 6      2147.146          39.250    21521872.220    88128471.329 6      1673.101          39.375
R08  20867513.560   111744590.941 7      5277.911          47.125    20867515.400   111744590.993 7      5277.911          46.562    20867532.240    86912543.218 8      4105.042          49.687    20867531.840    86912545.223 8      4105.042          50.437
G03  21143663.960   111110709.624 7      4974.934          47.937    21143662.960   111110709.623 6      4974.934          40.750    21143675.560    86579820.356 6      3876.572          40.687    21143676.400    86579823.358 8      3876.572          52.062
G27  23305464.440   122471028.205 7       -21.338          43.500    23305463.100   122471028.210 7       -21.338          42.250    23305480.240    95432028.144 6       -16.627          41.937    23305480.180    95432031.137 7       -16.627          45.250
R12  21965031.540   117333243.095 7     -1106.074          47.937    21965031.120   117333243.101 7     -1106.074          47.312    21965053.400    91259272.098 8      -860.280          48.062    21965053.120    91259273.098 8      -860.280          48.500
G21  21466586.720   112807671.040 7      1243.349          47.687    21466585.160   112807671.050 6      1243.349          39.500    21466590.280    87902091.896 6       968.844          39.312
R23  21127437.560   113017550.066 7      3241.508          43.312    21127437.680   113017550.094 7      3241.508          43.437
G16  25525479.940   134137305.180 6     -1169.053          38.562    25525478.420   134137305.188 3     -1169.053          20.812    25525497.780   104522646.324 3      -910.951          20.750
G32  24930558.280   131010965.490 7      2014.591          44.687    24930557.980   131010965.498 6      2014.591          40.687    24930571.720   102086520.037 6      1569.811          40.812    24930572.780   102086526.042 7      1569.811          43.937
R01  24091818.280   128784572.865 6      6780.364          37.812    24091817.120   128784572.864 6      6780.364          36.625    24091842.480   100165881.209 5      5273.617          32.812    24091842.720   100165876.195 5      5273.617          34.562
R22  21450549.700   114504490.482 7      1375.141          46.812    21450550.160   114504490.491 7      1375.141          47.187    21450559.300    89059087.606 8      1069.554          48.687    21450559.500    89059086.609 8      1069.554          48.562
G14  23112810.980   121458645.317 7      4816.828          44.687    23112809.860   121458645.327 5      4816.828          34.000    23112819.900    94643124.660 5      3753.373          34.000    23112820.320    94643129.650 8      3753.373          49.062
R07  21056364.660   112716370.052 7      1897.496          47.312    21056364.460   112716370.064 7      1897.496          45.937    21056377.280    87668344.826 8      1475.830          48.687    21056377.740    87668346.819 8      1475.830          48.562
G08  20976618.860   110232873.479 8      1429.744          48.750    20976617.660   110232873.482 8      1429.744          48.875    20976626.900    85895775.166 8      1114.087          49.187    20976627.900    85895783.165 8      1114.087          49.875
> 2024 05 09 14 46 27.0000000  0 14
G02  21521461.320   113096042.958 7      2146.775          47.062    21521459.460   113096042.966 6      2146.775          40.062    21521463.580    88126798.522 6      1672.812          40.000
R08  20866527.980   111739313.638 7      5277.036          46.875    20866530.120   111739313.694 7      5277.036          46.437    20866546.740    86908438.659 8      4104.361          49.937    20866546.300    86908440.665 8      4104.361          50.375
G03  21142717.620   111105735.186 7      4974.237          47.187    21142716.440   111105735.188 6      4974.237          40.500    21142728.860    86575944.179 6      3876.029          40.250    21142729.780    86575947.183 8      3876.029          51.750
G27  23305468.520   122471049.874 7       -21.629          43.312    23305467.040   122471049.874 7       -21.629          42.312    23305484.340    95432045.008 7       -16.854          42.000    23305484.200    95432048.002 7       -16.854          45.562
R12  21965238.460   117334349.568 7     -1106.568          47.437    21965238.320   117334349.577 7     -1106.568          47.312    21965260.280    91260132.671 7      -860.664          47.812    21965260.500    91260133.673 8      -860.664          49.062
G21  21466350.220   112806427.919 7      1243.092          46.750    21466348.340   112806427.927 6      1243.092          39.437    21466353.480    87901123.227 6       968.643          39.125
R23  21126831.640   113014308.818 7      3241.177          43.312    21126831.400   113014308.844 7      3241.177          43.812
G16  25525702.780   134138474.612 6     -1169.427          37.812    25525700.740   134138474.620 3     -1169.427          20.812    25525720.180   104523557.564 3      -911.242          20.750
G32  24930174.860   131008951.390 7      2013.916          44.125    24930174.880   131008951.400 6      2013.916          40.250    24930188.480   102084950.610 6      1569.285          40.625    24930189.660   102084956.614 7      1569.285          44.312
R01  24090550.100   128777792.754 6      6780.081          37.812    24090548.960   128777792.769 6      6780.081          37.125    24090575.040   100160607.787 5      5273.396          32.812    24090573.920   100160602.773 5      5273.396          34.562
R22  21450291.960   114503115.606 7      1374.951          47.750    21450292.520   114503115.615 7      1374.951          47.687    21450301.680    89058018.259 8      1069.407          48.500    21450301.940    89058017.257 8      1069.407          48.625
G14  23111894.580   121453828.922 7      4816.138          44.875    23111893.280   121453828.932 5      4816.138          34.375    23111903.520    94639371.627 5      3752.835          34.250    23111903.820    94639376.619 8      3752.835          49.250
R07  21056010.120   112714473.231 7      1896.406          47.437    21056009.960   112714473.243 7      1896.406          45.750    21056023.100    87666869.524 8      1474.982          48.625    21056023.400    87666871.516 8      1474.982          48.937
G08  20976346.920   110231444.223 8      1429.140          48.250    20976345.740   110231444.225 8      1429.140          49.437    20976354.920    85894661.455 8      1113.616          49.125    20976355.820    85894669.457 8      1113.616          49.562
> 2024 05 09 14 46 28.0000000  0 14
G02  21521052.840   113093896.232 7      2146.630          46.937    21521051.000   113093896.242 6      2146.630          39.500    21521055.160    88125125.752 6      1672.699          39.187
R08  20865542.180   111734036.837 7      5276.463          47.000    20865544.720   111734036.887 7      5276.463          46.062    20865561.320    86904334.489 8      4103.916          49.875    20865560.920    86904336.490 8      4103.916          50.375
G03  21141770.740   111100761.200 7      4973.639          46.812    21141769.940   111100761.200 6      4973.639          40.750    21141782.400    86572068.353 6      3875.563          40.500    21141783.360    86572071.356 8      3875.563          51.875
G27  23305472.780   122471071.780 7       -22.061          44.187    23305471.380   122471071.782 7       -22.061          42.250    23305488.540    95432062.065 6       -17.190          41.812    23305488.200    95432065.063 7       -17.190          45.375
R12  21965445.800   117335456.257 7     -1106.890          46.500    21965445.460   117335456.263 7     -1106.890          47.562    21965467.500    91260993.412 7      -860.915          47.750    21965467.580    91260994.414 8      -860.915          48.687
G21  21466113.640   112805184.801 8      1243.022          48.312    21466112.020   112805184.809 6      1243.022          39.250    21466116.940    87900154.566 6       968.588          39.312
R23  21126225.820   113011067.528 7      3241.183          43.125    21126224.960   113011067.559 7      3241.183          42.687
G16  25525925.340   134139643.934 6     -1169.574          37.875    25525923.280   134139643.939 3     -1169.574          20.812    25525942.700   104524468.719 3      -911.356          20.750
G32  24929791.560   131006937.747 7      2013.332          44.187    24929791.860   131006937.757 6      2013.332          40.375    24929805.240   102083381.542 6      1568.830          40.375    24929806.480   102083387.545 7      1568.830          44.062
R01  24089282.520   128771012.429 6      6780.464          37.812    24089280.200   128771012.425 6      6780.464          37.125    24089306.380   100155334.178 5      5273.694          32.812    24089305.060   100155329.175 5      5273.694          34.562
R22  21450034.440   114501740.733 7      1374.785          47.000    21450035.120   114501740.737 7      1374.785          47.062    21450044.340    89056948.909 8      1069.277          48.625    21450044.380    89056947.905 8      1069.277          48.437
G14  23110978.220   121449012.934 7      4815.708          44.250    23110976.680   121449012.944 5      4815.708          34.312    23110987.260    94635618.914 5      3752.500          34.250    23110987.480    94635623.910 8      3752.500          49.187
R07  21055656.000   112712577.187 7      1895.613          45.500    21055655.860   112712577.207 7      1895.613          45.875    21055668.740    87665394.831 8      1474.366          49.000    21055669.080    87665396.830 8      1474.366          48.125
G08  20976074.900   110230015.294 8      1428.662          48.375    20976073.820   110230015.297 8      1428.662          49.000    20976082.900    85893548.003 8      1113.243          48.812    20976083.960    85893556.004 8      1113.243          49.937
> 2024 05 09 14 46 29.0000000  0 14
G02  21520644.480   113091749.644 7      2146.520          47.375    21520642.460   113091749.649 6      2146.520          39.625    21520646.680    88123453.085 6      1672.613          39.625
R08  20864556.880   111728760.637 7      5275.800          46.312    20864559.240   111728760.687 7      5275.800          46.687    20864575.800    86900230.791 8      4103.400          49.937    20864575.600    86900232.794 8      4103.400          50.062
G03  21140824.260   111095787.748 7      4973.064          47.062    21140823.660   111095787.748 6      4973.064          41.000    21140835.900    86568192.946 6      3875.115          41.187    21140836.780    86568195.949 8      3875.115          51.500
G27  23305477.080   122471093.956 7       -22.341          43.187    23305475.600   122471093.958 7       -22.341          42.500    23305492.620    95432079.327 7       -17.409          42.187    23305492.060    95432082.323 7       -17.409          45.500
R12  21965652.880   117336563.221 7     -1107.115          47.812    21965652.460   117336563.227 7     -1107.115          47.375    21965674.700    91261854.366 8      -861.090          48.000    21965674.900    91261855.370 8      -861.090          48.562
G21  21465877.120   112803941.799 7      1242.972          47.937    21465875.480   112803941.801 6      1242.972          39.062    21465880.440    87899185.984 6       968.550          39.562
R23  21125619.920   113007826.334 7      3241.092          42.937    21125619.280   113007826.360 7      3241.092          42.687
G16  25526147.440   134140813.163 6     -1169.281          38.062    25526145.600   134140813.166 3     -1169.281          20.812    25526165.200   104525379.799 3      -911.128          20.750
G32  24929408.660   131004924.640 7      2012.903          44.250    24929408.860   131004924.645 6      2012.903          41.375    24929422.140   102081812.883 6      1568.496          41.437    24929423.200   102081818.889 7      1568.496          44.437
R01  24088013.900   128764232.051 6      6780.449          37.812    24088012.360   128764232.047 6      6780.449          37.125    24088037.580   100150060.546 5      5273.683          32.812    24088036.580   100150055.537 5      5273.683          34.562
R22  21449777.080   114500365.935 7      1374.744          47.937    21449777.520   114500365.934 7      1374.744          46.875    21449786.940    89055879.614 8      1069.245          48.937    21449786.940    89055878.608 8      1069.245          48.750
G14  23110062.060   121444197.467 7      4815.208          43.875    23110060.360   121444197.477 5      4815.208          34.312    23110071.000    94631866.606 5      3752.110          34.062    23110071.280    94631871.601 8      3752.110          49.125
R07  21055301.880   112710682.045 7      1894.727          46.812    21055301.680   112710682.054 7      1894.727          45.250    21055314.780    87663920.823 8      1473.676          49.250    21055315.200    87663922.816 8      1473.676          48.250
G08  20975803.140   110228586.773 8      1428.255          48.562    20975801.940   110228586.776 8      1428.255          49.312    20975811.160    85892434.869 8      1112.926          49.187    20975812.180    85892442.871 8      1112.926          50.187
> 2024 05 09 14 46 30.0000000  0 14
G02  21520235.920   113089603.081 7      2146.647          47.562    21520233.980   113089603.088 6      2146.647          39.562    21520238.240    88121780.438 6      1672.712          39.375
R08  20863571.660   111723484.936 7      5275.509          47.312    20863573.860   111723484.983 7      5275.509          46.625    20863590.400    86896127.474 8      4103.174          50.062    20863590.200    86896129.477 8      4103.174          49.875
G03  21139878.020   111090814.685 7      4972.931          47.500    21139877.340   111090814.684 6      4972.931          41.062    21139889.580    86564317.835 6      3875.011          40.875    21139890.440    86564320.837 8      3875.011          51.937
G27  23305481.300   122471116.298 7       -22.265          42.937    23305479.920   122471116.308 7       -22.265          42.187    23305497.020    95432096.730 7       -17.349          42.000    23305496.420    95432099.724 7       -17.349          45.125
R12  21965860.320   117337670.353 7     -1107.089          46.937    21965859.700   117337670.354 7     -1107.089          47.687    21965882.000    91262715.446 7      -861.069          47.875    21965882.260    91262716.452 8      -861.069          48.562
G21  21465640.360   112802698.773 8      1243.070          48.812    21465638.940   112802698.775 6      1243.070          39.250    21465643.900    87898217.390 6       968.626          39.375
R23  21125014.000   113004585.081 7      3241.409          42.937    21125013.320   113004585.104 7      3241.409          43.437
G16  25526370.500   134141982.267 6     -1168.987          38.062    25526368.080   134141982.277 3     -1168.987          20.812    25526387.620   104526290.791 3      -910.899          20.750
G32  24929025.900   131002911.954 7      2012.673          44.625    24929025.980   131002911.956 6      2012.673          40.687    24929039.100   102080244.562 6      1568.317          40.500    24929040.140   102080250.566 7      1568.317          44.562
R01  24086745.220   128757451.448 6      6780.804          37.812    24086744.020   128757451.446 6      6780.804          37.125    24086769.960   100144786.752 5      5273.959          34.125    24086768.480   100144781.743 5      5273.959          35.312
R22  21449519.240   114498991.097 7      1374.982          47.625    21449519.920   114498991.104 7      1374.982          47.250    21449529.600    89054810.297 8      1069.431          48.625    21449529.720    89054809.293 8      1069.431          48.750
G14  23109145.700   121439382.388 7      4815.018          44.437    23109143.960   121439382.398 5      4815.018          34.312    23109154.540    94628114.598 5      3751.962          34.187    23109155.100    94628119.590 8      3751.962          49.062
R07  21054947.900   112708787.644 7      1894.057          47.000    21054947.500   112708787.656 7      1894.057          45.375    21054960.820    87662447.402 8      1473.155          48.625    21054961.200    87662449.401 8      1473.155          48.375
G08  20975531.280   110227158.560 8      1428.181          48.562    20975530.240   110227158.560 8      1428.181          48.562    20975539.340    85891321.970 8      1112.868          49.125    20975540.500    85891329.973 8      1112.868          49.937
