     3.05           OBSERVATION DATA    MIXED               RINEX VERSION / TYPE
TPS2RIN 1.0.29.3920 TPS-USER            20240511 194056 UTC PGM / RUN BY / DATE
Win64 build Feb 23, 2024 (c) Topcon Positioning Systems     COMMENT
SRC: 20240509_FA15.tps                                      COMMENT
OPT: -S -v 3.05                                             COMMENT
Observer            Agency                                  OBSERVER / AGENCY
O0M3X53SBGM         TPS HIPER_SR        4.8 HSR Jul,08,2022 REC # / TYPE / VERS
FW: 4.8 HSR Jul,08,2022 p3                                  COMMENT
SN: HiPer SR 1212-12575                                     COMMENT
000                 TPSHIPER_SR     NONE                    ANT # / TYPE
        1.8000        0.0000        0.0000                  ANTENNA: DELTA H/E/N
FA15                                                        MARKER NAME
  5392890.5201 -1593336.7545  3001619.6977                  APPROX POSITION XYZ
  2024     5     9    15    14   55.0000000     GPS         TIME OF FIRST OBS
  2024     5     9    15    29   54.0000000     GPS         TIME OF LAST OBS
     1.000                                                  INTERVAL
   900 EPOCHS                                               COMMENT
G   16 C1C L1C D1C S1C C1W L1W D1W S1W C2W L2W D2W S2W C2X  SYS / # / OBS TYPES
       L2X D2X S2X                                          SYS / # / OBS TYPES
R   16 C1C L1C D1C S1C C1P L1P D1P S1P C2P L2P D2P S2P C2C  SYS / # / OBS TYPES
       L2C D2C S2C                                          SYS / # / OBS TYPES
    19                                                      # OF SATELLITES
   G02   900   900   900   900   900   900   900   900   900PRN / # OF OBS
         900   900   900     0     0     0     0            PRN / # OF OBS
   G03   900   900   900   900   900   900   900   900   900PRN / # OF OBS
         900   900   900   900   900   900   900            PRN / # OF OBS
   G04   900   900   900   900   900   900   900   900   900PRN / # OF OBS
         900   900   900   900   900   900   900            PRN / # OF OBS
   G08   900   900   900   900   900   900   900   900   900PRN / # OF OBS
         900   900   900   900   900   900   900            PRN / # OF OBS
   G14   900   900   900   900   900   900   900   900   900PRN / # OF OBS
         900   900   900   900   900   900   900            PRN / # OF OBS
   G17   798   798   798   798   797   797   797   797   797PRN / # OF OBS
         797   797   797   793   793   793   793            PRN / # OF OBS
   G21   900   900   900   900   900   900   900   900   900PRN / # OF OBS
         900   900   900     0     0     0     0            PRN / # OF OBS
   G22   900   900   900   900   900   900   900   900   900PRN / # OF OBS
         900   900   900     0     0     0     0            PRN / # OF OBS
   G27   900   900   900   900   900   900   900   900   900PRN / # OF OBS
         900   900   900   900   900   900   900            PRN / # OF OBS
   G32   900   900   900   900   900   900   900   900   900PRN / # OF OBS
         900   900   900   900   900   900   900            PRN / # OF OBS
   R01   900   900   900   900   900   900   900   900   900PRN / # OF OBS
         900   900   900   900   900   900   900            PRN / # OF OBS
   R07   900   900   900   900   900   900   900   900   900PRN / # OF OBS
         900   900   900   900   900   900   900            PRN / # OF OBS
   R08   900   900   900   900   900   900   900   900   900PRN / # OF OBS
         900   900   900   900   900   900   900            PRN / # OF OBS
   R12   900   900   900   900   900   900   900   900   900PRN / # OF OBS
         900   900   900   900   900   900   900            PRN / # OF OBS
   R13   745   745   745   745   739   739   739   739   739PRN / # OF OBS
         739   739   739   738   738   738   738            PRN / # OF OBS
   R14   900   900   900   900   900   900   900   900   900PRN / # OF OBS
         900   900   900   900   900   900   900            PRN / # OF OBS
   R22   900   900   900   900   900   900   900   900   900PRN / # OF OBS
         900   900   900   900   900   900   900            PRN / # OF OBS
   R23   900   900   900   900   900   900   900   900     0PRN / # OF OBS
           0     0     0     0     0     0     0            PRN / # OF OBS
   R24   700   700   700   700   695   695   695   695   695PRN / # OF OBS
         695   695   695   694   694   694   694            PRN / # OF OBS
G L1C                                                       SYS / PHASE SHIFT
G L1W -0.25000                                              SYS / PHASE SHIFT
G L2W  0.00000                                              SYS / PHASE SHIFT
G L2X  0.25000                                              SYS / PHASE SHIFT
R L1C                                                       SYS / PHASE SHIFT
R L1P -0.25000                                              SYS / PHASE SHIFT
R L2P -0.25000                                              SYS / PHASE SHIFT
R L2C                                                       SYS / PHASE SHIFT
  9 R01  1 R07  5 R08  6 R12 -1 R13 -2 R14 -7 R22 -3 R23  3 GLONASS SLOT / FRQ #
    R24  2                                                  GLONASS SLOT / FRQ #
                                                            GLONASS COD/PHS/BIS
    18    18  1929     7GPS                                 LEAP SECONDS
                                                            END OF HEADER
> 2024 05 09 15 14 55.0000000  0 16
G22  24542273.160   128970515.654 7      4853.023          43.062    24542272.140   128970515.662 4      4853.023          28.250    24542280.740   100496539.114 4      3781.577          28.312
R01  22803435.180   121897432.689 7      6810.856          42.375    22803433.420   121897432.711 6      6810.856          41.562    22803459.140    94809213.043 6      5297.333          40.062    22803458.440    94809211.025 6      5297.333          41.062
R14  23241882.580   123892315.747 7      3720.469          45.312    23241881.100   123892315.739 7      3720.469          44.750    23241898.080    96360749.200 7      2893.698          47.562    23241897.840    96360748.206 8      2893.698          48.000
R12  23261643.840   124259523.864 7     -1313.024          43.250    23261644.860   124259523.873 7     -1313.024          42.687    23261668.340    96646402.114 7     -1021.241          44.062    23261668.200    96646401.120 7     -1021.241          45.250
G27  24272312.720   127551860.961 6      -409.890          41.062    24272311.400   127551860.971 6      -409.890          38.750    24272334.340    99391146.562 6      -319.395          38.562    24272335.120    99391153.557 7      -319.395          43.187
G32  25310148.640   133005729.795 6      1168.590          41.312    25310147.920   133005729.800 5      1168.590          35.125    25310160.080   103640876.203 5       910.590          35.250    25310161.540   103640886.223 6       910.590          40.312
R07  21575601.480   115495877.328 7       495.326          46.375    21575600.680   115495877.345 7       495.326          45.187    21575614.340    89830187.762 7       385.254          47.875    21575614.900    89830186.763 7       385.254          47.562
R23  20997802.360   112324077.682 7      3194.772          46.000    20997802.100   112324077.705 7      3194.772          45.187
G14  22585171.340   118685880.964 7      3929.572          45.062    22585170.100   118685880.969 5      3929.572          34.687    22585178.740    92482532.914 5      3062.004          34.500    22585179.120    92482537.916 8      3062.004          48.375
G04  24629696.960   129429932.479 6      5410.536          41.500    24629697.300   129429932.487 4      5410.536          27.875    24629716.840   100854546.061 4      4216.002          27.812    24629716.060   100854571.054 7      4216.002          44.000
G08  21513471.060   113054054.297 7       776.884          47.625    21513470.220   113054054.308 8       776.884          48.125    21513481.600    88094106.034 7       605.364          47.500    21513482.140    88094113.038 8       605.364          50.312
R22  21921587.240   117018914.160 7      1270.573          45.062    21921586.080   117018914.158 7      1270.573          45.687    21921598.700    91014761.222 7       988.223          47.437    21921598.440    91014763.222 8       988.223          48.000
R08  20258973.080   108485882.332 8      4084.379          48.562    20258974.220   108485882.371 7      4084.379          47.250    20258987.520    84377971.933 8      3176.739          49.812    20258987.480    84377969.934 8      3176.739          50.187
G03  20567631.280   108083630.583 8      4059.821          49.250    20567630.640   108083630.583 7      4059.821          43.187    20567639.740    84221050.021 7      3163.497          42.687    20567640.160    84221050.025 8      3163.497          52.562
G02  21742897.240   114259697.754 8      2033.227          48.000    21742895.500   114259697.759 6      2033.227          39.062    21742899.520    89033544.298 6      1584.333          39.187
G21  21969694.940   115451525.760 7      1198.804          47.437    21969693.160   115451525.762 6      1198.804          38.375    21969698.520    89962244.776 6       934.133          38.312
> 2024 05 09 15 14 56.0000000  0 16
G22  24541349.220   128965662.994 6      4852.515          41.125    24541348.780   128965663.007 4      4852.515          28.250    24541357.360   100492757.823 4      3781.180          28.312
R01  22802160.980   121890621.950 7      6810.671          42.312    22802159.600   121890621.954 6      6810.671          41.562    22802184.460    94803915.781 6      5297.189          40.062    22802184.180    94803913.767 6      5297.189          41.062
R14  23241185.120   123888595.630 7      3719.731          45.687    23241183.120   123888595.630 7      3719.731          45.312    23241199.820    96357855.782 7      2893.124          47.562    23241199.940    96357854.790 8      2893.124          48.062
R12  23261889.900   124260836.969 7     -1313.030          43.187    23261890.700   124260836.992 7     -1313.030          43.062    23261914.380    96647423.428 7     -1021.246          44.375    23261913.780    96647422.430 7     -1021.246          44.750
G27  24272390.600   127552270.864 6      -410.020          40.937    24272389.400   127552270.872 6      -410.020          38.750    24272412.240    99391465.957 6      -319.496          38.625    24272412.960    99391472.943 7      -319.496          43.187
G32  25309926.760   133004561.601 7      1168.031          42.250    25309925.780   133004561.603 5      1168.031          35.437    25309937.860   103639965.921 5       910.154          35.250    25309939.560   103639975.938 6       910.154          40.687
R07  21575508.720   115495382.409 7       494.496          46.625    21575508.440   115495382.424 7       494.496          45.375    21575522.100    89829802.817 7       384.608          47.500    21575522.420    89829801.816 7       384.608          46.812
R23  20997204.920   112320882.939 7      3194.749          45.937    20997204.680   112320882.962 7      3194.749          44.687
G14  22584423.580   118681951.627 7      3929.088          45.500    22584422.440   118681951.632 5      3929.088          35.062    22584430.980    92479471.095 5      3061.627          34.937    22584431.280    92479476.095 8      3061.627          48.437
G04  24628667.360   129424521.921 7      5410.748          42.687    24628667.640   129424521.926 4      5410.748          27.875    24628687.360   100850330.042 4      4216.167          27.812    24628686.620   100850355.031 7      4216.167          44.062
G08  21513323.600   113053277.637 8       776.466          48.187    21513322.440   113053277.642 8       776.466          48.750    21513333.860    88093500.836 8       605.038          48.312    21513334.440    88093507.838 8       605.038          50.312
R22  21921348.860   117017643.678 7      1270.519          45.812    21921348.280   117017643.679 7      1270.519          46.125    21921360.540    91013773.070 7       988.182          47.562    21921360.580    91013775.072 8       988.182          48.062
R08  20258210.400   108481798.290 8      4083.778          48.125    20258211.400   108481798.324 7      4083.778          47.312    20258224.740    84374795.458 8      3176.272          50.062    20258224.780    84374793.457 8      3176.272          50.062
G03  20566858.740   108079571.042 8      4059.284          49.500    20566858.100   108079571.041 7      4059.284          42.937    20566867.280    84217886.746 7      3163.079          42.625    20566867.720    84217886.751 8      3163.079          52.500
G02  21742510.320   114257664.544 8      2033.108          48.562    21742508.640   114257664.547 6      2033.108          39.500    21742512.680    89031959.977 6      1584.240          39.812
G21  21969466.840   115450327.018 8      1198.774          48.187    21969465.080   115450327.023 6      1198.774          38.437    21969470.360    89961310.690 6       934.109          38.312
> 2024 05 09 15 14 57.0000000  0 16
G22  24540425.640   128960810.618 6      4852.359          41.312    24540425.220   128960810.625 4      4852.359          28.250    24540434.040   100488976.750 4      3781.059          28.125
R01  22800887.180   121883811.225 7      6810.846          42.312    22800885.500   121883811.232 6      6810.846          41.250    22800910.480    94798618.552 6      5297.324          40.437    22800910.120    94798616.543 6      5297.324          41.000
R14  23240487.200   123884876.232 7      3719.202          45.937    23240485.960   123884876.227 7      3719.202          45.062    23240501.980    96354962.913 7      2892.713          47.562    23240502.440    96354961.919 8      2892.713          48.187
R12  23262135.240   124262150.032 7     -1312.841          43.187    23262136.540   124262150.049 7     -1312.841          43.000    23262160.260    96648444.697 7     -1021.099          44.375    23262159.740    96648443.700 7     -1021.099          44.687
G27  24272468.760   127552680.936 6      -410.185          40.875    24272467.400   127552680.946 6      -410.185          38.625    24272490.340    99391785.483 6      -319.625          38.125    24272491.420    99391792.479 7      -319.625          43.187
G32  25309704.220   133003393.817 7      1167.715          42.125    25309703.500   133003393.819 5      1167.715          35.562    25309715.900   103639055.966 5       909.908          35.375    25309717.200   103639065.992 6       909.908          40.687
R07  21575416.140   115494888.205 7       493.956          46.500    21575416.340   115494888.212 7       493.956          45.375    21575429.740    89829418.434 7       384.188          47.562    21575430.100    89829417.432 7       384.188          47.375
R23  20996607.900   112317688.185 7      3194.928          45.812    20996607.320   112317688.208 7      3194.928          45.187
G14  22583675.820   118678022.831 7      3928.658          45.687    22583674.880   118678022.839 5      3928.658          35.062    22583683.400    92476409.696 5      3061.292          34.937    22583683.780    92476414.698 8      3061.292          48.500
G04  24627637.700   129419111.184 7      5410.958          42.375    24627637.900   129419111.189 4      5410.958          27.875    24627657.600   100846113.881 4      4216.331          28.187    24627657.000   100846138.876 7      4216.331          44.187
G08  21513175.980   113052501.306 8       776.247          48.250    21513174.740   113052501.316 8       776.247          48.500    21513186.180    88092895.900 7       604.868          47.937    21513186.940    88092902.905 8       604.868          50.375
R22  21921110.800   117016373.279 7      1270.502          45.625    21921110.340   117016373.283 7      1270.502          45.375    21921122.560    91012784.978 7       988.168          47.187    21921122.600    91012786.978 7       988.168          47.625
R08  20257447.720   108477715.033 8      4083.013          48.312    20257448.860   108477715.066 7      4083.013          47.312    20257462.280    84371619.598 8      3175.677          50.312    20257461.980    84371617.597 8      3175.677          50.250
G03  20566086.260   108075512.026 8      4058.908          49.625    20566085.580   108075512.026 7      4058.908          43.125    20566094.980    84214723.879 7      3162.786          42.625    20566095.280    84214723.881 8      3162.786          52.312
G02  21742123.520   114255631.311 8      2033.382          48.687    21742121.720   114255631.318 6      2033.382          39.437    21742125.840    89030375.641 6      1584.454          39.562
G21  21969238.720   115449128.250 8      1198.883          48.312    21969236.980   115449128.252 6      1198.883          38.500    21969242.380    89960376.585 6       934.194          38.250
> 2024 05 09 15 14 58.0000000  0 16
G22  24539502.800   128955958.654 7      4851.602          42.125    24539501.900   128955958.664 4      4851.602          28.250    24539510.760   100485196.003 4      3780.469          28.125
R01  22799612.680   121877000.674 7      6810.233          42.500    22799611.440   121877000.691 6      6810.233          41.250    22799636.800    94793321.467 6      5296.848          40.062    22799636.200    94793319.460 6      5296.848          41.125
R14  23239789.620   123881157.642 7      3718.054          46.187    23239788.440   123881157.637 7      3718.054          45.312    23239804.340    96352070.674 7      2891.820          47.312    23239804.440    96352069.678 7      2891.820          47.687
R12  23262380.720   124263463.110 7     -1313.284          43.000    23262382.020   124263463.127 7     -1313.284          43.000    23262405.740    96649465.986 7     -1021.443          43.812    23262405.820    96649464.990 7     -1021.443          44.500
G27  24272546.280   127553091.246 6      -410.571          40.625    24272545.540   127553091.248 6      -410.571          38.812    24272568.540    99392105.191 6      -319.926          38.625    24272569.360    99392112.181 7      -319.926          43.375
G32  25309482.000   133002226.558 6      1167.043          41.812    25309481.380   133002226.560 5      1167.043          35.437    25309493.860   103638146.417 5       909.384          35.312    25309494.900   103638156.442 6       909.384          41.500
R07  21575324.100   115494394.801 7       492.829          46.750    21575324.160   115494394.821 7       492.829          45.500    21575338.000    89829034.685 7       383.311          47.562    21575338.040    89829033.680 7       383.311          47.875
R23  20996010.320   112314493.512 7      3194.597          46.125    20996010.080   112314493.534 7      3194.597          44.812
G14  22582928.200   118674094.653 7      3927.714          44.937    22582927.520   118674094.660 5      3927.714          35.125    22582936.020    92473348.777 5      3060.556          34.812    22582936.380    92473353.779 8      3060.556          48.687
G04  24626607.900   129413700.355 6      5410.705          41.937    24626608.340   129413700.363 4      5410.705          28.312    24626628.000   100841897.651 4      4216.134          28.187    24626627.840   100841922.640 7      4216.134          44.312
G08  21513028.120   113051725.405 7       775.578          47.562    21513027.000   113051725.407 8       775.578          48.000    21513038.340    88092291.292 7       604.347          47.437    21513039.180    88092298.301 8       604.347          50.250
R22  21920873.120   117015103.001 7      1270.040          45.562    21920872.520   117015103.004 7      1270.040          45.812    21920884.600    91011796.979 7       987.809          47.375    21920884.680    91011798.979 7       987.809          47.125
R08  20256685.580   108473632.605 8      4081.858          48.250    20256686.540   108473632.647 7      4081.858          47.625    20256699.920    84368444.389 8      3174.778          49.937    20256699.740    84368442.390 8      3174.778          50.562
G03  20565314.000   108071453.617 8      4058.032          48.937    20565313.280   108071453.622 7      4058.032          42.812    20565322.640    84211561.491 7      3162.103          42.812    20565322.980    84211561.495 8      3162.103          52.750
G02  21741736.740   114253598.198 7      2032.903          47.687    21741734.820   114253598.205 6      2032.903          39.750    21741738.900    89028791.399 6      1584.081          39.250
G21  21969010.660   115447929.524 7      1198.551          47.625    21969008.880   115447929.528 6      1198.551          38.562    21969014.220    89959442.512 6       933.936          38.812
> 2024 05 09 15 14 59.0000000  0 16
G22  24538579.340   128951107.058 7      4851.334          42.625    24538578.580   128951107.068 4      4851.334          28.250    24538587.580   100481415.545 4      3780.261          28.125
R01  22798338.620   121870190.234 7      6810.224          42.500    22798337.440   121870190.236 6      6810.224          41.562    22798362.460    94788024.461 6      5296.841          40.062    22798361.700    94788022.443 6      5296.841          41.125
R14  23239092.160   123877439.777 7      3717.456          46.375    23239091.040   123877439.770 7      3717.456          45.562    23239106.640    96349179.003 7      2891.355          47.750    23239107.100    96349178.014 8      2891.355          48.187
R12  23262626.680   124264776.180 7     -1313.104          43.000    23262627.700   124264776.197 7     -1313.104          43.062    23262651.660    96650487.267 7     -1021.303          44.375    23262651.580    96650486.271 7     -1021.303          44.687
G27  24272624.180   127553501.764 6      -410.608          41.687    24272623.660   127553501.764 6      -410.608          39.062    24272646.660    99392425.067 6      -319.954          38.812    24272647.040    99392432.060 7      -319.954          43.312
G32  25309259.680   133001059.819 6      1166.494          41.187    25309259.480   133001059.826 5      1166.494          35.750    25309271.900   103637237.280 5       908.957          35.625    25309273.080   103637247.295 6       908.957          41.500
R07  21575232.140   115493902.168 7       492.148          46.500    21575232.100   115493902.185 7       492.148          45.500    21575245.960    89828651.520 7       382.782          47.562    21575245.800    89828650.517 7       382.782          47.687
R23  20995413.480   112311298.916 7      3194.482          45.437    20995412.860   112311298.938 7      3194.482          44.812
G14  22582180.980   118670167.045 7      3927.296          45.062    22582180.280   118670167.047 5      3927.296          35.187    22582188.600    92470288.305 5      3060.231          34.812    22582188.920    92470293.301 8      3060.231          48.500
G04  24625578.900   129408289.366 7      5410.975          42.375    24625578.460   129408289.371 4      5410.975          28.312    24625598.180   100837681.290 4      4216.344          28.187    24625597.800   100837706.289 7      4216.344          44.625
G08  21512880.620   113050949.909 7       775.248          47.437    21512879.500   113050949.911 8       775.248          48.812    21512890.880    88091687.009 8       604.090          48.437    21512891.580    88091694.014 8       604.090          50.125
R22  21920634.960   117013832.813 7      1270.075          46.187    21920634.720   117013832.811 7      1270.075          46.000    21920646.520    91010809.051 7       987.836          46.937    21920646.420    91010811.053 7       987.836          47.437
R08  20255923.420   108469551.019 8      4081.115          48.625    20255924.660   108469551.055 7      4081.115          47.250    20255937.740    84365269.824 8      3174.200          50.000    20255937.540    84365267.825 8      3174.200          50.187
G03  20564541.720   108067395.823 8      4057.425          49.625    20564541.100   108067395.826 7      4057.425          42.937    20564550.480    84208399.576 7      3161.630          42.062    20564550.720    84208399.582 8      3161.630          52.875
G02  21741349.740   114251565.143 7      2032.957          47.937    21741348.020   114251565.148 6      2032.957          39.687    21741351.960    89027207.198 6      1584.123          39.437
G21  21968782.400   115446730.813 7      1198.632          47.750    21968780.840   115446730.821 6      1198.632          37.750    21968786.080    89958508.458 6       933.999          38.187
> 2024 05 09 15 15  0.0000000  0 16
G22  24537656.320   128946255.778 7      4851.043          42.812    24537655.540   128946255.788 4      4851.043          28.250    24537664.500   100477635.333 4      3780.034          28.125
R01  22797064.880   121863379.854 7      6810.253          42.500    22797063.480   121863379.855 6      6810.253          41.562    22797088.940    94782727.492 6      5296.863          40.312    22797087.540    94782725.483 6      5296.863          41.125
R14  23238395.140   123873722.600 7      3716.791          46.375    23238393.540   123873722.593 7      3716.791          45.750    23238409.120    96346287.863 7      2890.838          47.375    23238409.740    96346286.878 7      2890.838          47.562
R12  23262872.500   124266089.234 7     -1313.050          43.312    23262873.420   124266089.238 7     -1313.050          43.062    23262897.860    96651508.523 7     -1021.261          44.125    23262897.400    96651507.525 7     -1021.261          45.000
G27  24272702.740   127553912.456 6      -410.796          40.812    24272701.820   127553912.461 6      -410.796          39.000    24272724.900    99392745.081 6      -320.101          38.937    24272725.580    99392752.079 7      -320.101          43.250
G32  25309037.540   132999893.503 6      1166.136          41.500    25309037.680   132999893.511 5      1166.136          35.750    25309050.040   103636328.463 6       908.678          36.062    25309051.660   103636338.477 6       908.678          41.875
R07  21575140.380   115493410.217 7       491.502          46.625    21575140.340   115493410.243 7       491.502          45.187    21575154.040    89828268.898 7       382.280          47.687    21575153.940    89828267.899 7       382.280          47.062
R23  20994816.300   112308104.314 7      3194.453          45.437    20994815.580   112308104.337 7      3194.453          44.937
G14  22581433.500   118666239.967 7      3926.775          45.500    22581432.920   118666239.969 5      3926.775          35.000    22581441.300    92467228.247 5      3059.824          34.812    22581441.920    92467233.247 8      3059.824          48.562
G04  24624549.140   129402878.172 6      5411.275          41.437    24624548.780   129402878.179 4      5411.275          28.312    24624568.340   100833464.779 4      4216.578          28.187    24624567.780   100833489.780 7      4216.578          44.625
G08  21512732.960   113050174.752 8       774.892          48.375    21512731.920   113050174.754 8       774.892          48.812    21512743.380    88091082.985 8       603.812          48.375    21512744.180    88091089.989 8       603.812          50.000
R22  21920397.020   117012562.659 7      1270.077          45.812    21920396.740   117012562.668 7      1270.077          45.625    21920408.640    91009821.156 7       987.837          47.062    21920408.700    91009823.156 7       987.837          47.375
R08  20255161.200   108465470.184 8      4080.440          48.562    20255162.540   108465470.226 7      4080.440          47.062    20255175.680    84362095.852 8      3173.675          49.750    20255175.460    84362093.851 8      3173.675          50.125
G03  20563769.720   108063338.524 8      4057.009          49.812    20563769.060   108063338.528 7      4057.009          42.437    20563778.340    84205238.051 7      3161.306          42.562    20563778.720    84205238.058 8      3161.306          51.875
G02  21740962.760   114249532.088 7      2032.945          47.562    21740961.020   114249532.090 6      2032.945          39.437    21740965.240    89025623.002 6      1584.113          39.250
G21  21968554.300   115445532.082 7      1198.679          47.187    21968552.760   115445532.089 6      1198.679          38.187    21968558.080    89957574.380 6       934.036          38.250
> 2024 05 09 15 15  1.0000000  0 16
G22  24536733.680   128941404.894 7      4850.975          43.062    24536732.480   128941404.901 4      4850.975          28.062    24536741.500   100473855.425 4      3779.980          28.125
R01  22795791.100   121856569.650 7      6810.216          42.187    22795789.460   121856569.673 6      6810.216          41.562    22795814.520    94777430.692 6      5296.835          40.312    22795813.520    94777428.676 6      5296.835          41.125
R14  23237697.960   123870006.220 7      3716.218          46.687    23237696.140   123870006.215 7      3716.218          45.750    23237712.080    96343397.352 7      2890.392          47.125    23237712.500    96343396.362 7      2890.392          47.562
R12  23263118.480   124267402.334 7     -1312.935          43.000    23263118.920   124267402.340 7     -1312.935          42.812    23263143.560    96652529.829 7     -1021.171          43.937    23263143.320    96652528.833 7     -1021.171          45.062
G27  24272781.300   127554323.434 6      -410.965          41.062    24272780.120   127554323.444 6      -410.965          38.562    24272803.060    99393065.317 6      -320.232          38.500    24272803.720    99393072.317 7      -320.232          43.250
G32  25308815.660   132998727.773 6      1165.549          41.000    25308815.700   132998727.778 5      1165.549          35.937    25308828.340   103635420.108 6       908.220          36.062    25308830.060   103635430.114 7       908.220          42.000
R07  21575048.560   115492919.131 7       490.941          46.937    21575048.600   115492919.146 7       490.941          45.437    21575062.200    89827886.934 7       381.843          47.812    21575062.360    89827885.926 7       381.843          47.625
R23  20994219.280   112304909.825 7      3194.585          45.687    20994218.520   112304909.846 7      3194.585          44.937
G14  22580686.540   118662313.539 7      3926.320          44.687    22580685.720   118662313.541 5      3926.320          35.000    22580694.040    92464168.688 5      3059.470          35.062    22580694.880    92464173.694 8      3059.470          48.562
G04  24623519.200   129397466.917 6      5411.518          41.437    24623519.000   129397466.927 4      5411.518          28.312    24623538.800   100829248.221 4      4216.768          28.187    24623538.060   100829273.218 7      4216.768          44.375
G08  21512585.700   113049400.044 8       774.673          48.625    21512584.620   113049400.046 8       774.673          48.562    21512595.860    88090479.310 8       603.642          48.000    21512596.740    88090486.317 8       603.642          50.000
R22  21920159.160   117011292.701 7      1270.128          46.437    21920159.320   117011292.705 7      1270.128          46.375    21920170.740    91008833.405 7       987.878          47.625    21920170.580    91008835.403 7       987.878          47.125
R08  20254399.320   108461390.261 8      4079.669          48.250    20254400.700   108461390.302 7      4079.669          47.312    20254413.700    84358922.582 8      3173.076          50.187    20254413.700    84358920.581 8      3173.076          50.000
G03  20562997.680   108059281.894 8      4056.554          49.187    20562997.060   108059281.896 7      4056.554          42.750    20563006.520    84202077.045 7      3160.951          42.250    20563006.700    84202077.047 8      3160.951          52.062
G02  21740575.800   114247499.149 8      2033.032          48.062    21740574.120   114247499.159 6      2033.032          39.750    21740578.280    89024038.893 6      1584.181          39.500
G21  21968326.100   115444333.416 7      1198.890          46.812    21968324.660   115444333.421 6      1198.890          37.625    21968329.900    89956640.353 6       934.200          37.875
> 2024 05 09 15 15  2.0000000  0 16
G22  24535810.660   128936554.183 7      4850.558          42.625    24535809.300   128936554.191 4      4850.558          28.062    24535818.600   100470075.657 4      3779.656          28.000
R01  22794517.060   121849759.376 7      6810.199          42.187    22794515.440   121849759.383 6      6810.199          41.375    22794540.440    94772133.798 6      5296.822          40.125    22794539.740    94772131.792 6      5296.822          41.250
R14  23237000.860   123866290.370 7      3715.563          45.812    23236999.540   123866290.370 7      3715.563          45.625    23237015.100    96340507.248 7      2889.882          47.062    23237015.200    96340506.258 7      2889.882          47.062
R12  23263364.680   124268715.188 7     -1312.781          43.000    23263364.440   124268715.197 7     -1312.781          42.437    23263389.220    96653550.938 7     -1021.052          43.750    23263388.980    96653549.939 7     -1021.052          44.687
G27  24272859.600   127554734.391 6      -410.974          41.750    24272858.420   127554734.390 6      -410.974          38.812    24272881.200    99393385.529 6      -320.239          38.562    24272881.900    99393392.521 7      -320.239          43.187
G32  25308594.020   132997562.280 6      1165.256          40.312    25308593.860   132997562.280 6      1165.256          36.062    25308606.680   103634511.928 6       907.992          36.000    25308608.360   103634521.938 7       907.992          42.000
R07  21574957.200   115492428.580 7       490.243          46.500    21574956.760   115492428.598 7       490.243          45.312    21574970.520    89827505.394 7       381.300          47.312    21574970.780    89827504.385 7       381.300          47.125
R23  20993621.960   112301715.173 7      3194.679          45.625    20993621.360   112301715.188 7      3194.679          44.875
G14  22579939.520   118658387.467 7      3925.832          45.687    22579938.700   118658387.475 5      3925.832          35.062    22579947.140    92461109.416 5      3059.090          34.875    22579947.240    92461114.424 8      3059.090          48.562
G04  24622489.300   129392055.319 6      5411.742          41.562    24622489.160   129392055.326 4      5411.742          28.437    24622508.800   100825031.391 4      4216.942          28.250    24622508.240   100825056.386 7      4216.942          44.437
G08  21512438.420   113048625.530 7       774.299          47.812    21512437.220   113048625.533 8       774.299          48.000    21512448.400    88089875.791 7       603.350          47.562    21512449.280    88089882.798 8       603.350          50.312
R22  21919921.020   117010022.620 7      1270.148          46.125    21919921.160   117010022.618 7      1270.148          46.125    21919932.760    91007845.555 7       987.893          46.812    21919932.860    91007847.553 7       987.893          47.625
R08  20253637.380   108457310.880 8      4079.021          48.312    20253638.840   108457310.928 7      4079.021          47.437    20253652.000    84355749.741 8      3172.572          49.812    20253651.700    84355747.742 8      3172.572          49.812
G03  20562225.860   108055225.626 8      4055.958          49.500    20562225.160   108055225.626 7      4055.958          42.937    20562234.520    84198916.322 7      3160.486          42.562    20562234.780    84198916.324 8      3160.486          52.812
G02  21740189.100   114245466.041 8      2033.148          48.937    21740187.260   114245466.048 6      2033.148          40.062    21740191.380    89022454.656 6      1584.271          39.625
G21  21968097.860   115443134.559 7      1198.931          47.187    21968096.520   115443134.566 6      1198.931          38.125    21968101.900    89955706.176 6       934.232          37.937
> 2024 05 09 15 15  3.0000000  0 16
G22  24534887.640   128931703.833 6      4850.286          41.875    24534886.360   128931703.843 4      4850.286          28.062    24534895.880   100466296.165 4      3779.444          28.000
R01  22793243.060   121842949.213 7      6810.133          42.250    22793241.560   121842949.214 6      6810.133          41.375    22793266.620    94766837.002 6      5296.770          40.125    22793265.640    94766834.996 6      5296.770          41.125
R14  23236303.880   123862575.293 7      3714.893          46.750    23236303.200   123862575.291 7      3714.893          46.000    23236318.340    96337617.744 7      2889.361          47.437    23236318.480    96337616.750 7      2889.361          47.312
R12  23263610.260   124270028.044 7     -1312.678          43.062    23263610.240   124270028.045 7     -1312.678          42.437    23263634.900    96654572.044 7     -1020.972          44.062    23263634.700    96654571.048 7     -1020.972          45.375
G27  24272937.400   127555145.558 6      -411.061          41.250    24272936.520   127555145.557 6      -411.061          39.437    24272959.540    99393705.911 6      -320.307          38.812    24272960.000    99393712.905 7      -320.307          43.687
G32  25308372.580   132996397.273 6      1164.912          40.562    25308372.100   132996397.275 5      1164.912          35.750    25308385.200   103633604.140 5       907.724          35.687    25308386.440   103633614.152 6       907.724          41.687
R07  21574865.660   115491938.808 7       489.559          47.000    21574865.360   115491938.831 7       489.559          45.312    21574879.080    89827124.463 7       380.768          47.500    21574878.960    89827123.460 7       380.768          47.062
R23  20993024.880   112298520.569 7      3194.733          45.937    20993024.180   112298520.576 7      3194.733          44.875
G14  22579192.420   118654461.982 7      3925.339          45.437    22579191.720   118654461.987 5      3925.339          35.312    22579200.360    92458050.597 5      3058.705          34.875    22579200.540    92458055.597 8      3058.705          49.125
G04  24621459.700   129386643.583 7      5411.716          42.375    24621459.440   129386643.591 4      5411.716          28.437    24621479.000   100820814.452 4      4216.922          28.250    24621478.300   100820839.445 7      4216.922          44.500
G08  21512291.000   113047851.401 7       774.035          47.687    21512289.920   113047851.403 8       774.035          48.312    21512301.120    88089272.565 7       603.144          47.750    21512301.940    88089279.569 8       603.144          49.937
R22  21919683.180   117008752.632 7      1270.044          46.000    21919683.220   117008752.636 7      1270.044          46.125    21919694.940    91006857.802 7       987.812          47.562    21919695.000    91006859.802 8       987.812          48.000
R08  20252875.740   108453232.325 8      4078.384          48.312    20252877.180   108453232.364 7      4078.384          47.437    20252890.300    84352577.533 8      3172.077          49.812    20252890.100    84352575.534 8      3172.077          50.062
G03  20561454.140   108051169.932 8      4055.564          49.437    20561453.400   108051169.934 7      4055.564          43.000    20561462.780    84195756.042 7      3160.180          42.562    20561463.100    84195756.046 8      3160.180          52.125
G02  21739802.420   114243432.999 7      2033.184          47.437    21739800.460   114243433.004 6      2033.184          39.500    21739804.500    89020870.467 6      1584.299          39.625
G21  21967869.680   115441935.714 7      1199.050          46.125    21967868.400   115441935.719 6      1199.050          38.250    21967873.620    89954772.012 6       934.324          38.187
> 2024 05 09 15 15  4.0000000  0 16
G22  24533964.520   128926853.771 6      4849.806          41.875    24533963.400   128926853.782 4      4849.806          28.062    24533973.100   100462516.903 4      3779.070          28.000
R01  22791968.680   121836139.059 7      6810.108          42.250    22791967.580   121836139.066 6      6810.108          41.062    22791992.740    94761540.222 6      5296.751          40.000    22791991.520    94761538.212 6      5296.751          41.125
R14  23235607.300   123858860.890 7      3714.010          46.937    23235606.200   123858860.885 7      3714.010          46.125    23235621.780    96334728.762 7      2888.674          47.062    23235621.620    96334727.768 7      2888.674          47.750
R12  23263856.120   124271340.805 7     -1312.749          43.062    23263855.840   124271340.800 7     -1312.749          42.437    23263880.920    96655593.076 7     -1021.027          43.937    23263880.580    96655592.077 7     -1021.027          44.750
G27  24273015.780   127555556.877 6      -411.393          41.562    24273014.780   127555556.879 6      -411.393          38.750    24273037.780    99394026.413 6      -320.566          38.750    24273038.520    99394033.403 7      -320.566          43.375
G32  25308150.860   132995232.707 6      1164.325          40.562    25308150.400   132995232.709 6      1164.325          36.250    25308163.600   103632696.692 5       907.266          35.875    25308164.320   103632706.698 6       907.266          41.687
R07  21574774.180   115491449.740 7       488.755          46.437    21574774.320   115491449.763 7       488.755          45.375    21574787.680    89826744.075 7       380.143          47.562    21574787.600    89826743.067 7       380.143          47.562
R23  20992427.740   112295325.917 7      3194.702          45.687    20992427.120   112295325.932 7      3194.702          44.875
G14  22578445.440   118650536.996 7      3924.706          45.500    22578444.900   118650537.001 5      3924.706          35.312    22578453.300    92454992.166 5      3058.213          35.312    22578453.900    92454997.174 8      3058.213          48.625
G04  24620429.580   129381231.588 6      5412.035          41.437    24620429.460   129381231.595 4      5412.035          28.437    24620449.160   100816597.313 4      4217.170          28.250    24620448.800   100816622.308 7      4217.170          44.375
G08  21512143.800   113047077.586 7       773.636          47.187    21512142.620   113047077.588 8       773.636          48.937    21512153.980    88088669.591 8       602.834          48.000    21512154.680    88088676.595 8       602.834          50.062
R22  21919445.300   117007482.666 7      1269.902          46.312    21919445.120   117007482.677 7      1269.902          46.125    21919456.980    91005870.052 7       987.701          47.500    21919456.880    91005872.052 7       987.701          47.187
R08  20252114.100   108449154.519 8      4077.412          48.437    20252115.580   108449154.555 7      4077.412          47.562    20252128.800    84349405.909 8      3171.320          49.562    20252128.520    84349403.910 8      3171.320          49.750
G03  20560682.520   108047114.747 8      4054.897          49.312    20560681.680   108047114.749 7      4054.897          43.187    20560691.200    84192596.166 7      3159.660          42.812    20560691.320    84192596.168 8      3159.660          52.500
G02  21739415.500   114241399.934 7      2033.077          47.062    21739413.460   114241399.939 6      2033.077          39.687    21739417.740    89019286.258 6      1584.216          39.562
G21  21967641.660   115440736.804 7      1198.948          46.875    21967640.240   115440736.809 6      1198.948          37.812    21967645.560    89953837.798 6       934.245          38.250
> 2024 05 09 15 15  5.0000000  0 16
G22  24533041.680   128922004.036 7      4849.693          42.250    24533040.480   128922004.041 4      4849.693          28.062    24533050.440   100458737.890 4      3778.981          28.000
R01  22790694.540   121829329.018 7      6810.100          42.437    22790693.460   121829329.030 6      6810.100          41.062    22790718.540    94756243.528 6      5296.744          40.000    22790717.520    94756241.520 6      5296.744          41.187
R14  23234910.220   123855147.180 7      3713.454          46.937    23234909.360   123855147.186 7      3713.454          46.312    23234924.900    96331840.329 7      2888.242          47.500    23234925.280    96331839.340 7      2888.242          47.437
R12  23264101.740   124272653.522 7     -1312.516          42.750    23264101.120   124272653.521 7     -1312.516          42.437    23264126.380    96656614.079 7     -1020.846          44.187    23264126.200    96656613.082 7     -1020.846          44.750
G27  24273094.280   127555968.381 6      -411.536          41.125    24273093.180   127555968.385 6      -411.536          38.937    24273116.080    99394347.059 6      -320.677          38.687    24273116.800    99394354.059 7      -320.677          43.500
G32  25307929.540   132994068.559 6      1164.122          41.187    25307928.760   132994068.572 5      1164.122          35.625    25307942.240   103631789.572 5       907.108          35.500    25307942.840   103631799.586 6       907.108          41.812
R07  21574682.520   115490961.414 7       488.041          46.125    21574682.860   115490961.440 7       488.041          45.750    21574696.280    89826364.271 7       379.588          47.625    21574696.240    89826363.264 7       379.588          47.437
R23  20991830.480   112292131.316 7      3194.678          46.187    20991829.800   112292131.328 7      3194.678          44.750
G14  22577698.420   118646612.562 7      3924.357          45.250    22577698.040   118646612.564 5      3924.357          34.937    22577706.740    92451934.163 5      3057.940          34.750    22577707.240    92451939.171 8      3057.940          48.937
G04  24619399.800   129375819.440 6      5412.430          41.875    24619399.560   129375819.447 4      5412.430          28.437    24619419.320   100812380.053 4      4217.478          28.250    24619419.080   100812405.056 7      4217.478          44.625
G08  21511996.560   113046304.145 7       773.355          47.875    21511995.460   113046304.147 8       773.355          48.250    21512006.820    88088066.903 7       602.614          47.937    21512007.360    88088073.909 8       602.614          50.125
R22  21919207.040   117006212.795 7      1269.963          45.625    21919207.360   117006212.802 7      1269.963          46.687    21919219.120    91004882.369 7       987.749          47.312    21919218.980    91004884.369 7       987.749          47.625
R08  20251352.740   108445077.465 7      4076.746          47.937    20251354.200   108445077.507 7      4076.746          47.500    20251367.400    84346234.882 8      3170.803          50.250    20251366.840    84346232.880 8      3170.803          49.625
G03  20559910.920   108043060.122 8      4054.462          48.687    20559910.120   108043060.124 7      4054.462          43.125    20559919.500    84189436.720 7      3159.321          43.187    20559919.900    84189436.722 8      3159.321          52.375
G02  21739028.480   114239366.908 7      2033.175          47.562    21739026.620   114239366.910 6      2033.175          39.625    21739030.860    89017702.080 6      1584.292          39.500
G21  21967413.580   115439537.905 7      1199.024          47.937    21967412.140   115439537.909 6      1199.024          38.375    21967417.300    89952903.588 6       934.304          38.500
> 2024 05 09 15 15  6.0000000  0 16
G22  24532118.920   128917154.676 7      4848.914          42.562    24532117.660   128917154.683 4      4848.914          28.250    24532127.520   100454959.178 4      3778.374          28.000
R01  22789420.620   121822519.071 7      6809.773          42.437    22789419.620   121822519.083 6      6809.773          41.437    22789444.420    94750946.904 6      5296.490          39.812    22789443.760    94750944.899 6      5296.490          41.062
R14  23234213.900   123851434.222 7      3712.395          46.187    23234212.700   123851434.225 7      3712.395          46.000    23234228.220    96328952.471 7      2887.419          47.125    23234228.580    96328951.479 7      2887.419          47.500
R12  23264347.800   124273966.251 7     -1312.993          42.437    23264346.940   124273966.257 7     -1312.993          42.125    23264372.180    96657635.092 7     -1021.217          44.187    23264371.840    96657634.095 7     -1021.217          44.687
G27  24273172.660   127556380.107 6      -412.087          41.625    24273171.360   127556380.107 6      -412.087          38.625    24273194.460    99394667.873 6      -321.107          38.750    24273194.740    99394674.873 7      -321.107          43.500
G32  25307708.340   132992905.002 6      1162.907          40.625    25307707.380   132992905.015 5      1162.907          35.562    25307720.800   103630882.907 5       906.162          35.500    25307721.500   103630892.911 6       906.162          41.562
R07  21574591.440   115490473.842 7       486.895          46.812    21574591.960   115490473.879 7       486.895          45.687    21574604.940    89825985.055 7       378.696          47.500    21574605.520    89825984.054 7       378.696          47.625
R23  20991233.600   112288936.744 7      3194.277          45.625    20991232.160   112288936.762 7      3194.277          44.750
G14  22576951.980   118642688.735 7      3923.240          45.062    22576951.160   118642688.742 5      3923.240          35.000    22576959.760    92448876.640 5      3057.070          34.750    22576960.180    92448881.640 8      3057.070          49.187
G04  24618369.500   129370407.192 6      5412.025          41.500    24618369.820   129370407.205 4      5412.025          28.437    24618389.320   100808162.717 4      4217.163          28.250    24618389.340   100808187.722 7      4217.163          44.687
G08  21511849.680   113045531.103 8       772.607          48.562    21511848.340   113045531.108 8       772.607          48.812    21511859.660    88087464.532 8       602.032          48.312    21511860.380    88087471.539 8       602.032          49.750
R22  21918969.400   117004943.019 7      1269.490          45.687    21918969.700   117004943.027 7      1269.490          46.125    21918981.400    91003894.763 7       987.381          47.562    21918981.320    91003896.763 7       987.381          47.437
R08  20250591.420   108441001.236 8      4075.525          48.062    20250593.020   108441001.275 7      4075.525          47.625    20250606.100    84343064.483 8      3169.853          50.250    20250605.840    84343062.482 8      3169.853          49.875
G03  20559139.380   108039006.083 8      4053.487          48.375    20559138.520   108039006.083 7      4053.487          42.750    20559148.040    84186277.735 7      3158.562          42.375    20559148.420    84186277.735 8      3158.562          52.375
G02  21738641.760   114237333.934 8      2032.756          48.000    21738639.900   114237333.939 6      2032.756          40.000    21738643.880    89016117.947 6      1583.966          39.625
G21  21967185.800   115438339.015 8      1198.680          48.625    21967184.080   115438339.023 6      1198.680          38.562    21967189.200    89951969.389 6       934.037          38.375
> 2024 05 09 15 15  7.0000000  0 16
G22  24531196.540   128912305.873 7      4848.519          42.187    24531194.740   128912305.888 4      4848.519          28.250    24531204.820   100451180.897 4      3778.067          28.125
R01  22788147.380   121815709.455 7      6809.568          42.437    22788145.720   121815709.472 6      6809.568          41.437    22788170.520    94745650.540 6      5296.331          39.812    22788170.180    94745648.533 6      5296.331          41.062
R14  23233517.440   123847722.194 7      3711.642          46.687    23233516.280   123847722.192 7      3711.642          45.625    23233531.460    96326065.340 7      2886.833          47.062    23233531.840    96326064.346 7      2886.833          46.562
R12  23264593.420   124275279.179 7     -1312.953          42.437    23264592.920   124275279.180 7     -1312.953          42.125    23264617.920    96658656.256 7     -1021.186          44.250    23264617.740    96658655.264 7     -1021.186          44.562
G27  24273250.880   127556792.231 6      -412.354          41.062    24273249.840   127556792.236 6      -412.354          38.937    24273272.880    99394989.002 6      -321.314          39.062    24273273.620    99394996.000 7      -321.314          43.437
G32  25307487.320   132991742.034 6      1162.670          39.562    25307486.020   132991742.039 5      1162.670          35.562    25307499.560   103629976.696 5       905.976          35.500    25307500.140   103629986.710 6       905.976          41.562
R07  21574500.920   115489987.242 7       486.158          46.625    21574501.440   115489987.268 7       486.158          45.812    21574514.000    89825606.580 7       378.123          47.250    21574514.420    89825605.579 7       378.123          47.625
R23  20990635.980   112285742.402 7      3194.375          45.375    20990635.540   112285742.415 7      3194.375          44.812
G14  22576205.340   118638765.646 7      3922.714          45.437    22576204.500   118638765.651 5      3922.714          34.875    22576213.260    92445819.687 5      3056.661          34.500    22576213.880    92445824.697 8      3056.661          49.687
G04  24617339.600   129364994.926 6      5412.526          41.750    24617339.780   129364994.939 4      5412.526          28.312    24617359.480   100803945.369 4      4217.553          28.062    24617358.800   100803970.366 7      4217.553          44.625
G08  21511702.620   113044758.628 8       772.324          48.250    21511701.320   113044758.633 8       772.324          48.312    21511712.700    88086862.598 8       601.811          48.000    21511713.440    88086869.605 8       601.811          49.750
R22  21918731.420   117003673.543 7      1269.401          45.812    21918731.660   117003673.544 7      1269.401          46.125    21918743.420    91002907.385 7       987.312          46.750    21918743.600    91002909.387 7       987.312          47.687
R08  20249830.280   108436925.998 7      4074.903          47.937    20249831.920   108436926.034 7      4074.903          47.437    20249845.020    84339894.860 8      3169.369          50.125    20249844.920    84339892.859 8      3169.369          50.125
G03  20558368.160   108034952.800 8      4052.926          48.937    20558367.400   108034952.805 7      4052.926          43.187    20558376.700    84183119.337 7      3158.124          42.750    20558377.060    84183119.341 8      3158.124          52.187
G02  21738255.120   114235301.200 8      2032.762          48.812    21738252.980   114235301.204 6      2032.762          39.750    21738257.160    89014534.002 6      1583.970          39.562
G21  21966957.360   115437140.324 8      1198.700          48.250    21966956.080   115437140.328 6      1198.700          37.937    21966961.060    89951035.341 6       934.052          38.125
> 2024 05 09 15 15  8.0000000  0 16
G22  24530273.600   128907457.273 6      4848.296          41.687    24530272.060   128907457.283 4      4848.296          28.250    24530282.160   100447402.770 4      3777.893          28.125
R01  22786873.440   121808899.834 7      6809.488          42.437    22786871.580   121808899.827 6      6809.488          41.437    22786896.140    94740354.154 6      5296.268          39.937    22786896.200    94740352.140 6      5296.268          40.625
R14  23232821.020   123844010.744 7      3711.062          46.625    23232820.040   123844010.745 7      3711.062          45.625    23232834.840    96323178.657 7      2886.382          46.625    23232835.600    96323177.667 7      2886.382          46.562
R12  23264839.040   124276591.924 7     -1312.734          42.562    23264838.920   124276591.919 7     -1312.734          42.125    23264863.960    96659677.271 7     -1021.015          44.312    23264863.560    96659676.277 7     -1021.015          44.937
G27  24273329.460   127557204.391 6      -412.326          41.062    24273328.300   127557204.393 6      -412.326          38.562    24273351.400    99395310.154 6      -321.293          38.125    24273352.220    99395317.150 7      -321.293          43.437
G32  25307265.660   132990579.439 6      1162.187          40.062    25307264.700   132990579.444 5      1162.187          35.812    25307278.560   103629070.779 5       905.600          35.562    25307278.800   103629080.791 6       905.600          41.937
R07  21574409.880   115489501.255 7       485.486          46.562    21574410.580   115489501.283 7       485.486          45.812    21574423.260    89825228.592 7       377.600          47.375    21574423.520    89825227.587 7       377.600          47.375
R23  20990038.680   112282547.962 7      3194.286          45.375    20990037.860   112282547.984 7      3194.286          44.812
G14  22575458.900   118634842.985 7      3922.281          45.125    22575457.920   118634842.993 5      3922.281          34.875    22575466.740    92442763.068 5      3056.323          34.812    22575467.440    92442768.079 8      3056.323          49.000
G04  24616309.720   129359582.439 6      5412.427          41.812    24616309.800   129359582.452 4      5412.427          28.312    24616329.700   100799727.848 4      4217.475          28.062    24616328.680   100799752.848 7      4217.475          44.500
G08  21511555.680   113043986.422 8       771.889          48.187    21511554.340   113043986.427 8       771.889          48.437    21511565.760    88086260.875 7       601.472          47.812    21511566.420    88086267.877 8       601.472          50.125
R22  21918494.040   117002403.999 7      1269.353          46.312    21918493.620   117002404.002 7      1269.353          45.937    21918505.560    91001919.959 7       987.275          47.187    21918505.620    91001921.959 7       987.275          47.562
R08  20249069.380   108432851.440 8      4074.089          48.312    20249071.140   108432851.479 7      4074.089          47.625    20249084.300    84336725.761 8      3168.736          49.687    20249083.800    84336723.764 8      3168.736          49.875
G03  20557596.840   108030899.952 8      4052.452          48.937    20557596.040   108030899.956 7      4052.452          42.812    20557605.440    84179961.277 7      3157.755          42.125    20557605.860    84179961.283 8      3157.755          52.062
G02  21737868.240   114233268.384 8      2032.691          48.062    21737866.220   114233268.389 6      2032.691          39.562    21737870.340    89012949.988 6      1583.915          39.500
G21  21966729.220   115435941.503 7      1198.705          47.937    21966727.840   115435941.508 6      1198.705          37.937    21966733.080    89950101.195 6       934.056          38.000
> 2024 05 09 15 15  9.0000000  0 16
G22  24529351.040   128902609.082 6      4847.838          41.937    24529349.460   128902609.095 4      4847.838          28.250    24529359.760   100443624.966 4      3777.536          28.125
R01  22785599.420   121802090.335 7      6809.400          42.187    22785597.920   121802090.326 6      6809.400          41.500    22785622.480    94735057.877 6      5296.200          39.937    22785622.340    94735055.871 6      5296.200          40.625
R14  23232124.980   123840300.126 7      3710.097          46.750    23232123.560   123840300.122 7      3710.097          45.062    23232138.800    96320292.617 7      2885.631          46.625    23232139.500    96320291.627 7      2885.631          46.812
R12  23265085.240   124277904.687 7     -1312.879          42.562    23265084.400   124277904.709 7     -1312.879          42.125    23265109.720    96660698.332 7     -1021.128          44.687    23265109.100    96660697.336 7     -1021.128          44.687
G27  24273408.060   127557616.827 6      -412.672          40.562    24273406.740   127557616.830 6      -412.672          38.500    24273429.840    99395631.526 6      -321.562          38.375    24273430.380    99395638.527 7      -321.562          43.625
G32  25307044.460   132989417.382 6      1161.572          39.750    25307043.420   132989417.385 5      1161.572          35.375    25307057.580   103628165.285 5       905.121          35.625    25307058.160   103628175.293 6       905.121          41.937
R07  21574319.740   115489016.070 7       484.662          46.875    21574319.700   115489016.107 7       484.662          45.625    21574332.360    89824851.233 7       376.959          47.000    21574332.680    89824850.234 7       376.959          47.062
R23  20989441.920   112279353.614 7      3194.227          45.312    20989440.620   112279353.632 7      3194.227          44.625
G14  22574712.740   118630920.945 7      3921.731          44.125    22574711.460   118630920.949 5      3921.731          34.937    22574720.580    92439706.935 5      3055.894          34.812    22574720.820    92439711.943 8      3055.894          48.937
G04  24615279.780   129354169.805 6      5412.760          41.750    24615279.920   129354169.815 4      5412.760          28.312    24615299.700   100795510.214 4      4217.735          28.062    24615298.760   100795535.203 7      4217.735          44.500
G08  21511408.760   113043214.623 7       771.536          47.500    21511407.540   113043214.625 8       771.536          48.312    21511418.860    88085659.469 7       601.197          47.750    21511419.540    88085666.473 8       601.197          50.187
R22  21918256.260   117001134.598 7      1269.273          45.875    21918255.640   117001134.599 7      1269.273          46.000    21918267.840    91000932.641 7       987.212          47.250    21918267.980    91000934.641 7       987.212          47.750
R08  20248308.640   108428777.712 8      4073.160          48.062    20248310.280   108428777.759 7      4073.160          47.937    20248323.520    84333557.325 8      3168.013          50.000    20248323.060    84333555.323 8      3168.013          50.312
G03  20556825.600   108026847.733 8      4051.810          48.875    20556824.940   108026847.736 7      4051.810          43.250    20556834.380    84176803.708 7      3157.255          43.375    20556834.760    84176803.713 8      3157.255          52.562
G02  21737481.240   114231235.652 7      2032.602          47.687    21737479.340   114231235.657 6      2032.602          39.875    21737483.400    89011366.041 6      1583.845          39.750
G21  21966501.120   115434742.724 8      1198.764          48.687    21966499.640   115434742.726 6      1198.764          38.125    21966504.900    89949167.078 6       934.102          38.375
> 2024 05 09 15 15 10.0000000  0 16
G22  24528428.400   128897761.275 7      4847.632          42.562    24528426.920   128897761.285 4      4847.632          28.187    24528437.080   100439847.458 4      3777.376          28.125
R01  22784325.680   121795280.986 7      6809.407          42.187    22784324.080   121795280.988 6      6809.407          41.500    22784348.740    94729761.727 6      5296.206          40.125    22784348.540    94729759.713 6      5296.206          40.750
R14  23231428.860   123836590.260 7      3709.585          46.375    23231427.860   123836590.250 7      3709.585          45.812    23231443.040    96317407.157 7      2885.233          47.000    23231443.360    96317406.167 7      2885.233          46.187
R12  23265330.400   124279217.474 7     -1312.672          43.000    23265331.040   124279217.491 7     -1312.672          42.562    23265355.320    96661719.385 7     -1020.967          44.500    23265355.260    96661718.386 7     -1020.967          44.875
G27  24273486.520   127558029.492 6      -412.654          41.187    24273485.260   127558029.494 6      -412.654          38.625    24273508.240    99395953.075 6      -321.548          38.437    24273509.100    99395960.073 7      -321.548          43.625
G32  25306823.580   132988255.820 6      1161.259          39.625    25306822.280   132988255.827 5      1161.259          35.562    25306836.500   103627260.173 5       904.877          35.625    25306836.800   103627270.171 7       904.877          42.250
R07  21574229.520   115488531.678 7       484.046          46.812    21574229.280   115488531.704 7       484.046          45.500    21574241.840    89824474.475 7       376.480          47.937    21574242.120    89824473.478 7       376.480          47.062
R23  20988844.580   112276159.348 7      3194.292          45.312    20988843.720   112276159.365 7      3194.292          44.812
G14  22573966.440   118626999.527 7      3921.200          44.500    22573965.140   118626999.534 5      3921.200          35.062    22573974.240    92436651.285 5      3055.480          34.812    22573974.400    92436656.289 8      3055.480          48.937
G04  24614249.780   129348757.079 7      5412.921          42.125    24614249.760   129348757.089 4      5412.921          28.312    24614269.620   100791292.505 4      4217.861          28.062    24614268.800   100791317.494 7      4217.861          44.500
G08  21511261.860   113042443.255 8       771.296          48.500    21511260.700   113042443.257 8       771.296          49.062    21511272.080    88085058.394 8       601.010          48.437    21511273.040    88085065.397 8       601.010          49.750
R22  21918018.360   116999865.331 7      1269.297          46.000    21918018.060   116999865.324 7      1269.297          45.937    21918030.020    90999945.425 7       987.231          47.625    21918030.000    90999947.431 7       987.231          47.562
R08  20247548.340   108424704.797 7      4072.609          47.937    20247549.800   108424704.842 7      4072.609          47.250    20247562.840    84330389.505 8      3167.585          49.625    20247562.740    84330387.505 8      3167.585          50.062
G03  20556054.840   108022796.125 8      4051.368          49.062    20556053.960   108022796.129 7      4051.368          42.875    20556063.400    84173646.615 7      3156.910          42.312    20556063.700    84173646.619 8      3156.910          52.812
G02  21737094.540   114229203.007 8      2032.663          48.312    21737092.740   114229203.014 6      2032.663          39.875    21737096.580    89009782.163 6      1583.893          39.875
G21  21966273.060   115433544.003 8      1198.802          48.687    21966271.540   115433544.005 6      1198.802          38.250    21966276.680    89948233.012 6       934.132          38.125
> 2024 05 09 15 15 11.0000000  0 16
G22  24527506.340   128892913.804 7      4847.301          42.375    24527504.560   128892913.812 4      4847.301          28.187    24527514.620   100436070.212 4      3777.117          28.125
R01  22783051.760   121788471.745 7      6809.177          42.187    22783050.700   121788471.749 6      6809.177          41.312    22783075.380    94724465.652 6      5296.026          39.937    22783074.620    94724463.637 6      5296.026          40.750
R14  23230733.380   123832881.134 7      3708.728          46.250    23230732.120   123832881.124 7      3708.728          45.437    23230747.400    96314522.283 7      2884.566          46.875    23230747.680    96314521.298 7      2884.566          46.312
R12  23265576.120   124280530.237 7     -1312.742          43.000    23265576.600   124280530.254 7     -1312.742          42.937    23265601.280    96662740.418 7     -1021.022          43.875    23265600.700    96662739.422 7     -1021.022          46.062
G27  24273565.060   127558442.333 6      -412.972          41.437    24273563.980   127558442.346 6      -412.972          39.250    24273586.820    99396274.769 6      -321.797          39.062    24273587.560    99396281.772 7      -321.797          43.687
G32  25306602.740   132987094.707 6      1161.027          39.125    25306601.160   132987094.709 5      1161.027          35.437    25306615.500   103626355.406 5       904.697          35.375    25306615.860   103626365.403 7       904.697          42.500
R07  21574138.900   115488047.988 7       483.331          47.125    21574139.480   115488048.019 7       483.331          45.937    21574151.460    89824098.277 7       375.924          47.437    21574151.960    89824097.280 7       375.924          47.000
R23  20988247.440   112272965.097 7      3194.235          45.062    20988246.080   112272965.114 7      3194.235          44.625
G14  22573220.300   118623078.648 7      3920.647          43.625    22573218.840   118623078.650 5      3920.647          35.062    22573228.200    92433596.054 5      3055.049          34.750    22573228.260    92433601.054 8      3055.049          48.375
G04  24613219.840   129343344.196 6      5412.935          41.625    24613219.780   129343344.208 4      5412.935          28.312    24613239.560   100787074.674 4      4217.871          28.062    24613239.280   100787099.661 7      4217.871          44.687
G08  21511115.240   113041672.254 8       770.829          48.187    21511113.960   113041672.259 7       770.829          47.812    21511125.420    88084457.613 7       600.646          47.937    21511126.220    88084464.617 8       600.646          49.500
R22  21917781.200   116998596.128 7      1269.188          46.250    21917780.180   116998596.121 7      1269.188          45.500    21917792.140    90998958.263 7       987.146          47.000    21917792.040    90998960.267 7       987.146          47.250
R08  20246787.780   108420632.665 8      4071.838          48.125    20246789.160   108420632.707 7      4071.838          47.687    20246802.500    84327222.295 8      3166.985          50.375    20246802.320    84327220.298 8      3166.985          49.375
G03  20555283.800   108018745.070 8      4050.756          49.312    20555283.080   108018745.073 7      4050.756          42.625    20555292.500    84170489.953 7      3156.433          42.500    20555292.820    84170489.957 8      3156.433          52.500
G02  21736707.640   114227170.391 8      2032.614          48.437    21736705.880   114227170.398 6      2032.614          39.500    21736709.940    89008198.309 6      1583.855          39.687
G21  21966044.820   115432345.267 8      1198.681          48.062    21966043.380   115432345.274 6      1198.681          37.937    21966048.680    89947298.931 6       934.038          38.437
> 2024 05 09 15 15 12.0000000  0 16
G22  24526583.980   128888066.596 7      4846.911          42.187    24526582.240   128888066.606 4      4846.911          28.187    24526592.220   100432293.173 4      3776.814          28.375
R01  22781778.060   121781662.508 7      6809.067          42.125    22781776.580   121781662.501 6      6809.067          41.312    22781801.220    94719169.573 6      5295.941          39.937    22781801.020    94719167.555 6      5295.941          40.500
R14  23230037.560   123829172.617 7      3708.125          45.937    23230036.200   123829172.607 7      3708.125          45.312    23230051.800    96311637.874 7      2884.097          47.125    23230051.940    96311636.885 7      2884.097          46.812
R12  23265821.880   124281842.872 7     -1312.634          42.937    23265822.580   124281842.878 7     -1312.634          42.937    23265846.860    96663761.355 7     -1020.938          44.312    23265846.720    96663760.358 7     -1020.938          45.062
G27  24273643.560   127558855.311 6      -413.203          41.000    24273642.460   127558855.318 6      -413.203          38.625    24273665.600    99396596.556 6      -321.976          38.687    24273666.400    99396603.562 7      -321.976          43.750
G32  25306381.640   132985934.001 6      1160.571          40.062    25306380.360   132985933.995 5      1160.571          35.437    25306394.620   103625450.955 5       904.341          35.437    25306394.800   103625460.957 7       904.341          42.500
R07  21574048.560   115487564.982 7       482.475          46.812    21574049.340   115487565.002 7       482.475          45.937    21574061.360    89823722.596 7       375.259          47.687    21574061.680    89823721.605 7       375.259          47.125
R23  20987650.240   112269770.803 7      3194.102          45.562    20987648.940   112269770.828 7      3194.102          44.500
G14  22572474.340   118619158.252 7      3920.018          44.437    22572472.920   118619158.254 5      3920.018          35.125    22572482.200    92430541.198 5      3054.559          34.750    22572482.160    92430546.200 7      3054.559          47.875
G04  24612189.980   129337931.049 7      5413.006          42.125    24612189.860   129337931.062 4      5413.006          28.000    24612209.180   100782856.638 4      4217.927          28.125    24612209.360   100782881.635 7      4217.927          45.187
G08  21510968.680   113040901.553 8       770.365          48.000    21510967.260   113040901.555 8       770.365          48.312    21510978.700    88083857.063 7       600.284          47.875    21510979.560    88083864.069 8       600.284          50.062
R22  21917543.260   116997326.930 7      1269.057          46.125    21917542.360   116997326.926 7      1269.057          45.750    21917554.380    90997971.105 7       987.044          47.562    21917554.620    90997973.109 7       987.044          47.437
R08  20246027.300   108416561.261 7      4070.907          47.937    20246029.180   108416561.303 7      4070.907          47.062    20246042.120    84324055.655 8      3166.261          50.000    20246041.840    84324053.656 8      3166.261          49.625
G03  20554512.940   108014694.489 8      4050.186          48.875    20554512.280   108014694.489 7      4050.186          42.875    20554521.800    84167333.662 7      3155.989          42.750    20554522.160    84167333.662 8      3155.989          52.562
G02  21736320.800   114225137.730 8      2032.582          48.312    21736319.060   114225137.732 6      2032.582          39.812    21736323.060    89006614.417 6      1583.830          39.812
G21  21965816.660   115431146.441 8      1198.696          48.500    21965815.120   115431146.445 6      1198.696          38.312    21965820.560    89946364.779 6       934.049          38.437
> 2024 05 09 15 15 13.0000000  0 16
G22  24525661.800   128883219.780 7      4846.645          43.062    24525660.040   128883219.790 4      4846.645          28.187    24525669.860   100428516.437 4      3776.606          28.375
R01  22780504.480   121774853.384 7      6808.835          42.125    22780502.640   121774853.393 6      6808.835          41.312    22780527.220    94713873.605 6      5295.761          40.000    22780527.140    94713871.591 6      5295.761          40.750
R14  23229342.000   123825464.880 7      3707.279          46.000    23229340.300   123825464.870 7      3707.279          44.937    23229356.080    96308754.081 7      2883.440          46.937    23229356.460    96308753.091 7      2883.440          46.250
R12  23266067.800   124283155.536 7     -1312.895          43.437    23266068.380   124283155.545 7     -1312.895          43.125    23266092.500    96664782.318 7     -1021.141          44.375    23266092.400    96664781.325 7     -1021.141          45.000
G27  24273722.140   127559268.519 6      -413.566          41.312    24273721.100   127559268.529 6      -413.566          39.187    24273744.280    99396918.532 6      -322.259          38.812    24273744.940    99396925.526 7      -322.259          43.625
G32  25306160.860   132984773.823 6      1159.879          40.187    25306159.640   132984773.820 5      1159.879          35.750    25306173.960   103624546.929 5       903.802          35.750    25306174.740   103624556.933 7       903.802          42.250
R07  21573958.920   115487082.753 7       481.746          46.687    21573959.240   115487082.776 7       481.746          45.687    21573971.340    89823347.533 7       374.692          47.625    21573971.620    89823346.544 7       374.692          46.375
R23  20987053.260   112266576.574 7      3194.128          45.187    20987051.780   112266576.591 7      3194.128          44.500
G14  22571728.320   118615238.450 7      3919.430          44.125    22571727.040   118615238.452 5      3919.430          35.250    22571736.100    92427486.809 5      3054.101          35.187    22571736.360    92427491.809 8      3054.101          48.250
G04  24611159.880   129332517.787 6      5413.185          41.250    24611159.840   129332517.800 4      5413.185          28.000    24611179.140   100778638.513 4      4218.066          28.125    24611179.000   100778663.511 7      4218.066          44.625
G08  21510822.160   113040131.254 7       769.948          47.812    21510820.760   113040131.259 8       769.948          48.437    21510832.100    88083256.828 7       599.960          47.937    21510832.940    88083263.832 8       599.960          49.875
R22  21917305.440   116996057.858 7      1268.857          46.125    21917304.900   116996057.848 7      1268.857          46.000    21917316.480    90996984.043 7       986.889          47.750    21917316.960    90996986.045 7       986.889          47.625
R08  20245267.260   108412490.695 8      4070.044          48.000    20245269.000   108412490.739 7      4070.044          47.437    20245281.980    84320889.666 8      3165.590          50.437    20245281.620    84320887.669 8      3165.590          49.562
G03  20553742.220   108010644.509 8      4049.588          48.562    20553741.640   108010644.514 7      4049.588          42.750    20553751.100    84164177.842 7      3155.523          42.312    20553751.480    84164177.846 8      3155.523          52.687
G02  21735933.960   114223105.161 8      2032.365          48.062    21735932.320   114223105.166 6      2032.365          39.625    21735936.200    89005030.599 6      1583.661          39.312
G21  21965588.700   115429947.643 7      1198.673          47.750    21965587.040   115429947.648 6      1198.673          38.250    21965592.560    89945430.654 6       934.031          38.750
> 2024 05 09 15 15 14.0000000  0 16
G22  24524739.380   128878373.423 7      4846.110          44.187    24524737.960   128878373.428 4      4846.110          28.187    24524747.740   100424740.057 4      3776.190          28.375
R01  22779230.440   121768044.460 7      6808.901          42.125    22779228.700   121768044.453 6      6808.901          41.312    22779253.600    94708577.769 6      5295.812          40.000    22779253.460    94708575.753 6      5295.812          40.750
R14  23228646.420   123821757.977 7      3706.475          45.625    23228644.880   123821757.970 7      3706.475          45.000    23228660.600    96305870.935 7      2882.814          46.500    23228660.820    96305869.941 7      2882.814          46.500
R12  23266313.520   124284468.256 7     -1312.907          43.437    23266314.200   124284468.260 7     -1312.907          43.125    23266338.440    96665803.327 7     -1021.150          44.312    23266338.340    96665802.330 7     -1021.150          44.750
G27  24273800.920   127559681.999 6      -413.634          40.750    24273799.860   127559682.006 6      -413.634          39.062    24273823.000    99397240.714 6      -322.312          38.750    24273823.380    99397247.710 7      -322.312          43.625
G32  25305939.900   132983614.178 6      1159.468          40.125    25305938.940   132983614.181 5      1159.468          35.875    25305953.200   103623643.316 5       903.482          35.625    25305954.660   103623653.316 7       903.482          42.187
R07  21573868.900   115486601.399 7       480.988          46.500    21573869.420   115486601.416 7       480.988          45.312    21573881.420    89822973.144 7       374.102          47.625    21573881.900    89822972.160 7       374.102          46.250
R23  20986455.680   112263382.491 7      3194.031          45.812    20986455.020   112263382.503 7      3194.031          44.625
G14  22570982.900   118611319.308 7      3918.750          44.125    22570981.280   118611319.315 5      3918.750          35.125    22570990.560    92424432.936 5      3053.571          35.125    22570990.400    92424437.938 8      3053.571          48.437
G04  24610129.780   129327104.457 6      5413.329          41.687    24610129.580   129327104.470 4      5413.329          28.000    24610149.040   100774420.334 4      4218.179          28.125    24610148.860   100774445.333 7      4218.179          44.875
G08  21510675.460   113039361.431 8       769.532          48.250    21510674.220   113039361.433 8       769.532          48.187    21510685.640    88082656.959 7       599.636          47.812    21510686.200    88082663.964 8       599.636          50.125
R22  21917067.360   116994788.943 7      1268.846          46.187    21917067.220   116994788.936 7      1268.846          45.812    21917078.980    90995997.105 7       986.880          46.875    21917079.080    90995999.105 7       986.880          47.562
R08  20244507.520   108408421.028 8      4069.280          48.000    20244508.980   108408421.070 7      4069.280          47.625    20244522.060    84317724.374 8      3164.995          49.875    20244521.880    84317722.379 8      3164.995          49.875
G03  20552971.700   108006595.197 8      4049.020          48.750    20552971.020   108006595.202 7      4049.020          42.937    20552980.540    84161022.540 7      3155.081          42.250    20552980.960    84161022.542 8      3155.081          52.375
G02  21735547.120   114221072.708 7      2032.363          47.937    21735545.440   114221072.710 6      2032.363          40.000    21735549.440    89003446.867 6      1583.660          39.750
G21  21965360.500   115428748.957 8      1198.605          48.250    21965358.980   115428748.964 6      1198.605          37.937    21965364.380    89944496.612 6       933.978          37.750
> 2024 05 09 15 15 15.0000000  0 16
G22  24523817.240   128873527.371 7      4846.124          44.125    24523816.040   128873527.379 4      4846.124          28.750    24523825.540   100420963.917 4      3776.201          28.375
R01  22777957.040   121761235.630 7      6808.987          42.125    22777955.100   121761235.642 6      6808.987          41.312    22777979.700    94703282.020 6      5295.879          39.625    22777979.780    94703280.008 6      5295.879          40.687
R14  23227951.000   123818051.810 7      3706.002          45.750    23227949.420   123818051.808 7      3706.002          45.000    23227965.420    96302988.364 7      2882.446          47.125    23227965.540    96302987.373 7      2882.446          46.062
R12  23266559.460   124285780.915 7     -1312.413          43.687    23266559.760   124285780.919 7     -1312.413          43.500    23266584.100    96666824.281 7     -1020.765          44.437    23266583.940    96666823.287 7     -1020.765          45.312
G27  24273879.260   127560095.654 6      -413.448          41.312    24273878.520   127560095.656 6      -413.448          39.250    24273901.660    99397563.030 6      -322.168          38.937    24273902.420    99397570.033 7      -322.168          43.500
G32  25305718.980   132982455.031 6      1159.201          41.562    25305718.480   132982455.033 5      1159.201          35.875    25305732.600   103622740.082 5       903.273          35.625    25305733.780   103622750.084 7       903.273          42.187
R07  21573779.040   115486120.764 7       480.565          47.375    21573779.360   115486120.793 7       480.565          46.187    21573791.780    89822599.322 7       373.773          47.625    21573792.080    89822598.339 7       373.773          46.937
R23  20985858.540   112260188.409 7      3194.349          46.000    20985857.600   112260188.418 7      3194.349          44.562
G14  22570237.240   118607400.706 7      3918.581          44.312    22570235.620   118607400.714 5      3918.581          35.125    22570244.920    92421379.481 5      3053.439          35.125    22570245.220    92421384.481 8      3053.439          48.562
G04  24609099.560   129321690.966 7      5413.755          42.000    24609099.500   129321690.979 4      5413.755          28.000    24609118.960   100770202.026 4      4218.510          28.125    24609118.600   100770227.017 7      4218.510          44.437
G08  21510529.160   113038591.952 8       769.555          48.500    21510527.840   113038591.957 8       769.555          48.375    21510539.260    88082057.361 7       599.653          47.937    21510540.020    88082064.367 8       599.653          49.875
R22  21916829.780   116993520.106 7      1269.063          46.875    21916829.700   116993520.101 7      1269.063          46.500    21916841.320    90995010.227 7       987.049          47.562    21916841.460    90995012.229 7       987.049          46.937
R08  20243747.780   108404352.149 8      4068.715          48.375    20243748.860   108404352.186 7      4068.715          47.312    20243762.300    84314559.692 8      3164.556          50.125    20243761.960    84314557.695 8      3164.556          49.437
G03  20552201.220   108002546.437 8      4048.670          49.125    20552200.560   108002546.444 7      4048.670          43.500    20552210.120    84157867.664 7      3154.808          42.875    20552210.480    84157867.668 8      3154.808          52.437
G02  21735160.480   114219040.278 8      2032.669          48.125    21735158.760   114219040.280 6      2032.669          39.750    21735162.620    89001863.154 6      1583.898          39.625
G21  21965132.340   115427550.236 7      1198.980          47.000    21965130.940   115427550.243 6      1198.980          37.937    21965136.500    89943562.544 6       934.270          37.562
> 2024 05 09 15 15 16.0000000  0 16
G22  24522895.040   128868681.680 7      4845.414          44.062    24522894.220   128868681.690 4      4845.414          28.750    24522903.640   100417188.055 4      3775.648          28.375
R01  22776683.000   121754426.893 6      6808.591          41.812    22776681.600   121754426.908 6      6808.591          41.250    22776706.520    94697986.340 6      5295.571          39.625    22776705.680    94697984.337 6      5295.571          40.687
R14  23227255.620   123814346.341 7      3705.108          45.625    23227254.360   123814346.337 7      3705.108          44.812    23227270.520    96300106.327 7      2881.750          46.750    23227270.460    96300105.329 7      2881.750          46.687
R12  23266805.360   124287093.524 7     -1312.622          43.187    23266805.580   124287093.533 7     -1312.622          43.187    23266829.860    96667845.205 7     -1020.928          44.500    23266829.640    96667844.211 7     -1020.928          45.750
G27  24273958.060   127560509.485 6      -413.952          41.562    24273957.240   127560509.490 6      -413.952          39.187    24273980.440    99397885.490 6      -322.560          38.812    24273980.760    99397892.493 7      -322.560          43.687
G32  25305498.540   132981296.311 6      1158.381          41.375    25305498.260   132981296.321 5      1158.381          35.812    25305512.140   103621837.190 5       902.634          35.625    25305512.780   103621847.191 7       902.634          42.375
R07  21573689.180   115485640.848 7       479.388          47.437    21573690.120   115485640.887 7       479.388          45.750    21573702.400    89822226.068 7       372.857          47.437    21573702.580    89822225.073 8       372.857          48.125
R23  20985261.760   112256994.342 7      3194.022          45.812    20985260.780   112256994.344 7      3194.022          44.500
G14  22569491.420   118603482.660 7      3917.718          45.250    22569490.080   118603482.662 5      3917.718          35.187    22569499.280    92418326.455 5      3052.767          34.812    22569499.820    92418331.453 8      3052.767          48.687
G04  24608069.860   129316277.305 6      5413.520          41.625    24608069.300   129316277.318 4      5413.520          28.000    24608088.780   100765983.586 4      4218.328          28.125    24608088.080   100766008.579 7      4218.328          44.187
G08  21510383.060   113037822.849 8       768.848          48.187    21510381.440   113037822.854 8       768.848          48.875    21510392.900    88081458.056 8       599.103          48.375    21510393.700    88081465.062 8       599.103          50.187
R22  21916591.700   116992251.343 7      1268.578          46.750    21916592.060   116992251.344 7      1268.578          46.187    21916603.520    90994023.412 7       986.671          47.062    21916603.640    90994025.410 7       986.671          47.562
R08  20242987.860   108400284.044 8      4067.600          48.312    20242989.540   108400284.080 7      4067.600          47.750    20243002.480    84311395.618 8      3163.689          50.125    20243002.380    84311393.619 8      3163.689          50.125
G03  20551430.880   107998498.212 8      4047.847          49.125    20551430.120   107998498.217 7      4047.847          42.750    20551439.840    84154713.207 7      3154.167          42.750    20551440.100    84154713.209 8      3154.167          52.437
G02  21734773.800   114217007.880 7      2032.293          47.812    21734772.000   114217007.885 6      2032.293          39.500    21734775.900    89000279.469 6      1583.605          39.562
G21  21964904.580   115426351.504 7      1198.682          47.375    21964902.680   115426351.512 6      1198.682          38.500    21964908.400    89942628.465 6       934.038          38.312
> 2024 05 09 15 15 17.0000000  0 16
G22  24521973.220   128863836.390 7      4845.238          43.625    24521972.340   128863836.395 4      4845.238          28.750    24521981.600   100413412.503 4      3775.510          29.500
R01  22775409.180   121747618.355 6      6808.590          41.812    22775407.540   121747618.356 6      6808.590          41.250    22775432.640    94692690.808 6      5295.570          40.312    22775431.620    94692688.792 6      5295.570          40.875
R14  23226560.880   123810641.659 7      3704.418          45.250    23226559.020   123810641.665 7      3704.418          44.875    23226575.140    96297224.913 7      2881.214          47.000    23226575.440    96297223.922 7      2881.214          46.187
R12  23267050.440   124288406.158 7     -1312.467          43.187    23267050.920   124288406.167 7     -1312.467          43.187    23267075.760    96668866.147 7     -1020.808          44.250    23267075.380    96668865.155 7     -1020.808          45.437
G27  24274036.780   127560923.619 6      -414.208          41.625    24274036.080   127560923.624 6      -414.208          39.375    24274059.260    99398208.181 6      -322.759          39.000    24274059.940    99398215.171 7      -322.759          43.625
G32  25305278.440   132980138.127 6      1158.100          40.937    25305278.000   132980138.135 5      1158.100          35.937    25305291.840   103620934.711 5       902.416          35.812    25305292.280   103620944.700 7       902.416          42.562
R07  21573599.460   115485161.723 7       478.917          47.250    21573600.500   115485161.751 7       478.917          46.000    21573612.680    89821853.405 7       372.491          47.687    21573613.000    89821852.406 7       372.491          47.250
R23  20984665.240   112253800.354 7      3194.142          45.562    20984663.820   112253800.363 7      3194.142          44.500
G14  22568745.980   118599565.228 7      3917.315          44.687    22568744.860   118599565.233 5      3917.315          35.562    22568753.760    92415273.913 5      3052.453          35.500    22568754.160    92415278.911 8      3052.453          48.812
G04  24607039.460   129310863.531 6      5413.882          41.937    24607039.260   129310863.541 4      5413.882          28.250    24607058.560   100761765.063 4      4218.609          28.125    24607057.860   100761790.054 7      4218.609          44.500
G08  21510236.780   113037054.176 7       768.636          47.750    21510235.120   113037054.181 8       768.636          48.250    21510246.580    88080859.086 7       598.937          47.687    21510247.480    88080866.090 8       598.937          49.562
R22  21916354.320   116990982.703 7      1268.757          47.125    21916354.400   116990982.709 7      1268.757          46.125    21916365.760    90993036.688 7       986.811          47.687    21916365.980    90993038.690 7       986.811          46.937
R08  20242228.700   108396216.803 8      4066.965          48.000    20242229.780   108396216.848 7      4066.965          47.375    20242243.020    84308232.219 8      3163.195          50.375    20242242.740    84308230.222 8      3163.195          49.687
G03  20550660.620   107994450.618 8      4047.427          49.562    20550659.880   107994450.618 7      4047.427          43.375    20550669.500    84151559.240 7      3153.839          42.750    20550669.760    84151559.242 8      3153.839          52.875
G02  21734387.160   114214975.574 8      2032.458          48.062    21734385.260   114214975.576 6      2032.458          39.312    21734389.160    88998695.854 6      1583.733          39.250
G21  21964676.440   115425152.839 7      1198.751          47.625    21964674.620   115425152.846 6      1198.751          38.500    21964680.300    89941694.440 6       934.091          38.500
> 2024 05 09 15 15 18.0000000  0 16
G22  24521051.460   128858991.497 7      4844.482          43.687    24521050.420   128858991.504 5      4844.482          30.312    24521059.560   100409637.261 4      3774.921          29.500
R01  22774135.880   121740809.952 6      6808.269          41.812    22774134.140   121740809.959 6      6808.269          41.250    22774158.860    94687395.388 6      5295.320          40.312    22774157.880    94687393.374 6      5295.320          40.687
R14  23225866.020   123806937.765 7      3703.281          45.812    23225864.060   123806937.755 7      3703.281          44.500    23225880.500    96294344.093 7      2880.330          46.625    23225880.600    96294343.097 7      2880.330          46.875
R12  23267296.380   124289718.841 7     -1312.911          42.937    23267296.280   124289718.853 7     -1312.911          42.812    23267321.720    96669887.123 7     -1021.153          44.687    23267321.200    96669886.129 7     -1021.153          45.375
G27  24274115.540   127561337.944 6      -414.585          41.625    24274114.980   127561337.944 6      -414.585          39.062    24274138.060    99398531.022 6      -323.053          38.625    24274138.600    99398538.035 7      -323.053          43.562
G32  25305058.380   132978980.504 6      1157.089          41.625    25305057.740   132978980.511 5      1157.089          35.937    25305071.580   103620032.668 5       901.628          35.750    25305071.940   103620042.668 7       901.628          42.562
R07  21573510.200   115484683.468 7       477.662          47.500    21573510.980   115484683.489 7       477.662          46.000    21573523.500    89821481.423 7       371.515          47.562    21573523.720    89821480.430 7       371.515          46.687
R23  20984067.560   112250606.475 7      3193.679          45.375    20984067.120   112250606.489 7      3193.679          44.875
G14  22568000.640   118595648.427 7      3916.336          43.937    22567999.580   118595648.437 5      3916.336          35.125    22568008.420    92412221.864 5      3051.690          35.500    22568008.940    92412226.868 8      3051.690          48.937
G04  24606009.180   129305449.649 7      5413.802          42.187    24606009.100   129305449.656 4      5413.802          28.250    24606028.380   100757546.451 4      4218.547          28.125    24606028.180   100757571.452 7      4218.547          44.750
G08  21510090.360   113036285.953 7       767.807          47.375    21510089.060   113036285.961 8       767.807          48.875    21510100.480    88080260.468 8       598.291          48.375    21510101.120    88080267.471 8       598.291          49.875
R22  21916116.940   116989714.231 7      1268.202          46.875    21916117.360   116989714.230 7      1268.202          46.562    21916128.140    90992050.094 7       986.379          47.062    21916128.160    90992052.101 7       986.379          47.250
R08  20241469.260   108392150.433 8      4065.779          48.125    20241470.480   108392150.472 7      4065.779          47.000    20241483.700    84305069.489 8      3162.272          50.062    20241483.460    84305067.492 8      3162.272          50.187
G03  20549890.520   107990403.652 8      4046.454          50.250    20549889.680   107990403.655 7      4046.454          42.750    20549899.260    84148405.764 7      3153.081          42.062    20549899.640    84148405.771 8      3153.081          52.937
G02  21734000.420   114212943.378 8      2031.990          48.062    21733998.500   114212943.380 6      2031.990          40.375    21734002.480    88997112.327 6      1583.369          40.375
G21  21964448.560   115423954.228 8      1198.392          48.187    21964446.540   115423954.236 6      1198.392          38.437    21964452.080    89940760.458 6       933.812          38.937
> 2024 05 09 15 15 19.0000000  0 16
G22  24520129.540   128854147.103 7      4844.271          44.250    24520128.600   128854147.113 5      4844.271          30.312    24520137.720   100405862.409 4      3774.757          29.500
R01  22772862.500   121734001.846 6      6808.085          41.625    22772861.260   121734001.850 6      6808.085          41.250    22772885.440    94682100.195 6      5295.177          40.062    22772884.600    94682098.177 6      5295.177          40.687
R14  23225171.500   123803234.706 7      3702.610          45.625    23225169.600   123803234.701 7      3702.610          44.750    23225185.980    96291463.934 7      2879.808          46.625    23225185.900    96291462.942 7      2879.808          46.187
R12  23267541.940   124291031.717 7     -1312.898          42.937    23267541.920   124291031.704 7     -1312.898          42.625    23267567.540    96670908.234 7     -1021.143          44.375    23267567.100    96670907.233 7     -1021.143          45.250
G27  24274194.680   127561752.669 6      -414.829          41.375    24274193.920   127561752.666 6      -414.829          39.125    24274217.020    99398854.174 6      -323.243          38.875    24274217.760    99398861.174 7      -323.243          43.125
G32  25304838.220   132977823.494 6      1156.729          41.187    25304837.520   132977823.497 5      1156.729          35.812    25304851.260   103619131.095 5       901.348          35.750    25304851.700   103619141.080 7       901.348          42.187
R07  21573421.080   115484206.123 7       476.940          47.187    21573421.820   115484206.147 7       476.940          45.500    21573434.160    89821110.154 7       370.954          47.687    21573434.460    89821109.155 7       370.954          47.562
R23  20983470.460   112247412.793 7      3193.678          45.375    20983469.840   112247412.803 7      3193.678          44.750
G14  22567255.520   118591732.345 7      3915.838          44.937    22567254.400   118591732.355 5      3915.838          35.125    22567263.320    92409170.372 5      3051.303          34.937    22567263.580    92409175.370 8      3051.303          48.875
G04  24604978.380   129300035.790 7      5413.980          42.375    24604978.780   129300035.798 4      5413.980          28.250    24604997.940   100753327.860 4      4218.686          28.125    24604997.780   100753352.862 7      4218.686          44.625
G08  21509944.480   113035518.258 7       767.468          47.625    21509942.960   113035518.260 8       767.468          48.125    21509954.440    88079662.254 7       598.027          47.812    21509955.180    88079669.259 8       598.027          49.312
R22  21915879.060   116988446.000 7      1268.100          47.187    21915879.640   116988446.004 7      1268.100          46.375    21915890.500    90991063.696 7       986.300          47.625    21915890.520    90991065.700 7       986.300          46.312
R08  20240710.240   108388084.997 8      4064.961          48.375    20240711.320   108388085.036 7      4064.961          47.187    20240724.320    84301907.489 8      3161.637          50.062    20240724.060    84301905.490 8      3161.637          49.312
G03  20549120.380   107986357.401 8      4045.997          49.625    20549119.760   107986357.403 7      4045.997          42.812    20549129.280    84145252.845 7      3152.725          42.375    20549129.600    84145252.852 8      3152.725          51.312
G02  21733613.860   114210911.384 8      2031.892          48.625    21733611.860   114210911.387 6      2031.892          40.125    21733615.900    88995528.955 6      1583.292          39.500
G21  21964220.300   115422755.778 8      1198.448          48.187    21964218.440   115422755.780 6      1198.448          38.312    21964224.080    89939826.597 6       933.856          38.375
> 2024 05 09 15 15 20.0000000  0 16
G22  24519207.660   128849302.867 7      4843.904          44.062    24519206.620   128849302.879 5      4843.904          30.312    24519215.940   100402087.682 4      3774.471          29.500
R01  22771588.520   121727193.596 6      6808.046          41.625    22771587.180   121727193.603 6      6808.046          41.250    22771612.020    94676804.893 6      5295.147          40.062    22771610.820    94676802.879 6      5295.147          40.750
R14  23224476.800   123799532.175 7      3701.999          45.375    23224475.320   123799532.172 7      3701.999          44.812    23224491.400    96288584.187 7      2879.332          46.375    23224491.300    96288583.183 7      2879.332          46.250
R12  23267788.220   124292344.317 7     -1312.733          42.687    23267787.000   124292344.302 7     -1312.733          42.625    23267813.100    96671929.147 7     -1021.014          44.187    23267812.900    96671928.149 7     -1021.014          45.187
G27  24274273.860   127562167.349 6      -414.932          41.750    24274272.900   127562167.351 6      -414.932          39.437    24274295.900    99399177.297 6      -323.323          38.875    24274296.920    99399184.306 7      -323.323          43.125
G32  25304617.980   132976666.711 6      1156.393          41.625    25304617.260   132976666.711 5      1156.393          35.875    25304631.140   103618229.711 5       901.086          35.750    25304631.380   103618239.726 7       901.086          42.125
R07  21573332.060   115483729.303 7       476.333          46.937    21573332.640   115483729.332 7       476.333          45.750    21573344.840    89820739.301 7       370.481          47.375    21573345.200    89820738.302 7       370.481          46.812
R23  20982873.280   112244218.904 7      3193.806          45.375    20982872.880   112244218.918 7      3193.806          44.812
G14  22566510.280   118587816.619 7      3915.247          45.000    22566509.160   118587816.626 5      3915.247          35.687    22566518.080    92406119.159 5      3050.842          35.250    22566518.320    92406124.163 8      3050.842          49.250
G04  24603948.160   129294621.572 7      5414.083          42.375    24603948.660   129294621.585 4      5414.083          28.250    24603967.760   100749108.991 4      4218.766          28.125    24603967.820   100749133.994 7      4218.766          44.625
G08  21509798.220   113034750.710 7       767.251          47.875    21509796.740   113034750.715 8       767.251          48.437    21509808.380    88079064.167 8       597.858          48.000    21509809.160    88079071.170 8       597.858          49.687
R22  21915641.440   116987177.619 7      1268.159          46.625    21915642.240   116987177.623 7      1268.159          46.187    21915652.760    90990077.184 7       986.346          47.437    21915652.960    90990079.188 7       986.346          46.812
R08  20239950.700   108384020.083 8      4064.417          48.437    20239952.180   108384020.122 7      4064.417          47.312    20239965.400    84298745.898 8      3161.213          50.250    20239965.040    84298743.903 8      3161.213          50.062
G03  20548350.560   107982311.489 8      4045.599          49.125    20548349.780   107982311.494 7      4045.599          42.687    20548359.440    84142100.195 7      3152.415          42.250    20548359.940    84142100.201 8      3152.415          53.000
G02  21733227.220   114208879.186 7      2032.047          47.687    21733225.120   114208879.191 6      2032.047          39.500    21733229.120    88993945.426 6      1583.413          39.375
G21  21963992.260   115421557.104 7      1198.477          47.812    21963990.420   115421557.112 6      1198.477          37.875    21963995.940    89938892.569 6       933.878          38.187
> 2024 05 09 15 15 21.0000000  0 16
G22  24518285.920   128844458.990 7      4843.536          42.937    24518284.760   128844459.006 5      4843.536          30.312    24518294.280   100398313.235 5      3774.184          30.062
R01  22770314.760   121720385.466 7      6808.045          42.062    22770313.720   121720385.473 6      6808.045          41.250    22770338.000    94671509.681 6      5295.146          39.937    22770337.320    94671507.665 6      5295.146          40.750
R14  23223782.340   123795830.488 7      3701.197          45.687    23223781.200   123795830.483 7      3701.197          45.187    23223797.200    96285705.083 7      2878.708          47.625    23223797.080    96285704.078 7      2878.708          46.937
R12  23268033.900   124293656.898 7     -1312.644          42.312    23268032.740   124293656.886 7     -1312.644          42.187    23268058.880    96672950.046 7     -1020.945          44.375    23268058.860    96672949.041 7     -1020.945          45.687
G27  24274352.960   127562582.287 6      -415.249          41.750    24274351.800   127562582.289 6      -415.249          39.062    24274374.880    99399500.615 6      -323.571          38.875    24274375.720    99399507.613 7      -323.571          43.812
G32  25304397.840   132975510.443 6      1156.165          41.437    25304397.340   132975510.446 5      1156.165          35.562    25304411.140   103617328.723 5       900.908          35.625    25304411.360   103617338.729 7       900.908          42.125
R07  21573242.720   115483253.313 7       475.534          47.625    21573243.700   115483253.333 7       475.534          45.500    21573255.840    89820369.088 7       369.860          47.250    21573256.560    89820368.091 7       369.860          46.812
R23  20982276.180   112241025.102 7      3193.699          45.125    20982275.800   112241025.120 7      3193.699          45.062
G14  22565765.140   118583901.473 7      3914.826          45.125    22565764.040   118583901.478 5      3914.826          35.250    22565773.200    92403068.392 5      3050.514          35.250    22565773.060    92403073.398 8      3050.514          48.312
G04  24602917.600   129289207.227 7      5414.172          42.062    24602918.200   129289207.238 4      5414.172          28.500    24602937.560   100744890.023 4      4218.835          28.125    24602937.180   100744915.024 7      4218.835          44.375
G08  21509652.080   113033983.585 8       766.829          48.125    21509650.880   113033983.593 8       766.829          48.187    21509662.380    88078466.401 7       597.529          47.937    21509663.260    88078473.406 8       597.529          49.875
R22  21915403.920   116985909.366 7      1268.088          46.375    21915404.740   116985909.375 7      1268.088          45.937    21915415.360    90989090.751 7       986.291          47.125    21915415.580    90989092.755 7       986.291          47.000
R08  20239192.200   108379956.031 8      4063.516          48.062    20239193.240   108379956.065 7      4063.516          47.375    20239206.360    84295584.969 8      3160.512          50.312    20239206.140    84295582.972 8      3160.512          49.687
G03  20547580.820   107978266.215 8      4044.841          48.625    20547580.200   107978266.220 7      4044.841          43.250    20547589.640    84138948.035 7      3151.824          42.687    20547590.060    84138948.042 8      3151.824          52.250
G02  21732840.420   114206847.080 8      2032.008          48.125    21732838.400   114206847.082 6      2032.008          39.875    21732842.400    88992361.964 6      1583.383          39.812
G21  21963764.140   115420358.462 7      1198.549          47.625    21963762.420   115420358.467 6      1198.549          37.625    21963767.920    89937958.562 6       933.934          37.937
> 2024 05 09 15 15 22.0000000  0 16
G22  24517364.380   128839615.598 7      4842.997          42.437    24517362.980   128839615.610 4      4842.997          29.562    24517372.640   100394539.164 5      3773.764          30.062
R01  22769041.420   121713577.614 7      6807.582          42.062    22769040.280   121713577.602 6      6807.582          41.125    22769064.860    94666214.681 6      5294.786          39.937    22769064.020    94666212.661 6      5294.786          40.812
R14  23223087.960   123792129.675 7      3700.140          45.187    23223086.760   123792129.684 7      3700.140          45.437    23223103.020    96282826.696 7      2877.887          46.250    23223102.560    96282825.696 7      2877.887          45.500
R12  23268279.620   124294969.597 7     -1312.928          42.312    23268278.600   124294969.582 7     -1312.928          42.187    23268304.640    96673971.024 7     -1021.166          44.437    23268304.300    96673970.025 7     -1021.166          45.750
G27  24274432.200   127562997.532 6      -415.625          41.750    24274430.860   127562997.534 6      -415.625          39.062    24274453.980    99399824.172 6      -323.863          39.062    24274454.900    99399831.169 7      -323.863          43.250
G32  25304177.560   132974354.853 6      1155.022          41.250    25304177.340   132974354.861 5      1155.022          35.812    25304191.180   103616428.272 5       900.017          35.750    25304191.760   103616438.263 6       900.017          41.812
R07  21573154.160   115482778.171 7       474.547          46.875    21573154.860   115482778.197 7       474.547          45.437    21573166.980    89819999.531 7       369.092          47.312    21573167.620    89819998.536 7       369.092          46.750
R23  20981679.640   112237831.472 7      3193.419          45.187    20981678.640   112237831.484 7      3193.419          44.625
G14  22565020.260   118579987.065 7      3913.853          44.687    22565019.060   118579987.073 5      3913.853          35.250    22565028.320    92400018.206 5      3049.756          35.062    22565028.220    92400023.214 8      3049.756          48.625
G04  24601887.480   129283792.859 7      5414.046          42.625    24601888.060   129283792.867 4      5414.046          28.500    24601907.320   100740671.037 4      4218.737          28.250    24601906.900   100740696.040 7      4218.737          44.437
G08  21509506.180   113033216.989 7       766.162          47.937    21509505.040   113033216.996 8       766.162          48.375    21509516.560    88077869.047 7       597.009          47.937    21509517.300    88077876.050 8       597.009          49.812
R22  21915166.300   116984641.332 7      1267.837          45.812    21915167.460   116984641.330 7      1267.837          46.125    21915177.680    90988104.489 7       986.095          46.812    21915177.880    90988106.496 7       986.095          46.562
R08  20238433.240   108375892.900 7      4062.475          47.937    20238434.620   108375892.939 7      4062.475          47.437    20238447.700    84292424.773 8      3159.703          50.000    20238447.180    84292422.780 8      3159.703          49.750
G03  20546811.140   107974221.627 8      4044.086          48.750    20546810.440   107974221.630 7      4044.086          43.062    20546820.060    84135796.412 7      3151.236          42.687    20546820.360    84135796.417 8      3151.236          52.500
G02  21732453.680   114204815.152 7      2031.640          47.687    21732451.940   114204815.154 6      2031.640          39.812    21732455.760    88990778.652 6      1583.096          39.937
G21  21963536.180   115419159.960 7      1198.297          47.687    21963534.320   115419159.964 6      1198.297          38.062    21963540.000    89937024.664 6       933.738          37.937
> 2024 05 09 15 15 23.0000000  0 16
G22  24516442.620   128834772.654 7      4842.640          43.000    24516441.340   128834772.670 4      4842.640          29.562    24516450.940   100390765.444 5      3773.486          30.062
R01  22767768.360   121706769.904 6      6807.480          41.937    22767766.280   121706769.900 6      6807.480          41.125    22767791.160    94660919.797 6      5294.707          40.250    22767790.540    94660917.779 6      5294.707          40.937
R14  23222393.740   123788429.655 7      3699.535          42.875    23222393.160   123788429.668 7      3699.535          43.125    23222409.380    96279948.898 7      2877.416          46.375    23222408.600    96279947.898 7      2877.416          45.125
R12  23268525.240   124296282.285 7     -1312.691          42.500    23268524.220   124296282.279 7     -1312.691          42.250    23268550.120    96674992.001 7     -1020.982          44.562    23268550.100    96674991.003 7     -1020.982          45.937
G27  24274511.240   127563413.032 6      -415.712          41.687    24274510.000   127563413.037 6      -415.712          39.250    24274532.920    99400147.932 6      -323.932          38.812    24274533.880    99400154.941 7      -323.932          43.375
G32  25303957.940   132973199.728 6      1154.872          41.937    25303957.600   132973199.730 5      1154.872          35.812    25303971.200   103615528.172 5       899.900          35.812    25303971.740   103615538.176 7       899.900          42.250
R07  21573065.380   115482303.843 7       473.805          47.062    21573066.220   115482303.871 7       473.805          45.750    21573078.180    89819630.615 7       368.515          47.375    21573079.060    89819629.618 7       368.515          46.625
R23  20981082.420   112234637.922 7      3193.405          45.937    20981081.540   112234637.939 7      3193.405          44.625
G14  22564275.700   118576073.241 7      3913.431          45.312    22564274.380   118576073.251 5      3913.431          35.250    22564283.420    92396968.473 5      3049.427          34.625    22564283.260    92396973.471 7      3049.427          47.875
G04  24600857.300   129278378.383 7      5414.385          42.500    24600857.520   129278378.394 4      5414.385          28.500    24600877.120   100736451.967 4      4219.001          28.250    24600876.740   100736476.962 7      4219.001          44.437
G08  21509360.580   113032450.815 7       765.920          47.187    21509359.140   113032450.820 8       765.920          48.562    21509370.760    88077272.023 8       596.821          48.000    21509371.580    88077279.023 8       596.821          50.562
R22  21914928.700   116983373.474 7      1267.719          46.687    21914930.040   116983373.475 7      1267.719          46.125    21914940.340    90987118.365 7       986.003          47.062    21914940.260    90987120.365 7       986.003          47.187
R08  20237674.760   108371830.648 8      4061.764          48.000    20237675.880   108371830.679 7      4061.764          47.187    20237689.000    84289265.239 8      3159.150          49.875    20237688.760    84289263.242 8      3159.150          49.687
G03  20546041.520   107970177.678 8      4043.527          49.187    20546040.860   107970177.677 7      4043.527          42.812    20546050.460    84132645.285 7      3150.801          42.875    20546050.760    84132645.291 8      3150.801          52.750
G02  21732067.040   114202783.316 8      2031.744          48.625    21732065.240   114202783.318 6      2031.744          40.000    21732069.180    88989195.397 6      1583.178          39.625
G21  21963308.080   115417961.533 7      1198.257          47.687    21963306.120   115417961.540 6      1198.257          38.437    21963311.920    89936090.823 6       933.707          38.250
> 2024 05 09 15 15 24.0000000  0 16
G22  24515520.520   128829930.113 7      4842.334          43.000    24515519.820   128829930.128 4      4842.334          29.562    24515529.560   100386992.033 5      3773.247          30.062
R01  22766494.540   121699962.365 6      6807.439          41.937    22766492.760   121699962.355 6      6807.439          41.187    22766517.740    94655625.048 6      5294.675          40.250    22766516.920    94655623.030 6      5294.675          40.937
R14  23221699.900   123784730.452 7      3698.735          46.625    23221699.360   123784730.463 7      3698.735          45.875    23221715.200    96277071.734 7      2876.794          46.437    23221715.000    96277070.736 7      2876.794          46.812
R12  23268771.260   124297595.097 7     -1312.817          42.500    23268770.460   124297595.090 7     -1312.817          42.250    23268796.000    96676013.072 7     -1021.080          44.375    23268795.720    96676012.072 7     -1021.080          45.375
G27  24274590.160   127563828.805 6      -415.819          40.687    24274589.160   127563828.810 6      -415.819          39.562    24274612.120    99400471.903 6      -324.014          39.312    24274613.100    99400478.908 7      -324.014          43.625
G32  25303738.400   132972045.189 6      1154.231          41.937    25303738.020   132972045.196 5      1154.231          35.875    25303751.300   103614628.539 5       899.400          35.625    25303752.360   103614638.535 7       899.400          42.250
R07  21572976.900   115481830.352 7       472.971          47.062    21572977.840   115481830.378 7       472.971          45.750    21572989.780    89819262.339 7       367.867          47.750    21572990.480    89819261.348 7       367.867          46.437
R23  20980485.420   112231444.489 7      3193.319          46.000    20980484.560   112231444.499 7      3193.319          44.625
G14  22563530.820   118572160.087 7      3912.800          45.875    22563529.920   118572160.097 5      3912.800          35.000    22563538.740    92393919.262 5      3048.935          34.625    22563538.980    92393924.274 8      3048.935          48.375
G04  24599827.260   129272963.847 6      5414.490          41.687    24599827.140   129272963.857 4      5414.490          28.500    24599846.840   100732232.848 4      4219.083          28.250    24599846.380   100732257.841 7      4219.083          44.437
G08  21509214.980   113031685.117 7       765.409          47.187    21509213.480   113031685.122 8       765.409          48.562    21509225.100    88076675.371 8       596.422          48.000    21509225.900    88076682.375 8       596.422          50.000
R22  21914691.220   116982105.769 7      1267.592          46.625    21914692.460   116982105.769 7      1267.592          46.187    21914702.760    90986132.370 7       985.905          47.187    21914702.760    90986134.370 7       985.905          46.875
R08  20236916.220   108367769.274 8      4060.909          48.187    20236917.660   108367769.310 7      4060.909          47.625    20236930.480    84286106.398 8      3158.484          50.000    20236930.340    84286104.401 8      3158.484          49.500
G03  20545272.320   107966134.364 8      4042.932          49.625    20545271.520   107966134.364 7      4042.932          42.625    20545281.100    84129494.657 7      3150.337          42.187    20545281.200    84129494.661 8      3150.337          52.500
G02  21731680.460   114200751.617 7      2031.625          47.687    21731678.500   114200751.616 6      2031.625          39.375    21731682.520    88987612.253 6      1583.084          39.187
G21  21963079.860   115416763.167 8      1198.281          48.250    21963077.940   115416763.174 6      1198.281          38.562    21963083.920    89935157.029 6       933.725          38.375
> 2024 05 09 15 15 25.0000000  0 16
G22  24514599.460   128825087.947 6      4841.959          41.875    24514598.100   128825087.962 4      4841.959          29.562    24514608.200   100383218.921 4      3772.955          29.187
R01  22765221.060   121693154.972 6      6807.277          41.937    22765219.060   121693154.960 6      6807.277          41.187    22765244.300    94650330.414 6      5294.549          40.062    22765243.580    94650328.390 6      5294.549          40.687
R14  23221006.260   123781031.953 7      3697.995          46.875    23221005.640   123781031.956 7      3697.995          45.812    23221021.180    96274195.123 7      2876.219          47.250    23221021.140    96274194.125 7      2876.219          47.062
R12  23269016.740   124298907.878 7     -1312.825          42.062    23269016.520   124298907.887 7     -1312.825          42.375    23269041.860    96677034.142 7     -1021.086          44.250    23269041.680    96677033.137 7     -1021.086          45.750
G27  24274669.560   127564244.843 6      -416.248          41.875    24274668.260   127564244.848 6      -416.248          39.000    24274691.300    99400796.083 6      -324.349          38.562    24274691.960    99400803.087 7      -324.349          43.562
G32  25303518.920   132970891.136 6      1153.868          41.875    25303518.600   132970891.138 6      1153.868          37.000    25303531.600   103613729.277 6       899.118          36.750    25303532.680   103613739.277 7       899.118          42.375
R07  21572888.760   115481357.646 7       472.180          47.000    21572889.600   115481357.675 7       472.180          46.000    21572901.600    89818894.682 7       367.251          47.500    21572901.980    89818893.688 7       367.251          46.812
R23  20979888.760   112228251.116 7      3193.277          46.062    20979887.540   112228251.120 7      3193.277          44.812
G14  22562786.120   118568247.502 7      3912.302          45.625    22562785.180   118568247.513 5      3912.302          35.375    22562794.240    92390870.495 5      3048.547          35.250    22562794.400    92390875.505 8      3048.547          48.875
G04  24598796.620   129267549.161 7      5414.738          42.312    24598796.700   129267549.171 4      5414.738          28.500    24598816.380   100728013.614 4      4219.276          28.250    24598816.120   100728038.613 7      4219.276          44.625
G08  21509069.120   113030919.797 8       765.110          48.500    21509067.760   113030919.800 8       765.110          48.500    21509079.440    88076079.007 8       596.190          48.000    21509080.080    88076086.008 8       596.190          50.062
R22  21914453.980   116980838.156 7      1267.520          47.500    21914454.980   116980838.160 7      1267.520          46.437    21914465.240    90985146.449 7       985.849          47.062    21914465.240    90985148.443 7       985.849          46.562
R08  20236157.840   108363708.716 8      4060.094          48.625    20236159.060   108363708.755 7      4060.094          47.812    20236172.240    84282948.197 8      3157.851          50.250    20236172.200    84282946.200 8      3157.851          50.000
G03  20544503.020   107962091.626 8      4042.436          49.062    20544502.180   107962091.628 7      4042.436          42.875    20544511.760    84126344.476 7      3149.950          42.437    20544511.980    84126344.484 8      3149.950          52.500
G02  21731293.840   114198719.991 7      2031.406          47.812    21731291.920   114198719.993 6      2031.406          39.500    21731295.880    88986029.170 6      1582.914          39.312
G21  21962851.920   115415564.832 8      1198.284          48.000    21962849.940   115415564.837 6      1198.284          38.625    21962855.820    89934223.258 6       933.728          38.125
> 2024 05 09 15 15 26.0000000  0 16
G22  24513678.000   128820246.286 6      4841.231          41.875    24513676.480   128820246.298 4      4841.231          29.562    24513686.880   100379446.202 4      3772.388          29.187
R01  22763947.160   121686347.810 6      6807.005          41.750    22763945.840   121686347.806 6      6807.005          41.187    22763971.020    94645035.959 6      5294.337          40.312    22763970.320    94645033.941 6      5294.337          40.687
R14  23220312.560   123777334.344 7      3697.026          47.312    23220312.200   123777334.353 7      3697.026          46.000    23220327.600    96271319.205 7      2875.465          47.062    23220327.400    96271318.208 7      2875.465          47.312
R12  23269262.360   124300220.815 7     -1313.200          42.062    23269262.300   124300220.824 7     -1313.200          42.375    23269287.840    96678055.317 7     -1021.378          44.125    23269287.300    96678054.318 7     -1021.378          45.562
G27  24274748.540   127564661.208 6      -416.780          41.500    24274747.560   127564661.210 6      -416.780          39.000    24274770.500    99401120.513 6      -324.763          38.812    24274771.180    99401127.515 7      -324.763          43.437
G32  25303299.520   132969737.721 7      1152.946          42.562    25303299.200   132969737.729 6      1152.946          36.187    25303312.160   103612830.519 6       898.399          36.125    25303312.860   103612840.531 6       898.399          41.937
R07  21572801.020   115480885.853 7       471.177          47.187    21572801.480   115480885.876 7       471.177          46.000    21572813.480    89818527.726 7       366.471          47.312    21572814.080    89818526.733 7       366.471          46.312
R23  20979291.600   112225057.932 7      3192.943          45.812    20979290.860   112225057.939 7      3192.943          44.937
G14  22562042.040   118564335.657 7      3911.361          44.875    22562040.800   118564335.669 5      3911.361          35.375    22562049.780    92387822.309 5      3047.814          35.125    22562049.660    92387827.311 7      3047.814          47.875
G04  24597765.840   129262134.499 6      5414.617          41.937    24597766.400   129262134.511 4      5414.617          28.500    24597786.000   100723794.394 4      4219.182          28.250    24597785.480   100723819.394 7      4219.182          44.437
G08  21508923.600   113030155.019 7       764.443          47.750    21508922.300   113030155.024 8       764.443          48.125    21508933.800    88075483.076 7       595.670          47.687    21508934.380    88075490.079 8       595.670          50.250
R22  21914216.720   116979570.816 7      1267.043          47.375    21914217.040   116979570.814 7      1267.043          46.375    21914227.820    90984160.734 7       985.478          47.000    21914227.940    90984162.730 7       985.478          46.437
R08  20235399.580   108359649.125 7      4058.950          47.812    20235401.120   108359649.169 7      4058.950          47.437    20235414.100    84279790.748 8      3156.961          49.875    20235414.060    84279788.753 8      3156.961          49.687
G03  20543733.700   107958049.629 8      4041.547          49.750    20543732.960   107958049.631 7      4041.547          42.437    20543742.660    84123194.871 7      3149.258          42.000    20543742.920    84123194.882 8      3149.258          52.187
G02  21730907.220   114196688.536 8      2031.181          48.250    21730905.420   114196688.539 6      2031.181          39.687    21730909.240    88984446.219 6      1582.738          39.500
G21  21962623.540   115414366.655 7      1197.930          47.812    21962621.920   115414366.660 6      1197.930          38.125    21962627.780    89933289.616 6       933.452          38.250
> 2024 05 09 15 15 27.0000000  0 16
G22  24512756.720   128815405.092 7      4841.041          42.375    24512755.120   128815405.108 4      4841.041          28.625    24512765.520   100375673.850 4      3772.240          29.187
R01  22762673.920   121679540.891 6      6806.974          41.750    22762672.120   121679540.892 6      6806.974          40.937    22762697.420    94639741.701 6      5294.313          40.312    22762697.080    94639739.681 6      5294.313          41.250
R14  23219619.040   123773637.615 7      3696.366          47.687    23219618.840   123773637.618 7      3696.366          46.062    23219634.040    96268443.967 7      2874.951          47.437    23219633.920    96268442.970 7      2874.951          47.125
R12  23269508.360   124301533.805 7     -1312.871          42.875    23269508.420   124301533.804 7     -1312.871          42.625    23269533.520    96679076.527 7     -1021.122          44.437    23269533.180    96679075.526 7     -1021.122          45.625
G27  24274827.700   127565077.874 6      -416.752          41.687    24274826.720   127565077.876 6      -416.752          39.000    24274849.920    99401445.182 6      -324.742          39.250    24274850.560    99401452.178 7      -324.742          43.437
G32  25303080.120   132968584.906 7      1152.496          42.500    25303080.000   132968584.916 6      1152.496          36.187    25303092.800   103611932.229 6       898.049          36.125    25303093.300   103611942.239 6       898.049          41.937
R07  21572712.860   115480414.932 7       470.559          46.875    21572713.340   115480414.957 7       470.559          45.500    21572725.760    89818161.456 7       365.990          47.375    21572726.180    89818160.467 7       365.990          46.875
R23  20978694.520   112221864.906 7      3193.057          45.875    20978694.040   112221864.907 7      3193.057          44.750
G14  22561297.640   118560424.486 7      3910.914          44.625    22561296.240   118560424.499 5      3910.914          35.250    22561305.500    92384774.640 5      3047.465          35.125    22561305.180    92384779.642 8      3047.465          48.062
G04  24596735.820   129256719.797 6      5414.859          41.812    24596736.220   129256719.810 4      5414.859          28.500    24596755.460   100719575.148 4      4219.371          28.562    24596755.140   100719600.143 7      4219.371          44.687
G08  21508778.180   113029390.747 7       764.106          47.875    21508776.820   113029390.750 8       764.106          48.312    21508788.400    88074887.534 8       595.407          48.125    21508789.140    88074894.538 8       595.407          49.875
R22  21913979.300   116978303.647 7      1267.201          46.500    21913979.480   116978303.642 7      1267.201          46.437    21913990.420    90983175.156 7       985.601          47.000    21913990.380    90983177.158 7       985.601          46.687
R08  20234641.600   108355590.433 8      4058.380          48.312    20234643.640   108355590.478 7      4058.380          47.500    20234656.060    84276633.992 8      3156.518          49.812    20234655.960    84276631.997 8      3156.518          50.062
G03  20542964.740   107954008.299 8      4041.203          49.187    20542963.860   107954008.304 7      4041.203          42.687    20542973.560    84120045.789 7      3148.989          42.937    20542974.040    84120045.796 8      3148.989          52.312
G02  21730520.800   114194657.237 7      2031.336          47.875    21730518.860   114194657.239 6      2031.336          39.687    21730522.700    88982863.390 6      1582.859          39.500
G21  21962395.940   115413168.586 7      1198.104          47.375    21962393.880   115413168.588 6      1198.104          38.500    21962399.740    89932356.053 6       933.588          38.312
> 2024 05 09 15 15 28.0000000  0 16
G22  24511835.140   128810564.435 7      4840.376          42.125    24511833.880   128810564.445 4      4840.376          28.625    24511844.480   100371901.913 4      3771.721          29.187
R01  22761400.140   121672734.279 6      6806.467          41.500    22761399.320   121672734.288 6      6806.467          40.937    22761424.760    94634447.680 6      5293.919          40.187    22761423.820    94634445.664 6      5293.919          41.312
R14  23218926.040   123769941.835 7      3695.275          47.625    23218925.580   123769941.846 7      3695.275          47.125    23218940.600    96265569.480 7      2874.103          47.312    23218940.280    96265568.482 7      2874.103          47.062
R12  23269754.240   124302847.006 7     -1313.306          42.875    23269754.360   124302847.013 7     -1313.306          42.875    23269779.120    96680097.908 7     -1021.460          44.375    23269778.980    96680096.909 7     -1021.460          46.062
G27  24274907.340   127565494.940 7      -417.357          42.125    24274906.160   127565494.942 6      -417.357          39.312    24274929.300    99401770.158 6      -325.213          38.812    24274930.020    99401777.164 7      -325.213          43.562
G32  25302860.780   132967432.731 7      1151.731          42.000    25302860.800   132967432.739 6      1151.731          36.812    25302873.480   103611034.433 6       897.453          36.750    25302874.360   103611044.443 7       897.453          42.250
R07  21572625.240   115479944.953 7       469.483          47.500    21572625.640   115479944.970 7       469.483          45.937    21572638.060    89817795.915 7       365.153          47.750    21572638.300    89817794.922 7       365.153          47.187
R23  20978097.820   112218672.121 7      3192.678          45.875    20978096.700   112218672.130 7      3192.678          44.750
G14  22560553.700   118556514.067 7      3910.037          44.125    22560552.140   118556514.077 5      3910.037          35.125    22560561.240    92381727.560 5      3046.782          34.937    22560561.000    92381732.552 8      3046.782          48.062
G04  24595705.540   129251305.126 6      5414.688          41.937    24595705.700   129251305.139 4      5414.688          28.500    24595725.080   100715355.923 4      4219.238          28.562    24595724.280   100715380.922 7      4219.238          44.312
G08  21508632.840   113028627.033 8       763.370          48.562    21508631.580   113028627.043 8       763.370          48.562    21508643.080    88074292.432 8       594.834          48.250    21508643.960    88074299.434 8       594.834          50.187
R22  21913741.900   116977036.774 7      1266.736          46.812    21913742.220   116977036.772 7      1266.736          46.187    21913753.020    90982189.804 7       985.239          46.937    21913753.320    90982191.806 7       985.239          46.812
R08  20233884.160   108351532.743 7      4057.206          47.875    20233885.720   108351532.788 7      4057.206          47.437    20233898.360    84273478.019 8      3155.605          50.250    20233898.380    84273476.022 8      3155.605          49.875
G03  20542196.040   107949967.760 8      4040.094          49.562    20542194.920   107949967.767 7      4040.094          43.250    20542204.660    84116897.324 7      3148.125          42.750    20542205.160    84116897.330 8      3148.125          52.687
G02  21730134.320   114192626.189 8      2030.887          48.000    21730132.400   114192626.194 6      2030.887          39.687    21730136.120    88981280.757 6      1582.509          39.687
G21  21962168.000   115411970.711 7      1197.814          47.812    21962165.980   115411970.713 6      1197.814          38.187    21962171.940    89931422.646 6       933.362          38.312
> 2024 05 09 15 15 29.0000000  0 16
G22  24510914.140   128805724.142 6      4839.976          41.562    24510912.600   128805724.147 4      4839.976          28.625    24510923.180   100368130.257 4      3771.410          29.187
R01  22760126.680   121665927.758 6      6806.403          41.500    22760126.000   121665927.773 6      6806.403          40.937    22760150.640    94629153.719 6      5293.869          40.187    22760150.500    94629151.701 6      5293.869          41.312
R14  23218232.700   123766246.803 7      3694.514          47.500    23218232.900   123766246.812 7      3694.514          46.937    23218247.400    96262695.567 7      2873.511          47.562    23218247.380    96262694.569 7      2873.511          47.312
R12  23270000.180   124304160.143 7     -1313.194          42.437    23270000.180   124304160.147 7     -1313.194          42.875    23270024.960    96681119.236 7     -1021.373          44.562    23270024.860    96681118.242 7     -1021.373          45.312
G27  24274986.980   127565912.174 6      -417.368          41.937    24274985.580   127565912.179 6      -417.368          39.125    24275008.680    99402095.269 6      -325.222          38.500    24275009.660    99402102.267 7      -325.222          43.437
G32  25302641.460   132966281.035 7      1151.371          42.000    25302641.700   132966281.040 6      1151.371          36.062    25302654.360   103610137.011 6       897.173          36.187    25302655.180   103610147.023 7       897.173          42.625
R07  21572537.540   115479475.691 7       468.841          47.312    21572538.020   115479475.709 7       468.841          45.625    21572550.580    89817430.936 7       364.654          47.375    21572550.580    89817429.943 7       364.654          47.125
R23  20977501.140   112215479.370 7      3192.602          45.625    20977500.120   112215479.391 7      3192.602          44.875
G14  22559809.800   118552604.216 7      3909.502          44.375    22559808.200   118552604.220 5      3909.502          35.375    22559817.200    92378680.919 5      3046.365          35.000    22559817.440    92378685.914 8      3046.365          48.937
G04  24594674.800   129245890.306 6      5414.846          41.437    24594675.320   129245890.317 4      5414.846          28.500    24594694.680   100711136.584 4      4219.361          28.562    24594693.960   100711161.575 7      4219.361          44.562
G08  21508487.660   113027863.684 8       763.099          48.187    21508486.440   113027863.689 8       763.099          48.562    21508497.940    88073697.610 8       594.623          48.250    21508499.000    88073704.613 8       594.623          50.250
R22  21913504.700   116975769.981 7      1266.645          46.500    21913504.840   116975769.985 7      1266.645          45.875    21913515.720    90981204.523 7       985.169          46.687    21913516.180    90981206.523 7       985.169          46.750
R08  20233126.560   108347475.843 7      4056.428          47.625    20233128.260   108347475.885 7      4056.428          47.375    20233140.900    84270322.655 8      3155.000          50.187    20233140.760    84270320.660 8      3155.000          49.687
G03  20541427.120   107945927.754 8      4039.634          49.500    20541426.260   107945927.762 7      4039.634          42.812    20541435.820    84113749.275 7      3147.767          42.375    20541436.140    84113749.278 8      3147.767          52.562
G02  21729747.700   114190595.173 8      2030.923          48.312    21729745.880   114190595.175 6      2030.923          39.812    21729749.660    88979698.147 6      1582.538          39.437
G21  21961940.000   115410772.841 7      1197.756          47.312    21961938.020   115410772.849 6      1197.756          38.562    21961943.960    89930489.243 6       933.316          38.250
> 2024 05 09 15 15 30.0000000  0 16
G22  24509993.360   128800884.163 6      4839.984          41.062    24509991.920   128800884.168 4      4839.984          28.625    24510002.040   100364358.850 4      3771.416          28.125
R01  22758853.720   121659121.360 6      6806.439          41.500    22758852.520   121659121.369 6      6806.439          40.687    22758877.640    94623859.858 6      5293.897          40.375    22758877.560    94623857.838 6      5293.897          41.000
R14  23217539.780   123762552.491 7      3694.029          47.812    23217539.740   123762552.489 7      3694.029          46.500    23217554.400    96259822.207 7      2873.134          47.125    23217554.440    96259821.211 7      2873.134          47.125
R12  23270245.840   124305473.219 7     -1312.933          42.437    23270245.940   124305473.233 7     -1312.933          42.812    23270271.020    96682140.534 7     -1021.170          44.437    23270270.440    96682139.538 7     -1021.170          45.687
G27  24275066.380   127566329.647 7      -417.475          42.250    24275065.080   127566329.650 6      -417.475          39.125    24275088.200    99402420.565 6      -325.305          38.437    24275088.860    99402427.567 7      -325.305          43.750
G32  25302422.200   132965129.817 7      1151.119          42.062    25302422.600   132965129.819 6      1151.119          36.500    25302435.200   103609239.963 6       896.976          36.437    25302436.560   103609249.977 7       896.976          42.625
R07  21572449.840   115479007.182 7       468.273          47.312    21572450.460   115479007.199 7       468.273          45.812    21572463.480    89817066.535 7       364.212          47.937    21572463.240    89817065.547 7       364.212          47.625
R23  20976904.180   112212286.660 7      3192.873          45.812    20976903.480   112212286.670 7      3192.873          44.687
G14  22559065.840   118548694.932 7      3909.089          45.312    22559064.300   118548694.937 5      3909.089          35.375    22559073.280    92375634.723 5      3046.043          35.000    22559073.900    92375639.731 8      3046.043          49.187
G04  24593644.640   129240475.323 6      5415.192          41.437    24593644.920   129240475.334 4      5415.192          28.562    24593664.320   100706917.119 4      4219.630          28.562    24593663.940   100706942.112 7      4219.630          44.312
G08  21508342.400   113027100.729 8       762.896          48.062    21508341.220   113027100.737 8       762.896          48.312    21508352.760    88073103.096 8       594.464          48.125    21508353.620    88073110.098 8       594.464          50.125
R22  21913267.360   116974503.276 7      1266.795          46.000    21913267.260   116974503.282 7      1266.795          45.812    21913278.620    90980219.304 7       985.285          47.125    21913278.560    90980221.297 7       985.285          47.062
R08  20232368.980   108343419.765 8      4055.808          48.500    20232370.580   108343419.809 7      4055.808          47.062    20232383.320    84267167.940 8      3154.517          50.250    20232383.320    84267165.943 8      3154.517          50.062
G03  20540658.420   107941888.345 8      4039.192          49.187    20540657.560   107941888.345 7      4039.192          42.500    20540667.180    84110601.686 7      3147.422          42.000    20540667.400    84110601.688 8      3147.422          53.000
G02  21729361.160   114188564.210 8      2031.054          48.437    21729359.500   114188564.217 6      2031.054          39.500    21729363.180    88978115.582 6      1582.640          39.312
G21  21961712.160   115409574.972 7      1197.959          47.437    21961710.160   115409574.979 6      1197.959          38.187    21961716.000    89929555.839 6       933.475          38.312
> 2024 05 09 15 15 31.0000000  0 16
G22  24509072.400   128796044.745 6      4839.260          41.312    24509070.980   128796044.748 4      4839.260          28.625    24509081.100   100360587.882 4      3770.852          28.125
R01  22757580.560   121652315.221 6      6806.184          41.375    22757578.920   121652315.223 6      6806.184          40.687    22757604.260    94618566.182 6      5293.699          40.375    22757603.880    94618564.166 6      5293.699          41.000
R14  23216847.480   123758859.048 7      3693.080          47.750    23216846.860   123758859.041 7      3693.080          47.250    23216861.540    96256949.523 7      2872.396          47.187    23216861.280    96256948.520 7      2872.396          47.312
R12  23270491.580   124306786.492 7     -1313.435          43.375    23270492.480   124306786.506 7     -1313.435          43.437    23270516.520    96683161.971 7     -1021.560          43.937    23270516.540    96683160.970 7     -1021.560          45.750
G27  24275145.820   127566747.462 6      -417.881          41.812    24275144.700   127566747.462 6      -417.881          39.437    24275167.740    99402746.120 6      -325.622          39.187    24275168.560    99402753.118 7      -325.622          43.437
G32  25302203.680   132963979.230 7      1150.460          42.000    25302203.620   132963979.235 6      1150.460          36.375    25302216.200   103608343.407 6       896.463          36.437    25302217.740   103608353.423 7       896.463          42.437
R07  21572362.520   115478539.574 7       467.224          47.562    21572363.220   115478539.595 7       467.224          46.062    21572376.220    89816702.843 7       363.396          47.937    21572375.880    89816701.848 8       363.396          48.187
R23  20976306.900   112209094.159 7      3192.474          46.000    20976306.960   112209094.168 7      3192.474          45.125
G14  22558322.240   118544786.370 7      3908.244          43.937    22558320.460   118544786.380 5      3908.244          35.562    22558329.460    92372589.093 5      3045.385          35.000    22558330.380    92372594.105 8      3045.385          49.375
G04  24592614.320   129235060.361 7      5415.037          42.875    24592614.300   129235060.369 4      5415.037          28.562    24592633.860   100702697.668 4      4219.510          28.562    24592633.460   100702722.661 7      4219.510          44.750
G08  21508197.240   113026338.326 7       762.155          47.687    21508196.120   113026338.333 8       762.155          48.375    21508207.620    88072509.009 7       593.887          47.875    21508208.460    88072516.014 8       593.887          50.250
R22  21913029.960   116973236.825 7      1266.420          46.125    21913030.080   116973236.834 7      1266.420          45.875    21913041.340    90979234.278 7       984.993          47.250    21913041.440    90979236.276 7       984.993          47.062
R08  20231611.280   108339364.661 8      4054.719          48.312    20231613.340   108339364.703 7      4054.719          47.437    20231626.060    84264013.972 8      3153.670          50.062    20231626.400    84264011.979 8      3153.670          50.187
G03  20539889.900   107937849.648 8      4038.353          49.812    20539889.100   107937849.650 7      4038.353          42.562    20539898.640    84107454.651 7      3146.769          42.000    20539898.920    84107454.654 8      3146.769          52.187
G02  21728974.780   114186533.448 8      2030.728          48.125    21728972.940   114186533.456 6      2030.728          39.875    21728976.720    88976533.173 6      1582.386          39.750
G21  21961483.860   115408377.249 7      1197.785          46.250    21961482.200   115408377.254 6      1197.785          38.250    21961488.140    89928622.544 6       933.339          38.187
> 2024 05 09 15 15 32.0000000  0 16
G22  24508151.460   128791205.536 7      4839.095          42.687    24508150.140   128791205.535 4      4839.095          28.187    24508160.340   100356817.073 4      3770.723          28.125
R01  22756307.780   121645509.085 6      6806.136          41.375    22756306.220   121645509.089 6      6806.136          40.750    22756331.520    94613272.531 6      5293.661          40.250    22756330.680    94613270.511 6      5293.661          41.062
R14  23216154.520   123755166.200 7      3692.597          47.562    23216153.760   123755166.197 7      3692.597          47.500    23216168.580    96254077.309 7      2872.020          47.062    23216168.840    96254076.307 7      2872.020          46.750
R12  23270737.380   124308099.608 7     -1313.033          43.375    23270737.760   124308099.609 7     -1313.033          43.437    23270762.280    96684183.275 7     -1021.248          44.500    23270762.380    96684182.274 7     -1021.248          45.562
G27  24275225.380   127567165.345 6      -417.927          41.875    24275224.100   127567165.345 6      -417.927          38.937    24275247.220    99403071.735 6      -325.657          38.875    24275247.780    99403078.744 7      -325.657          43.687
G32  25301984.460   132962829.002 7      1150.188          43.000    25301984.840   132962829.010 6      1150.188          36.625    25301997.320   103607447.130 6       896.250          36.937    25301998.300   103607457.140 7       896.250          42.250
R07  21572275.160   115478072.590 7       466.693          46.937    21572275.940   115478072.613 7       466.693          46.062    21572289.220    89816339.635 7       362.984          47.375    21572288.840    89816338.638 7       362.984          47.937
R23  20975710.400   112205901.558 7      3192.719          45.750    20975709.920   112205901.557 7      3192.719          45.000
G14  22557578.520   118540878.256 7      3907.909          45.062    22557576.740   118540878.266 5      3907.909          35.312    22557586.000    92369543.811 5      3045.124          35.125    22557586.700    92369548.823 8      3045.124          48.937
G04  24591583.820   129229645.113 7      5415.369          42.000    24591583.720   129229645.123 4      5415.369          28.562    24591603.300   100698477.994 4      4219.768          28.625    24591603.080   100698503.002 7      4219.768          44.812
G08  21508052.460   113025576.154 8       762.111          48.062    21508051.120   113025576.164 8       762.111          48.625    21508062.500    88071915.109 8       593.853          48.000    21508063.380    88071922.109 8       593.853          50.187
R22  21912792.740   116971970.336 7      1266.613          45.500    21912793.000   116971970.337 7      1266.613          46.062    21912804.040    90978249.229 7       985.143          47.062    21912804.260    90978251.225 7       985.143          46.562
R08  20230854.600   108335310.203 8      4054.207          48.125    20230856.260   108335310.242 7      4054.207          47.250    20230868.940    84260860.513 8      3153.272          49.750    20230869.000    84260858.514 8      3153.272          50.437
G03  20539121.480   107933811.377 8      4038.143          49.562    20539120.540   107933811.376 7      4038.143          43.000    20539130.160    84104307.952 7      3146.605          42.062    20539130.280    84104307.955 8      3146.605          52.625
G02  21728588.300   114184502.611 8      2030.889          48.937    21728586.520   114184502.616 6      2030.889          39.812    21728590.220    88974950.698 6      1582.511          39.562
G21  21961256.160   115407179.419 7      1197.906          46.812    21961254.220   115407179.424 6      1197.906          37.625    21961260.200    89927689.170 6       933.433          38.000
> 2024 05 09 15 15 33.0000000  0 16
G22  24507230.940   128786366.654 7      4838.567          42.562    24507229.400   128786366.657 4      4838.567          28.187    24507239.340   100353046.518 4      3770.312          28.125
R01  22755034.680   121638703.027 6      6805.866          41.437    22755032.940   121638703.036 6      6805.866          40.750    22755058.180    94607978.934 6      5293.451          40.250    22755057.320    94607976.916 6      5293.451          41.125
R14  23215461.620   123751474.049 7      3691.764          47.687    23215460.840   123751474.045 7      3691.764          46.812    23215475.880    96251205.637 7      2871.372          47.250    23215476.040    96251204.639 7      2871.372          47.187
R12  23270983.600   124309412.667 7     -1313.053          43.375    23270983.240   124309412.658 7     -1313.053          43.500    23271008.380    96685204.541 7     -1021.264          44.687    23271008.300    96685203.545 7     -1021.264          45.625
G27  24275304.780   127567583.399 7      -418.173          42.125    24275303.620   127567583.404 6      -418.173          39.375    24275326.680    99403397.487 6      -325.849          39.062    24275327.500    99403404.492 7      -325.849          43.687
G32  25301765.660   132961679.227 7      1149.573          43.000    25301766.100   132961679.240 6      1149.573          36.687    25301778.620   103606551.209 6       895.771          36.625    25301779.520   103606561.219 7       895.771          42.250
R07  21572188.060   115477606.332 7       465.829          46.625    21572188.700   115477606.355 7       465.829          45.625    21572202.140    89815976.987 7       362.312          47.437    21572201.840    89815975.988 8       362.312          48.250
R23  20975113.700   112202708.952 7      3192.594          46.250    20975113.160   112202708.953 7      3192.594          44.875
G14  22556834.960   118536970.672 7      3907.324          44.500    22556833.220   118536970.682 5      3907.324          35.500    22556842.400    92366498.940 5      3044.668          35.312    22556842.800    92366503.949 8      3044.668          48.875
G04  24590553.420   129224229.678 6      5415.689          41.812    24590553.240   129224229.686 4      5415.689          28.562    24590572.840   100694258.175 4      4220.017          28.625    24590572.440   100694283.172 7      4220.017          44.750
G08  21507907.460   113024814.358 7       761.608          47.687    21507906.080   113024814.360 8       761.608          48.062    21507917.540    88071321.491 7       593.461          47.687    21507918.500    88071328.490 8       593.461          49.625
R22  21912555.340   116970703.917 7      1266.335          46.187    21912555.600   116970703.921 7      1266.335          46.250    21912566.820    90977264.234 7       984.927          47.125    21912567.080    90977266.228 7       984.927          46.750
R08  20230097.740   108331256.508 8      4053.296          48.750    20230099.300   108331256.549 7      4053.296          47.250    20230111.900    84257707.641 8      3152.564          50.250    20230112.060    84257705.646 8      3152.564          50.312
G03  20538352.920   107929773.689 8      4037.375          49.187    20538352.140   107929773.693 7      4037.375          42.500    20538361.780    84101161.708 7      3146.007          42.312    20538362.040    84101161.712 8      3146.007          52.250
G02  21728201.660   114182471.774 8      2030.773          48.812    21728200.060   114182471.776 6      2030.773          39.625    21728203.760    88973368.230 6      1582.420          39.500
G21  21961028.280   115405981.552 7      1197.848          47.812    21961026.180   115405981.562 6      1197.848          37.687    21961032.260    89926755.769 6       933.388          38.562
> 2024 05 09 15 15 34.0000000  0 16
G22  24506309.860   128781528.243 7      4838.115          42.750    24506308.640   128781528.246 4      4838.115          28.187    24506318.640   100349276.332 4      3769.960          28.125
R01  22753761.820   121631897.204 6      6805.620          41.437    22753759.520   121631897.213 6      6805.620          40.750    22753784.960    94602685.525 6      5293.260          40.187    22753784.440    94602683.511 6      5293.260          41.125
R14  23214769.300   123747782.781 7      3690.837          47.250    23214768.320   123747782.782 7      3690.837          46.625    23214783.400    96248334.652 7      2870.651          47.000    23214783.720    96248333.654 7      2870.651          47.062
R12  23271229.420   124310725.836 7     -1313.363          43.125    23271228.580   124310725.824 7     -1313.363          43.187    23271253.960    96686225.893 7     -1021.505          44.000    23271253.780    96686224.896 7     -1021.505          45.500
G27  24275384.500   127568001.792 6      -418.606          40.625    24275383.100   127568001.804 6      -418.606          39.187    24275406.200    99403723.504 6      -326.186          39.000    24275406.900    99403730.512 7      -326.186          43.375
G32  25301547.360   132960530.095 7      1148.777          43.375    25301547.360   132960530.100 6      1148.777          37.000    25301559.900   103605655.780 6       895.151          36.875    25301560.760   103605665.780 7       895.151          42.125
R07  21572101.100   115477140.992 7       464.864          47.437    21572101.800   115477141.007 7       464.864          46.187    21572115.280    89815615.054 7       361.561          47.875    21572115.080    89815614.049 8       361.561          48.437
R23  20974516.820   112199516.536 7      3192.268          46.562    20974516.760   112199516.543 7      3192.268          44.875
G14  22556091.680   118533063.808 7      3906.485          45.125    22556089.780   118533063.820 5      3906.485          35.312    22556098.880    92363454.633 5      3044.014          35.312    22556099.220    92363459.641 8      3044.014          48.750
G04  24589522.680   129218814.267 6      5415.459          41.125    24589522.920   129218814.274 4      5415.459          29.000    24589542.220   100690038.376 4      4219.838          28.625    24589541.900   100690063.365 7      4219.838          44.750
G08  21507762.760   113024053.074 8       761.023          48.000    21507761.260   113024053.076 8       761.023          48.187    21507772.700    88070728.277 7       593.005          47.625    21507773.580    88070735.279 8       593.005          49.937
R22  21912318.040   116969437.722 7      1266.119          45.812    21912318.280   116969437.726 7      1266.119          46.187    21912329.560    90976279.407 7       984.759          47.250    21912329.960    90976281.399 7       984.759          47.250
R08  20229340.700   108327203.736 8      4052.306          48.562    20229342.660   108327203.778 7      4052.306          47.250    20229355.040    84254555.494 8      3151.794          50.125    20229355.180    84254553.495 8      3151.794          50.375
G03  20537584.860   107925736.678 8      4036.650          48.875    20537583.860   107925736.686 7      4036.650          42.937    20537593.540    84098015.994 7      3145.441          42.562    20537593.740    84098015.996 8      3145.441          52.000
G02  21727815.540   114180441.120 8      2030.545          48.250    21727813.820   114180441.125 6      2030.545          39.875    21727817.420    88971785.904 6      1582.243          39.687
G21  21960800.420   115404783.833 8      1197.631          48.500    21960798.240   115404783.840 6      1197.631          38.375    21960804.380    89925822.483 6       933.219          38.187
> 2024 05 09 15 15 35.0000000  0 16
G22  24505389.580   128776690.111 7      4838.064          42.437    24505388.100   128776690.116 4      4838.064          28.187    24505398.020   100345506.363 4      3769.920          28.125
R01  22752488.280   121625091.442 6      6805.599          41.437    22752486.620   121625091.448 6      6805.599          40.437    22752512.060    94597392.156 6      5293.244          40.312    22752511.160    94597390.136 6      5293.244          41.250
R14  23214076.760   123744092.163 7      3690.291          47.562    23214076.100   123744092.169 7      3690.291          46.875    23214091.020    96245464.176 7      2870.227          46.875    23214091.320    96245463.178 7      2870.227          47.062
R12  23271475.380   124312038.869 7     -1313.210          43.312    23271474.340   124312038.862 7     -1313.210          43.187    23271499.720    96687247.151 7     -1021.385          44.500    23271499.660    96687246.150 7     -1021.385          45.625
G27  24275464.020   127568420.295 6      -418.480          40.812    24275462.680   127568420.305 6      -418.480          38.875    24275485.740    99404049.600 6      -326.089          38.750    24275486.320    99404056.598 7      -326.089          43.750
G32  25301328.660   132959381.321 7      1148.532          43.062    25301328.840   132959381.320 6      1148.532          37.062    25301341.160   103604760.635 6       894.960          36.750    25301341.920   103604770.637 7       894.960          42.125
R07  21572014.200   115476676.331 7       464.290          46.937    21572014.860   115476676.354 7       464.290          45.812    21572028.360    89815253.653 7       361.114          47.625    21572028.200    89815252.654 7       361.114          47.625
R23  20973920.200   112196324.053 7      3192.541          46.437    20973919.620   112196324.065 7      3192.541          44.937
G14  22555347.940   118529157.422 7      3906.098          44.500    22555346.500   118529157.435 5      3906.098          35.312    22555355.580    92360410.698 5      3043.713          35.125    22555355.740    92360415.702 8      3043.713          48.437
G04  24588492.060   129213398.567 7      5415.889          42.187    24588492.300   129213398.574 4      5415.889          29.000    24588511.600   100685818.352 4      4220.173          28.625    24588511.280   100685843.357 7      4220.173          44.500
G08  21507617.740   113023292.084 8       760.787          48.562    21507616.420   113023292.089 8       760.787          48.687    21507627.960    88070135.298 8       592.821          48.125    21507628.520    88070142.299 8       592.821          49.750
R22  21912080.960   116968171.535 7      1266.099          46.062    21912081.440   116968171.544 7      1266.099          46.375    21912092.580    90975294.597 7       984.744          47.187    21912092.620    90975296.591 7       984.744          46.375
R08  20228583.660   108323151.690 8      4051.642          48.125    20228586.060   108323151.732 7      4051.642          47.562    20228598.540    84251403.909 8      3151.277          50.375    20228598.300    84251401.912 8      3151.277          50.062
G03  20536816.640   107921700.170 8      4036.265          49.062    20536815.760   107921700.175 7      4036.265          43.312    20536825.500    84094870.665 7      3145.142          43.187    20536825.940    84094870.669 8      3145.142          52.000
G02  21727428.960   114178410.435 8      2030.654          48.437    21727427.200   114178410.437 6      2030.654          39.562    21727430.920    88970203.555 6      1582.327          39.437
G21  21960572.460   115403586.026 7      1197.844          47.437    21960570.280   115403586.034 6      1197.844          38.250    21960576.340    89924889.125 6       933.385          38.250
> 2024 05 09 15 15 36.0000000  0 16
G22  24504469.080   128771852.467 7      4837.411          42.375    24504467.600   128771852.475 4      4837.411          28.187    24504477.380   100341736.774 4      3769.412          27.937
R01  22751215.220   121618285.907 6      6805.382          41.062    22751213.140   121618285.906 6      6805.382          40.437    22751238.820    94592098.954 6      5293.075          40.312    22751237.940    94592096.934 6      5293.075          40.937
R14  23213384.680   123740402.460 7      3689.260          47.062    23213384.040   123740402.455 7      3689.260          46.812    23213398.640    96242594.396 7      2869.424          46.187    23213398.900    96242593.398 7      2869.424          47.312
R12  23271720.560   124313352.014 7     -1313.208          43.312    23271720.340   124313352.002 7     -1313.208          43.312    23271745.560    96688268.480 7     -1021.384          44.250    23271745.680    96688267.479 7     -1021.384          46.000
G27  24275544.060   127568839.147 6      -418.960          41.312    24275542.400   127568839.147 6      -418.960          39.375    24275565.620    99404375.964 6      -326.463          39.062    24275566.180    99404382.964 7      -326.463          43.625
G32  25301110.100   132958233.169 7      1147.798          43.750    25301110.320   132958233.169 6      1147.798          36.875    25301122.580   103603865.976 6       894.388          36.562    25301122.740   103603875.977 6       894.388          41.812
R07  21571927.920   115476212.575 7       463.242          47.250    21571928.520   115476212.601 7       463.242          45.750    21571941.640    89814892.958 7       360.300          47.750    21571941.480    89814891.957 7       360.300          47.687
R23  20973323.480   112193131.771 7      3192.230          46.000    20973322.980   112193131.783 7      3192.230          45.000
G14  22554604.720   118525251.735 7      3905.379          43.625    22554603.260   118525251.745 5      3905.379          35.625    22554612.180    92357367.301 5      3043.153          35.375    22554612.600    92357372.297 8      3043.153          48.125
G04  24587461.540   129207982.919 6      5415.570          41.625    24587461.840   129207982.929 4      5415.570          29.000    24587481.080   100681598.369 4      4219.925          28.625    24587480.840   100681623.357 7      4219.925          44.312
G08  21507473.020   113022531.607 8       760.242          48.250    21507471.760   113022531.609 8       760.242          48.625    21507483.100    88069542.710 8       592.397          48.500    21507483.780    88069549.709 8       592.397          50.062
R22  21911843.600   116966905.556 7      1265.855          46.562    21911844.000   116966905.562 7      1265.855          46.250    21911855.400    90974309.939 7       984.554          47.312    21911855.340    90974311.933 7       984.554          46.750
R08  20227827.220   108319100.571 8      4050.639          48.312    20227829.560   108319100.612 7      4050.639          47.500    20227841.800    84248253.044 8      3150.497          49.937    20227841.740    84248251.047 8      3150.497          49.687
G03  20536048.660   107917664.363 8      4035.472          48.625    20536047.820   107917664.365 7      4035.472          43.250    20536057.480    84091725.880 7      3144.524          42.562    20536057.800    84091725.887 8      3144.524          52.312
G02  21727042.500   114176379.903 8      2030.512          48.312    21727040.840   114176379.905 6      2030.512          39.812    21727044.440    88968621.315 6      1582.217          39.687
G21  21960344.460   115402388.369 7      1197.558          47.500    21960342.320   115402388.372 6      1197.558          37.875    21960348.420    89923955.884 6       933.162          38.125
> 2024 05 09 15 15 37.0000000  0 16
G22  24503548.360   128767015.233 7      4836.875          42.562    24503547.180   128767015.238 4      4836.875          27.937    24503556.740   100337967.505 4      3768.993          27.937
R01  22749941.980   121611480.554 6      6804.953          41.062    22749940.140   121611480.558 6      6804.953          40.437    22749965.680    94586805.910 6      5292.741          40.375    22749964.820    94586803.892 6      5292.741          40.937
R14  23212692.540   123736713.575 7      3688.206          47.437    23212691.940   123736713.572 7      3688.206          46.937    23212706.720    96239725.259 7      2868.604          46.687    23212706.960    96239724.259 7      2868.604          47.437
R12  23271966.540   124314665.210 7     -1313.455          42.937    23271965.960   124314665.216 7     -1313.455          43.000    23271991.440    96689289.871 7     -1021.576          44.562    23271991.500    96689288.872 7     -1021.576          45.437
G27  24275624.140   127569258.244 6      -419.383          41.750    24275622.240   127569258.241 6      -419.383          38.875    24275645.320    99404702.523 6      -326.792          38.312    24275646.100    99404709.521 7      -326.792          43.375
G32  25300891.880   132957085.551 7      1147.095          43.187    25300892.040   132957085.548 6      1147.095          36.750    25300904.180   103602971.725 6       893.840          36.625    25300904.800   103602981.731 6       893.840          41.375
R07  21571841.280   115475749.625 7       462.332          47.625    21571841.840   115475749.648 7       462.332          45.875    21571855.160    89814532.884 7       359.591          47.500    21571854.940    89814531.881 7       359.591          47.875
R23  20972726.900   112189939.577 7      3191.872          45.875    20972726.440   112189939.586 7      3191.872          45.312
G14  22553861.480   118521346.679 7      3904.556          43.937    22553860.220   118521346.689 5      3904.556          35.312    22553868.940    92354324.398 5      3042.511          35.375    22553869.780    92354329.396 8      3042.511          48.625
G04  24586430.640   129202567.132 7      5415.662          42.062    24586431.160   129202567.137 4      5415.662          29.000    24586450.600   100677378.267 4      4219.997          28.750    24586450.180   100677403.253 7      4219.997          45.187
G08  21507328.440   113021771.574 8       759.511          48.000    21507327.100   113021771.582 8       759.511          48.437    21507338.620    88068950.479 7       591.827          47.625    21507339.300    88068957.477 8       591.827          50.375
R22  21911606.640   116965639.732 7      1265.523          46.937    21911607.120   116965639.736 7      1265.523          45.687    21911618.140    90973325.407 7       984.296          47.250    21911618.200    90973327.409 7       984.296          47.000
R08  20227070.740   108315050.281 8      4049.749          48.875    20227073.100   108315050.323 7      4049.749          47.500    20227085.500    84245102.823 8      3149.805          49.937    20227085.360    84245100.828 8      3149.805          50.062
G03  20535280.720   107913629.177 8      4034.679          48.750    20535279.900   107913629.179 7      4034.679          42.937    20535289.580    84088581.587 7      3143.905          42.500    20535289.980    84088581.590 8      3143.905          52.500
G02  21726656.220   114174349.496 8      2030.064          48.250    21726654.640   114174349.501 6      2030.064          39.875    21726658.140    88967039.182 6      1581.868          39.875
G21  21960116.320   115401190.755 7      1197.389          47.250    21960114.360   115401190.757 6      1197.389          37.875    21960120.500    89923022.676 6       933.030          38.187
> 2024 05 09 15 15 38.0000000  0 16
G22  24502628.100   128762178.462 7      4836.722          42.625    24502626.800   128762178.469 4      4836.722          27.937    24502636.100   100334198.598 4      3768.874          27.937
R01  22748668.880   121604675.372 6      6805.312          41.062    22748666.440   121604675.379 6      6805.312          40.750    22748692.500    94581513.000 6      5293.020          40.375    22748691.820    94581510.975 6      5293.020          41.125
R14  23212000.960   123733025.515 7      3687.911          47.375    23212000.100   123733025.508 7      3687.911          46.750    23212014.880    96236856.767 7      2868.375          46.812    23212015.040    96236855.762 7      2868.375          46.750
R12  23272212.640   124315978.499 7     -1313.037          42.937    23272211.980   124315978.500 7     -1313.037          43.000    23272237.180    96690311.316 7     -1021.251          44.625    23272237.340    96690310.313 7     -1021.251          45.000
G27  24275703.720   127569677.646 6      -419.412          41.312    24275702.020   127569677.648 6      -419.412          38.937    24275725.180    99405029.327 6      -326.814          38.625    24275725.960    99405036.334 7      -326.814          43.375
G32  25300673.680   132955938.487 7      1146.958          43.687    25300673.720   132955938.486 6      1146.958          36.812    25300685.940   103602077.920 6       893.733          36.812    25300686.900   103602087.930 6       893.733          41.375
R07  21571754.780   115475287.504 7       461.930          47.187    21571755.420   115475287.535 7       461.930          45.875    21571768.660    89814173.463 7       359.279          47.500    21571768.640    89814172.468 7       359.279          47.500
R23  20972130.340   112186747.479 7      3192.323          46.437    20972129.520   112186747.494 7      3192.323          45.250
G14  22553118.400   118517442.300 7      3904.203          44.125    22553117.160   118517442.308 5      3904.203          35.187    22553126.000    92351282.026 5      3042.236          34.875    22553126.940    92351287.032 8      3042.236          48.562
G04  24585399.940   129197151.303 7      5415.984          42.250    24585400.480   129197151.310 4      5415.984          29.000    24585420.060   100673158.140 4      4220.247          28.750    24585419.900   100673183.143 7      4220.247          44.687
G08  21507183.960   113021012.014 8       759.524          48.687    21507182.580   113021012.013 7       759.524          47.937    21507193.900    88068358.603 7       591.837          47.500    21507194.760    88068365.604 8       591.837          49.937
R22  21911369.460   116964374.100 7      1265.799          46.437    21911370.120   116964374.098 7      1265.799          46.437    21911381.140    90972341.025 7       984.510          47.062    21911381.440    90972343.027 7       984.510          46.750
R08  20226314.300   108311000.915 8      4049.180          48.625    20226316.860   108311000.962 7      4049.180          47.312    20226329.360    84241953.327 8      3149.362          49.500    20226329.120    84241951.328 8      3149.362          49.687
G03  20534513.140   107909594.673 8      4034.394          48.812    20534512.220   107909594.675 7      4034.394          42.500    20534521.900    84085437.824 7      3143.684          42.062    20534522.000    84085437.825 8      3143.684          52.437
G02  21726269.820   114172319.211 8      2030.442          48.562    21726268.160   114172319.216 6      2030.442          39.375    21726271.660    88965457.140 6      1582.163          39.250
G21  21959888.620   115399993.266 7      1197.587          46.812    21959886.620   115399993.271 6      1197.587          38.062    21959892.560    89922089.570 6       933.184          38.187
> 2024 05 09 15 15 39.0000000  0 16
G22  24501707.580   128757341.961 7      4836.247          42.625    24501706.420   128757341.968 4      4836.247          27.937    24501715.660   100330429.903 4      3768.504          27.937
R01  22747395.460   121597870.239 6      6805.000          41.250    22747393.960   121597870.245 6      6805.000          40.750    22747419.440    94576220.124 6      5292.778          40.250    22747418.800    94576218.106 6      5292.778          41.062
R14  23211309.020   123729338.096 7      3687.026          47.250    23211308.300   123729338.102 7      3687.026          46.812    23211323.020    96233988.776 7      2867.687          46.687    23211323.040    96233987.782 7      2867.687          47.062
R12  23272458.460   124317291.652 7     -1313.131          42.625    23272457.840   124317291.667 7     -1313.131          43.125    23272483.080    96691332.668 7     -1021.324          44.812    23272482.860    96691331.665 7     -1021.324          45.750
G27  24275783.160   127570097.156 6      -419.638          40.937    24275781.740   127570097.161 6      -419.638          39.125    24275805.120    99405356.208 6      -326.991          39.062    24275805.680    99405363.210 7      -326.991          43.375
G32  25300455.360   132954791.849 7      1146.325          43.562    25300455.420   132954791.848 6      1146.325          36.875    25300467.760   103601184.437 6       893.240          36.625    25300468.940   103601194.439 6       893.240          41.687
R07  21571668.500   115474826.085 7       460.984          47.125    21571669.160   115474826.108 7       460.984          46.000    21571682.540    89813814.575 7       358.543          47.562    21571682.420    89813813.576 7       358.543          47.250
R23  20971533.320   112183555.362 7      3192.093          46.562    20971532.780   112183555.380 7      3192.093          45.437
G14  22552375.680   118513538.390 7      3903.545          43.875    22552374.360   118513538.402 5      3903.545          35.187    22552383.140    92348240.021 5      3041.723          35.000    22552383.960    92348245.036 8      3041.723          48.625
G04  24584369.620   129191735.229 7      5416.141          42.375    24584369.980   129191735.237 4      5416.141          28.875    24584389.500   100668937.825 4      4220.370          28.750    24584389.080   100668962.835 7      4220.370          44.937
G08  21507039.420   113020252.761 8       759.014          48.562    21507038.080   113020252.761 8       759.014          48.500    21507049.440    88067766.970 8       591.440          48.187    21507050.240    88067773.970 8       591.440          50.062
R22  21911132.660   116963108.503 7      1265.500          46.312    21911133.000   116963108.501 7      1265.500          46.062    21911144.100    90971356.665 7       984.278          46.937    21911144.120    90971358.665 7       984.278          47.000
R08  20225558.120   108306952.275 7      4048.206          47.937    20225560.780   108306952.322 7      4048.206          47.562    20225573.280    84238804.389 8      3148.604          50.187    20225572.880    84238802.389 8      3148.604          50.375
G03  20533745.280   107905560.650 8      4033.674          49.562    20533744.580   107905560.652 7      4033.674          42.875    20533754.180    84082294.430 7      3143.123          42.812    20533754.660    84082294.432 8      3143.123          52.812
G02  21725883.600   114170288.901 8      2030.235          48.312    21725881.840   114170288.904 6      2030.235          39.687    21725885.340    88963875.081 6      1582.001          39.750
G21  21959660.480   115398795.680 8      1197.534          48.375    21959658.640   115398795.682 6      1197.534          38.187    21959664.660    89921156.384 6       933.144          38.187
> 2024 05 09 15 15 40.0000000  0 16
G22  24500787.340   128752505.804 7      4835.997          42.812    24500786.180   128752505.812 4      4835.997          27.937    24500795.360   100326661.469 4      3768.310          27.937
R01  22746122.720   121591065.180 6      6805.052          41.250    22746120.760   121591065.186 6      6805.052          40.750    22746146.680    94570927.294 6      5292.818          40.250    22746145.700    94570925.287 6      5292.818          41.062
R14  23210617.540   123725651.364 7      3686.430          47.437    23210616.840   123725651.351 7      3686.430          47.187    23210631.560    96231121.311 7      2867.223          46.750    23210631.680    96231120.311 7      2867.223          46.750
R12  23272703.660   124318604.789 7     -1313.177          42.625    23272703.300   124318604.790 7     -1313.177          43.125    23272728.620    96692353.988 7     -1021.360          44.562    23272728.900    96692352.987 7     -1021.360          45.125
G27  24275862.900   127570516.865 6      -419.771          41.125    24275861.600   127570516.867 6      -419.771          39.250    24275884.980    99405683.241 6      -327.094          38.625    24275885.700    99405690.242 7      -327.094          43.125
G32  25300237.660   132953645.662 7      1145.927          42.500    25300237.240   132953645.659 6      1145.927          36.625    25300249.640   103600291.309 6       892.930          36.687    25300250.820   103600301.315 6       892.930          41.687
R07  21571582.500   115474365.362 7       460.330          47.187    21571583.060   115474365.393 7       460.330          46.062    21571596.180    89813456.243 7       358.034          47.562    21571596.200    89813455.242 7       358.034          47.375
R23  20970936.340   112180363.265 7      3192.132          46.250    20970935.880   112180363.282 7      3192.132          44.937
G14  22551632.760   118509635.044 7      3903.035          45.375    22551631.520   118509635.057 5      3903.035          34.875    22551640.420    92345198.453 5      3041.326          35.000    22551640.580    92345203.461 8      3041.326          48.437
G04  24583339.240   129186319.030 7      5416.156          42.000    24583339.260   129186319.043 4      5416.156          28.875    24583358.940   100664717.414 4      4220.381          28.750    24583358.140   100664742.415 7      4220.381          44.937
G08  21506894.960   113019493.871 7       758.670          46.812    21506893.720   113019493.876 8       758.670          48.687    21506905.080    88067175.629 8       591.171          48.500    21506905.860    88067182.627 8       591.171          50.062
R22  21910895.420   116961842.948 7      1265.533          46.375    21910896.000   116961842.952 7      1265.533          46.375    21910907.080    90970372.339 7       984.303          47.000    21910907.240    90970374.334 7       984.303          47.125
R08  20224802.240   108302904.433 8      4047.439          48.125    20224804.860   108302904.477 7      4047.439          47.562    20224817.280    84235656.073 8      3148.008          49.625    20224817.000    84235654.076 8      3148.008          50.437
G03  20532977.640   107901527.174 8      4033.253          49.687    20532977.080   107901527.179 7      4033.253          42.687    20532986.720    84079151.470 7      3142.795          42.187    20532987.280    84079151.472 8      3142.795          52.625
G02  21725497.320   114168258.611 8      2030.309          48.562    21725495.400   114168258.613 6      2030.309          39.500    21725498.940    88962293.038 6      1582.059          39.375
G21  21959432.860   115397598.084 8      1197.691          48.187    21959430.880   115397598.086 6      1197.691          37.812    21959436.820    89920223.190 6       933.265          37.812
> 2024 05 09 15 15 41.0000000  0 16
G22  24499867.060   128747670.234 7      4835.127          42.937    24499866.080   128747670.239 4      4835.127          28.250    24499875.280   100322893.492 4      3767.631          28.125
R01  22744849.500   121584260.439 6      6804.518          41.187    22744848.240   121584260.446 6      6804.518          40.562    22744873.300    94565634.730 6      5292.403          40.500    22744872.580    94565632.704 6      5292.403          40.937
R14  23209926.000   123721965.573 7      3685.140          46.937    23209925.180   123721965.569 7      3685.140          46.812    23209939.920    96228254.587 7      2866.220          46.625    23209940.040    96228253.585 7      2866.220          46.875
R12  23272949.660   124319918.070 7     -1313.598          42.625    23272949.060   124319918.082 7     -1313.598          42.875    23272975.000    96693375.437 7     -1021.687          44.500    23272974.660    96693374.439 7     -1021.687          45.812
G27  24275942.680   127570936.994 6      -420.541          41.000    24275941.740   127570936.997 6      -420.541          38.750    24275964.960    99406010.609 6      -327.695          38.562    24275965.860    99406017.611 7      -327.695          43.312
G32  25300019.600   132952500.156 7      1145.119          43.000    25300019.260   132952500.153 6      1145.119          36.875    25300031.680   103599398.712 6       892.301          37.000    25300033.140   103599408.709 6       892.301          41.812
R07  21571496.420   115473905.612 7       459.141          47.437    21571497.080   115473905.638 7       459.141          46.000    21571510.400    89813098.658 7       357.110          47.625    21571510.480    89813097.659 7       357.110          47.437
R23  20970339.940   112177171.442 7      3191.529          46.250    20970339.360   112177171.460 7      3191.529          45.187
G14  22550890.380   118505732.481 7      3902.033          45.062    22550888.780   118505732.497 5      3902.033          35.062    22550897.800    92342157.499 5      3040.545          34.875    22550897.920    92342162.501 8      3040.545          48.750
G04  24582308.220   129180902.857 6      5415.991          41.625    24582308.520   129180902.864 4      5415.991          28.875    24582328.280   100660497.017 4      4220.252          28.750    24582327.480   100660522.023 7      4220.252          44.750
G08  21506750.760   113018735.580 7       757.856          47.125    21506749.440   113018735.585 8       757.856          48.437    21506760.700    88066584.748 8       590.537          48.250    21506761.620    88066591.747 8       590.537          50.125
R22  21910658.620   116960577.709 7      1265.014          46.562    21910659.040   116960577.705 7      1265.014          46.437    21910669.980    90969388.255 7       983.900          47.125    21910670.240    90969390.251 7       983.900          47.250
R08  20224046.920   108298857.635 8      4046.185          48.187    20224049.060   108298857.679 7      4046.185          47.250    20224061.740    84232508.574 8      3147.032          49.937    20224061.300    84232506.575 8      3147.032          49.875
G03  20532210.280   107897494.499 8      4032.171          49.625    20532209.580   107897494.507 7      4032.171          42.875    20532219.360    84076009.132 7      3141.951          42.625    20532219.760    84076009.136 8      3141.951          52.750
G02  21725110.980   114166228.601 8      2029.745          48.375    21725109.160   114166228.603 6      2029.745          39.875    21725112.700    88960711.216 6      1581.619          40.000
G21  21959205.020   115396400.724 7      1197.201          47.750    21959203.040   115396400.732 6      1197.201          38.375    21959209.040    89919290.187 6       932.884          38.250
> 2024 05 09 15 15 42.0000000  0 16
G22  24498947.320   128742835.112 6      4834.883          41.812    24498946.040   128742835.117 4      4834.883          28.250    24498955.160   100319125.863 4      3767.441          28.125
R01  22743576.560   121577455.955 6      6804.353          41.187    22743575.380   121577455.969 6      6804.353          40.562    22743600.840    94560342.356 6      5292.274          40.500    22743599.680    94560340.340 6      5292.274          40.937
R14  23209234.540   123718280.635 7      3684.514          47.062    23209233.780   123718280.628 7      3684.514          46.312    23209248.820    96225388.518 7      2865.733          47.187    23209248.820    96225387.522 7      2865.733          46.812
R12  23273195.300   124321231.483 7     -1313.357          42.750    23273194.960   124321231.473 7     -1313.357          42.875    23273220.840    96694396.963 7     -1021.500          44.500    23273220.360    96694395.963 7     -1021.500          45.562
G27  24276022.980   127571357.410 6      -420.512          41.125    24276021.680   127571357.413 6      -420.512          38.562    24276045.040    99406338.200 6      -327.672          38.312    24276045.680    99406345.198 7      -327.672          43.375
G32  25299801.740   132951355.255 7      1144.656          43.500    25299801.380   132951355.257 6      1144.656          36.937    25299813.880   103598506.589 6       891.940          36.875    25299814.860   103598516.586 7       891.940          42.000
R07  21571410.680   115473446.728 7       458.433          47.000    21571411.280   115473446.759 7       458.433          45.312    21571424.600    89812741.748 7       356.559          47.375    21571424.680    89812740.751 7       356.559          47.812
R23  20969743.240   112173979.748 7      3191.654          46.687    20969742.860   112173979.774 7      3191.654          45.562
G14  22550147.780   118501830.607 7      3901.592          45.500    22550146.420   118501830.614 5      3901.592          35.062    22550155.220    92339117.072 5      3040.202          35.000    22550155.140    92339122.068 8      3040.202          48.625
G04  24581277.700   129175486.676 6      5416.225          41.500    24581277.840   129175486.683 4      5416.225          28.875    24581297.660   100656276.620 4      4220.435          28.750    24581296.720   100656301.611 7      4220.435          45.000
G08  21506606.620   113017977.783 7       757.568          47.437    21506605.360   113017977.787 8       757.568          48.437    21506616.540    88065994.255 8       590.313          48.125    21506617.520    88066001.255 8       590.313          50.000
R22  21910421.780   116959312.683 7      1264.884          46.562    21910422.060   116959312.684 7      1264.884          46.250    21910433.200    90968404.348 7       983.798          46.937    21910433.300    90968406.340 7       983.798          47.125
R08  20223291.600   108294811.779 8      4045.440          48.187    20223293.540   108294811.826 7      4045.440          47.625    20223306.080    84229361.801 8      3146.453          50.312    20223305.940    84229359.804 8      3146.453          49.875
G03  20531443.080   107893462.513 8      4031.678          49.187    20531442.440   107893462.518 7      4031.678          42.875    20531451.980    84072867.328 7      3141.567          42.500    20531452.520    84072867.329 8      3141.567          52.812
G02  21724724.600   114164198.741 8      2029.766          48.062    21724722.920   114164198.746 6      2029.766          39.937    21724726.340    88959129.507 6      1581.636          39.250
G21  21958977.240   115395203.477 7      1197.227          47.375    21958975.300   115395203.485 6      1197.227          38.437    21958981.080    89918357.265 6       932.904          38.562
> 2024 05 09 15 15 43.0000000  0 16
G22  24498027.220   128738000.495 7      4834.517          42.250    24498026.000   128738000.500 4      4834.517          28.250    24498035.160   100315358.625 4      3767.156          28.125
R01  22742303.500   121570651.751 6      6804.161          41.187    22742302.320   121570651.758 6      6804.161          40.562    22742327.940    94555050.195 6      5292.125          40.500    22742326.820    94555048.175 6      5292.125          41.437
R14  23208543.680   123714596.627 7      3683.632          47.250    23208542.600   123714596.615 7      3683.632          46.375    23208557.580    96222523.168 7      2865.047          46.687    23208557.640    96222522.175 7      2865.047          47.250
R12  23273441.380   124322545.044 7     -1313.680          42.750    23273440.940   124322545.043 7     -1313.680          42.687    23273466.820    96695418.625 7     -1021.751          44.562    23273466.360    96695417.626 7     -1021.751          45.500
G27  24276103.280   127571778.202 6      -420.839          40.812    24276101.520   127571778.202 6      -420.839          39.062    24276125.120    99406666.077 6      -327.927          38.437    24276126.040    99406673.077 7      -327.927          43.312
G32  25299584.080   132950211.000 7      1143.980          43.312    25299583.700   132950211.002 6      1143.980          37.250    25299596.260   103597614.965 6       891.413          36.875    25299596.780   103597624.959 7       891.413          42.000
R07  21571325.460   115472988.767 7       457.499          47.375    21571325.420   115472988.803 7       457.499          45.750    21571338.940    89812385.564 7       355.833          47.250    21571339.240    89812384.563 7       355.833          47.937
R23  20969146.780   112170788.298 7      3191.351          45.687    20969146.000   112170788.313 7      3191.351          45.187
G14  22549405.520   118497929.450 7      3900.854          44.250    22549404.020   118497929.465 5      3900.854          35.187    22549412.800    92336077.213 5      3039.627          35.000    22549413.260    92336082.209 8      3039.627          48.812
G04  24580247.200   129170070.494 7      5416.246          43.000    24580247.220   129170070.499 4      5416.246          28.750    24580266.960   100652056.213 4      4220.451          28.750    24580266.360   100652081.208 7      4220.451          44.812
G08  21506462.440   113017220.535 7       757.034          46.875    21506461.120   113017220.542 8       757.034          48.250    21506472.520    88065404.186 7       589.896          47.625    21506473.600    88065411.186 8       589.896          50.187
R22  21910184.840   116958047.908 7      1264.654          46.625    21910185.060   116958047.909 7      1264.654          46.437    21910196.220    90967420.628 7       983.619          47.125    21910196.440    90967422.619 7       983.619          46.750
R08  20222536.320   108290766.919 8      4044.410          48.500    20222538.200   108290766.959 7      4044.410          47.812    20222550.680    84226215.797 8      3145.653          49.500    20222550.800    84226213.800 8      3145.653          49.562
G03  20530676.000   107889431.265 8      4030.942          49.437    20530675.260   107889431.264 7      4030.942          43.062    20530684.860    84069726.096 7      3140.994          42.562    20530685.240    84069726.094 8      3140.994          52.562
G02  21724338.460   114162169.075 7      2029.655          47.812    21724336.600   114162169.083 6      2029.655          39.750    21724340.060    88957547.950 6      1581.550          39.750
G21  21958749.460   115394006.399 7      1197.033          47.937    21958747.340   115394006.403 6      1197.033          37.875    21958753.420    89917424.472 6       932.753          38.000
> 2024 05 09 15 15 44.0000000  0 16
G22  24497107.100   128733166.401 6      4833.869          41.875    24497106.220   128733166.406 4      4833.869          28.250    24497115.200   100311591.800 4      3766.651          28.125
R01  22741030.860   121563847.831 6      6803.835          40.875    22741029.600   121563847.835 6      6803.835          40.500    22741055.280    94549758.257 6      5291.872          40.375    22741053.940    94549756.237 6      5291.872          40.937
R14  23207852.760   123710913.504 7      3682.731          47.250    23207851.480   123710913.497 7      3682.731          46.750    23207867.200    96219658.519 7      2864.346          47.187    23207866.900    96219657.519 7      2864.346          47.937
R12  23273687.360   124323858.691 7     -1313.640          43.062    23273686.960   124323858.687 7     -1313.640          42.562    23273712.700    96696440.350 7     -1021.720          44.812    23273712.300    96696439.352 7     -1021.720          45.500
G27  24276183.040   127572199.330 6      -421.148          41.250    24276181.740   127572199.335 6      -421.148          38.812    24276205.340    99406994.225 6      -328.167          38.625    24276205.760    99407001.227 7      -328.167          43.250
G32  25299365.900   132949067.347 7      1143.465          43.125    25299366.060   132949067.349 6      1143.465          36.812    25299378.500   103596723.809 6       891.011          37.187    25299378.600   103596733.807 7       891.011          42.000
R07  21571240.040   115472531.691 7       456.723          46.687    21571240.080   115472531.722 7       456.723          45.812    21571253.520    89812030.057 7       355.229          47.312    21571253.420    89812029.067 7       355.229          47.125
R23  20968550.180   112167596.994 7      3191.305          46.187    20968549.320   112167597.009 7      3191.305          45.187
G14  22548663.100   118494029.031 7      3900.140          45.187    22548661.740   118494029.041 5      3900.140          35.187    22548670.580    92333037.922 5      3039.070          35.000    22548671.040    92333042.916 8      3039.070          49.250
G04  24579216.520   129164654.290 7      5416.310          42.750    24579216.540   129164654.297 4      5416.310          28.750    24579236.140   100647835.798 4      4220.501          28.750    24579235.540   100647860.812 7      4220.501          45.000
G08  21506318.460   113016463.804 7       756.507          46.812    21506317.100   113016463.820 8       756.507          48.562    21506328.460    88064814.526 7       589.486          47.875    21506329.500    88064821.526 8       589.486          50.187
R22  21909947.560   116956783.354 7      1264.541          46.000    21909948.120   116956783.360 7      1264.541          46.687    21909959.200    90966437.086 7       983.532          47.062    21909959.320    90966439.078 7       983.532          47.000
R08  20221781.380   108286722.957 8      4043.588          48.250    20221782.920   108286723.001 7      4043.588          47.625    20221795.420    84223070.503 8      3145.013          49.625    20221795.340    84223068.506 8      3145.013          49.750
G03  20529909.020   107885400.716 8      4030.248          50.062    20529908.280   107885400.718 7      4030.248          42.812    20529917.920    84066585.417 7      3140.453          42.562    20529918.380    84066585.417 8      3140.453          52.500
G02  21723952.200   114160139.618 7      2029.395          47.937    21723950.460   114160139.620 6      2029.395          39.812    21723954.080    88955966.554 6      1581.347          39.625
G21  21958521.700   115392809.446 7      1196.949          47.312    21958519.520   115392809.451 6      1196.949          37.875    21958525.660    89916491.782 6       932.688          38.187
> 2024 05 09 15 15 45.0000000  0 16
G22  24496187.240   128728332.631 7      4833.789          42.437    24496186.160   128728332.636 4      4833.789          28.250    24496195.360   100307825.230 4      3766.589          28.125
R01  22739758.280   121557043.985 6      6804.156          40.875    22739756.780   121557043.981 6      6804.156          40.500    22739782.260    94544466.373 6      5292.122          40.375    22739781.260    94544464.358 6      5292.122          40.937
R14  23207161.500   123707231.098 7      3682.306          47.312    23207161.020   123707231.096 7      3682.306          46.312    23207176.120    96216794.434 7      2864.016          46.875    23207176.160    96216793.436 7      2864.016          47.500
R12  23273933.840   124325172.277 7     -1313.326          43.062    23273933.020   124325172.281 7     -1313.326          42.562    23273958.560    96697462.032 7     -1021.476          44.375    23273958.280    96697461.036 7     -1021.476          45.562
G27  24276263.020   127572620.655 6      -421.146          41.500    24276261.740   127572620.663 6      -421.146          38.750    24276285.520    99407322.522 6      -328.166          38.625    24276286.140    99407329.526 7      -328.166          43.250
G32  25299148.600   132947924.161 6      1143.354          41.812    25299148.500   132947924.163 6      1143.354          37.437    25299160.840   103595833.017 6       890.925          37.375    25299161.320   103595843.009 7       890.925          42.000
R07  21571155.000   115472075.360 7       456.282          46.562    21571154.700   115472075.381 7       456.282          45.562    21571168.380    89811675.129 7       354.886          47.187    21571168.480    89811674.130 7       354.886          47.812
R23  20967953.520   112164405.731 7      3191.461          46.500    20967952.800   112164405.741 7      3191.461          45.375
G14  22547920.900   118490129.127 7      3899.912          44.625    22547919.540   118490129.143 5      3899.912          35.375    22547928.440    92329999.040 5      3038.893          35.187    22547929.100    92330004.046 8      3038.893          49.125
G04  24578185.720   129159237.946 7      5416.740          42.875    24578185.940   129159237.953 4      5416.740          28.750    24578205.600   100643615.272 4      4220.836          28.750    24578205.080   100643640.274 7      4220.836          45.375
G08  21506174.480   113015707.439 7       756.497          47.312    21506173.160   113015707.441 8       756.497          48.375    21506184.420    88064225.142 7       589.478          47.812    21506185.460    88064232.138 8       589.478          50.062
R22  21909710.720   116955518.897 7      1264.695          46.062    21909711.000   116955518.900 7      1264.695          46.187    21909722.260    90965453.611 7       983.652          47.312    21909722.340    90965455.603 7       983.652          47.187
R08  20221025.940   108282679.768 8      4043.065          48.625    20221027.880   108282679.810 7      4043.065          47.562    20221040.340    84219925.811 8      3144.606          49.937    20221040.420    84219923.810 8      3144.606          49.875
G03  20529142.200   107881370.710 8      4030.048          49.687    20529141.440   107881370.715 7      4030.048          42.937    20529151.040    84063445.159 7      3140.297          42.625    20529151.600    84063445.159 8      3140.297          52.437
G02  21723566.240   114158110.173 7      2029.658          47.375    21723564.320   114158110.175 6      2029.658          39.625    21723567.800    88954385.168 6      1581.552          40.187
G21  21958293.880   115391612.486 7      1197.239          47.062    21958291.860   115391612.490 6      1197.239          38.625    21958297.940    89915559.086 6       932.913          38.500
> 2024 05 09 15 15 46.0000000  0 16
G22  24495267.220   128723499.044 7      4833.486          42.750    24495266.220   128723499.046 4      4833.486          28.687    24495275.560   100304058.802 4      3766.352          28.687
R01  22738485.560   121550240.068 6      6803.973          40.875    22738483.680   121550240.090 6      6803.973          40.500    22738509.260    94539174.465 6      5291.979          40.437    22738508.420    94539172.442 6      5291.979          41.312
R14  23206471.060   123703549.287 7      3681.433          47.125    23206469.740   123703549.282 7      3681.433          46.187    23206485.300    96213930.801 7      2863.337          47.187    23206485.580    96213929.800 7      2863.337          47.312
R12  23274179.700   124326485.702 7     -1313.487          42.687    23274178.960   124326485.693 7     -1313.487          42.625    23274204.240    96698483.581 7     -1021.601          44.312    23274204.040    96698482.578 7     -1021.601          45.500
G27  24276343.520   127573042.012 6      -421.428          41.500    24276341.880   127573042.019 6      -421.428          38.875    24276365.600    99407650.850 6      -328.385          38.500    24276366.120    99407657.854 7      -328.385          43.062
G32  25298931.380   132946781.330 7      1142.514          42.500    25298930.960   132946781.330 6      1142.514          37.187    25298943.460   103594942.502 6       890.271          36.750    25298944.180   103594952.491 6       890.271          41.500
R07  21571069.860   115471619.626 7       455.324          46.625    21571069.700   115471619.646 7       455.324          46.125    21571083.100    89811320.665 7       354.141          47.500    21571083.400    89811319.668 7       354.141          46.937
R23  20967356.800   112161214.350 7      3191.317          46.562    20967356.600   112161214.352 7      3191.317          45.187
G14  22547178.680   118486229.660 7      3899.180          44.062    22547177.500   118486229.678 5      3899.180          35.375    22547186.260    92326960.496 5      3038.322          35.187    22547186.920    92326965.506 8      3038.322          48.000
G04  24577155.020   129153821.320 6      5416.531          41.812    24577155.120   129153821.328 4      5416.531          28.750    24577174.640   100639394.523 4      4220.674          28.750    24577174.020   100639419.529 7      4220.674          45.750
G08  21506030.500   113014951.310 7       755.943          47.250    21506029.280   113014951.318 8       755.943          48.000    21506040.620    88063635.949 7       589.047          47.750    21506041.400    88063642.949 8       589.047          50.312
R22  21909473.800   116954254.375 7      1264.390          46.437    21909474.280   116954254.373 7      1264.390          46.187    21909485.460    90964470.094 7       983.414          46.937    21909485.720    90964472.086 7       983.414          47.250
R08  20220271.240   108278637.222 8      4042.047          48.625    20220272.620   108278637.261 8      4042.047          48.000    20220285.460    84216781.611 8      3143.814          50.187    20220285.380    84216779.614 8      3143.814          49.875
G03  20528375.260   107877341.149 8      4029.265          49.500    20528374.740   107877341.151 7      4029.265          42.875    20528384.280    84060305.245 7      3139.687          42.687    20528384.580    84060305.246 8      3139.687          52.437
G02  21723180.000   114156080.626 7      2029.422          47.500    21723178.140   114156080.628 6      2029.422          39.812    21723181.580    88952803.705 6      1581.368          39.562
G21  21958066.180   115390415.381 7      1196.993          46.750    21958064.060   115390415.385 6      1196.993          37.937    21958070.000    89914626.277 6       932.722          38.187
> 2024 05 09 15 15 47.0000000  0 16
G22  24494347.920   128718665.738 7      4833.184          42.375    24494346.400   128718665.743 4      4833.184          28.687    24494355.940   100300292.592 4      3766.117          28.687
R01  22737212.280   121543436.222 6      6803.950          40.875    22737211.100   121543436.224 6      6803.950          40.375    22737236.780    94533882.572 6      5291.961          40.437    22737235.780    94533880.556 6      5291.961          40.937
R14  23205780.300   123699868.072 7      3680.874          45.937    23205779.020   123699868.070 7      3680.874          45.437    23205794.580    96211067.634 7      2862.902          47.250    23205794.780    96211066.640 7      2862.902          47.312
R12  23274425.360   124327799.013 7     -1313.363          43.125    23274424.720   124327799.009 7     -1313.363          42.625    23274450.220    96699505.047 7     -1021.505          44.750    23274449.900    96699504.048 7     -1021.505          45.125
G27  24276423.720   127573463.484 6      -421.436          40.625    24276422.160   127573463.492 6      -421.436          38.437    24276445.920    99407979.257 6      -328.392          38.437    24276446.100    99407986.260 7      -328.392          43.437
G32  25298713.780   132945638.843 7      1142.303          43.250    25298713.600   132945638.845 6      1142.303          37.062    25298725.980   103594052.258 6       890.106          37.187    25298726.180   103594062.254 6       890.106          41.500
R07  21570984.860   115471164.561 7       454.668          46.437    21570984.600   115471164.578 7       454.668          45.812    21570998.160    89810966.721 7       353.631          47.437    21570998.320    89810965.728 7       353.631          46.875
R23  20966760.220   112158022.916 7      3191.391          46.312    20966760.160   112158022.923 7      3191.391          45.437
G14  22546436.760   118482330.686 7      3898.743          44.312    22546435.560   118482330.702 5      3898.743          35.187    22546444.420    92323922.334 5      3037.981          35.062    22546444.720    92323927.334 8      3037.981          48.625
G04  24576124.400   129148404.398 7      5417.006          42.687    24576124.360   129148404.408 4      5417.006          28.750    24576143.800   100635173.547 4      4221.043          28.812    24576143.500   100635198.555 7      4221.043          45.000
G08  21505886.620   113014195.468 7       755.730          46.812    21505885.460   113014195.476 8       755.730          48.187    21505896.780    88063046.975 7       588.881          47.687    21505897.680    88063053.975 8       588.881          49.750
R22  21909236.960   116952989.824 7      1264.552          46.500    21909237.260   116952989.814 7      1264.552          46.250    21909248.560    90963486.540 7       983.540          47.125    21909248.660    90963488.534 7       983.540          47.187
R08  20219516.580   108274595.353 8      4041.512          48.250    20219517.800   108274595.387 7      4041.512          47.375    20219530.780    84213637.937 8      3143.398          49.750    20219530.700    84213635.936 8      3143.398          49.750
G03  20527608.620   107873312.064 8      4028.802          49.437    20527607.720   107873312.068 7      4028.802          42.687    20527617.480    84057165.702 7      3139.326          42.500    20527617.760    84057165.702 8      3139.326          52.437
G02  21722793.720   114154051.020 7      2029.599          47.875    21722791.860   114154051.025 6      2029.599          39.937    21722795.400    88951222.195 6      1581.506          40.187
G21  21957838.180   115389218.184 7      1197.159          47.125    21957836.160   115389218.189 6      1197.159          38.375    21957842.260    89913693.396 6       932.851          38.250
> 2024 05 09 15 15 48.0000000  0 16
G22  24493428.140   128713832.950 7      4832.642          42.875    24493426.720   128713832.957 4      4832.642          28.687    24493436.280   100296526.787 4      3765.695          28.687
R01  22735939.140   121536632.591 6      6803.531          40.062    22735938.380   121536632.613 6      6803.531          40.375    22735963.840    94528590.882 6      5291.635          40.500    22735962.900    94528588.866 6      5291.635          40.937
R14  23205089.880   123696187.718 7      3679.973          46.625    23205088.880   123696187.721 7      3679.973          45.812    23205104.100    96208205.144 7      2862.201          47.125    23205104.620    96208204.149 7      2862.201          46.812
R12  23274671.300   124329112.433 7     -1313.506          43.125    23274670.320   124329112.432 7     -1313.506          42.750    23274696.320    96700526.604 7     -1021.616          44.750    23274695.820    96700525.599 7     -1021.616          45.250
G27  24276503.840   127573885.311 6      -421.941          41.250    24276502.400   127573885.319 6      -421.941          38.312    24276526.120    99408307.943 6      -328.786          38.187    24276526.160    99408314.948 7      -328.786          43.187
G32  25298496.500   132944497.008 7      1141.559          43.062    25298496.280   132944497.010 6      1141.559          37.375    25298508.700   103593162.519 6       889.526          37.625    25298508.840   103593172.520 6       889.526          41.437
R07  21570900.040   115470710.398 7       453.736          46.437    21570899.640   115470710.421 7       453.736          45.937    21570912.980    89810613.489 7       352.906          47.375    21570913.480    89810612.488 7       352.906          46.750
R23  20966163.780   112154831.663 7      3191.231          46.062    20966163.500   112154831.670 7      3191.231          45.312
G14  22545694.980   118478432.401 7      3897.968          43.250    22545693.780   118478432.414 5      3897.968          34.812    22545702.460    92320884.712 5      3037.377          34.750    22545702.880    92320889.714 8      3037.377          48.500
G04  24575093.600   129142987.518 7      5416.832          43.062    24575093.680   129142987.531 4      5416.832          28.812    24575113.060   100630952.602 4      4220.908          28.812    24575112.500   100630977.599 7      4220.908          44.937
G08  21505743.060   113013440.167 7       755.053          47.062    21505741.760   113013440.169 8       755.053          48.000    21505752.960    88062458.420 7       588.353          47.562    21505753.980    88062465.421 8       588.353          50.562
R22  21908999.960   116951725.522 7      1264.208          46.312    21909000.580   116951725.517 7      1264.208          46.312    21909011.600    90962503.191 7       983.273          46.812    21909011.700    90962505.193 7       983.273          47.375
R08  20218761.600   108270554.461 7      4040.397          47.750    20218763.260   108270554.500 7      4040.397          47.687    20218775.960    84210495.030 8      3142.531          49.687    20218775.840    84210493.031 8      3142.531          49.750
G03  20526842.020   107869283.682 8      4028.114          48.312    20526841.160   107869283.679 7      4028.114          43.125    20526850.840    84054026.704 7      3138.790          42.687    20526851.160    84054026.706 8      3138.790          52.250
G02  21722407.500   114152021.599 8      2029.330          48.437    21722405.660   114152021.607 6      2029.330          40.000    21722409.100    88949640.829 6      1581.296          40.125
G21  21957610.400   115388021.131 7      1196.931          47.187    21957608.500   115388021.133 6      1196.931          38.187    21957614.480    89912760.626 6       932.674          38.187
> 2024 05 09 15 15 49.0000000  0 16
G22  24492508.600   128709000.582 7      4832.259          42.562    24492507.140   128709000.587 4      4832.259          28.687    24492516.820   100292761.308 4      3765.397          28.687
R01  22734666.180   121529829.181 6      6803.465          40.062    22734665.480   121529829.182 6      6803.465          40.375    22734690.820    94523299.322 6      5291.584          40.500    22734690.100    94523297.304 6      5291.584          41.000
R14  23204399.680   123692508.236 7      3679.179          46.812    23204398.480   123692508.242 7      3679.179          45.812    23204414.140    96205343.329 7      2861.584          47.187    23204414.420    96205342.333 7      2861.584          47.125
R12  23274917.060   124330425.877 7     -1313.174          42.687    23274916.060   124330425.873 7     -1313.174          42.750    23274942.040    96701548.166 7     -1021.358          44.687    23274941.780    96701547.163 7     -1021.358          45.375
G27  24276584.120   127574307.414 6      -422.061          40.375    24276582.640   127574307.416 6      -422.061          38.375    24276606.380    99408636.844 6      -328.879          38.250    24276606.800    99408643.845 7      -328.879          43.250
G32  25298279.500   132943355.693 7      1141.301          43.125    25298279.140   132943355.693 6      1141.301          37.125    25298291.540   103592273.184 6       889.325          37.250    25298291.700   103592283.188 6       889.325          41.437
R07  21570815.380   115470257.083 7       453.153          46.562    21570815.120   115470257.108 7       453.153          45.937    21570828.340    89810260.913 7       352.452          47.375    21570828.580    89810259.912 7       352.452          46.437
R23  20965567.220   112151640.528 7      3191.285          45.875    20965567.200   112151640.538 7      3191.285          45.750
G14  22544953.580   118474534.770 7      3897.525          42.937    22544952.040   118474534.786 5      3897.525          35.000    22544960.780    92317847.597 5      3037.033          34.750    22544961.400    92317852.601 8      3037.033          48.250
G04  24574062.580   129137570.530 7      5417.241          42.562    24574062.760   129137570.541 4      5417.241          28.812    24574082.120   100626731.572 4      4221.227          28.812    24574082.120   100626756.569 7      4221.227          45.187
G08  21505599.380   113012685.295 7       754.839          47.000    21505598.080   113012685.302 8       754.839          48.750    21505609.400    88061870.206 7       588.186          47.812    21505610.300    88061877.208 8       588.186          49.750
R22  21908763.300   116950461.390 7      1264.283          46.187    21908764.000   116950461.380 7      1264.283          46.375    21908774.800    90961519.971 7       983.331          47.125    21908775.200    90961521.967 7       983.331          46.937
R08  20218007.420   108266514.459 8      4039.742          48.437    20218009.020   108266514.500 7      4039.742          47.750    20218021.760    84207352.818 8      3142.022          50.312    20218021.520    84207350.817 8      3142.022          50.125
G03  20526075.480   107865255.947 8      4027.623          48.687    20526074.800   107865255.947 7      4027.623          43.250    20526084.380    84050888.215 7      3138.408          42.875    20526084.780    84050888.221 8      3138.408          52.375
G02  21722021.200   114149992.302 8      2029.519          48.250    21722019.440   114149992.304 6      2029.519          39.625    21722023.120    88948059.557 6      1581.444          39.812
G21  21957382.740   115386824.137 7      1197.147          47.187    21957380.740   115386824.142 6      1197.147          38.000    21957386.620    89911827.903 6       932.842          38.812
> 2024 05 09 15 15 50.0000000  0 16
G22  24491589.120   128704168.635 6      4831.436          41.500    24491587.800   128704168.640 4      4831.436          28.687    24491597.340   100288996.158 4      3764.756          28.687
R01  22733394.600   121523025.932 6      6802.888          40.062    22733392.740   121523025.930 6      6802.888          40.187    22733418.260    94518007.906 6      5291.135          40.250    22733417.520    94518005.892 6      5291.135          41.000
R14  23203709.420   123688829.593 7      3678.038          46.500    23203708.140   123688829.591 7      3678.038          45.812    23203723.980    96202482.154 7      2860.697          46.687    23203724.320    96202481.163 7      2860.697          47.062
R12  23275162.660   124331739.367 7     -1313.532          42.687    23275162.140   124331739.368 7     -1313.532          42.500    23275188.080    96702569.773 7     -1021.636          44.750    23275187.640    96702568.770 7     -1021.636          45.750
G27  24276664.460   127574729.766 6      -422.641          41.812    24276663.200   127574729.769 6      -422.641          38.625    24276686.680    99408965.942 6      -329.331          38.437    24276687.180    99408972.944 7      -329.331          43.250
G32  25298062.380   132942214.951 7      1140.382          43.187    25298061.960   132942214.948 6      1140.382          37.250    25298074.700   103591384.297 6       888.609          37.125    25298074.720   103591394.296 6       888.609          41.437
R07  21570731.020   115469804.592 7       451.957          47.375    21570730.520   115469804.605 7       451.957          45.875    21570743.700    89809908.966 7       351.522          47.000    21570743.960    89809907.969 7       351.522          46.625
R23  20964970.940   112148449.519 7      3190.815          46.187    20964970.420   112148449.520 7      3190.815          45.375
G14  22544211.960   118470637.775 7      3896.552          44.125    22544210.540   118470637.788 5      3896.552          35.000    22544219.300    92314810.979 5      3036.275          34.937    22544219.780    92314815.971 8      3036.275          48.375
G04  24573031.980   129132153.488 7      5416.893          42.125    24573032.020   129132153.498 4      5416.893          28.812    24573051.580   100622510.500 4      4220.956          28.812    24573050.960   100622535.495 7      4220.956          45.187
G08  21505455.640   113011930.874 8       754.115          48.000    21505454.560   113011930.876 7       754.115          47.812    21505465.840    88061282.337 7       587.622          47.312    21505466.620    88061289.340 8       587.622          49.875
R22  21908526.560   116949197.415 7      1263.672          45.937    21908526.920   116949197.408 7      1263.672          46.437    21908538.020    90960536.880 7       982.856          46.750    21908538.300    90960538.884 7       982.856          47.000
R08  20217253.020   108262475.366 8      4038.539          48.250    20217254.660   108262475.411 7      4038.539          47.187    20217267.360    84204211.308 8      3141.086          49.750    20217267.080    84204209.309 8      3141.086          49.562
G03  20525309.140   107861228.856 8      4026.654          49.062    20525308.420   107861228.861 7      4026.654          42.625    20525318.080    84047750.232 7      3137.652          42.250    20525318.520    84047750.230 8      3137.652          52.187
G02  21721635.080   114147963.128 7      2028.928          47.875    21721633.380   114147963.132 6      2028.928          39.562    21721636.820    88946478.382 6      1580.983          39.562
G21  21957154.700   115385627.231 8      1196.754          48.000    21957153.040   115385627.234 6      1196.754          38.437    21957158.860    89910895.249 6       932.535          38.250
> 2024 05 09 15 15 51.0000000  0 16
G22  24490669.920   128699337.153 7      4831.074          42.750    24490668.380   128699337.158 4      4831.074          28.750    24490678.080   100285231.373 4      3764.473          28.812
R01  22732121.820   121516222.917 6      6802.599          40.562    22732119.720   121516222.927 6      6802.599          40.187    22732145.700    94512716.683 6      5290.910          40.312    22732144.740    94512714.663 6      5290.910          40.562
R14  23203019.200   123685151.833 7      3677.087          46.500    23203018.200   123685151.826 7      3677.087          45.812    23203033.800    96199621.666 7      2859.957          47.062    23203034.260    96199620.668 7      2859.957          47.312
R12  23275408.740   124333052.990 7     -1313.810          42.437    23275407.980   124333052.988 7     -1313.810          42.750    23275433.880    96703591.480 7     -1021.852          44.625    23275433.560    96703590.477 7     -1021.852          45.812
G27  24276744.940   127575152.450 6      -423.014          41.375    24276743.500   127575152.455 6      -423.014          38.437    24276767.240    99409295.296 6      -329.621          38.250    24276767.400    99409302.290 7      -329.621          43.125
G32  25297845.500   132941074.805 7      1139.661          43.187    25297845.000   132941074.805 6      1139.661          37.312    25297857.940   103590495.875 6       888.048          36.937    25297858.120   103590505.888 6       888.048          41.750
R07  21570646.680   115469352.956 7       451.025          47.437    21570645.840   115469352.979 7       451.025          45.687    21570659.020    89809557.703 7       350.797          47.437    21570659.580    89809556.700 7       350.797          46.000
R23  20964374.620   112145258.660 7      3190.665          46.562    20964374.320   112145258.674 7      3190.665          45.562
G14  22543470.540   118466741.487 7      3895.732          44.562    22543469.200   118466741.500 5      3895.732          35.125    22543477.760    92311774.908 5      3035.635          34.875    22543478.120    92311779.900 8      3035.635          48.500
G04  24572001.140   129126736.397 7      5416.976          42.125    24572001.100   129126736.405 4      5416.976          28.812    24572020.600   100618289.393 4      4221.021          28.750    24572020.280   100618314.390 7      4221.021          45.187
G08  21505312.080   113011176.978 7       753.476          47.500    21505310.960   113011176.986 8       753.476          48.312    21505322.380    88060694.886 7       587.124          47.750    21505323.060    88060701.889 8       587.124          49.687
R22  21908289.720   116947933.644 7      1263.431          45.812    21908290.440   116947933.639 7      1263.431          46.062    21908301.300    90959553.941 7       982.669          47.000    21908301.640    90959555.947 7       982.669          47.250
R08  20216498.920   108258437.227 7      4037.422          47.750    20216500.320   108258437.266 7      4037.422          47.562    20216513.220    84201070.537 8      3140.217          50.062    20216513.200    84201068.536 8      3140.217          50.062
G03  20524542.840   107857202.463 8      4025.900          48.062    20524542.240   107857202.466 7      4025.900          42.875    20524551.860    84044612.785 7      3137.065          42.250    20524552.240    84044612.788 8      3137.065          52.875
G02  21721249.140   114145934.111 7      2028.720          47.937    21721247.420   114145934.116 6      2028.720          39.562    21721250.720    88944897.332 6      1580.821          39.625
G21  21956926.920   115384430.450 7      1196.636          47.562    21956925.260   115384430.454 6      1196.636          38.062    21956931.120    89909962.690 6       932.444          38.187
> 2024 05 09 15 15 52.0000000  0 16
G22  24489750.520   128694506.206 7      4830.541          42.687    24489749.140   128694506.209 4      4830.541          28.750    24489758.840   100281467.002 4      3764.058          28.812
R01  22730849.660   121509420.168 6      6802.621          40.562    22730847.540   121509420.158 6      6802.621          40.187    22730873.140    94507425.639 6      5290.927          40.312    22730872.100    94507423.623 6      5290.927          40.562
R14  23202329.740   123681474.915 7      3676.410          46.437    23202328.800   123681474.913 7      3676.410          46.062    23202344.120    96196761.845 7      2859.430          46.937    23202344.520    96196760.842 7      2859.430          47.562
R12  23275654.760   124334366.768 7     -1314.000          42.437    23275654.120   124334366.769 7     -1314.000          42.750    23275679.760    96704613.307 7     -1022.000          44.187    23275679.660    96704612.304 7     -1022.000          45.687
G27  24276825.560   127575575.499 6      -423.373          41.187    24276824.080   127575575.504 6      -423.373          38.187    24276847.920    99409624.938 6      -329.901          37.875    24276848.220    99409631.942 7      -329.901          43.250
G32  25297628.500   132939935.290 7      1139.163          43.250    25297628.240   132939935.293 6      1139.163          37.937    25297641.160   103589607.946 6       887.660          37.625    25297641.760   103589617.952 6       887.660          41.750
R07  21570562.440   115468902.245 7       450.222          46.687    21570561.660   115468902.266 7       450.222          45.187    21570574.840    89809207.153 7       350.173          47.062    21570575.520    89809206.154 7       350.173          46.375
R23  20963777.920   112142068.014 7      3190.503          46.250    20963777.920   112142068.029 7      3190.503          45.687
G14  22542729.080   118462845.926 7      3895.067          44.500    22542728.000   118462845.942 5      3895.067          35.062    22542736.360    92308739.403 5      3035.117          34.875    22542737.000    92308744.401 8      3035.117          48.125
G04  24570969.980   129121319.370 6      5416.885          41.500    24570970.240   129121319.375 4      5416.885          28.937    24570989.780   100614068.333 4      4220.949          28.750    24570989.240   100614093.324 7      4220.949          45.312
G08  21505168.640   113010423.619 7       753.011          47.812    21505167.720   113010423.621 8       753.011          48.812    21505179.040    88060107.847 7       586.762          47.937    21505179.940    88060114.847 8       586.762          49.687
R22  21908053.220   116946670.128 7      1263.340          46.687    21908053.940   116946670.127 7      1263.340          46.062    21908064.480    90958571.206 7       982.598          47.125    21908064.860    90958573.206 7       982.598          46.875
R08  20215744.680   108254400.009 8      4036.704          48.312    20215746.420   108254400.043 7      4036.704          47.250    20215759.400    84197930.481 8      3139.658          50.125    20215759.460    84197928.480 8      3139.658          49.562
G03  20523777.000   107853176.801 8      4025.249          48.562    20523776.360   107853176.806 7      4025.249          42.437    20523785.840    84041475.912 7      3136.557          42.250    20523786.300    84041475.914 8      3136.557          52.187
G02  21720863.060   114143905.297 8      2028.676          48.125    21720861.400   114143905.297 6      2028.676          39.812    21720864.660    88943316.434 6      1580.787          39.687
G21  21956699.280   115383233.846 7      1196.483          47.687    21956697.660   115383233.857 6      1196.483          38.125    21956703.400    89909030.276 6       932.324          38.312
> 2024 05 09 15 15 53.0000000  0 16
G22  24488831.100   128689675.599 7      4830.390          43.000    24488830.060   128689675.601 4      4830.390          28.750    24488839.560   100277702.898 4      3763.941          28.812
R01  22729576.680   121502617.549 6      6802.367          40.562    22729575.100   121502617.556 6      6802.367          40.125    22729600.220    94502134.736 6      5290.730          40.500    22729599.640    94502132.718 6      5290.730          41.125
R14  23201639.880   123677798.737 7      3675.698          47.000    23201639.360   123677798.741 7      3675.698          46.125    23201654.460    96193902.600 7      2858.876          47.437    23201654.760    96193901.602 7      2858.876          47.437
R12  23275900.620   124335680.485 7     -1313.813          42.875    23275899.880   124335680.488 7     -1313.813          42.875    23275925.580    96705635.095 7     -1021.855          44.437    23275925.440    96705634.092 7     -1021.855          45.625
G27  24276906.420   127575998.737 6      -423.479          40.437    24276904.500   127575998.747 6      -423.479          38.312    24276928.200    99409954.727 6      -329.984          38.000    24276928.400    99409961.736 7      -329.984          43.312
G32  25297411.700   132938796.267 7      1138.710          43.500    25297411.680   132938796.269 6      1138.710          37.750    25297424.500   103588720.401 6       887.306          37.312    25297424.800   103588730.401 7       887.306          42.562
R07  21570478.520   115468452.325 7       449.396          46.375    21570477.340   115468452.340 7       449.396          45.375    21570490.760    89808857.202 7       349.530          46.937    21570491.240    89808856.211 7       349.530          46.812
R23  20963181.740   112138877.417 7      3190.482          46.875    20963181.500   112138877.429 7      3190.482          45.687
G14  22541987.900   118458950.931 7      3894.590          45.062    22541986.780   118458950.946 5      3894.590          35.312    22541995.220    92305704.343 5      3034.746          34.812    22541995.600    92305709.337 8      3034.746          48.625
G04  24569939.320   129115902.141 6      5417.317          41.562    24569939.440   129115902.143 4      5417.317          28.937    24569958.840   100609847.115 4      4221.286          28.750    24569958.500   100609872.106 7      4221.286          45.312
G08  21505025.720   113009670.644 7       752.769          47.937    21505024.420   113009670.646 8       752.769          48.500    21505035.640    88059521.109 7       586.573          47.875    21505036.640    88059528.111 8       586.573          50.125
R22  21907816.500   116945406.725 7      1263.286          47.062    21907817.080   116945406.726 7      1263.286          46.125    21907827.840    90957588.559 7       982.556          47.375    21907828.040    90957590.557 7       982.556          47.062
R08  20214991.200   108250363.568 8      4035.956          48.437    20214992.660   108250363.601 7      4035.956          47.687    20215005.660    84194791.035 8      3139.077          50.250    20215005.240    84194789.034 8      3139.077          49.812
G03  20523011.060   107849151.723 8      4024.714          49.062    20523010.300   107849151.722 7      4024.714          42.750    20523019.940    84038339.489 7      3136.141          42.375    20523020.280    84038339.491 8      3136.141          52.562
G02  21720476.780   114141876.543 8      2028.631          48.562    21720475.340   114141876.545 6      2028.631          40.000    21720478.440    88941735.589 6      1580.751          40.000
G21  21956471.660   115382037.257 8      1196.523          48.125    21956469.880   115382037.264 6      1196.523          38.812    21956475.820    89908097.868 6       932.356          38.625
> 2024 05 09 15 15 54.0000000  0 16
G22  24487912.360   128684845.391 7      4830.004          43.062    24487910.920   128684845.394 4      4830.004          28.750    24487920.300   100273939.104 4      3763.640          28.812
R01  22728304.220   121495815.032 6      6802.425          40.875    22728302.440   121495815.039 6      6802.425          40.125    22728327.780    94496843.892 6      5290.775          40.500    22728327.200    94496841.874 6      5290.775          41.062
R14  23200950.100   123674123.285 7      3675.028          46.875    23200949.860   123674123.286 7      3675.028          46.375    23200964.980    96191043.910 7      2858.355          47.250    23200965.260    96191042.915 7      2858.355          47.625
R12  23276147.040   124336994.159 7     -1313.618          42.875    23276145.640   124336994.165 7     -1313.618          42.875    23276171.620    96706656.845 7     -1021.703          44.437    23276171.300    96706655.845 7     -1021.703          45.500
G27  24276986.780   127576422.198 6      -423.512          40.250    24276985.100   127576422.200 6      -423.512          37.750    24277008.900    99410284.681 6      -330.009          38.062    24277008.980    99410291.673 7      -330.009          43.187
G32  25297194.940   132937657.729 7      1138.207          44.000    25297195.020   132937657.734 6      1138.207          37.750    25297207.860   103587833.233 6       886.915          37.500    25297208.140   103587843.233 7       886.915          42.750
R07  21570394.820   115468003.140 7       448.742          46.625    21570393.320   115468003.157 7       448.742          45.375    21570406.680    89808507.840 7       349.021          46.625    21570407.340    89808506.843 7       349.021          46.875
R23  20962585.140   112135686.852 7      3190.456          47.062    20962585.260   112135686.867 7      3190.456          45.312
G14  22541246.820   118455056.511 7      3894.134          45.125    22541245.740   118455056.524 5      3894.134          35.312    22541254.180    92302669.730 5      3034.390          34.875    22541254.740    92302674.722 8      3034.390          48.437
G04  24568908.640   129110484.790 6      5417.471          41.875    24568908.580   129110484.792 4      5417.471          28.937    24568927.880   100605625.803 4      4221.406          28.750    24568927.280   100605650.794 7      4221.406          45.062
G08  21504882.600   113008918.052 8       752.450          48.000    21504881.240   113008918.054 8       752.450          48.500    21504892.520    88058934.667 8       586.325          48.000    21504893.320    88058941.672 8       586.325          49.687
R22  21907579.760   116944143.402 7      1263.322          47.375    21907580.720   116944143.406 7      1263.322          46.625    21907591.360    90956605.977 7       982.584          46.937    21907591.400    90956607.973 7       982.584          46.687
R08  20214237.500   108246327.897 8      4035.308          48.125    20214239.000   108246327.928 7      4035.308          47.125    20214252.040    84191652.182 8      3138.573          50.062    20214251.640    84191650.185 8      3138.573          49.750
G03  20522245.060   107845127.209 8      4024.213          49.312    20522244.380   107845127.211 7      4024.213          42.312    20522254.060    84035203.511 6      3135.750          41.687    20522254.180    84035203.515 8      3135.750          52.687
G02  21720090.540   114139847.829 8      2028.647          48.500    21720089.140   114139847.834 6      2028.647          40.062    21720092.560    88940154.775 6      1580.764          39.812
G21  21956243.880   115380840.661 8      1196.598          48.000    21956242.160   115380840.671 6      1196.598          37.812    21956248.100    89907165.454 6       932.414          37.875
> 2024 05 09 15 15 55.0000000  0 16
G22  24486993.140   128680015.585 7      4829.604          43.250    24486992.020   128680015.585 4      4829.604          29.187    24487001.300   100270175.621 4      3763.328          29.062
R01  22727031.840   121489012.710 6      6802.314          40.875    22727030.060   121489012.722 6      6802.314          40.125    22727055.500    94491553.201 6      5290.689          40.375    22727054.660    94491551.185 6      5290.689          41.062
R14  23200260.940   123670448.664 7      3674.214          47.625    23200260.680   123670448.665 7      3674.214          46.312    23200275.640    96188185.870 7      2857.722          47.500    23200276.020    96188184.878 7      2857.722          47.125
R12  23276392.760   124338307.926 7     -1313.839          42.687    23276391.720   124338307.922 7     -1313.839          42.875    23276417.140    96707678.654 7     -1021.875          44.125    23276417.100    96707677.651 7     -1021.875          45.625
G27  24277067.480   127576845.917 6      -423.901          40.625    24277065.760   127576845.919 6      -423.901          38.250    24277089.500    99410614.847 6      -330.312          37.937    24277089.920    99410621.845 7      -330.312          43.187
G32  25296978.840   132936519.725 7      1137.583          44.062    25296978.440   132936519.727 6      1137.583          37.812    25296991.220   103586946.476 6       886.429          37.875    25296992.060   103586956.482 7       886.429          42.562
R07  21570310.680   115467554.803 7       447.843          46.062    21570309.540   115467554.816 7       447.843          45.375    21570323.100    89808159.130 7       348.322          47.250    21570323.880    89808158.133 7       348.322          46.750
R23  20961988.540   112132496.386 7      3190.319          46.687    20961988.980   112132496.400 7      3190.319          46.062
G14  22540505.840   118451162.740 7      3893.381          45.500    22540504.860   118451162.753 5      3893.381          35.062    22540513.160    92299635.627 5      3033.804          34.875    22540513.780    92299640.619 8      3033.804          48.687
G04  24567877.460   129105067.356 7      5417.521          42.562    24567877.540   129105067.361 4      5417.521          28.937    24567897.040   100601404.425 4      4221.445          28.750    24567896.660   100601429.424 7      4221.445          45.000
G08  21504739.420   113008165.927 8       751.852          48.562    21504738.100   113008165.927 8       751.852          48.062    21504749.340    88058348.590 7       585.859          47.687    21504750.320    88058355.592 8       585.859          49.750
R22  21907343.160   116942880.250 7      1263.102          47.312    21907344.020   116942880.256 7      1263.102          46.250    21907354.520    90955623.521 7       982.413          46.750    21907354.620    90955625.517 7       982.413          46.500
R08  20213484.280   108242293.126 8      4034.314          48.187    20213485.520   108242293.165 7      4034.314          47.500    20213498.480    84188514.041 8      3137.800          50.187    20213498.380    84188512.040 8      3137.800          50.187
G03  20521479.400   107841103.355 8      4023.453          49.125    20521478.620   107841103.357 7      4023.453          42.562    20521488.400    84032068.042 7      3135.158          42.375    20521488.460    84032068.044 8      3135.158          53.000
G02  21719704.540   114137819.222 8      2028.589          48.187    21719703.060   114137819.227 6      2028.589          40.062    21719706.600    88938574.042 6      1580.719          40.062
G21  21956016.220   115379644.148 7      1196.475          47.750    21956014.540   115379644.152 6      1196.475          38.125    21956020.420    89906233.104 6       932.319          38.312
> 2024 05 09 15 15 56.0000000  0 16
G22  24486073.860   128675186.279 7      4829.073          43.937    24486073.020   128675186.276 4      4829.073          29.187    24486082.420   100266412.525 4      3762.914          29.062
R01  22725758.480   121482210.661 6      6801.995          40.875    22725757.380   121482210.678 6      6801.995          40.375    22725783.120    94486262.731 6      5290.441          40.375    22725782.160    94486260.713 6      5290.441          41.062
R14  23199572.000   123666774.971 7      3673.281          46.937    23199571.320   123666774.972 7      3673.281          46.250    23199586.620    96185328.555 7      2856.996          47.312    23199586.660    96185327.565 7      2856.996          47.875
R12  23276638.720   124339621.795 7     -1314.033          42.687    23276637.680   124339621.793 7     -1314.033          42.562    23276662.880    96708700.558 7     -1022.026          43.750    23276663.160    96708699.554 7     -1022.026          45.437
G27  24277147.980   127577269.972 6      -424.178          40.812    24277146.420   127577269.974 6      -424.178          38.687    24277170.320    99410945.265 6      -330.528          38.125    24277170.460    99410952.276 7      -330.528          43.062
G32  25296762.560   132935382.338 7      1137.095          43.250    25296762.000   132935382.335 6      1137.095          38.125    25296774.780   103586060.203 6       886.048          37.625    25296775.640   103586070.199 7       886.048          42.562
R07  21570227.500   115467107.315 7       447.159          45.875    21570225.960   115467107.320 7       447.159          45.312    21570239.460    89807811.075 7       347.790          47.000    21570240.160    89807810.089 7       347.790          46.312
R23  20961392.220   112129306.090 7      3190.230          46.937    20961392.520   112129306.113 7      3190.230          45.937
G14  22539765.400   118447269.657 7      3892.844          45.437    22539764.060   118447269.670 5      3892.844          35.062    22539772.340    92296602.054 5      3033.385          34.875    22539772.780    92296607.050 8      3033.385          48.437
G04  24566846.700   129099649.940 6      5417.438          41.312    24566846.660   129099649.947 4      5417.438          29.125    24566866.260   100597183.062 4      4221.380          28.937    24566865.800   100597208.067 7      4221.380          44.937
G08  21504596.520   113007414.305 7       751.476          47.625    21504595.080   113007414.304 8       751.476          48.437    21504606.340    88057762.906 8       585.565          48.187    21504607.320    88057769.909 8       585.565          49.562
R22  21907106.740   116941617.335 7      1262.840          47.375    21907107.540   116941617.338 7      1262.840          46.062    21907117.780    90954641.245 7       982.209          46.687    21907118.040    90954643.239 7       982.209          46.812
R08  20212730.860   108238259.343 8      4033.317          48.187    20212732.200   108238259.377 7      4033.317          47.437    20212745.260    84185376.659 8      3137.024          49.750    20212744.980    84185374.660 8      3137.024          49.812
G03  20520713.820   107837080.189 8      4022.837          48.562    20520713.080   107837080.191 7      4022.837          42.750    20520722.720    84028933.112 7      3134.678          42.437    20520722.880    84028933.114 8      3134.678          52.562
G02  21719318.660   114135790.818 8      2028.418          48.312    21719317.120   114135790.820 6      2028.418          39.875    21719320.620    88936993.467 6      1580.586          39.562
G21  21955788.420   115378447.768 7      1196.338          47.687    21955786.760   115378447.773 6      1196.338          38.312    21955792.700    89905300.858 6       932.212          38.187
> 2024 05 09 15 15 57.0000000  0 16
G22  24485154.960   128670357.387 7      4828.745          43.125    24485154.060   128670357.392 4      4828.745          29.187    24485163.460   100262649.760 4      3762.658          29.062
R01  22724485.480   121475408.798 6      6801.946          40.750    22724485.180   121475408.800 6      6801.946          40.375    22724510.860    94480972.383 6      5290.402          40.562    22724509.720    94480970.367 6      5290.402          41.125
R14  23198883.020   123663102.072 7      3672.613          47.000    23198882.260   123663102.078 7      3672.613          46.625    23198897.300    96182471.864 7      2856.477          47.437    23198897.600    96182470.875 7      2856.477          47.125
R12  23276883.940   124340935.690 7     -1313.866          42.687    23276883.900   124340935.694 7     -1313.866          42.562    23276909.060    96709722.485 7     -1021.896          44.437    23276909.000    96709721.483 7     -1021.896          45.687
G27  24277229.020   127577694.297 6      -424.406          41.000    24277227.240   127577694.305 6      -424.406          38.562    24277250.920    99411275.903 6      -330.706          37.875    24277251.180    99411282.909 7      -330.706          43.625
G32  25296545.800   132934245.506 6      1136.624          41.500    25296545.780   132934245.500 6      1136.624          37.562    25296558.360   103585174.362 6       885.681          37.875    25296558.740   103585184.366 7       885.681          42.750
R07  21570143.860   115466660.631 7       446.429          46.187    21570142.600   115466660.645 7       446.429          44.937    21570156.100    89807463.664 7       347.223          47.062    21570156.580    89807462.667 7       347.223          47.437
R23  20960795.880   112126115.916 7      3190.246          47.375    20960796.160   112126115.939 7      3190.246          45.812
G14  22539024.480   118443377.242 7      3892.236          45.812    22539023.380   118443377.252 5      3892.236          35.250    22539031.800    92293569.003 5      3032.911          35.000    22539032.080    92293573.995 8      3032.911          48.375
G04  24565815.680   129094232.424 7      5417.616          42.437    24565815.760   129094232.434 4      5417.616          29.125    24565835.440   100592961.623 4      4221.519          28.937    24565834.940   100592986.628 7      4221.519          45.375
G08  21504453.680   113006663.145 7       751.004          47.562    21504452.160   113006663.147 8       751.004          48.375    21504463.520    88057177.583 7       585.198          47.750    21504464.540    88057184.587 8       585.198          49.687
R22  21906870.120   116940354.585 7      1262.783          47.125    21906871.060   116940354.578 7      1262.783          46.937    21906881.440    90953659.099 7       982.164          46.750    21906881.540    90953661.093 7       982.164          47.000
R08  20211977.200   108234226.433 8      4032.606          48.187    20211979.120   108234226.478 7      4032.606          47.187    20211991.920    84182239.961 8      3136.472          49.437    20211992.120    84182237.962 8      3136.472          49.937
G03  20519948.300   107833057.672 8      4022.283          49.375    20519947.520   107833057.674 7      4022.283          42.500    20519957.280    84025798.687 7      3134.247          42.312    20519957.480    84025798.689 8      3134.247          52.250
G02  21718932.740   114133762.521 8      2028.277          48.000    21718931.180   114133762.524 6      2028.277          39.875    21718934.500    88935412.977 6      1580.476          39.875
G21  21955560.880   115377251.467 7      1196.306          47.062    21955559.220   115377251.474 6      1196.306          38.250    21955564.900    89904368.677 6       932.186          38.437
> 2024 05 09 15 15 58.0000000  0 16
G22  24484235.900   128665528.879 7      4828.359          43.250    24484235.280   128665528.887 4      4828.359          29.187    24484244.600   100258887.293 4      3762.357          29.062
R01  22723213.380   121468607.051 6      6801.638          40.750    22723212.260   121468607.050 6      6801.638          40.375    22723238.000    94475682.137 6      5290.163          40.875    22723237.280    94475680.119 6      5290.163          41.125
R14  23198193.900   123659429.904 7      3671.849          47.562    23198193.720   123659429.909 7      3671.849          46.437    23198208.620    96179615.735 7      2855.883          47.562    23198208.520    96179614.745 7      2855.883          47.062
R12  23277130.280   124342249.580 7     -1313.818          42.687    23277129.800   124342249.581 7     -1313.818          42.687    23277154.980    96710744.400 7     -1021.858          43.687    23277155.020    96710743.399 7     -1021.858          45.000
G27  24277310.120   127578118.831 6      -424.527          41.250    24277307.980   127578118.833 6      -424.527          38.437    24277331.740    99411606.700 6      -330.800          38.312    24277332.000    99411613.702 7      -330.800          43.375
G32  25296329.360   132933109.141 7      1136.230          42.062    25296329.580   132933109.136 6      1136.230          37.687    25296342.080   103584288.885 6       885.374          37.812    25296342.720   103584298.901 7       885.374          42.500
R07  21570060.160   115466214.727 7       445.555          46.000    21570059.620   115466214.739 7       445.555          45.437    21570072.840    89807116.848 7       346.542          47.375    21570073.680    89807115.845 7       346.542          47.250
R23  20960199.460   112122925.805 7      3190.157          46.250    20960200.140   112122925.823 7      3190.157          45.625
G14  22538283.600   118439485.397 7      3891.559          45.562    22538282.740   118439485.407 5      3891.559          35.250    22538291.160    92290536.397 5      3032.384          34.937    22538291.500    92290541.397 8      3032.384          48.312
G04  24564784.720   129088814.782 7      5417.765          42.562    24564784.880   129088814.789 4      5417.765          29.125    24564804.440   100588740.082 4      4221.635          28.937    24564803.780   100588765.081 7      4221.635          45.250
G08  21504310.700   113005912.371 7       750.595          47.812    21504309.240   113005912.376 8       750.595          48.187    21504320.680    88056592.562 7       584.879          47.875    21504321.740    88056599.566 8       584.879          50.000
R22  21906633.860   116939091.932 7      1262.605          46.937    21906634.400   116939091.933 7      1262.605          46.187    21906644.880    90952677.037 7       982.026          47.250    21906644.940    90952679.035 7       982.026          47.250
R08  20211224.580   108230194.351 7      4031.707          47.937    20211226.260   108230194.398 7      4031.707          47.562    20211239.100    84179103.908 8      3135.772          50.312    20211238.760    84179101.911 8      3135.772          50.000
G03  20519182.780   107829035.741 8      4021.654          48.875    20519182.280   107829035.738 7      4021.654          42.812    20519191.840    84022664.717 7      3133.756          42.500    20519192.020    84022664.725 8      3133.756          52.687
G02  21718546.700   114131734.277 7      2028.234          47.625    21718545.160   114131734.282 6      2028.234          39.687    21718548.660    88933832.531 6      1580.442          39.687
G21  21955333.380   115376055.182 8      1196.341          48.875    21955331.580   115376055.187 6      1196.341          38.187    21955337.220    89903436.503 6       932.214          38.375
> 2024 05 09 15 15 59.0000000  0 16
G22  24483317.260   128660700.724 7      4827.988          43.187    24483316.520   128660700.734 4      4827.988          28.562    24483325.880   100255125.098 4      3762.069          29.062
R01  22721941.440   121461805.408 6      6801.473          40.750    22721940.020   121461805.407 6      6801.473          40.000    22721965.860    94470391.972 6      5290.034          40.875    22721965.040    94470389.958 6      5290.034          40.562
R14  23197505.160   123655758.444 7      3671.126          47.437    23197505.280   123655758.447 7      3671.126          46.937    23197519.820    96176760.145 7      2855.320          47.250    23197519.900    96176759.153 7      2855.320          47.312
R12  23277376.240   124343563.428 7     -1313.862          42.687    23277375.900   124343563.434 7     -1313.862          42.687    23277401.300    96711766.288 7     -1021.892          44.187    23277401.020    96711765.287 7     -1021.892          45.312
G27  24277390.780   127578543.595 6      -424.935          40.500    24277388.780   127578543.597 6      -424.935          38.562    24277412.680    99411937.677 6      -331.118          38.312    24277413.180    99411944.675 7      -331.118          43.437
G32  25296113.180   132931973.286 7      1135.603          43.125    25296113.240   132931973.286 6      1135.603          37.437    25296125.860   103583403.809 6       884.886          37.312    25296126.340   103583413.821 7       884.886          42.500
R07  21569977.060   115465769.565 7       444.722          46.062    21569976.100   115465769.583 7       444.722          45.437    21569990.100    89806770.615 7       345.895          46.812    21569990.240    89806769.622 7       345.895          47.687
R23  20959603.200   112119735.746 7      3189.940          46.812    20959603.220   112119735.766 7      3189.940          45.437
G14  22537543.060   118435594.132 7      3890.927          45.062    22537542.220   118435594.145 5      3890.927          35.250    22537550.680    92287504.247 5      3031.891          34.937    22537550.880    92287509.243 8      3031.891          48.187
G04  24563753.600   129083396.987 6      5417.812          41.875    24563753.880   129083396.992 4      5417.812          29.125    24563773.300   100584518.426 4      4221.672          28.937    24563772.800   100584543.431 7      4221.672          45.062
G08  21504167.940   113005161.991 7       750.106          47.750    21504166.420   113005162.001 8       750.106          48.125    21504177.780    88056007.851 7       584.498          47.750    21504178.860    88056014.855 8       584.498          49.750
R22  21906397.060   116937829.396 7      1262.359          47.312    21906397.940   116937829.392 7      1262.359          46.625    21906408.320    90951695.057 7       981.835          47.250    21906408.460    90951697.053 7       981.835          47.000
R08  20210471.820   108226163.050 8      4030.863          48.125    20210473.740   108226163.092 7      4030.863          47.125    20210486.280    84175968.453 8      3135.116          49.937    20210485.920    84175966.454 8      3135.116          49.875
G03  20518417.780   107825014.386 8      4021.028          48.875    20518416.980   107825014.385 7      4021.028          42.812    20518426.700    84019531.201 7      3133.268          42.125    20518426.920    84019531.206 8      3133.268          52.437
G02  21718160.880   114129706.094 8      2028.092          48.000    21718159.220   114129706.096 6      2028.092          39.750    21718162.780    88932252.128 6      1580.331          39.312
G21  21955105.480   115374858.907 8      1196.238          48.562    21955103.960   115374858.914 6      1196.238          38.437    21955109.640    89902504.345 6       932.133          38.375
> 2024 05 09 15 16  0.0000000  0 16
G22  24482398.620   128655872.920 7      4827.687          42.875    24482397.800   128655872.930 4      4827.687          28.562    24482407.060   100251363.177 4      3761.834          28.562
R01  22720669.240   121455003.872 6      6801.470          40.625    22720667.700   121455003.857 6      6801.470          40.000    22720693.240    94465101.880 6      5290.032          40.375    22720692.400    94465099.869 6      5290.032          40.562
R14  23196816.860   123652087.693 7      3670.404          47.312    23196816.460   123652087.696 7      3670.404          46.687    23196831.480    96173905.114 7      2854.758          47.500    23196831.300    96173904.117 7      2854.758          47.437
R12  23277622.300   124344877.214 7     -1313.749          42.687    23277621.640   124344877.228 7     -1313.749          42.375    23277646.880    96712788.129 7     -1021.805          44.250    23277647.320    96712787.131 7     -1021.805          45.062
G27  24277471.780   127578968.549 6      -425.240          40.312    24277469.740   127578968.551 6      -425.240          38.750    24277493.740    99412268.801 6      -331.356          38.062    24277493.980    99412275.793 7      -331.356          43.375
G32  25295897.160   132930837.915 7      1134.995          43.312    25295897.140   132930837.912 6      1134.995          37.187    25295909.840   103582519.106 6       884.412          37.312    25295910.340   103582529.120 7       884.412          42.437
R07  21569893.920   115465325.142 7       444.028          46.062    21569893.300   115465325.160 7       444.028          45.750    21569907.040    89806424.953 7       345.355          47.250    21569907.500    89806423.956 7       345.355          47.562
R23  20959006.760   112116545.710 7      3190.024          46.437    20959007.020   112116545.727 7      3190.024          45.687
G14  22536803.000   118431703.417 7      3890.407          45.687    22536801.840   118431703.430 5      3890.407          35.375    22536810.300    92284472.520 5      3031.486          35.125    22536810.560    92284477.516 8      3031.486          48.000
G04  24562722.380   129077979.048 7      5417.950          42.500    24562722.760   129077979.058 4      5417.950          29.187    24562742.320   100580296.657 4      4221.779          29.125    24562741.820   100580321.652 7      4221.779          45.125
G08  21504025.040   113004411.974 7       749.853          47.562    21504023.760   113004411.976 8       749.853          48.375    21504035.220    88055423.411 8       584.301          48.062    21504036.080    88055430.414 8       584.301          50.187
R22  21906160.580   116936566.901 7      1262.481          46.750    21906161.400   116936566.902 7      1262.481          46.312    21906172.060    90950713.116 7       981.930          47.375    21906172.160    90950715.111 7       981.930          47.437
R08  20209719.180   108222132.520 8      4030.163          48.437    20209721.080   108222132.559 7      4030.163          47.500    20209733.540    84172833.599 8      3134.571          50.000    20209733.360    84172831.600 8      3134.571          49.625
G03  20517652.660   107820993.587 8      4020.531          49.812    20517651.920   107820993.587 7      4020.531          42.625    20517661.540    84016398.116 6      3132.881          41.812    20517661.740    84016398.118 8      3132.881          51.875
G02  21717774.740   114127677.939 8      2028.070          48.500    21717773.280   114127677.944 6      2028.070          39.625    21717776.820    88930671.748 6      1580.314          39.562
G21  21954877.960   115373662.627 8      1196.257          48.562    21954876.220   115373662.637 6      1196.257          38.062    21954881.980    89901572.177 6       932.148          38.250
> 2024 05 09 15 16  1.0000000  0 16
G22  24481480.280   128651045.573 7      4827.161          43.000    24481479.100   128651045.581 4      4827.161          28.562    24481488.400   100247601.610 4      3761.424          28.562
R01  22719397.080   121448202.523 6      6801.302          40.625    22719395.260   121448202.513 6      6801.302          40.000    22719420.920    94459811.953 6      5289.902          40.375    22719420.340    94459809.937 6      5289.902          40.875
R14  23196128.560   123648417.793 7      3669.467          47.062    23196127.920   123648417.798 7      3669.467          46.062    23196143.240    96171050.743 7      2854.030          47.250    23196142.960    96171049.749 7      2854.030          47.875
R12  23277868.040   124346191.093 7     -1313.893          42.687    23277867.780   124346191.094 7     -1313.893          43.000    23277893.160    96713810.027 7     -1021.917          44.062    23277893.120    96713809.027 7     -1021.917          44.937
G27  24277552.540   127579393.744 6      -425.396          40.750    24277550.680   127579393.752 6      -425.396          38.500    24277574.420    99412600.114 6      -331.477          38.312    24277575.280    99412607.117 7      -331.477          43.375
G32  25295680.800   132929703.064 7      1134.569          43.250    25295680.940   132929703.055 6      1134.569          37.375    25295693.940   103581634.809 6       884.080          37.500    25295694.940   103581644.817 7       884.080          42.562
R07  21569811.040   115464881.548 7       443.165          46.000    21569810.600   115464881.574 7       443.165          45.750    21569824.040    89806079.942 7       344.684          47.375    21569824.500    89806078.937 7       344.684          47.750
R23  20958410.680   112113355.803 7      3189.878          46.562    20958410.460   112113355.818 7      3189.878          45.500
G14  22536062.920   118427813.364 7      3889.742          45.312    22536061.560   118427813.379 5      3889.742          35.375    22536070.100    92281441.314 5      3030.968          34.937    22536070.400    92281446.308 8      3030.968          48.250
G04  24561691.540   129072561.059 7      5417.942          42.750    24561691.780   129072561.067 4      5417.942          29.187    24561711.340   100576074.846 4      4221.773          29.125    24561710.480   100576099.839 7      4221.773          45.187
G08  21503882.540   113003662.441 7       749.295          47.750    21503881.120   113003662.446 8       749.295          48.937    21503892.520    88054839.355 8       583.866          48.437    21503893.360    88054846.360 8       583.866          49.625
R22  21905923.920   116935304.608 7      1262.268          46.687    21905925.040   116935304.606 7      1262.268          46.375    21905935.620    90949731.330 7       981.764          46.812    21905935.600    90949733.322 7       981.764          47.687
R08  20208966.700   108218102.890 8      4029.236          48.750    20208968.600   108218102.926 7      4029.236          47.125    20208981.120    84169699.447 8      3133.850          50.375    20208980.980    84169697.447 8      3133.850          49.562
G03  20516887.980   107816973.462 8      4019.788          48.625    20516886.840   107816973.464 7      4019.788          42.562    20516896.580    84013265.556 7      3132.302          42.250    20516896.880    84013265.559 8      3132.302          52.625
G02  21717388.900   114125649.916 8      2027.903          48.500    21717387.460   114125649.923 6      2027.903          39.812    21717390.820    88929091.470 6      1580.184          39.312
G21  21954650.340   115372466.436 8      1196.149          48.250    21954648.720   115372466.444 6      1196.149          38.125    21954654.400    89900640.076 6       932.064          38.062
> 2024 05 09 15 16  2.0000000  0 16
G22  24480561.360   128646218.384 7      4827.081          43.250    24480560.500   128646218.395 4      4827.081          28.562    24480569.780   100243840.168 4      3761.362          28.562
R01  22718124.920   121441401.144 6      6801.337          40.625    22718123.260   121441401.132 6      6801.337          40.312    22718148.860    94454521.994 6      5289.929          40.500    22718147.720    94454519.982 6      5289.929          40.875
R14  23195440.320   123644748.473 7      3669.010          46.875    23195439.420   123644748.482 7      3669.010          46.062    23195454.680    96168196.830 7      2853.675          47.437    23195454.520    96168195.832 7      2853.675          47.500
R12  23278113.880   124347504.783 7     -1313.726          42.625    23278113.380   124347504.787 7     -1313.726          43.000    23278139.500    96714831.788 7     -1021.787          44.187    23278139.060    96714830.790 7     -1021.787          44.687
G27  24277633.180   127579819.000 6      -425.429          40.437    24277631.640   127579819.008 6      -425.429          38.625    24277655.520    99412931.474 6      -331.503          38.375    24277656.000    99412938.479 7      -331.503          43.562
G32  25295465.500   132928568.538 6      1134.267          41.750    25295464.980   132928568.535 6      1134.267          37.437    25295478.080   103580750.771 6       883.844          37.375    25295479.040   103580760.779 7       883.844          42.562
R07  21569728.220   115464438.552 7       442.615          45.875    21569727.860   115464438.583 7       442.615          45.437    21569741.640    89805735.393 7       344.256          46.875    21569741.680    89805734.390 7       344.256          47.000
R23  20957814.460   112110165.759 7      3190.065          46.500    20957813.800   112110165.785 7      3190.065          45.500
G14  22535322.600   118423923.710 7      3889.432          45.000    22535321.360   118423923.728 5      3889.432          35.062    22535329.860    92278410.413 5      3030.727          34.937    22535330.160    92278415.413 8      3030.727          48.687
G04  24560660.320   129067142.711 7      5418.483          42.125    24560660.660   129067142.718 4      5418.483          29.187    24560680.160   100571852.756 4      4222.194          29.125    24560679.560   100571877.759 7      4222.194          44.937
G08  21503739.820   113002913.117 7       749.118          47.250    21503738.460   113002913.122 8       749.118          48.125    21503749.980    88054255.465 7       583.728          47.750    21503750.840    88054262.469 8       583.728          49.562
R22  21905687.340   116934042.248 7      1262.273          47.187    21905688.260   116934042.249 7      1262.273          46.500    21905699.100    90948749.493 7       981.768          46.875    21905699.280    90948751.484 7       981.768          47.062
R08  20208214.820   108214073.886 8      4028.680          48.687    20208216.380   108214073.923 7      4028.680          47.500    20208228.820    84166565.781 8      3133.418          49.312    20208228.680    84166563.786 8      3133.418          49.250
G03  20516122.740   107812953.714 8      4019.595          48.562    20516121.740   107812953.714 7      4019.595          42.750    20516131.680    84010133.290 7      3132.152          42.312    20516131.520    84010133.290 8      3132.152          51.812
G02  21717002.900   114123621.769 8      2028.104          48.000    21717001.480   114123621.771 6      2028.104          40.000    21717004.760    88927511.096 6      1580.341          39.750
G21  21954422.820   115371270.065 8      1196.425          48.250    21954421.260   115371270.072 6      1196.425          38.375    21954426.680    89899707.842 6       932.280          38.312
> 2024 05 09 15 16  3.0000000  0 16
G22  24479643.160   128641391.666 7      4826.703          42.312    24479641.920   128641391.673 4      4826.703          28.562    24479651.320   100240079.097 4      3761.067          28.562
R01  22716852.640   121434599.940 6      6801.260          40.875    22716851.020   121434599.938 6      6801.260          40.312    22716876.300    94449232.178 6      5289.869          40.500    22716875.300    94449230.166 6      5289.869          41.000
R14  23194752.220   123641080.004 7      3668.245          46.625    23194750.920   123641080.012 7      3668.245          46.125    23194766.280    96165343.574 7      2853.080          47.250    23194766.300    96165342.585 7      2853.080          47.375
R12  23278360.140   124348818.519 7     -1313.629          42.625    23278359.580   124348818.520 7     -1313.629          42.625    23278385.500    96715853.587 7     -1021.712          44.250    23278385.020    96715852.588 7     -1021.712          45.562
G27  24277714.180   127580244.527 6      -425.519          40.500    24277712.480   127580244.526 6      -425.519          38.125    24277736.440    99413263.037 6      -331.573          37.937    24277736.840    99413270.041 7      -331.573          43.625
G32  25295249.660   132927434.565 6      1133.875          41.937    25295248.900   132927434.567 6      1133.875          37.750    25295262.320   103579867.162 6       883.539          37.562    25295263.160   103579877.165 7       883.539          42.500
R07  21569645.340   115463996.411 7       441.879          46.312    21569645.420   115463996.440 7       441.879          45.187    21569659.020    89805391.508 7       343.684          47.375    21569659.000    89805390.505 7       343.684          47.312
R23  20957217.780   112106975.857 7      3189.948          46.812    20957217.620   112106975.877 7      3189.948          45.625
G14  22534582.360   118420034.716 7      3888.856          45.375    22534581.360   118420034.731 5      3888.856          35.062    22534589.640    92275380.032 5      3030.278          35.250    22534590.400    92275385.030 8      3030.278          48.375
G04  24559629.220   129061724.328 6      5418.593          41.875    24559629.540   129061724.335 4      5418.593          29.187    24559649.100   100567630.637 4      4222.280          29.125    24559648.680   100567655.642 7      4222.280          45.437
G08  21503597.420   113002164.235 8       748.787          48.187    21503596.040   113002164.245 8       748.787          48.312    21503607.440    88053671.918 7       583.470          47.687    21503608.280    88053678.925 8       583.470          50.312
R22  21905450.960   116932780.035 7      1262.288          47.187    21905451.780   116932780.036 7      1262.288          46.250    21905462.780    90947767.770 7       981.779          46.875    21905463.020    90947769.761 7       981.779          47.500
R08  20207462.120   108210045.774 8      4027.875          48.937    20207464.200   108210045.816 7      4027.875          47.125    20207476.520    84163432.820 8      3132.791          50.312    20207476.520    84163430.819 8      3132.791          49.875
G03  20515358.020   107808934.652 8      4018.929          48.312    20515356.980   107808934.652 7      4018.929          42.875    20515366.760    84007001.557 7      3131.633          42.062    20515366.580    84007001.560 8      3131.633          52.125
G02  21716617.060   114121593.733 8      2028.150          48.312    21716615.520   114121593.738 6      2028.150          39.562    21716618.980    88925930.808 6      1580.376          39.375
G21  21954195.280   115370073.793 8      1196.341          48.187    21954193.540   115370073.805 6      1196.341          38.312    21954199.080    89898775.682 6       932.214          38.187
> 2024 05 09 15 16  4.0000000  0 16
G22  24478724.820   128636565.231 6      4826.042          41.500    24478723.560   128636565.241 4      4826.042          28.125    24478732.900   100236318.241 4      3760.552          28.562
R01  22715579.860   121427798.826 6      6800.845          40.875    22715578.920   121427798.816 6      6800.845          40.312    22715603.960    94443942.417 6      5289.546          40.500    22715602.820    94443940.405 6      5289.546          40.875
R14  23194064.000   123637412.235 7      3667.215          46.562    23194062.880   123637412.244 7      3667.215          46.000    23194078.240    96162490.866 7      2852.278          47.750    23194078.240    96162489.876 7      2852.278          47.062
R12  23278605.840   124350132.174 7     -1313.859          42.812    23278605.140   124350132.175 7     -1313.859          42.625    23278631.400    96716875.314 7     -1021.890          44.062    23278630.940    96716874.316 7     -1021.890          45.812
G27  24277794.960   127580670.185 6      -425.903          40.687    24277793.420   127580670.184 6      -425.903          38.500    24277817.460    99413594.712 6      -331.873          38.312    24277817.840    99413601.717 7      -331.873          43.312
G32  25295033.940   132926301.027 6      1133.145          41.187    25295032.980   132926301.024 6      1133.145          37.437    25295046.520   103578983.884 6       882.970          37.000    25295047.420   103578993.877 7       882.970          42.937
R07  21569563.020   115463554.965 7       440.919          46.125    21569562.920   115463554.990 7       440.919          45.187    21569576.440    89805048.154 7       342.937          47.562    21569576.540    89805047.157 7       342.937          47.187
R23  20956621.180   112103785.910 7      3189.727          46.312    20956620.960   112103785.930 7      3189.727          45.750
G14  22533842.520   118416146.229 7      3888.024          45.062    22533841.520   118416146.242 5      3888.024          34.937    22533849.620    92272350.038 5      3029.629          34.812    22533850.500    92272355.040 8      3029.629          48.625
G04  24558598.120   129056305.719 6      5418.601          41.937    24558598.380   129056305.724 4      5418.601          29.000    24558618.080   100563408.346 4      4222.287          29.125    24558617.680   100563433.348 7      4222.287          45.250
G08  21503454.920   113001415.682 8       748.239          48.500    21503453.600   113001415.689 8       748.239          48.625    21503465.020    88053088.624 7       583.043          47.750    21503465.900    88053095.628 8       583.043          50.125
R22  21905214.600   116931517.868 7      1261.925          46.562    21905215.080   116931517.874 7      1261.925          46.500    21905226.380    90946786.082 7       981.497          47.375    21905226.360    90946788.075 7       981.497          47.437
R08  20206710.180   108206018.444 8      4026.742          48.750    20206712.100   108206018.489 7      4026.742          47.437    20206724.500    84160300.458 8      3131.910          50.187    20206724.140    84160298.459 8      3131.910          50.000
G03  20514593.300   107804916.090 8      4018.088          48.812    20514592.300   107804916.090 7      4018.088          42.937    20514602.060    84003870.214 7      3130.977          42.250    20514602.140    84003870.212 8      3130.977          52.250
G02  21716231.200   114119565.683 8      2027.881          48.125    21716229.660   114119565.685 6      2027.881          39.562    21716233.120    88924350.509 6      1580.167          39.625
G21  21953967.540   115368877.455 8      1196.137          48.125    21953965.860   115368877.462 6      1196.137          38.500    21953971.460    89897843.467 6       932.055          38.000
> 2024 05 09 15 16  5.0000000  0 16
G22  24477806.500   128631739.401 7      4825.619          42.000    24477805.100   128631739.408 4      4825.619          28.125    24477814.580   100232557.856 4      3760.223          28.562
R01  22714307.560   121420998.102 6      6800.514          40.875    22714306.880   121420998.090 6      6800.514          40.312    22714331.640    94438652.961 6      5289.288          40.312    22714330.620    94438650.951 6      5289.288          40.875
R14  23193376.040   123633745.451 7      3666.387          46.500    23193375.220   123633745.451 7      3666.387          45.687    23193390.380    96159638.920 7      2851.634          47.375    23193390.440    96159637.926 7      2851.634          47.562
R12  23278852.020   124351446.064 7     -1314.005          42.812    23278850.800   124351446.065 7     -1314.005          42.625    23278877.000    96717897.235 7     -1022.004          44.312    23278876.960    96717896.234 7     -1022.004          45.062
G27  24277875.820   127581096.313 6      -426.254          40.812    24277874.600   127581096.318 6      -426.254          38.187    24277898.420    99413926.752 6      -332.146          37.687    24277898.660    99413933.754 7      -332.146          43.375
G32  25294818.420   132925168.223 6      1132.440          41.625    25294817.180   132925168.220 6      1132.440          37.125    25294830.800   103578101.181 6       882.421          37.187    25294831.760   103578111.195 7       882.421          42.312
R07  21569480.800   115463114.556 7       440.028          46.437    21569480.620   115463114.584 7       440.028          45.437    21569494.440    89804705.614 7       342.244          47.437    21569494.460    89804704.615 7       342.244          47.750
R23  20956025.060   112100596.281 7      3189.462          46.125    20956024.760   112100596.304 7      3189.462          45.062
G14  22533102.900   118412258.588 7      3887.166          44.875    22533101.660   118412258.603 5      3887.166          34.937    22533109.840    92269320.707 5      3028.961          34.812    22533110.740    92269325.716 8      3028.961          48.000
G04  24557566.820   129050887.254 7      5418.469          42.687    24557567.260   129050887.262 4      5418.469          29.000    24557587.060   100559186.166 4      4222.184          29.000    24557586.440   100559211.172 7      4222.184          45.000
G08  21503312.500   113000667.811 8       747.513          48.062    21503311.280   113000667.814 8       747.513          48.187    21503322.720    88052505.859 7       582.478          47.625    21503323.400    88052512.866 8       582.478          49.937
R22  21904978.360   116930256.066 7      1261.606          46.500    21904978.720   116930256.062 7      1261.606          46.812    21904990.100    90945804.684 7       981.249          47.375    21904989.880    90945806.678 7       981.249          47.125
R08  20205958.280   108201992.182 8      4025.728          48.687    20205960.180   108201992.227 7      4025.728          47.437    20205972.800    84157168.925 8      3131.122          49.875    20205972.320    84157166.930 8      3131.122          49.812
G03  20513828.640   107800898.376 8      4017.215          49.375    20513827.940   107800898.379 7      4017.215          42.812    20513837.560    84000739.532 7      3130.297          42.625    20513837.740    84000739.532 8      3130.297          52.375
G02  21715845.300   114117537.938 8      2027.687          48.000    21715843.720   114117537.943 6      2027.687          40.250    21715847.260    88922770.448 6      1580.016          40.125
G21  21953740.140   115367681.385 7      1195.976          47.625    21953738.340   115367681.390 6      1195.976          38.062    21953743.880    89896911.463 6       931.929          38.375
> 2024 05 09 15 16  6.0000000  0 16
G22  24476887.940   128626914.064 7      4825.041          42.250    24476886.740   128626914.069 4      4825.041          28.125    24476896.240   100228797.853 4      3759.772          27.937
R01  22713035.780   121414197.568 6      6800.338          41.125    22713034.260   121414197.559 6      6800.338          39.937    22713059.620    94433363.663 6      5289.152          40.312    22713058.260    94433361.655 6      5289.152          40.500
R14  23192688.360   123630079.505 7      3665.441          46.687    23192687.640   123630079.503 7      3665.441          46.312    23192702.540    96156787.629 7      2850.898          47.312    23192702.620    96156786.631 7      2850.898          46.875
R12  23279097.660   124352760.034 7     -1314.186          42.375    23279096.680   124352760.030 7     -1314.186          42.625    23279122.920    96718919.199 7     -1022.145          44.250    23279123.200    96718918.205 7     -1022.145          45.562
G27  24277957.400   127581522.759 6      -426.673          39.937    24277955.580   127581522.769 6      -426.673          38.250    24277979.560    99414259.042 6      -332.472          38.562    24277979.860    99414266.040 7      -332.472          43.375
G32  25294602.940   132924035.999 7      1131.852          42.000    25294601.780   132924035.996 6      1131.852          37.125    25294615.240   103577218.931 6       881.962          37.000    25294616.320   103577228.937 7       881.962          42.312
R07  21569398.720   115462675.007 7       439.066          46.375    21569398.680   115462675.038 7       439.066          45.625    21569412.260    89804363.745 7       341.496          47.375    21569412.320    89804362.744 7       341.496          47.750
R23  20955428.840   112097406.791 7      3189.333          46.125    20955428.560   112097406.811 7      3189.333          45.250
G14  22532363.160   118408371.603 7      3886.477          44.500    22532361.940   118408371.616 5      3886.477          34.812    22532370.240    92266291.891 5      3028.423          34.750    22532371.120    92266296.899 8      3028.423          48.812
G04  24556535.840   129045468.727 7      5418.534          42.500    24556536.160   129045468.734 4      5418.534          29.000    24556555.900   100554963.937 4      4222.234          29.000    24556555.140   100554988.940 7      4222.234          44.750
G08  21503170.580   112999920.396 7       747.055          47.937    21503169.040   112999920.395 8       747.055          48.312    21503180.520    88051923.449 7       582.121          47.937    21503181.240    88051930.454 8       582.121          50.312
R22  21904742.020   116928994.446 7      1261.427          46.562    21904742.280   116928994.447 7      1261.427          46.437    21904753.880    90944823.422 7       981.110          47.125    21904753.920    90944825.418 7       981.110          47.437
R08  20205206.780   108197966.820 8      4024.792          48.875    20205208.720   108197966.862 7      4024.792          47.937    20205220.780    84154038.092 8      3130.393          49.937    20205220.620    84154036.097 8      3130.393          49.750
G03  20513064.200   107796881.309 8      4016.610          48.687    20513063.300   107796881.311 7      4016.610          42.312    20513072.980    83997609.356 6      3129.826          41.875    20513073.400    83997609.354 8      3129.826          52.375
G02  21715459.600   114115510.362 7      2027.350          47.562    21715457.780   114115510.367 6      2027.350          39.937    21715461.440    88921190.519 6      1579.753          40.187
G21  21953512.480   115366485.428 7      1195.742          47.500    21953510.660   115366485.436 6      1195.742          38.062    21953516.220    89895979.548 6       931.747          38.125
> 2024 05 09 15 16  7.0000000  0 16
G22  24475969.920   128622089.096 6      4824.555          41.875    24475968.480   128622089.100 4      4824.555          28.125    24475978.080   100225038.141 4      3759.393          27.937
R01  22711763.780   121407397.157 6      6800.289          41.125    22711762.540   121407397.167 6      6800.289          39.937    22711787.840    94428074.471 6      5289.113          40.437    22711786.460    94428072.461 6      5289.113          40.500
R14  23192000.760   123626414.306 7      3664.734          47.312    23191999.440   123626414.304 7      3664.734          45.875    23192014.900    96153936.923 7      2850.349          47.437    23192014.940    96153935.925 7      2850.349          47.000
R12  23279343.980   124354073.994 7     -1314.085          42.375    23279342.700   124354073.979 7     -1314.085          42.187    23279368.880    96719941.164 7     -1022.066          44.312    23279368.960    96719940.167 7     -1022.066          45.375
G27  24278038.220   127581949.423 6      -426.840          40.187    24278036.920   127581949.428 6      -426.840          38.187    24278060.980    99414591.493 6      -332.603          37.875    24278061.600    99414598.483 7      -332.603          43.375
G32  25294387.400   132922904.264 7      1131.368          42.312    25294386.360   132922904.264 6      1131.368          37.187    25294399.840   103576337.065 6       881.586          37.250    25294401.400   103576347.069 7       881.586          42.437
R07  21569316.400   115462236.234 7       438.145          46.562    21569316.660   115462236.270 7       438.145          45.625    21569330.160    89804022.479 7       340.780          47.437    21569330.120    89804021.484 7       340.780          47.312
R23  20954832.500   112094217.368 7      3189.237          46.187    20954832.160   112094217.393 7      3189.237          45.125
G14  22531623.580   118404485.221 7      3885.929          45.375    22531622.400   118404485.234 5      3885.929          35.500    22531630.680    92263263.541 5      3027.997          35.062    22531631.460    92263268.547 8      3027.997          48.125
G04  24555504.940   129040050.094 6      5418.597          41.625    24555505.060   129040050.096 4      5418.597          29.000    24555524.740   100550741.626 4      4222.283          29.000    24555523.340   100550766.625 7      4222.283          44.625
G08  21503028.200   112999173.382 8       746.691          48.312    21503026.920   112999173.384 8       746.691          48.562    21503038.340    88051341.361 7       581.837          47.812    21503039.220    88051348.363 8       581.837          50.375
R22  21904505.620   116927732.932 7      1261.346          46.687    21904505.720   116927732.938 7      1261.346          46.375    21904517.560    90943842.247 7       981.047          46.937    21904517.600    90943844.245 7       981.047          47.437
R08  20204455.000   108193942.280 8      4024.014          48.750    20204457.060   108193942.316 7      4024.014          47.500    20204469.240    84150907.898 8      3129.789          49.750    20204469.140    84150905.901 8      3129.789          50.062
G03  20512300.000   107792864.846 8      4016.097          49.687    20512299.020   107792864.848 7      4016.097          42.125    20512308.620    83994479.651 6      3129.426          41.937    20512308.900    83994479.649 8      3129.426          52.312
G02  21715073.580   114113482.825 8      2027.384          48.000    21715071.980   114113482.829 6      2027.384          40.125    21715075.640    88919610.619 6      1579.779          39.875
G21  21953284.860   115365289.485 8      1195.774          48.625    21953283.180   115365289.492 6      1195.774          38.187    21953288.780    89895047.644 6       931.772          38.562
> 2024 05 09 15 16  8.0000000  0 16
G22  24475051.900   128617264.576 7      4824.355          42.812    24475050.440   128617264.581 4      4824.355          28.125    24475059.860   100221278.778 4      3759.238          27.937
R01  22710491.060   121400596.998 6      6800.218          41.125    22710490.240   121400597.002 6      6800.218          39.937    22710515.640    94422785.470 6      5289.058          40.437    22710514.360    94422783.459 6      5289.058          40.625
R14  23191313.260   123622749.979 7      3663.939          46.562    23191311.940   123622749.982 7      3663.939          45.250    23191327.840    96151086.894 7      2849.731          47.125    23191327.620    96151085.892 7      2849.731          46.687
R12  23279589.960   124355388.066 7     -1314.081          42.375    23279588.500   124355388.064 7     -1314.081          42.187    23279615.060    96720963.228 7     -1022.063          44.312    23279614.800    96720962.232 7     -1022.063          45.625
G27  24278119.440   127582376.400 6      -427.108          40.750    24278118.200   127582376.402 6      -427.108          38.562    24278142.160    99414924.194 6      -332.812          38.250    24278142.620    99414931.192 7      -332.812          43.625
G32  25294172.320   132921773.147 6      1130.837          41.687    25294171.020   132921773.149 6      1130.837          37.062    25294184.520   103575455.681 6       881.172          36.937    25294185.780   103575465.675 7       881.172          42.437
R07  21569234.860   115461798.282 7       437.512          46.375    21569235.400   115461798.319 7       437.512          45.750    21569248.480    89803681.854 7       340.287          47.062    21569248.380    89803680.859 7       340.287          46.875
R23  20954236.160   112091028.100 7      3189.263          46.687    20954235.940   112091028.120 7      3189.263          45.125
G14  22530884.200   118400599.522 7      3885.387          45.375    22530882.900   118400599.534 5      3885.387          35.000    22530891.240    92260235.727 5      3027.574          35.062    22530892.100    92260240.729 8      3027.574          48.187
G04  24554473.720   129034631.427 7      5418.661          42.562    24554473.780   129034631.432 4      5418.661          29.125    24554493.700   100546519.292 4      4222.333          29.000    24554492.440   100546544.294 7      4222.333          44.687
G08  21502886.180   112998426.872 8       746.298          48.000    21502884.880   112998426.883 8       746.298          48.250    21502896.260    88050759.665 8       581.531          48.062    21502897.360    88050766.669 8       581.531          50.125
R22  21904269.300   116926471.656 7      1261.219          46.187    21904269.620   116926471.652 7      1261.219          46.375    21904281.180    90942861.248 7       980.948          47.250    21904281.240    90942863.246 7       980.948          47.250
R08  20203703.400   108189918.639 8      4023.247          48.687    20203705.440   108189918.684 7      4023.247          47.812    20203717.920    84147778.411 8      3129.192          49.937    20203717.760    84147776.416 8      3129.192          50.187
G03  20511535.560   107788849.090 8      4015.484          49.125    20511534.840   107788849.092 7      4015.484          42.375    20511544.560    83991350.494 6      3128.949          41.875    20511544.880    83991350.494 8      3128.949          52.625
G02  21714687.860   114111455.463 8      2027.360          48.625    21714686.340   114111455.468 6      2027.360          40.125    21714689.820    88918030.862 6      1579.761          39.562
G21  21953057.300   115364093.673 8      1195.788          48.750    21953055.640   115364093.683 6      1195.788          38.437    21953061.200    89894115.845 6       931.783          38.437
> 2024 05 09 15 16  9.0000000  0 16
G22  24474133.880   128612440.522 7      4823.798          43.375    24474132.400   128612440.527 4      4823.798          28.125    24474141.780   100217519.777 4      3758.804          27.937
R01  22709219.180   121393797.052 6      6799.800          41.062    22709217.540   121393797.064 6      6799.800          40.125    22709243.140    94417496.626 6      5288.733          40.562    22709242.060    94417494.618 6      5288.733          41.125
R14  23190625.760   123619086.459 7      3663.112          46.250    23190624.260   123619086.457 7      3663.112          45.500    23190640.540    96148237.480 7      2849.087          47.687    23190640.380    96148236.484 7      2849.087          47.187
R12  23279836.000   124356702.151 7     -1314.022          42.375    23279834.200   124356702.163 7     -1314.022          42.250    23279860.760    96721985.301 7     -1022.017          44.125    23279860.920    96721984.308 7     -1022.017          45.312
G27  24278200.740   127582803.663 6      -427.504          40.437    24278199.400   127582803.666 6      -427.504          38.375    24278223.440    99415257.120 6      -333.120          37.687    24278223.700    99415264.119 7      -333.120          43.375
G32  25293957.200   132920642.597 6      1130.115          41.687    25293956.020   132920642.594 6      1130.115          36.562    25293969.220   103574574.735 6       880.609          36.500    25293970.320   103574584.733 7       880.609          42.062
R07  21569153.320   115461361.163 7       436.613          46.625    21569153.460   115461361.200 7       436.613          45.250    21569166.960    89803341.875 7       339.588          47.500    21569166.740    89803340.870 7       339.588          46.500
R23  20953640.120   112087838.947 7      3189.131          46.562    20953639.660   112087838.954 7      3189.131          45.250
G14  22530144.760   118396714.487 7      3884.645          45.375    22530143.660   118396714.500 5      3884.645          35.000    22530152.060    92257208.423 5      3026.996          35.000    22530152.820    92257213.429 8      3026.996          48.125
G04  24553442.760   129029212.690 6      5418.677          41.687    24553442.560   129029212.700 4      5418.677          29.125    24553462.500   100542296.901 4      4222.345          29.000    24553461.620   100542321.899 7      4222.345          45.125
G08  21502744.200   112997680.828 8       745.784          48.000    21502742.920   112997680.836 8       745.784          48.375    21502754.240    88050178.328 8       581.130          48.500    21502755.440    88050185.328 8       581.130          49.937
R22  21904033.020   116925210.556 7      1260.970          46.500    21904033.540   116925210.546 7      1260.970          46.625    21904045.000    90941880.382 7       980.754          47.250    21904045.140    90941882.380 7       980.754          47.562
R08  20202952.380   108185895.914 8      4022.236          48.750    20202954.080   108185895.956 7      4022.236          47.625    20202966.800    84144649.631 8      3128.406          50.000    20202966.860    84144647.636 8      3128.406          49.875
G03  20510771.600   107784833.980 8      4014.753          48.750    20510770.800   107784833.980 7      4014.753          42.812    20510780.420    83988221.841 7      3128.379          42.250    20510780.880    83988221.839 8      3128.379          52.562
G02  21714302.040   114109428.234 8      2027.093          48.500    21714300.500   114109428.239 6      2027.093          39.500    21714304.020    88916451.204 6      1579.553          39.437
G21  21952829.540   115362897.944 7      1195.661          47.750    21952828.080   115362897.952 6      1195.661          38.062    21952833.600    89893184.108 6       931.684          38.375
> 2024 05 09 15 16 10.0000000  0 16
G22  24473216.140   128607616.838 7      4823.542          43.250    24473214.540   128607616.838 4      4823.542          27.437    24473223.700   100213761.064 4      3758.604          27.937
R01  22707947.540   121386997.240 6      6799.615          41.062    22707945.500   121386997.257 6      6799.615          40.125    22707971.240    94412207.889 6      5288.590          40.562    22707970.080    94412205.879 6      5288.590          41.125
R14  23189938.920   123615423.670 7      3662.470          46.437    23189937.500   123615423.670 7      3662.470          45.562    23189953.320    96145388.648 7      2848.587          47.250    23189953.540    96145387.652 7      2848.587          47.437
R12  23280082.100   124358016.239 7     -1314.064          42.187    23280080.680   124358016.229 7     -1314.064          42.250    23280106.660    96723007.358 7     -1022.050          44.375    23280106.780    96723006.360 7     -1022.050          45.250
G27  24278281.880   127583231.118 6      -427.627          41.125    24278280.740   127583231.126 6      -427.627          38.562    24278304.780    99415590.196 6      -333.216          38.062    24278304.940    99415597.202 7      -333.216          43.250
G32  25293742.080   132919512.491 7      1129.898          42.062    25293741.040   132919512.485 6      1129.898          36.875    25293754.100   103573694.135 6       880.440          37.000    25293755.060   103573704.133 6       880.440          41.875
R07  21569071.660   115460924.799 7       436.064          47.000    21569072.300   115460924.833 7       436.064          45.937    21569085.400    89803002.478 7       339.161          47.062    21569085.300    89803001.486 7       339.161          46.625
R23  20953044.000   112084649.826 7      3189.137          46.500    20953043.640   112084649.835 7      3189.137          45.250
G14  22529405.500   118392830.020 7      3884.181          45.625    22529404.500   118392830.033 5      3884.181          35.437    22529412.820    92254181.568 5      3026.634          35.000    22529413.460    92254186.576 7      3026.634          47.812
G04  24552411.420   129023793.792 6      5419.100          40.625    24552411.300   129023793.802 4      5419.100          29.125    24552431.280   100538074.388 4      4222.676          29.000    24552430.500   100538099.389 7      4222.676          45.187
G08  21502602.280   112996935.191 7       745.434          47.937    21502601.080   112996935.193 8       745.434          48.562    21502612.420    88049597.304 7       580.857          47.937    21502613.420    88049604.304 8       580.857          50.062
R22  21903796.580   116923949.523 7      1261.027          47.187    21903797.280   116923949.527 7      1261.027          46.750    21903808.780    90940899.583 7       980.799          47.312    21903808.680    90940901.581 7       980.799          47.625
R08  20202200.860   108181873.998 8      4021.565          48.375    20202203.440   108181874.043 7      4021.565          47.687    20202215.640    84141521.482 8      3127.884          50.250    20202215.740    84141519.483 8      3127.884          50.062
G03  20510007.620   107780819.445 8      4014.290          49.062    20510006.920   107780819.445 7      4014.290          42.937    20510016.620    83985093.637 7      3128.018          42.187    20510016.860    83985093.637 8      3128.018          52.125
G02  21713916.460   114107401.043 8      2027.207          48.250    21713914.660   114107401.048 6      2027.207          39.562    21713918.320    88914871.573 6      1579.642          39.812
G21  21952601.960   115361702.227 7      1195.815          47.562    21952600.520   115361702.237 6      1195.815          38.687    21952605.980    89892252.382 6       931.804          38.750
