     3.05           OBSERVATION DATA    MIXED               RINEX VERSION / TYPE
TPS2RIN 1.0.29.3920 TPS-USER            20240511 184524 UTC PGM / RUN BY / DATE
Win64 build Feb 23, 2024 (c) Topcon Positioning Systems     COMMENT
SRC: 20240506_GUI05.tps                                     COMMENT
OPT: -S -v 3.05                                             COMMENT
Observer            Agency                                  OBSERVER / AGENCY
O0M3X53SBGM         TPS HIPER_SR        4.8 HSR Jul,08,2022 REC # / TYPE / VERS
FW: 4.8 HSR Jul,08,2022 p3                                  COMMENT
SN: HiPer SR 1212-12575                                     COMMENT
000                 TPSHIPER_SR     NONE                    ANT # / TYPE
        1.8000        0.0000        0.0000                  ANTENNA: DELTA H/E/N
DELTA H stands for **SLANT** height here!                   COMMENT
GUI05                                                       MARKER NAME
  5389049.3025 -1591389.9789  3010353.2461                  APPROX POSITION XYZ
  2024     5     6    16     6   46.0000000     GPS         TIME OF FIRST OBS
  2024     5     6    16    22   37.0000000     GPS         TIME OF LAST OBS
     1.000                                                  INTERVAL
   952 EPOCHS                                               COMMENT
G   16 C1C L1C D1C S1C C1W L1W D1W S1W C2W L2W D2W S2W C2X  SYS / # / OBS TYPES
       L2X D2X S2X                                          SYS / # / OBS TYPES
R   16 C1C L1C D1C S1C C1P L1P D1P S1P C2P L2P D2P S2P C2C  SYS / # / OBS TYPES
       L2C D2C S2C                                          SYS / # / OBS TYPES
    15                                                      # OF SATELLITES
   G02   952   952   952   952   952   952   952   952   952PRN / # OF OBS
         952   952   952     0     0     0     0            PRN / # OF OBS
   G03   952   952   952   952   952   952   952   952   952PRN / # OF OBS
         952   952   952   952   952   952   952            PRN / # OF OBS
   G04   952   952   952   952   952   952   952   952   952PRN / # OF OBS
         952   952   952   952   952   952   952            PRN / # OF OBS
   G08   952   952   952   952   952   952   952   952   952PRN / # OF OBS
         952   952   952   952   952   952   952            PRN / # OF OBS
   G09   484   484   484   484   484   484   484   484   484PRN / # OF OBS
         484   484   484   484   484   484   484            PRN / # OF OBS
   G14   952   952   952   952   952   952   952   952   952PRN / # OF OBS
         952   952   952   952   952   952   952            PRN / # OF OBS
   G17   952   952   952   952   952   952   952   952   952PRN / # OF OBS
         952   952   952   952   952   952   952            PRN / # OF OBS
   G21   952   952   952   952   952   952   952   952   952PRN / # OF OBS
         952   952   952     0     0     0     0            PRN / # OF OBS
   G22   952   952   952   952   952   952   952   952   952PRN / # OF OBS
         952   952   952     0     0     0     0            PRN / # OF OBS
   G27    48    48    48    48    48    48    48    48    48PRN / # OF OBS
          48    48    48    48    48    48    48            PRN / # OF OBS
   R04   900   900   900   900   895   895   895   895   895PRN / # OF OBS
         895   895   895   894   894   894   894            PRN / # OF OBS
   R05   952   952   952   952   952   952   952   952   952PRN / # OF OBS
         952   952   952   952   952   952   952            PRN / # OF OBS
   R11   917   917   917   917   917   917   917   917   917PRN / # OF OBS
         917   917   917   917   917   917   917            PRN / # OF OBS
   R20   952   952   952   952   952   952   952   952   952PRN / # OF OBS
         952   952   952   952   952   952   952            PRN / # OF OBS
   R21   766   766   766   766   760   760   760   760   760PRN / # OF OBS
         760   760   760   759   759   759   759            PRN / # OF OBS
G L1C                                                       SYS / PHASE SHIFT
G L1W -0.25000                                              SYS / PHASE SHIFT
G L2W  0.00000                                              SYS / PHASE SHIFT
G L2X  0.25000                                              SYS / PHASE SHIFT
R L1C                                                       SYS / PHASE SHIFT
R L1P -0.25000                                              SYS / PHASE SHIFT
R L2P -0.25000                                              SYS / PHASE SHIFT
R L2C                                                       SYS / PHASE SHIFT
  5 R04  6 R05  1 R11  0 R20  2 R21  4                      GLONASS SLOT / FRQ #
                                                            GLONASS COD/PHS/BIS
    18    18  1929     7GPS                                 LEAP SECONDS
                                                            END OF HEADER
> 2024 05 06 16 06 46.0000000  0 13
G02  21741193.120   114250729.358 7      2014.565          47.812    21741191.340   114250729.363 6      2014.565          39.062    21741193.820    89026544.683 6      1569.791          38.937
G03  19945853.520   104816175.563 8      2753.994          48.812    19945852.620   104816175.565 8      2753.994          48.312    19945859.180    81674973.075 8      2145.969          48.687    19945859.500    81674977.073 8      2145.969          50.187
G14  22025702.880   115745834.132 7      2574.797          45.937    22025701.880   115745834.144 5      2574.797          35.500    22025708.340    90191579.603 5      2006.335          35.187    22025708.840    90191582.609 8      2006.335          48.000
R05  19815020.420   105922649.178 8      1885.436          49.125    19815019.620   105922649.174 8      1885.436          48.812    19815029.560    82384328.950 8      1466.451          48.187    19815029.200    82384326.952 8      1466.451          48.250
G08  22262493.200   116990134.047 7       -11.189          45.500    22262491.960   116990134.047 7       -11.189          43.500    22262503.960    91161166.746 7        -8.719          43.062    22262505.800    91161172.755 7        -8.719          45.625
G21  22324328.620   117315117.890 7      1275.591          46.625    22324327.180   117315117.897 6      1275.591          36.437    22324331.340    91414387.883 6       993.967          36.625
R04  22974217.700   123025873.341 7     -1091.056          42.250    22974217.620   123025873.377 6     -1091.056          41.625    22974229.560    95686854.150 7      -848.599          46.062    22974229.460    95686851.158 7      -848.599          46.687
G17  23161904.820   121716643.399 7      5410.599          43.437    23161904.320   121716643.398 5      5410.599          34.375    23161909.620    94844148.648 5      4216.052          34.062    23161910.140    94844152.653 7      4216.052          45.625
G04  23048115.080   121118687.359 7      5571.147          43.875    23048114.380   121118687.369 5      5571.147          31.562    23048131.620    94378253.519 5      4341.154          31.250    23048133.200    94378277.539 7      4341.154          44.937
R11  22719195.240   121404461.280 7      1725.795          45.562    22719194.980   121404461.279 7      1725.795          44.437    22719207.080    94425755.544 7      1342.285          43.562    22719206.860    94425755.537 7      1342.285          43.750
G22  23459024.080   123278007.083 6      3902.072          39.125    23459022.200   123278007.090 4      3902.072          28.875    23459029.460    96060808.899 4      3040.576          28.750
R20  20578722.840   110043676.429 6      2967.113          37.312    20578723.700   110043676.457 6      2967.113          37.625    20578734.440    85589575.848 7      2307.754          43.562    20578735.080    85589579.852 7      2307.754          43.625
G27  25456558.120   133775132.353 5      -705.444          34.562    25456556.980   133775132.358 5      -705.444          30.437    25456584.120   104240338.956 5      -549.697          30.500    25456583.880   104240468.955 6      -549.697          40.187
> 2024 05 06 16 06 47.0000000  0 13
G02  21740809.660   114248714.725 7      2014.542          47.875    21740808.100   114248714.730 6      2014.542          39.562    21740810.220    89024974.839 6      1569.773          39.375
G03  19945329.340   104813421.688 8      2753.540          48.625    19945328.600   104813421.692 8      2753.540          49.625    19945335.200    81672827.202 8      2145.616          50.187    19945335.560    81672831.201 8      2145.616          50.937
G14  22025213.000   115743259.437 7      2574.226          45.750    22025211.800   115743259.453 5      2574.226          35.437    22025218.320    90189573.346 5      2005.890          35.312    22025218.700    90189576.352 8      2005.890          49.312
R05  19814667.700   105920763.979 8      1884.643          48.687    19814666.940   105920763.975 8      1884.643          48.562    19814676.860    82382862.684 8      1465.833          50.437    19814676.580    82382860.684 8      1465.833          50.312
G08  22262495.080   116990145.332 7       -11.566          45.375    22262494.100   116990145.329 7       -11.566          44.000    22262506.040    91161175.531 7        -9.012          44.000    22262507.980    91161181.538 7        -9.012          47.312
G21  22324085.720   117313842.193 7      1275.648          46.937    22324084.400   117313842.198 6      1275.648          37.062    22324088.500    91413393.830 6       994.011          37.000
R04  22974420.940   123026964.445 7     -1091.398          42.500    22974421.740   123026964.479 6     -1091.398          41.625    22974433.280    95687702.782 7      -848.865          46.625    22974433.140    95687699.779 7      -848.865          47.750
G17  23160875.180   121711232.714 7      5410.603          43.937    23160874.760   121711232.714 5      5410.603          34.375    23160879.900    94839932.539 5      4216.054          34.000    23160880.380    94839936.542 7      4216.054          46.250
G04  23047054.720   121113116.157 7      5571.071          43.750    23047054.300   121113116.161 5      5571.071          31.562    23047071.460    94373912.341 5      4341.094          31.562    23047073.020    94373936.361 7      4341.094          46.000
R11  22718871.880   121402735.742 7      1725.100          44.625    22718872.440   121402735.735 7      1725.100          44.312    22718884.160    94424413.453 7      1341.744          43.750    22718883.600    94424413.449 7      1341.744          44.187
G22  23458281.420   123274105.261 6      3901.453          39.312    23458279.560   123274105.271 4      3901.453          29.062    23458286.920    96057768.516 4      3040.093          28.750
R20  20578168.160   110040709.255 6      2967.096          37.312    20578168.660   110040709.289 6      2967.096          37.625    20578179.380    85587268.050 7      2307.741          43.812    20578180.400    85587272.052 7      2307.741          43.875
G27  25456692.780   133775837.752 5      -705.819          34.562    25456691.140   133775837.767 5      -705.819          30.437    25456718.420   104240888.630 5      -549.989          30.000    25456718.300   104241018.625 6      -549.989          39.875
> 2024 05 06 16 06 48.0000000  0 13
G02  21740426.120   114246700.002 7      2014.652          47.250    21740424.640   114246700.007 6      2014.652          39.250    21740426.880    89023404.925 6      1569.858          38.937
G03  19944805.300   104810668.267 7      2753.104          47.875    19944804.680   104810668.272 8      2753.104          49.000    19944811.220    81670681.680 8      2145.276          49.375    19944811.680    81670685.674 8      2145.276          51.062
G14  22024723.080   115740685.206 7      2573.919          45.062    22024721.900   115740685.221 5      2573.919          35.500    22024728.500    90187567.449 5      2005.651          35.000    22024728.920    90187570.461 8      2005.651          49.125
R05  19814315.220   105918879.549 8      1883.926          49.062    19814314.560   105918879.553 8      1883.926          48.687    19814324.480    82381397.020 8      1465.276          49.812    19814324.100    82381395.023 8      1465.276          50.125
G08  22262497.480   116990156.822 7       -11.742          44.500    22262496.120   116990156.822 7       -11.742          43.750    22262508.240    91161184.472 7        -9.150          43.750    22262510.280    91161190.478 7        -9.150          47.187
G21  22323843.120   117312566.357 7      1275.834          46.437    22323841.520   117312566.362 6      1275.834          36.125    22323845.740    91412399.672 6       994.157          36.125
R04  22974625.000   123028055.809 7     -1091.588          42.500    22974625.620   123028055.848 7     -1091.588          42.000    22974637.100    95688551.625 7      -849.013          46.250    22974637.040    95688548.624 7      -849.013          47.000
G17  23159845.800   121705821.956 7      5410.644          42.750    23159845.020   121705821.956 5      5410.644          34.375    23159850.080    94835716.370 5      4216.087          34.125    23159851.060    94835720.375 7      4216.087          46.250
G04  23045994.200   121107544.899 7      5571.210          43.437    23045993.940   121107544.904 5      5571.210          31.437    23046011.280    94369571.124 5      4341.203          31.562    23046012.760    94369595.141 7      4341.203          46.062
R11  22718549.200   121401010.756 7      1724.610          45.625    22718550.180   121401010.749 7      1724.610          44.250    22718561.320    94423071.787 7      1341.363          43.812    22718561.100    94423071.784 7      1341.363          44.000
G22  23457539.040   123270203.775 6      3901.113          39.062    23457537.200   123270203.785 4      3901.113          29.062    23457544.620    96054728.402 4      3039.829          28.750
R20  20577612.600   110037742.095 6      2967.057          37.625    20577614.020   110037742.128 6      2967.057          37.625    20577624.640    85584960.255 7      2307.711          43.750    20577625.620    85584964.252 7      2307.711          44.062
G27  25456827.040   133776543.088 5      -705.471          34.562    25456825.340   133776543.103 5      -705.471          30.437    25456852.600   104241438.255 5      -549.718          30.000    25456852.820   104241568.254 6      -549.718          39.875
> 2024 05 06 16 06 49.0000000  0 13
G02  21740042.800   114244685.300 7      2014.527          47.750    21740041.220   114244685.310 6      2014.527          39.625    21740043.600    89021835.029 6      1569.761          39.375
G03  19944281.740   104807915.385 8      2752.456          49.000    19944280.860   104807915.390 8      2752.456          50.562    19944287.320    81668536.577 8      2144.771          50.375    19944287.920    81668540.576 8      2144.771          51.875
G14  22024233.280   115738111.568 7      2573.223          45.250    22024232.100   115738111.581 5      2573.223          35.312    22024238.760    90185562.015 5      2005.109          35.250    22024239.320    90185565.017 8      2005.109          49.562
R05  19813962.780   105916996.015 8      1882.947          48.437    19813962.140   105916996.011 8      1882.947          48.687    19813972.040    82379932.045 8      1464.515          50.437    19813971.940    82379930.048 8      1464.515          50.375
G08  22262499.700   116990168.609 7       -12.159          45.187    22262498.500   116990168.609 7       -12.159          44.125    22262510.360    91161193.649 7        -9.475          44.187    22262512.340    91161199.652 7        -9.475          47.000
G21  22323600.440   117311290.511 7      1275.719          46.937    22323598.820   117311290.521 6      1275.719          36.625    22323603.140    91411405.504 6       994.066          36.687
R04  22974828.900   123029147.598 7     -1092.115          42.437    22974829.560   123029147.637 7     -1092.115          42.000    22974840.840    95689400.793 7      -849.423          46.312    22974840.880    95689397.790 7      -849.423          47.437
G17  23158816.200   121700411.222 7      5410.560          43.875    23158815.300   121700411.227 5      5410.560          34.375    23158820.380    94831500.220 5      4216.021          34.125    23158821.160    94831504.216 7      4216.021          46.625
G04  23044934.120   121101973.737 7      5570.944          43.937    23044933.960   121101973.742 5      5570.944          31.437    23044950.820    94365229.979 5      4340.995          31.562    23044952.680    94365253.991 7      4340.995          45.937
R11  22718226.500   121399286.375 7      1723.923          45.187    22718227.020   121399286.376 7      1723.923          44.937    22718238.300    94421730.601 7      1340.829          44.312    22718238.420    94421730.598 7      1340.829          44.375
G22  23456796.560   123266302.734 6      3900.756          39.062    23456794.940   123266302.747 4      3900.756          29.062    23456802.240    96051688.632 4      3039.550          28.750
R20  20577058.180   110034775.057 6      2966.792          37.625    20577059.240   110034775.093 6      2966.792          37.625    20577069.960    85582652.559 7      2307.505          44.125    20577070.640    85582656.548 7      2307.505          44.000
G27  25456961.480   133777248.479 5      -705.206          33.875    25456959.620   133777248.484 4      -705.206          29.937    25456986.820   104241987.911 5      -549.511          30.000    25456986.200   104242117.904 6      -549.511          39.875
> 2024 05 06 16 06 50.0000000  0 13
G02  21739659.420   114242670.667 7      2014.584          47.375    21739657.720   114242670.672 6      2014.584          39.875    21739660.280    89020265.183 6      1569.806          39.562
G03  19943758.040   104805163.095 8      2751.962          48.875    19943757.080   104805163.102 8      2751.962          50.437    19943763.560    81666391.939 8      2144.386          50.812    19943764.320    81666395.936 8      2144.386          51.687
G14  22023743.860   115735538.571 7      2572.619          45.437    22023742.340   115735538.576 5      2572.619          35.312    22023749.300    90183557.070 5      2004.638          34.812    22023749.760    90183560.074 8      2004.638          50.062
R05  19813610.340   105915113.387 8      1882.152          49.187    19813610.140   105915113.383 8      1882.152          48.500    19813619.900    82378467.779 8      1463.896          51.062    19813619.740    82378465.776 8      1463.896          51.125
G08  22262502.060   116990180.730 7       -12.285          44.875    22262500.800   116990180.732 7       -12.285          43.937    22262512.720    91161203.087 7        -9.572          44.000    22262514.840    91161209.095 7        -9.572          47.500
G21  22323357.600   117310014.704 7      1275.725          46.500    22323356.080   117310014.716 6      1275.725          36.750    22323360.400    91410411.370 6       994.071          36.812
R04  22975032.720   123030239.840 7     -1092.467          43.500    22975033.960   123030239.885 7     -1092.467          42.187    22975044.840    95690250.318 7      -849.696          47.250    22975044.780    95690247.313 8      -849.696          48.000
G17  23157786.460   121695000.582 7      5410.502          43.687    23157785.740   121695000.587 5      5410.502          34.687    23157790.820    94827284.139 5      4215.976          34.437    23157791.480    94827288.136 7      4215.976          46.812
G04  23043874.320   121096402.663 7      5570.992          43.625    23043873.980   121096402.668 5      5570.992          31.437    23043890.780    94360888.901 5      4341.032          31.375    23043892.680    94360912.920 7      4341.032          46.375
R11  22717904.020   121397562.717 7      1723.313          45.125    22717903.880   121397562.729 7      1723.313          44.562    22717915.860    94420389.993 7      1340.355          44.125    22717915.820    94420389.998 7      1340.355          44.187
G22  23456054.480   123262402.263 6      3900.342          39.750    23456052.740   123262402.275 4      3900.342          29.062    23456059.880    96048649.301 4      3039.227          28.750
R20  20576503.080   110031808.190 6      2966.749          37.625    20576504.840   110031808.205 6      2966.749          37.562    20576514.900    85580344.979 7      2307.471          44.750    20576515.800    85580348.964 7      2307.471          43.687
G27  25457095.480   133777954.086 5      -705.485          33.875    25457093.900   133777954.083 4      -705.485          29.937    25457121.020   104242537.738 5      -549.729          30.000    25457120.740   104242667.731 6      -549.729          39.875
> 2024 05 06 16 06 51.0000000  0 13
G02  21739276.020   114240656.075 7      2014.572          47.875    21739274.460   114240656.080 6      2014.572          39.437    21739276.900    89018695.374 6      1569.796          39.562
G03  19943234.380   104802411.382 8      2751.390          49.375    19943233.480   104802411.387 8      2751.390          50.875    19943239.940    81664247.747 8      2143.940          51.000    19943240.720    81664251.746 8      2143.940          52.062
G14  22023254.240   115732966.158 7      2572.012          45.000    22023252.940   115732966.165 5      2572.012          35.125    22023259.720    90181552.592 5      2004.165          35.062    22023260.420    90181555.602 8      2004.165          49.812
R05  19813258.560   105913231.636 8      1881.309          48.937    19813257.960   105913231.634 8      1881.309          48.937    19813267.920    82377004.201 8      1463.240          51.250    19813267.920    82377002.197 8      1463.240          51.500
G08  22262504.340   116990193.229 7       -12.740          44.937    22262503.100   116990193.232 7       -12.740          44.500    22262515.200    91161212.817 7        -9.927          44.125    22262516.960    91161218.818 7        -9.927          47.750
G21  22323114.760   117308738.889 7      1275.831          46.875    22323113.260   117308738.896 6      1275.831          36.375    22323117.480    91409417.223 6       994.154          36.562
R04  22975236.360   123031332.465 7     -1092.762          43.500    22975237.780   123031332.515 7     -1092.762          42.187    22975248.640    95691100.144 7      -849.926          47.000    22975248.800    95691097.141 7      -849.926          47.875
G17  23156756.600   121689589.977 7      5410.605          43.812    23156756.140   121689589.976 5      5410.605          34.812    23156761.280    94823068.083 5      4216.056          34.500    23156761.920    94823072.079 7      4216.056          46.437
G04  23042814.000   121090831.693 7      5570.911          42.875    23042813.900   121090831.698 5      5570.911          31.375    23042830.780    94356547.908 5      4340.970          31.375    23042832.520    94356571.930 7      4340.970          46.375
R11  22717581.620   121395839.803 7      1722.590          44.937    22717580.860   121395839.798 7      1722.590          44.125    22717593.240    94419049.930 7      1339.792          44.187    22717593.440    94419049.928 7      1339.792          44.125
G22  23455312.100   123258502.288 6      3899.570          39.625    23455310.740   123258502.303 4      3899.570          29.062    23455317.780    96045610.358 4      3038.626          28.875
R20  20575948.020   110028841.439 6      2966.762          37.625    20575949.420   110028841.438 6      2966.762          37.562    20575960.320    85578037.495 7      2307.481          44.312    20575961.180    85578041.484 7      2307.481          44.625
G27  25457229.240   133778659.806 5      -706.029          33.875    25457228.060   133778659.800 4      -706.029          29.937    25457255.480   104243087.656 4      -550.152          29.687    25457255.700   104243217.675 6      -550.152          39.875
> 2024 05 06 16 06 52.0000000  0 13
G02  21738892.640   114238641.613 7      2014.323          47.000    21738891.080   114238641.615 6      2014.323          39.437    21738893.560    89017125.658 6      1569.603          39.187
G03  19942710.800   104799660.284 8      2750.791          49.437    19942709.960   104799660.292 8      2750.791          50.187    19942716.420    81662104.041 8      2143.474          50.750    19942717.100    81662108.038 8      2143.474          51.812
G14  22022765.100   115730394.406 7      2571.388          45.250    22022763.760   115730394.417 5      2571.388          35.750    22022770.300    90179548.628 5      2003.679          35.062    22022770.960    90179551.634 8      2003.679          49.625
R05  19812906.960   105911350.831 8      1880.318          49.562    19812906.240   105911350.824 8      1880.318          49.312    19812916.160    82375541.350 8      1462.469          51.562    19812915.800    82375539.351 8      1462.469          51.687
G08  22262506.760   116990206.075 7       -13.009          44.500    22262505.660   116990206.078 7       -13.009          44.187    22262517.580    91161222.820 7       -10.137          43.875    22262519.280    91161228.822 7       -10.137          47.375
G21  22322871.980   117307463.142 7      1275.709          46.062    22322870.420   117307463.152 6      1275.709          36.437    22322874.740    91408423.137 6       994.059          36.437
R04  22975440.480   123032425.583 7     -1093.468          44.062    22975442.400   123032425.627 7     -1093.468          42.687    22975452.860    95691950.342 7      -850.475          46.812    22975453.020    95691947.340 7      -850.475          47.375
G17  23155727.200   121684179.500 7      5410.389          44.187    23155726.580   121684179.494 5      5410.389          34.812    23155731.720    94818852.129 5      4215.888          34.500    23155732.140    94818856.127 7      4215.888          46.812
G04  23041753.700   121085260.872 7      5570.794          42.687    23041753.580   121085260.876 5      5570.794          31.375    23041770.880    94352207.022 5      4340.878          31.375    23041772.480    94352231.047 7      4340.878          46.500
R11  22717258.940   121394117.612 7      1721.872          44.937    22717258.640   121394117.610 7      1721.872          43.875    22717270.980    94417710.444 7      1339.234          44.062    22717270.960    94417710.447 7      1339.234          44.000
G22  23454570.500   123254602.852 6      3899.240          39.250    23454568.640   123254602.862 4      3899.240          29.062    23454575.900    96042571.832 4      3038.369          28.875
R20  20575393.540   110025874.917 6      2966.569          37.625    20575394.680   110025874.895 6      2966.569          37.562    20575405.400    85575730.184 7      2307.331          44.312    20575406.620    85575734.181 7      2307.331          44.625
G27  25457363.100   133779365.573 5      -705.873          34.375    25457362.460   133779365.570 4      -705.873          29.937    25457389.620   104243637.617 4      -550.031          29.687    25457389.700   104243767.638 6      -550.031          39.875
> 2024 05 06 16 06 53.0000000  0 13
G02  21738509.360   114236627.121 7      2014.463          46.625    21738507.800   114236627.131 6      2014.463          39.687    21738510.380    89015555.927 6      1569.711          39.812
G03  19942187.440   104796909.712 8      2750.430          49.562    19942186.580   104796909.717 8      2750.430          50.562    19942193.020    81659960.738 8      2143.192          50.937    19942193.580    81659964.734 8      2143.192          51.437
G14  22022275.720   115727823.231 7      2570.838          45.375    22022274.460   115727823.241 5      2570.838          35.375    22022281.100    90177545.116 5      2003.251          35.250    22022281.820    90177548.110 8      2003.251          49.500
R05  19812555.200   105909470.868 8      1879.533          49.437    19812554.760   105909470.866 8      1879.533          49.187    19812564.440    82374079.163 8      1461.859          51.375    19812564.200    82374077.162 8      1461.859          50.375
G08  22262509.420   116990219.231 7       -13.325          44.937    22262508.080   116990219.239 7       -13.325          44.375    22262520.040    91161233.068 7       -10.383          43.937    22262522.100    91161239.071 7       -10.383          47.437
G21  22322629.180   117306187.372 7      1275.745          45.687    22322627.540   117306187.382 6      1275.745          36.625    22322631.880    91407429.030 6       994.087          36.687
R04  22975644.940   123033519.011 7     -1093.590          44.000    22975646.400   123033519.061 7     -1093.590          42.687    22975657.240    95692800.793 7      -850.570          47.000    22975656.980    95692797.788 7      -850.570          47.375
G17  23154697.940   121678769.031 7      5410.389          43.312    23154696.960   121678769.031 5      5410.389          35.250    23154702.020    94814636.181 5      4215.887          34.937    23154702.680    94814640.184 7      4215.887          46.750
G04  23040693.700   121079690.119 7      5570.775          43.250    23040693.580   121079690.126 5      5570.775          31.375    23040710.720    94347866.201 5      4340.863          31.687    23040712.320    94347890.217 7      4340.863          46.187
R11  22716936.840   121392396.076 7      1721.171          45.562    22716937.100   121392396.069 7      1721.171          44.312    22716949.220    94416371.472 7      1338.689          43.937    22716948.780    94416371.470 7      1338.689          44.562
G22  23453828.380   123250703.868 6      3898.759          39.437    23453826.640   123250703.881 4      3898.759          29.062    23453833.880    96039533.663 4      3037.994          28.875
R20  20574839.600   110022908.465 6      2966.369          38.062    20574839.700   110022908.453 6      2966.369          37.562    20574850.760    85573422.954 7      2307.176          44.437    20574851.920    85573426.953 7      2307.176          44.312
G27  25457498.000   133780071.435 5      -705.626          34.375    25457496.980   133780071.429 4      -705.626          29.875    25457523.800   104244187.647 4      -549.838          29.687    25457523.820   104244317.664 6      -549.838          39.875
> 2024 05 06 16 06 54.0000000  0 13
G02  21738126.020   114234612.774 7      2014.307          47.000    21738124.520   114234612.782 6      2014.307          39.500    21738127.000    89013986.304 6      1569.590          39.875
G03  19941664.180   104794159.818 8      2749.548          48.750    19941663.300   104794159.822 8      2749.548          50.625    19941669.740    81657817.963 8      2142.505          51.125    19941670.460    81657821.958 8      2142.505          51.687
G14  22021786.500   115725252.709 7      2570.201          45.000    22021785.100   115725252.716 5      2570.201          35.312    22021791.980    90175542.106 5      2002.754          35.250    22021792.640    90175545.106 8      2002.754          49.750
R05  19812203.840   105907591.899 8      1878.504          49.625    19812203.280   105907591.900 8      1878.504          49.000    19812212.960    82372617.743 8      1461.058          51.500    19812212.900    82372615.741 8      1461.058          51.375
G08  22262512.000   116990232.794 7       -13.860          44.437    22262510.760   116990232.799 7       -13.860          44.562    22262522.660    91161243.624 7       -10.800          44.375    22262524.260    91161249.629 7       -10.800          47.375
G21  22322386.280   117304911.678 7      1275.642          46.562    22322384.840   117304911.686 6      1275.642          36.812    22322389.140    91406434.972 6       994.007          36.937
R04  22975849.360   123034612.959 7     -1094.174          44.000    22975850.780   123034613.014 7     -1094.174          42.687    22975861.160    95693651.643 7      -851.024          46.625    22975861.000    95693648.636 7      -851.024          47.500
G17  23153668.280   121673358.662 7      5410.360          43.250    23153667.380   121673358.662 5      5410.360          34.937    23153672.580    94810420.313 5      4215.865          34.937    23153672.960    94810424.318 7      4215.865          46.687
G04  23039633.560   121074119.521 7      5570.518          43.562    23039633.480   121074119.526 5      5570.518          31.687    23039650.700    94343525.494 5      4340.664          31.687    23039652.260    94343549.512 7      4340.664          46.312
R11  22716615.040   121390675.296 7      1720.363          45.187    22716615.480   121390675.289 7      1720.363          44.375    22716627.200    94415033.069 7      1338.060          44.687    22716626.760    94415033.075 7      1338.060          44.125
G22  23453086.240   123246805.438 6      3898.125          38.687    23453084.700   123246805.451 4      3898.125          29.062    23453092.020    96036495.927 4      3037.500          28.875
R20  20574283.880   110019942.248 6      2966.043          38.062    20574286.120   110019942.236 6      2966.043          37.437    20574295.860    85571115.886 7      2306.922          44.562    20574297.420    85571119.892 7      2306.922          44.375
G27  25457631.940   133780777.491 5      -705.793          34.375    25457631.300   133780777.482 4      -705.793          29.875    25457658.260   104244737.824 4      -549.968          29.687    25457658.380   104244867.844 6      -549.968          39.937
> 2024 05 06 16 06 55.0000000  0 13
G02  21737742.660   114232598.340 7      2014.412          46.312    21737741.100   114232598.348 6      2014.412          39.750    21737743.540    89012416.613 6      1569.671          39.500
G03  19941141.080   104791410.333 8      2749.154          48.312    19941140.060   104791410.338 8      2749.154          49.937    19941146.500    81655675.512 8      2142.198          50.500    19941147.200    81655679.508 8      2142.198          51.562
G14  22021297.320   115722682.673 7      2569.609          45.125    22021295.980   115722682.689 5      2569.609          35.250    22021302.980    90173539.483 5      2002.293          35.062    22021303.400    90173542.487 8      2002.293          50.250
R05  19811852.360   105905713.721 8      1877.640          48.250    19811851.820   105905713.717 7      1877.640          47.875    19811861.580    82371156.936 8      1460.386          51.187    19811861.860    82371154.936 8      1460.386          50.875
G08  22262514.660   116990246.557 7       -14.111          45.062    22262513.280   116990246.565 7       -14.111          44.437    22262525.200    91161254.344 7       -10.996          44.187    22262527.280    91161260.342 7       -10.996          47.312
G21  22322143.480   117303635.845 7      1275.812          47.125    22322142.120   117303635.850 6      1275.812          36.750    22322146.320    91405440.817 6       994.139          36.750
R04  22976053.420   123035707.174 7     -1094.454          43.375    22976054.920   123035707.227 7     -1094.454          42.500    22976065.880    95694502.699 7      -851.242          46.437    22976065.420    95694499.699 7      -851.242          47.187
G17  23152638.620   121667948.259 7      5410.270          43.500    23152637.940   121667948.261 5      5410.270          34.937    23152642.960    94806204.416 5      4215.795          34.687    23152643.600    94806208.421 7      4215.795          46.500
G04  23038573.540   121068548.894 7      5570.528          43.312    23038573.400   121068548.905 5      5570.528          31.687    23038590.400    94339184.770 5      4340.671          31.687    23038592.140    94339208.795 7      4340.671          45.750
R11  22716292.560   121388955.040 7      1719.844          45.500    22716293.420   121388955.035 7      1719.844          44.312    22716305.600    94413695.085 7      1337.656          45.062    22716304.460    94413695.084 7      1337.656          45.000
G22  23452344.700   123242907.371 6      3897.909          38.687    23452342.720   123242907.387 4      3897.909          29.062    23452350.360    96033458.475 4      3037.331          28.250
R20  20573729.880   110016976.018 6      2965.983          38.062    20573730.820   110016976.006 6      2965.983          37.437    20573741.440    85568808.818 7      2306.875          44.312    20573742.420    85568812.815 7      2306.875          43.937
G27  25457765.720   133781483.602 5      -706.410          34.125    25457765.420   133781483.599 4      -706.410          29.875    25457792.520   104245288.055 4      -550.449          29.750    25457792.020   104245418.081 6      -550.449          39.937
> 2024 05 06 16 06 56.0000000  0 13
G02  21737359.280   114230583.873 7      2014.607          46.875    21737357.780   114230583.877 6      2014.607          39.562    21737360.200    89010846.898 6      1569.824          39.312
G03  19940617.780   104788661.329 8      2748.965          48.750    19940617.060   104788661.337 8      2748.965          50.437    19940623.400    81653533.435 8      2142.050          50.625    19940624.060    81653537.436 8      2142.050          51.250
G14  22020808.400   115720113.148 7      2569.462          45.062    22020806.980   115720113.163 5      2569.462          35.062    22020814.020    90171537.251 5      2002.178          34.875    22020814.660    90171540.249 8      2002.178          49.562
R05  19811501.240   105903836.305 8      1877.201          50.187    19811500.620   105903836.301 8      1877.201          49.312    19811510.380    82369696.725 8      1460.045          50.562    19811510.080    82369694.724 8      1460.045          50.500
G08  22262517.420   116990260.546 7       -13.927          45.062    22262516.100   116990260.546 7       -13.927          44.125    22262527.860    91161265.226 7       -10.852          44.187    22262530.320    91161271.230 7       -10.852          46.875
G21  22321900.960   117302359.938 7      1276.092          47.000    22321899.380   117302359.943 6      1276.092          36.437    22321903.520    91404446.604 6       994.358          36.687
R04  22976257.740   123036801.700 7     -1094.430          43.875    22976258.840   123036801.744 7     -1094.430          42.500    22976270.100    95695353.995 7      -851.223          46.812    22976269.620    95695350.992 7      -851.223          47.187
G17  23151609.000   121662537.777 7      5410.710          43.500    23151608.220   121662537.782 5      5410.710          34.437    23151613.400    94801988.458 5      4216.138          34.312    23151613.880    94801992.463 7      4216.138          46.375
G04  23037513.740   121062978.263 7      5570.861          44.000    23037513.260   121062978.267 5      5570.861          31.437    23037530.340    94334844.036 5      4340.931          31.375    23037531.780    94334868.051 7      4340.931          45.937
R11  22715971.160   121387235.395 7      1719.512          44.937    22715971.560   121387235.391 7      1719.512          44.437    22715983.800    94412357.584 7      1337.398          45.000    22715982.880    94412357.587 7      1337.398          44.625
G22  23451602.980   123239009.738 6      3897.576          37.500    23451601.020   123239009.756 4      3897.576          28.375    23451608.500    96030421.364 4      3037.072          28.250
R20  20573175.160   110014009.812 6      2966.218          38.062    20573176.080   110014009.819 6      2966.218          37.437    20573186.700    85566501.783 7      2307.058          44.437    20573187.760    85566505.783 7      2307.058          43.937
G27  25457900.980   133782189.587 5      -705.703          34.125    25457899.740   133782189.579 4      -705.703          29.875    25457926.800   104245838.184 4      -549.899          29.750    25457926.200   104245968.224 6      -549.899          39.937
> 2024 05 06 16 06 57.0000000  0 13
G02  21736976.060   114228569.223 7      2014.608          47.000    21736974.320   114228569.226 6      2014.608          39.937    21736976.920    89009277.041 6      1569.825          39.437
G03  19940094.780   104785912.686 8      2748.360          49.062    19940093.940   104785912.691 8      2748.360          50.187    19940100.320    81651391.635 8      2141.579          50.687    19940100.920    81651395.633 8      2141.579          50.500
G14  22020319.540   115717544.005 7      2568.847          44.687    22020318.080   115717544.016 5      2568.847          35.562    22020325.240    90169535.320 5      2001.699          35.437    22020325.900    90169538.316 8      2001.699          49.125
R05  19811150.300   105901959.544 8      1876.318          49.812    19811149.540   105901959.545 8      1876.318          49.187    19811159.240    82368237.028 8      1459.359          50.625    19811159.000    82368235.027 8      1459.359          50.562
G08  22262520.100   116990274.648 7       -14.278          45.250    22262518.860   116990274.650 7       -14.278          44.000    22262530.580    91161276.207 7       -11.126          43.500    22262532.980    91161282.208 7       -11.126          47.000
G21  22321657.800   117301083.816 7      1276.102          47.312    22321656.380   117301083.815 6      1276.102          36.375    22321660.820    91403452.216 6       994.365          36.687
R04  22976462.540   123037896.435 7     -1095.017          43.875    22976463.560   123037896.485 7     -1095.017          42.687    22976474.220    95696205.456 7      -851.680          45.937    22976473.920    95696202.457 7      -851.680          45.625
G17  23150579.300   121657127.169 7      5410.487          43.750    23150578.780   121657127.168 5      5410.487          34.437    23150583.760    94797772.404 5      4215.964          34.312    23150584.280    94797776.405 7      4215.964          46.250
G04  23036453.380   121057407.515 7      5570.686          43.562    23036453.200   121057407.517 5      5570.686          31.437    23036470.360    94330503.209 5      4340.795          31.375    23036471.660    94330527.227 7      4340.795          45.687
R11  22715649.280   121385516.210 7      1718.864          44.562    22715649.460   121385516.212 7      1718.864          44.375    22715661.920    94411020.440 7      1336.894          45.187    22715661.580    94411020.439 7      1336.894          45.250
G22  23450860.780   123235112.341 6      3897.246          39.000    23450859.380   123235112.353 4      3897.246          28.375    23450866.800    96027384.429 4      3036.815          28.250
R20  20572620.320   110011043.478 6      2966.389          38.000    20572620.860   110011043.506 6      2966.389          37.437    20572632.120    85564194.657 7      2307.191          43.812    20572632.960    85564198.655 7      2307.191          44.375
G27  25458035.700   133782895.546 5      -706.017          34.937    25458034.000   133782895.537 5      -706.017          30.062    25458060.980   104246388.296 4      -550.143          29.750    25458060.460   104246518.321 6      -550.143          39.500
> 2024 05 06 16 06 58.0000000  0 13
G02  21736592.740   114226554.545 7      2014.656          47.250    21736590.960   114226554.550 6      2014.656          38.687    21736593.380    89007707.164 6      1569.862          38.750
G03  19939571.980   104783164.544 8      2747.826          49.000    19939571.040   104783164.544 7      2747.826          46.562    19939577.360    81649250.225 7      2141.163          46.125    19939578.200    81649254.226 8      2141.163          48.375
G14  22019830.820   115714975.389 7      2568.387          44.125    22019829.140   115714975.402 5      2568.387          35.312    22019836.340    90167533.797 5      2001.341          35.437    22019836.760    90167536.792 7      2001.341          47.125
R05  19810799.500   105900083.622 8      1875.446          48.937    19810798.800   105900083.623 8      1875.446          48.500    19810808.240    82366777.978 7      1458.680          46.437    19810808.040    82366775.979 7      1458.680          46.375
G08  22262522.880   116990289.015 7       -14.486          45.250    22262521.520   116990289.018 7       -14.486          43.000    22262533.400    91161287.396 7       -11.288          42.500    22262535.360    91161293.401 7       -11.288          45.687
G21  22321415.020   117299807.659 7      1276.060          47.000    22321413.660   117299807.661 6      1276.060          36.562    22321417.960    91402457.807 6       994.332          36.250
R04  22976666.700   123038991.469 7     -1095.201          43.687    22976668.140   123038991.506 7     -1095.201          42.687    22976679.020    95697057.143 7      -851.823          44.250    22976678.180    95697054.149 7      -851.823          44.437
G17  23149549.860   121651716.516 7      5410.576          43.437    23149549.240   121651716.510 5      5410.576          34.500    23149554.240    94793556.313 5      4216.033          34.250    23149554.520    94793560.318 7      4216.033          45.125
G04  23035393.480   121051836.778 7      5570.674          44.062    23035393.080   121051836.780 5      5570.674          31.437    23035410.480    94326162.395 5      4340.785          31.375    23035411.700    94326186.428 7      4340.785          44.875
R11  22715327.560   121383797.656 7      1718.189          44.937    22715328.340   121383797.657 7      1718.189          44.312    22715340.500    94409683.779 7      1336.369          44.125    22715340.160    94409683.786 7      1336.369          43.562
G22  23450119.180   123231215.388 6      3896.731          39.125    23450117.860   123231215.403 4      3896.731          28.375    23450125.420    96024347.846 4      3036.414          28.250
R20  20572065.300   110008077.312 6      2966.180          38.000    20572066.480   110008077.334 6      2966.180          37.437    20572077.320    85561887.625 7      2307.029          42.875    20572078.560    85561891.622 7      2307.029          42.562
G27  25458169.440   133783601.502 5      -705.881          34.937    25458168.120   133783601.496 5      -705.881          30.062    25458195.180   104246938.406 4      -550.037          29.750    25458194.760   104247068.425 6      -550.037          39.500
> 2024 05 06 16 06 59.0000000  0 13
G02  21736209.260   114224539.927 7      2014.293          47.562    21736207.620   114224539.932 6      2014.293          39.250    21736210.080    89006137.330 6      1569.579          39.250
G03  19939048.940   104780416.946 8      2747.127          48.750    19939048.140   104780416.948 8      2747.127          50.250    19939054.500    81647109.244 8      2140.619          50.125    19939055.380    81647113.243 8      2140.619          51.312
G14  22019342.140   115712407.392 7      2567.439          44.250    22019340.540   115712407.408 5      2567.439          35.500    22019347.740    90165532.761 5      2000.602          34.750    22019348.140    90165535.756 8      2000.602          50.000
R05  19810448.580   105898208.590 8      1874.348          49.625    19810447.820   105898208.588 8      1874.348          49.250    19810457.600    82365319.622 8      1457.827          49.937    19810457.180    82365317.618 8      1457.827          49.687
G08  22262525.760   116990303.709 7       -15.078          45.375    22262524.240   116990303.716 7       -15.078          43.812    22262536.160    91161298.841 7       -11.749          43.500    22262538.120    91161304.846 7       -11.749          46.562
G21  22321172.240   117298531.476 7      1275.933          46.687    22321170.700   117298531.481 6      1275.933          36.125    22321174.980    91401463.381 6       994.233          36.437
R04  22976871.540   123040086.900 7     -1095.868          43.687    22976872.160   123040086.937 7     -1095.868          42.562    22976883.460    95697909.143 7      -852.342          45.687    22976882.480    95697906.155 7      -852.342          46.062
G17  23148520.380   121646305.905 7      5410.334          43.312    23148519.780   121646305.905 5      5410.334          34.000    23148524.500    94789340.259 5      4215.845          33.750    23148525.060    94789344.262 7      4215.845          46.250
G04  23034333.420   121046266.133 7      5570.342          43.750    23034332.980   121046266.138 5      5570.342          30.875    23034350.260    94321821.659 5      4340.526          31.187    23034351.640    94321845.686 7      4340.526          46.125
R11  22715006.500   121382079.751 7      1717.378          45.500    22715006.700   121382079.755 7      1717.378          44.312    22715018.560    94408347.630 7      1335.739          45.125    22715018.460    94408347.635 7      1335.739          44.937
G22  23449377.720   123227318.926 6      3895.983          39.750    23449376.620   123227318.939 4      3895.983          28.375    23449383.980    96021311.640 4      3035.831          28.562
R20  20571511.360   110005111.269 6      2965.678          38.000    20571511.880   110005111.270 6      2965.678          37.375    20571522.680    85559580.690 7      2306.638          44.000    20571523.860    85559584.693 7      2306.638          44.750
G27  25458304.660   133784307.548 5      -706.228          34.937    25458302.580   133784307.547 5      -706.228          30.062    25458329.480   104247488.588 4      -550.307          29.437    25458329.440   104247618.611 6      -550.307          39.062
> 2024 05 06 16 07  0.0000000  0 13
G02  21735826.000   114222525.496 7      2014.775          47.125    21735824.340   114222525.504 6      2014.775          39.250    21735826.720    89004567.646 6      1569.954          39.312
G03  19938526.240   104777670.110 8      2746.836          48.625    19938525.440   104777670.112 8      2746.836          50.562    19938531.860    81644968.852 8      2140.392          50.750    19938532.620    81644972.849 8      2140.392          51.375
G14  22018853.460   115709840.147 7      2567.206          43.812    22018852.100   115709840.160 5      2567.206          35.250    22018859.300    90163532.310 5      2000.421          35.125    22018859.760    90163535.310 8      2000.421          49.875
R05  19810098.120   105896334.646 8      1873.802          50.062    19810097.300   105896334.647 8      1873.802          48.937    19810106.980    82363862.112 8      1457.401          50.687    19810106.740    82363860.108 8      1457.401          50.750
G08  22262528.500   116990318.919 7       -15.137          45.187    22262527.320   116990318.927 7       -15.137          44.000    22262538.940    91161310.681 7       -11.795          43.750    22262540.980    91161316.686 7       -11.795          47.000
G21  22320929.320   117297255.488 7      1276.300          46.500    22320927.840   117297255.496 6      1276.300          36.437    22320932.260    91400469.100 6       994.520          36.437
R04  22977076.280   123041182.920 7     -1095.992          43.750    22977076.980   123041182.951 7     -1095.992          42.562    22977087.960    95698761.599 7      -852.438          46.125    22977087.180    95698758.606 7      -852.438          46.500
G17  23147490.700   121640895.536 7      5410.676          43.312    23147490.240   121640895.535 5      5410.676          34.000    23147494.920    94785124.391 5      4216.111          33.750    23147495.420    94785128.384 7      4216.111          46.062
G04  23033273.360   121040695.772 7      5570.576          43.062    23033272.980   121040695.782 5      5570.576          30.875    23033290.180    94317481.138 5      4340.709          31.187    23033291.440    94317505.163 7      4340.709          45.500
R11  22714685.520   121380362.717 7      1716.930          45.437    22714685.580   121380362.721 7      1716.930          44.625    22714697.380    94407012.147 7      1335.390          45.437    22714697.440    94407012.148 7      1335.390          45.187
G22  23448636.720   123223423.129 6      3895.884          39.375    23448635.500   123223423.142 4      3895.884          28.875    23448642.440    96018275.957 4      3035.754          28.562
R20  20570956.520   110002145.490 6      2965.977          38.000    20570957.360   110002145.510 6      2965.977          37.375    20570968.240    85557273.990 7      2306.871          44.375    20570969.000    85557277.996 7      2306.871          44.750
G27  25458439.080   133785013.927 5      -706.215          34.500    25458437.060   133785013.926 5      -706.215          30.062    25458464.000   104248039.023 4      -550.297          29.437    25458463.480   104248169.049 6      -550.297          39.062
> 2024 05 06 16 07  1.0000000  0 13
G02  21735442.640   114220510.978 7      2014.510          46.750    21735441.000   114220510.981 6      2014.510          39.625    21735443.480    89002997.887 6      1569.748          39.625
G03  19938003.580   104774923.668 8      2746.227          48.687    19938002.800   104774923.673 8      2746.227          50.312    19938009.100    81642828.770 8      2139.917          51.062    19938009.660    81642832.769 8      2139.917          51.375
G14  22018365.120   115707273.333 7      2566.616          43.625    22018363.600   115707273.351 5      2566.616          35.250    22018370.960    90161532.193 5      1999.961          35.437    22018371.180    90161535.190 8      1999.961          49.687
R05  19809747.560   105894461.415 8      1872.844          49.812    19809746.900   105894461.419 8      1872.844          48.437    19809756.500    82362405.159 8      1456.656          51.250    19809756.500    82362403.158 8      1456.656          51.375
G08  22262531.200   116990334.269 7       -15.488          44.625    22262530.240   116990334.274 7       -15.488          44.562    22262541.920    91161322.634 7       -12.069          44.500    22262544.020    91161328.635 7       -12.069          47.187
G21  22320686.600   117295979.324 7      1276.253          46.312    22320685.000   117295979.329 6      1276.253          36.750    22320689.500    91399474.684 6       994.483          36.937
R04  22977281.160   123042279.160 7     -1096.453          43.500    22977281.840   123042279.199 7     -1096.453          42.500    22977292.800    95699614.236 7      -852.797          45.937    22977292.080    95699611.245 7      -852.797          46.375
G17  23146461.160   121635485.056 7      5410.372          43.750    23146460.800   121635485.056 5      5410.372          34.500    23146465.440    94780908.435 5      4215.874          34.187    23146466.020    94780912.434 7      4215.874          46.562
G04  23032213.400   121035125.303 7      5570.537          44.000    23032212.940   121035125.308 5      5570.537          30.875    23032230.080    94313140.534 5      4340.678          31.187    23032231.680    94313164.554 7      4340.678          45.875
R11  22714364.220   121378646.169 7      1716.214          44.875    22714364.560   121378646.173 7      1716.214          44.187    22714375.900    94405677.052 7      1334.833          44.812    22714375.980    94405677.053 7      1334.833          45.125
G22  23447895.720   123219527.663 6      3895.251          40.750    23447894.460   123219527.676 4      3895.251          28.875    23447901.260    96015240.531 4      3035.260          28.562
R20  20570402.140   109999179.707 6      2965.877          37.500    20570402.580   109999179.711 6      2965.877          37.375    20570413.680    85554967.247 7      2306.793          44.750    20570414.400    85554971.252 7      2306.793          44.625
G27  25458573.680   133785720.193 5      -706.534          34.500    25458571.540   133785720.193 4      -706.534          29.437    25458598.340   104248589.369 4      -550.546          29.437    25458597.920   104248719.411 6      -550.546          39.062
> 2024 05 06 16 07  2.0000000  0 13
G02  21735059.200   114218496.550 7      2014.341          47.187    21735057.640   114218496.555 6      2014.341          39.562    21735060.180    89001428.203 6      1569.616          39.375
G03  19937481.000   104772177.868 8      2745.459          48.562    19937480.340   104772177.875 8      2745.459          50.562    19937486.580    81640689.189 8      2139.319          51.187    19937487.380    81640693.186 8      2139.319          51.125
G14  22017876.520   115704707.223 7      2565.689          43.375    22017875.160   115704707.236 5      2565.689          35.937    22017882.540    90159532.622 5      1999.238          35.562    22017882.920    90159535.618 8      1999.238          49.437
R05  19809397.440   105892589.149 8      1871.741          49.500    19809396.620   105892589.153 8      1871.741          48.812    19809406.240    82360948.950 8      1455.799          51.250    19809406.240    82360946.949 8      1455.799          51.062
G08  22262534.380   116990350.026 7       -15.973          45.062    22262533.220   116990350.029 7       -15.973          44.187    22262545.060    91161334.898 7       -12.447          43.875    22262546.960    91161340.903 7       -12.447          46.937
G21  22320443.760   117294703.241 7      1276.030          46.125    22320442.240   117294703.251 6      1276.030          36.562    22320446.560    91398480.336 6       994.309          36.875
R04  22977485.700   123043375.905 7     -1097.061          43.500    22977486.300   123043375.947 7     -1097.061          42.500    22977497.580    95700467.262 7      -853.270          45.437    22977497.200    95700464.272 7      -853.270          46.812
G17  23145432.040   121630074.664 7      5410.286          43.437    23145431.220   121630074.663 5      5410.286          34.500    23145435.840    94776692.549 5      4215.808          34.187    23145436.260    94776696.556 7      4215.808          46.250
G04  23031153.400   121029555.042 7      5570.041          44.187    23031152.880   121029555.046 5      5570.041          31.375    23031170.020    94308800.091 5      4340.292          31.375    23031171.260    94308824.113 7      4340.292          45.437
R11  22714043.300   121376930.402 7      1715.394          45.125    22714043.360   121376930.403 7      1715.394          44.562    22714054.680    94404342.566 7      1334.196          45.250    22714055.000    94404342.569 7      1334.196          45.562
G22  23447154.900   123215632.757 6      3894.530          40.000    23447153.500   123215632.770 4      3894.530          28.875    23447160.040    96012205.539 4      3034.699          28.562
R20  20569846.860   109996214.137 6      2965.372          37.500    20569847.720   109996214.141 6      2965.372          37.375    20569859.200    85552660.696 7      2306.400          44.437    20569860.000    85552664.698 7      2306.400          44.437
G27  25458706.960   133786426.633 5      -706.534          34.500    25458706.200   133786426.630 4      -706.534          29.437    25458732.820   104249139.846 4      -550.546          29.500    25458731.740   104249269.875 6      -550.546          39.125
> 2024 05 06 16 07  3.0000000  0 13
G02  21734675.820   114216482.069 7      2014.390          47.250    21734674.380   114216482.076 6      2014.390          40.000    21734676.820    88999858.479 6      1569.655          39.875
G03  19936958.720   104769432.535 8      2744.967          49.437    19936957.940   104769432.542 8      2744.967          50.312    19936964.160    81638549.969 8      2138.936          50.562    19936964.820    81638553.965 8      2138.936          51.000
G14  22017388.540   115702141.573 7      2565.286          43.500    22017386.960   115702141.585 5      2565.286          35.562    22017394.420    90157533.415 5      1998.924          35.375    22017394.600    90157536.408 8      1998.924          49.500
R05  19809047.360   105890717.640 8      1871.043          48.937    19809046.520   105890717.639 8      1871.043          49.312    19809056.180    82359493.330 8      1455.255          50.937    19809055.900    82359491.331 8      1455.255          51.125
G08  22262537.180   116990366.007 7       -16.266          45.625    22262536.440   116990366.007 7       -16.266          44.000    22262548.020    91161347.340 7       -12.675          44.125    22262549.980    91161353.347 7       -12.675          47.187
G21  22320201.120   117293427.066 7      1276.074          47.250    22320199.360   117293427.079 6      1276.074          36.812    22320203.700    91397485.910 6       994.343          36.812
R04  22977690.540   123044472.964 7     -1097.349          43.375    22977691.420   123044472.995 7     -1097.349          42.562    22977702.300    95701320.528 7      -853.494          45.625    22977701.800    95701317.536 7      -853.494          46.750
G17  23144402.300   121624664.253 7      5410.276          44.687    23144401.780   121624664.252 5      5410.276          34.500    23144406.400    94772476.642 5      4215.799          34.250    23144406.640    94772480.645 7      4215.799          46.375
G04  23030093.320   121023984.717 7      5570.265          44.250    23030092.760   121023984.722 5      5570.265          31.375    23030109.920    94304459.601 5      4340.467          31.375    23030111.560    94304483.625 7      4340.467          45.500
R11  22713722.620   121375215.257 7      1714.697          44.437    22713721.900   121375215.255 7      1714.697          44.812    22713733.800    94403008.552 7      1333.654          44.812    22713733.800    94403008.561 7      1333.654          45.437
G22  23446413.720   123211738.221 6      3894.344          40.937    23446412.580   123211738.231 4      3894.344          28.875    23446418.900    96009170.836 4      3034.553          29.375
R20  20569292.200   109993248.588 6      2965.357          37.500    20569293.580   109993248.590 6      2965.357          37.500    20569304.500    85550354.150 7      2306.388          44.187    20569305.240    85550358.148 7      2306.388          44.437
G27  25458841.280   133787133.025 5      -706.428          34.937    25458840.640   133787133.030 4      -706.428          29.437    25458867.280   104249690.295 4      -550.463          29.500    25458867.140   104249820.333 6      -550.463          39.125
> 2024 05 06 16 07  4.0000000  0 13
G02  21734292.440   114214467.635 7      2014.481          47.437    21734291.000   114214467.643 6      2014.481          39.750    21734293.380    88998288.791 6      1569.726          39.937
G03  19936436.320   104766687.753 8      2744.638          49.250    19936435.640   104766687.758 8      2744.638          50.812    19936441.860    81636411.182 8      2138.679          50.750    19936442.320    81636415.177 8      2138.679          51.812
G14  22016900.300   115699576.532 7      2564.869          43.187    22016898.900   115699576.545 5      2564.869          35.000    22016906.200    90155534.680 5      1998.599          35.375    22016906.260    90155537.675 8      1998.599          49.437
R05  19808697.460   105888847.021 8      1870.348          48.500    19808696.540   105888847.020 8      1870.348          49.062    19808706.240    82358038.408 8      1454.715          51.125    19808705.880    82358036.405 8      1454.715          51.187
G08  22262540.540   116990382.306 7       -16.413          45.125    22262539.540   116990382.308 7       -16.413          44.312    22262551.120    91161360.040 7       -12.790          43.937    22262552.940    91161366.043 7       -12.790          47.250
G21  22319958.060   117292150.870 7      1276.306          46.562    22319956.420   117292150.875 6      1276.306          36.875    22319960.880    91396491.467 6       994.524          36.625
R04  22977895.500   123045570.406 7     -1097.499          43.750    22977896.800   123045570.440 7     -1097.499          42.750    22977907.500    95702174.094 7      -853.611          45.875    22977906.980    95702171.095 7      -853.611          46.625
G17  23143372.600   121619253.863 7      5410.456          43.937    23143372.040   121619253.865 5      5410.456          34.750    23143376.700    94768260.764 5      4215.940          34.562    23143377.300    94768264.765 7      4215.940          46.437
G04  23029033.440   121018414.519 7      5570.278          43.687    23029032.840   121018414.526 5      5570.278          31.375    23029049.940    94300119.207 5      4340.476          31.375    23029051.440    94300143.225 7      4340.476          45.375
R11  22713401.560   121373500.735 7      1714.259          45.125    22713400.920   121373500.738 7      1714.259          43.937    22713412.640    94401675.043 7      1333.312          44.625    22713413.200    94401675.046 7      1333.312          45.062
G22  23445672.600   123207844.214 6      3893.835          41.375    23445671.740   123207844.226 4      3893.835          29.812    23445677.920    96006136.546 4      3034.157          29.375
R20  20568738.660   109990283.160 6      2965.461          37.500    20568738.760   109990283.154 6      2965.461          37.500    20568750.420    85548047.706 7      2306.470          44.625    20568750.480    85548051.702 7      2306.470          44.062
G27  25458976.180   133787839.614 5      -706.800          34.937    25458975.280   133787839.622 4      -706.800          29.937    25459001.620   104250240.903 4      -550.753          29.500    25459000.840   104250370.937 6      -550.753          39.125
> 2024 05 06 16 07  5.0000000  0 13
G02  21733909.180   114212453.199 7      2014.512          47.062    21733907.680   114212453.204 6      2014.512          39.625    21733910.140    88996719.102 6      1569.749          39.687
G03  19935914.200   104763943.524 8      2744.025          49.062    19935913.500   104763943.529 8      2744.025          50.562    19935919.640    81634272.824 8      2138.201          51.062    19935920.260    81634276.820 8      2138.201          52.000
G14  22016412.380   115697012.085 7      2564.117          43.000    22016410.900   115697012.101 5      2564.117          35.750    22016418.260    90153536.409 5      1998.013          35.125    22016418.420    90153539.401 8      1998.013          49.500
R05  19808347.500   105886977.284 8      1869.387          49.500    19808346.860   105886977.280 8      1869.387          48.812    19808356.460    82356584.168 8      1453.967          51.250    19808356.140    82356582.165 8      1453.967          50.875
G08  22262543.800   116990398.890 7       -16.529          45.000    22262542.740   116990398.890 7       -16.529          44.062    22262554.320    91161372.951 7       -12.880          44.000    22262556.160    91161378.957 7       -12.880          47.437
G21  22319715.020   117290874.656 7      1276.329          46.812    22319713.740   117290874.658 6      1276.329          36.875    22319718.060    91395497.015 6       994.542          36.750
R04  22978100.640   123046668.231 7     -1098.013          43.750    22978101.920   123046668.275 7     -1098.013          42.750    22978112.160    95703027.968 7      -854.010          45.437    22978112.040    95703024.965 7      -854.010          46.312
G17  23142343.000   121613843.499 7      5410.517          43.687    23142342.380   121613843.501 5      5410.517          34.750    23142347.160    94764044.896 5      4215.987          34.562    23142347.840    94764048.901 7      4215.987          46.562
G04  23027973.280   121012844.360 7      5570.366          43.562    23027972.820   121012844.367 5      5570.366          31.437    23027989.880    94295778.844 5      4340.545          31.312    23027991.200    94295802.860 7      4340.545          46.062
R11  22713080.860   121371786.899 7      1713.551          45.312    22713080.740   121371786.900 7      1713.551          44.312    22713092.240    94400342.039 7      1332.762          44.937    22713092.160    94400342.038 7      1332.762          44.250
G22  23444931.540   123203950.645 6      3893.355          41.125    23444930.900   123203950.658 4      3893.355          29.812    23444937.020    96003102.596 4      3033.783          29.375
R20  20568185.240   109987317.829 6      2965.375          37.500    20568184.060   109987317.825 6      2965.375          37.500    20568195.600    85545741.341 7      2306.402          44.500    20568195.920    85545745.333 7      2306.402          44.937
G27  25459110.720   133788546.167 5      -706.395          34.687    25459109.760   133788546.175 4      -706.395          29.937    25459135.900   104250791.476 4      -550.438          29.500    25459135.480   104250921.501 6      -550.438          39.375
> 2024 05 06 16 07  6.0000000  0 13
G02  21733525.940   114210438.702 7      2014.515          46.312    21733524.300   114210438.709 6      2014.515          40.125    21733526.940    88995149.366 6      1569.752          39.750
G03  19935392.160   104761199.736 8      2743.542          48.562    19935391.320   104761199.741 8      2743.542          50.562    19935397.500    81632134.809 8      2137.825          50.687    19935398.000    81632138.806 8      2137.825          51.625
G14  22015924.420   115694448.064 7      2563.898          43.312    22015923.000   115694448.074 5      2563.898          35.250    22015930.460    90151538.467 5      1997.843          35.125    22015930.680    90151541.454 8      1997.843          49.562
R05  19807997.900   105885108.295 8      1868.553          48.812    19807997.020   105885108.299 8      1868.553          49.375    19808006.780    82355130.518 8      1453.319          51.250    19808006.480    82355128.519 8      1453.319          51.125
G08  22262547.060   116990415.707 7       -16.911          44.750    22262545.820   116990415.714 7       -16.911          43.500    22262557.480    91161386.051 7       -13.177          43.687    22262559.520    91161392.060 7       -13.177          47.187
G21  22319472.220   117289598.326 7      1276.332          47.375    22319470.860   117289598.333 6      1276.332          36.250    22319475.180    91394502.478 6       994.545          36.875
R04  22978305.360   123047766.304 7     -1098.246          44.250    22978307.140   123047766.359 7     -1098.246          42.812    22978317.060    95703882.037 7      -854.192          45.687    22978316.960    95703879.033 7      -854.192          46.000
G17  23141313.500   121608433.109 7      5410.271          43.937    23141312.680   121608433.111 5      5410.271          34.750    23141317.540    94759829.016 5      4215.795          34.437    23141318.620    94759833.019 7      4215.795          46.687
G04  23026913.460   121007274.219 7      5570.083          43.312    23026912.760   121007274.227 5      5570.083          31.437    23026929.820    94291438.495 5      4340.324          31.312    23026931.580    94291462.509 7      4340.324          45.687
R11  22712760.240   121370073.624 7      1712.933          45.437    22712759.980   121370073.620 7      1712.933          44.500    22712771.840    94399009.477 7      1332.281          44.625    22712771.380    94399009.478 7      1332.281          45.062
G22  23444190.380   123200057.457 6      3892.860          40.375    23444189.940   123200057.473 4      3892.860          29.812    23444196.140    96000068.948 5      3033.398          30.000
R20  20567630.780   109984352.523 6      2965.303          36.437    20567630.000   109984352.509 6      2965.303          37.500    20567641.020    85543434.991 7      2306.346          44.937    20567641.640    85543438.982 7      2306.346          44.437
G27  25459244.540   133789252.814 5      -706.741          34.687    25459244.500   133789252.809 4      -706.741          29.937    25459270.480   104251342.114 5      -550.707          30.062    25459270.000   104251472.131 6      -550.707          39.375
> 2024 05 06 16 07  7.0000000  0 13
G02  21733142.440   114208424.342 7      2014.256          46.562    21733140.940   114208424.347 6      2014.256          40.312    21733143.400    88993579.735 6      1569.550          39.937
G03  19934870.040   104758456.615 8      2742.725          48.937    19934869.320   104758456.623 8      2742.725          50.562    19934875.540    81629997.319 8      2137.189          50.500    19934876.220    81630001.317 8      2137.189          51.312
G14  22015436.760   115691884.768 7      2563.019          43.312    22015435.360   115691884.781 5      2563.019          35.625    22015442.660    90149541.093 5      1997.157          35.062    22015443.020    90149544.089 8      1997.157          49.250
R05  19807648.440   105883240.311 8      1867.446          49.250    19807647.740   105883240.313 8      1867.446          49.000    19807657.440    82353677.644 8      1452.458          51.312    19807657.080    82353675.643 8      1452.458          51.000
G08  22262550.540   116990432.951 7       -17.472          45.687    22262549.340   116990432.953 7       -17.472          44.687    22262560.780    91161399.478 7       -13.615          44.562    22262562.580    91161405.485 7       -13.615          47.312
G21  22319229.420   117288322.083 7      1276.191          47.375    22319227.980   117288322.088 6      1276.191          36.625    22319232.420    91393507.999 6       994.435          36.812
R04  22978510.820   123048864.913 7     -1098.844          44.187    22978512.800   123048864.971 7     -1098.844          42.812    22978521.940    95704736.505 7      -854.656          45.250    22978521.820    95704733.502 7      -854.656          46.375
G17  23140284.240   121603022.818 7      5410.184          43.875    23140283.220   121603022.818 5      5410.184          34.750    23140288.120    94755613.207 5      4215.728          34.437    23140288.940    94755617.212 7      4215.728          47.125
G04  23025853.780   121001704.221 7      5569.815          43.312    23025852.780   121001704.233 5      5569.815          31.437    23025869.860    94287098.255 5      4340.116          31.312    23025871.360    94287122.271 7      4340.116          45.625
R11  22712439.520   121368361.113 7      1712.087          45.000    22712439.740   121368361.115 7      1712.087          44.250    22712451.620    94397677.531 7      1331.623          45.312    22712451.060    94397677.532 7      1331.623          44.562
G22  23443449.740   123196164.808 6      3892.393          40.625    23443449.280   123196164.829 5      3892.393          30.187    23443455.460    95997035.721 5      3033.033          30.000
R20  20567075.860   109981387.411 6      2964.950          36.437    20567074.540   109981387.428 6      2964.950          37.500    20567086.720    85541128.815 7      2306.072          44.687    20567087.140    85541132.810 7      2306.072          44.312
G27  25459378.280   133789959.554 5      -707.038          34.687    25459378.900   133789959.551 4      -707.038          29.937    25459404.960   104251892.830 5      -550.938          30.062    25459404.800   104252022.852 6      -550.938          39.375
> 2024 05 06 16 07  8.0000000  0 13
G02  21732759.100   114206410.063 7      2014.295          47.062    21732757.620   114206410.070 6      2014.295          39.187    21732760.040    88992010.165 6      1569.581          39.062
G03  19934348.100   104755714.099 8      2742.188          48.437    19934347.400   104755714.106 8      2742.188          49.750    19934353.580    81627860.291 8      2136.770          50.062    19934354.280    81627864.290 8      2136.770          51.062
G14  22014949.080   115689322.124 7      2562.410          42.812    22014947.700   115689322.139 5      2562.410          35.625    22014954.880    90147544.223 5      1996.683          35.312    22014955.320    90147547.225 8      1996.683          49.125
R05  19807299.220   105881373.266 8      1866.625          48.812    19807298.340   105881373.264 8      1866.625          48.625    19807308.040    82352225.496 8      1451.819          50.062    19807307.720    82352223.494 8      1451.819          49.875
G08  22262553.820   116990450.545 7       -17.614          45.312    22262552.620   116990450.544 7       -17.614          44.250    22262564.140    91161413.177 7       -13.725          44.000    22262565.960    91161419.180 7       -13.725          47.375
G21  22318986.620   117287045.892 7      1276.276          47.500    22318985.060   117287045.897 6      1276.276          36.750    22318989.420    91392513.560 6       994.501          37.062
R04  22978715.840   123049963.964 7     -1099.214          45.750    22978718.160   123049964.017 7     -1099.214          43.562    22978727.440    95705591.329 7      -854.944          44.937    22978726.960    95705588.322 7      -854.944          45.687
G17  23139254.240   121597612.644 7      5410.120          43.812    23139253.640   121597612.646 5      5410.120          34.750    23139258.600    94751397.493 5      4215.678          34.875    23139259.440    94751401.496 7      4215.678          46.625
G04  23024793.620   120996134.374 7      5569.820          43.812    23024793.160   120996134.384 5      5569.820          31.250    23024809.840    94282758.133 5      4340.119          31.312    23024811.620    94282782.154 7      4340.119          45.500
R11  22712119.040   121366649.319 7      1711.498          45.062    22712119.120   121366649.317 7      1711.498          44.875    22712130.780    94396346.125 7      1331.165          44.437    22712130.660    94396346.132 7      1331.165          44.687
G22  23442709.420   123192272.771 6      3891.780          40.312    23442708.780   123192272.792 5      3891.780          30.187    23442714.720    95994002.967 5      3032.556          30.000
R20  20566521.300   109978422.523 6      2964.802          36.437    20566520.860   109978422.530 6      2964.802          37.250    20566532.360    85538822.785 7      2305.957          44.312    20566532.920    85538826.780 7      2305.957          43.937
G27  25459513.400   133790666.464 5      -706.916          34.437    25459513.160   133790666.463 4      -706.916          29.937    25459539.420   104252443.682 5      -550.843          30.062    25459538.940   104252573.695 6      -550.843          39.437
> 2024 05 06 16 07  9.0000000  0 13
G02  21732375.900   114204395.619 7      2014.413          47.500    21732374.380   114204395.624 6      2014.413          39.937    21732376.880    88990440.472 6      1569.672          39.750
G03  19933826.340   104752971.919 8      2741.906          48.875    19933825.660   104752971.924 8      2741.906          50.375    19933831.740    81625723.527 8      2136.550          50.250    19933832.200    81625727.526 8      2136.550          51.312
G14  22014461.480   115686759.858 7      2561.982          43.000    22014460.160   115686759.876 5      2561.982          35.625    22014467.440    90145547.653 5      1996.349          35.000    22014467.780    90145550.648 8      1996.349          49.500
R05  19806949.840   105879506.878 8      1865.955          50.000    19806949.340   105879506.879 8      1865.955          48.437    19806958.960    82350773.858 8      1451.298          51.062    19806958.640    82350771.855 8      1451.298          50.625
G08  22262557.000   116990468.267 7       -17.934          45.500    22262555.900   116990468.272 7       -17.934          44.000    22262567.640    91161426.981 7       -13.975          43.875    22262569.600    91161432.986 7       -13.975          47.187
G21  22318743.740   117285769.489 7      1276.369          46.875    22318742.220   117285769.491 6      1276.369          36.437    22318746.320    91391518.962 6       994.573          36.687
R04  22978920.900   123051063.189 7     -1099.540          45.750    22978923.820   123051063.231 7     -1099.540          43.687    22978932.580    95706446.283 7      -855.197          44.812    22978932.160    95706443.278 7      -855.197          45.562
G17  23138224.700   121592202.290 7      5410.321          43.812    23138224.180   121592202.295 5      5410.321          34.562    23138229.200    94747181.641 5      4215.835          34.812    23138229.920    94747185.648 7      4215.835          47.000
G04  23023733.700   120990564.391 7      5569.977          43.750    23023733.040   120990564.402 5      5569.977          31.250    23023749.920    94278417.907 5      4340.242          31.312    23023751.620    94278441.928 7      4340.242          45.562
R11  22711799.040   121364937.992 7      1710.910          45.187    22711798.880   121364937.996 7      1710.910          44.062    22711810.100    94395015.087 7      1330.708          44.562    22711810.520    94395015.096 7      1330.708          44.250
G22  23441968.980   123188380.950 6      3891.625          41.000    23441968.120   123188380.962 5      3891.625          30.187    23441974.240    95990970.381 5      3032.435          30.000
R20  20565966.300   109975457.533 6      2964.724          36.437    20565966.160   109975457.543 6      2964.724          37.250    20565977.680    85536516.682 7      2305.896          44.562    20565978.560    85536520.673 7      2305.896          44.687
G27  25459647.940   133791373.269 5      -706.913          34.437    25459647.580   133791373.268 4      -706.913          29.937    25459674.080   104252994.453 5      -550.841          30.062    25459673.120   104253124.460 6      -550.841          39.437
> 2024 05 06 16 07 10.0000000  0 13
G02  21731992.640   114202381.348 7      2014.222          47.625    21731991.180   114202381.353 6      2014.222          39.437    21731993.640    88988870.909 6      1569.524          39.312
G03  19933304.540   104750230.441 8      2741.183          49.000    19933303.960   104750230.448 8      2741.183          48.562    19933310.080    81623587.316 8      2135.987          48.875    19933310.540    81623591.315 8      2135.987          49.812
G14  22013974.180   115684198.293 7      2561.365          43.437    22013972.700   115684198.309 5      2561.365          35.250    22013979.960    90143551.630 5      1995.869          35.000    22013980.360    90143554.624 8      1995.869          48.062
R05  19806600.900   105877641.486 8      1864.985          49.312    19806600.460   105877641.488 8      1864.985          48.750    19806610.000    82349323.001 8      1450.544          48.937    19806609.540    82349321.001 8      1450.544          48.875
G08  22262560.420   116990486.424 7       -18.251          44.687    22262559.340   116990486.426 7       -18.251          43.312    22262570.900    91161441.118 7       -14.222          43.062    22262572.800    91161447.121 7       -14.222          46.312
G21  22318500.860   117284493.206 7      1276.249          46.500    22318499.340   117284493.211 6      1276.249          36.500    22318503.560    91390524.452 6       994.479          36.562
R04  22979126.360   123052162.920 7     -1099.926          44.062    22979128.860   123052162.967 7     -1099.926          43.687    22979137.840    95707301.642 7      -855.498          45.000    22979137.400    95707298.637 7      -855.498          45.250
G17  23137194.940   121586792.126 7      5410.169          44.312    23137194.460   121586792.129 5      5410.169          34.562    23137199.780    94742965.929 5      4215.716          34.812    23137200.260    94742969.932 7      4215.716          46.312
G04  23022673.840   120984994.627 7      5569.764          44.437    23022673.060   120984994.639 5      5569.764          31.250    23022690.180    94274077.856 5      4340.075          31.312    23022691.740    94274101.882 7      4340.075          45.875
R11  22711478.480   121363227.440 7      1710.249          45.312    22711478.680   121363227.438 7      1710.249          44.437    22711489.940    94393684.651 7      1330.193          44.125    22711490.140    94393684.652 7      1330.193          44.375
G22  23441228.020   123184489.772 6      3891.004          40.937    23441227.660   123184489.782 5      3891.004          30.187    23441233.840    95987938.294 4      3031.951          29.312
R20  20565412.100   109972492.795 6      2964.690          36.437    20565411.340   109972492.783 6      2964.690          37.250    20565423.660    85534210.754 7      2305.870          44.375    20565423.840    85534214.745 7      2305.870          44.250
G27  25459783.020   133792080.263 5      -706.862          34.812    25459782.040   133792080.265 4      -706.862          29.937    25459808.580   104253545.372 4      -550.801          29.750    25459807.640   104253675.385 6      -550.801          39.375
> 2024 05 06 16 07 11.0000000  0 13
G02  21731609.240   114200367.177 7      2014.189          47.250    21731607.940   114200367.182 6      2014.189          39.687    21731610.400    88987301.425 6      1569.498          39.375
G03  19932783.040   104747489.603 8      2740.584          48.687    19932782.380   104747489.608 8      2740.584          50.500    19932788.500    81621451.599 8      2135.520          51.000    19932789.040    81621455.600 8      2135.520          51.687
G14  22013486.840   115681637.423 7      2560.679          43.312    22013485.380   115681637.438 5      2560.679          35.500    22013492.680    90141556.145 5      1995.334          35.312    22013492.980    90141559.142 8      1995.334          49.875
R05  19806252.040   105875777.047 8      1864.052          49.125    19806251.600   105875777.043 8      1864.052          48.937    19806261.240    82347872.883 8      1449.818          51.062    19806261.080    82347870.881 8      1449.818          51.437
G08  22262563.860   116990505.003 7       -18.715          44.375    22262562.900   116990505.005 7       -18.715          43.812    22262574.580    91161455.587 7       -14.583          43.687    22262576.660    91161461.594 7       -14.583          47.062
G21  22318257.940   117283216.992 7      1276.186          46.562    22318256.400   117283216.999 6      1276.186          36.625    22318260.760    91389529.998 6       994.431          36.562
R04  22979331.460   123053263.162 7     -1100.402          44.375    22979334.080   123053263.204 7     -1100.402          43.250    22979343.120    95708157.386 7      -855.868          45.375    22979342.920    95708154.385 7      -855.868          45.312
G17  23136165.480   121581382.073 7      5410.087          43.812    23136164.760   121581382.075 5      5410.087          35.000    23136170.280    94738750.307 5      4215.652          34.625    23136170.880    94738754.316 7      4215.652          46.750
G04  23021613.920   120979425.051 7      5569.500          43.750    23021613.140   120979425.064 5      5569.500          31.437    23021630.260    94269737.949 5      4339.870          31.687    23021631.980    94269761.974 7      4339.870          45.937
R11  22711158.800   121361517.673 7      1709.540          44.875    22711158.580   121361517.667 7      1709.540          44.125    22711169.980    94392354.820 7      1329.642          44.687    22711170.360    94392354.817 7      1329.642          43.500
G22  23440488.060   123180599.138 6      3890.483          41.437    23440487.280   123180599.146 4      3890.483          29.375    23440493.500    95984906.633 4      3031.545          29.312
R20  20564857.560   109969528.225 6      2964.655          37.062    20564857.100   109969528.221 6      2964.655          37.250    20564869.180    85531904.981 7      2305.843          44.937    20564869.880    85531908.974 7      2305.843          44.875
G27  25459917.900   133792787.472 5      -707.076          34.812    25459916.560   133792787.477 4      -707.076          29.937    25459943.060   104254096.450 4      -550.968          29.750    25459942.040   104254226.470 6      -550.968          39.375
> 2024 05 06 16 07 12.0000000  0 13
G02  21731226.160   114198352.995 7      2014.207          46.562    21731224.700   114198353.000 6      2014.207          39.937    21731227.120    88985731.931 6      1569.512          39.937
G03  19932261.580   104744749.260 8      2740.084          49.375    19932260.940   104744749.265 8      2740.084          50.625    19932267.000    81619316.269 8      2135.130          51.062    19932267.580    81619320.267 8      2135.130          51.437
G14  22012999.500   115679077.096 7      2559.942          42.875    22012998.180   115679077.114 5      2559.942          35.562    22013005.500    90139561.083 5      1994.760          35.187    22013005.860    90139564.078 8      1994.760          49.500
R05  19805903.440   105873913.414 8      1863.202          49.625    19805902.960   105873913.410 8      1863.202          49.375    19805912.540    82346423.391 8      1449.157          50.625    19805912.240    82346421.390 8      1449.157          51.062
G08  22262567.540   116990523.824 7       -19.012          45.000    22262566.620   116990523.823 7       -19.012          44.500    22262578.180    91161470.247 7       -14.814          43.750    22262580.100    91161476.248 7       -14.814          47.562
G21  22318015.100   117281940.717 7      1276.260          46.437    22318013.600   117281940.722 6      1276.260          36.562    22318018.060    91388535.496 6       994.488          36.687
R04  22979537.200   123054363.758 7     -1100.944          44.062    22979540.100   123054363.789 7     -1100.944          42.937    22979548.760    95709013.405 7      -856.290          45.125    22979548.440    95709010.404 7      -856.290          45.312
G17  23135135.920   121575972.008 7      5410.101          43.687    23135135.220   121575972.011 5      5410.101          34.875    23135140.840    94734534.680 5      4215.663          34.375    23135141.460    94734538.685 7      4215.663          47.312
G04  23020553.760   120973855.481 7      5569.525          44.500    23020553.240   120973855.491 5      5569.525          31.437    23020570.240    94265398.042 5      4339.889          31.687    23020572.280    94265422.065 7      4339.889          46.125
R11  22710838.940   121359808.508 7      1708.870          44.750    22710838.480   121359808.520 7      1708.870          44.125    22710849.960    94391025.478 7      1329.121          44.750    22710850.460    94391025.468 7      1329.121          44.500
G22  23439747.860   123176708.954 6      3889.939          39.937    23439746.940   123176708.964 4      3889.939          29.375    23439753.200    95981875.325 4      3031.121          29.312
R20  20564303.200   109966563.792 6      2964.055          37.062    20564301.980   109966563.804 6      2964.055          37.250    20564314.980    85529599.323 7      2305.376          44.750    20564315.480    85529603.316 7      2305.376          45.312
G27  25460052.840   133793494.695 5      -707.249          34.812    25460051.060   133793494.708 5      -707.249          30.187    25460077.560   104254647.545 4      -551.103          29.750    25460077.260   104254777.554 6      -551.103          39.375
> 2024 05 06 16 07 13.0000000  0 13
G02  21730842.800   114196338.869 7      2014.284          46.312    21730841.420   114196338.876 6      2014.284          40.312    21730843.860    88984162.481 6      1569.572          40.250
G03  19931740.240   104742009.495 8      2739.680          49.062    19931739.600   104742009.497 8      2739.680          50.937    19931745.640    81617181.386 8      2134.816          51.125    19931746.260    81617185.385 8      2134.816          51.062
G14  22012512.360   115676517.365 7      2559.448          44.125    22012511.120   115676517.378 5      2559.448          35.375    22012518.560    90137566.486 5      1994.375          35.500    22012518.540    90137569.487 8      1994.375          49.625
R05  19805554.960   105872050.688 8      1862.369          49.375    19805554.660   105872050.692 8      1862.369          49.125    19805564.140    82344974.610 8      1448.509          51.000    19805563.820    82344972.613 8      1448.509          50.687
G08  22262570.940   116990542.981 7       -19.200          44.812    22262570.280   116990542.978 7       -19.200          44.625    22262582.000    91161485.162 7       -14.961          44.312    22262583.960    91161491.167 7       -14.961          47.500
G21  22317772.440   117280664.456 7      1276.410          46.687    22317770.660   117280664.458 6      1276.410          36.437    22317775.200    91387541.000 6       994.605          36.750
R04  22979742.800   123055464.683 7     -1100.925          44.062    22979745.420   123055464.720 7     -1100.925          42.937    22979754.560    95709869.686 7      -856.275          45.500    22979754.300    95709866.690 7      -856.275          45.562
G17  23134106.320   121570562.015 7      5410.176          42.437    23134105.660   121570562.015 5      5410.176          34.875    23134111.440    94730319.107 5      4215.721          34.375    23134111.880    94730323.110 7      4215.721          46.875
G04  23019494.040   120968286.015 7      5569.606          44.937    23019493.580   120968286.026 5      5569.606          31.312    23019510.320    94261058.220 5      4339.953          31.687    23019512.360    94261082.238 7      4339.953          45.562
R11  22710518.820   121358100.083 7      1708.145          45.625    22710519.380   121358100.084 7      1708.145          43.937    22710530.780    94389696.684 7      1328.558          44.875    22710530.920    94389696.682 7      1328.558          44.312
G22  23439007.540   123172819.237 6      3889.803          39.812    23439006.760   123172819.244 4      3889.803          29.375    23439012.960    95978844.377 4      3031.016          29.312
R20  20563748.260   109963599.409 6      2964.503          37.062    20563747.840   109963599.411 6      2964.503          37.062    20563760.660    85527293.682 7      2305.724          45.062    20563761.420    85527297.671 7      2305.724          44.875
G27  25460186.500   133794202.025 5      -707.274          34.500    25460185.580   133794202.041 5      -707.274          30.187    25460212.140   104255198.724 5      -551.123          30.375    25460211.720   104255328.754 6      -551.123          39.312
> 2024 05 06 16 07 14.0000000  0 13
G02  21730459.620   114194324.627 7      2014.321          47.812    21730458.040   114194324.629 6      2014.321          40.000    21730460.380    88982592.938 6      1569.601          39.750
G03  19931218.800   104739270.147 8      2739.108          48.625    19931218.340   104739270.147 8      2739.108          51.375    19931224.420    81615046.828 8      2134.369          51.312    19931224.940    81615050.829 8      2134.369          51.437
G14  22012025.160   115673958.079 7      2559.031          43.750    22012024.280   115673958.089 5      2559.031          35.875    22012031.640    90135572.230 5      1994.050          35.625    22012031.720    90135575.226 8      1994.050          50.062
R05  19805206.780   105870188.691 8      1861.649          49.375    19805206.460   105870188.690 8      1861.649          50.125    19805215.740    82343526.386 8      1447.949          51.125    19805215.640    82343524.385 8      1447.949          50.625
G08  22262574.760   116990562.309 7       -19.466          45.312    22262573.960   116990562.308 7       -19.466          44.562    22262585.540    91161500.215 7       -15.168          44.187    22262588.000    91161506.224 7       -15.168          47.562
G21  22317529.340   117279388.044 7      1276.420          47.000    22317527.620   117279388.049 6      1276.420          36.625    22317532.240    91386546.396 6       994.613          36.562
R04  22979948.140   123056565.881 7     -1101.339          44.625    22979950.720   123056565.921 7     -1101.339          43.312    22979960.240    95710726.176 7      -856.597          45.000    22979959.980    95710723.186 7      -856.597          45.187
G17  23133076.920   121565151.911 7      5410.141          44.125    23133075.960   121565151.914 5      5410.141          34.750    23133081.880    94726103.448 5      4215.695          34.437    23133082.340    94726107.449 7      4215.695          46.750
G04  23018433.800   120962716.484 7      5569.583          44.500    23018433.840   120962716.495 5      5569.583          31.312    23018450.500    94256718.342 5      4339.935          31.500    23018452.220    94256742.365 7      4339.935          45.375
R11  22710199.100   121356392.154 7      1707.662          45.687    22710199.940   121356392.156 7      1707.662          44.500    22710211.540    94388368.289 7      1328.182          45.250    22710211.320    94388368.285 7      1328.182          44.750
G22  23438267.200   123168929.888 6      3889.112          40.562    23438266.560   123168929.898 4      3889.112          29.375    23438272.860    95975813.719 4      3030.477          29.000
R20  20563193.880   109960635.011 6      2964.497          37.062    20563193.780   109960635.033 6      2964.497          37.062    20563206.600    85524988.057 7      2305.720          44.687    20563206.840    85524992.046 7      2305.720          45.500
G27  25460321.260   133794909.314 5      -707.099          34.500    25460320.220   133794909.329 5      -707.099          30.187    25460346.840   104255749.870 5      -550.986          30.375    25460346.500   104255879.869 6      -550.986          39.312
> 2024 05 06 16 07 15.0000000  0 13
G02  21730076.300   114192310.238 7      2014.199          47.312    21730074.720   114192310.243 6      2014.199          39.562    21730077.100    88981023.286 6      1569.505          39.500
G03  19930697.820   104736531.162 8      2738.567          49.625    19930697.000   104736531.167 8      2738.567          51.625    19930703.140    81612912.562 8      2133.948          51.000    19930703.640    81612916.563 8      2133.948          51.562
G14  22011538.480   115671399.190 7      2558.410          43.875    22011537.340   115671399.200 5      2558.410          35.937    22011544.660    90133578.286 5      1993.567          35.937    22011544.800    90133581.286 8      1993.567          49.937
R05  19804858.580   105868327.427 8      1860.619          51.250    19804858.160   105868327.428 8      1860.619          50.500    19804867.600    82342078.740 8      1447.148          51.125    19804867.340    82342076.735 8      1447.148          51.187
G08  22262578.440   116990581.787 7       -19.904          45.312    22262577.600   116990581.789 7       -19.904          44.750    22262589.340    91161515.384 7       -15.510          44.500    22262591.360    91161521.391 7       -15.510          47.500
G21  22317286.360   117278111.444 7      1276.400          46.687    22317284.760   117278111.449 6      1276.400          36.625    22317289.440    91385551.640 6       994.597          36.562
R04  22980153.420   123057667.294 7     -1101.788          45.062    22980156.000   123057667.333 7     -1101.788          43.312    22980166.020    95711582.834 7      -856.947          45.500    22980165.640    95711579.838 7      -856.947          46.250
G17  23132047.500   121559741.666 7      5410.073          43.312    23132046.340   121559741.663 5      5410.073          34.750    23132052.340    94721887.675 5      4215.641          34.125    23132052.940    94721891.682 7      4215.641          47.000
G04  23017373.900   120957146.877 7      5569.377          44.125    23017373.980   120957146.885 5      5569.377          31.312    23017390.700    94252378.405 5      4339.775          31.500    23017392.240    94252402.429 7      4339.775          45.625
R11  22709879.800   121354684.678 7      1706.997          46.375    22709880.200   121354684.687 7      1706.997          45.625    22709892.520    94387040.257 7      1327.664          45.312    22709891.940    94387040.256 7      1327.664          44.875
G22  23437527.120   123165040.846 6      3888.602          41.687    23437526.360   123165040.854 4      3888.602          29.562    23437532.580    95972783.295 4      3030.080          29.000
R20  20562639.920   109957670.604 6      2964.185          37.062    20562639.380   109957670.608 6      2964.185          37.062    20562652.120    85522682.397 7      2305.477          45.000    20562652.520    85522686.395 7      2305.477          45.437
G27  25460455.540   133795616.476 5      -707.379          34.750    25460454.960   133795616.496 5      -707.379          30.250    25460481.260   104256300.922 5      -551.205          30.375    25460481.220   104256430.954 6      -551.205          39.312
> 2024 05 06 16 07 16.0000000  0 13
G02  21729692.960   114190295.975 8      2014.344          48.062    21729691.440   114190295.977 6      2014.344          40.000    21729693.820    88979453.731 6      1569.618          39.875
G03  19930176.700   104733792.842 8      2738.119          49.750    19930176.000   104733792.844 8      2738.119          51.750    19930182.120    81610778.806 8      2133.599          51.562    19930182.620    81610782.807 8      2133.599          51.625
G14  22011051.380   115668841.015 7      2557.791          43.625    22011050.660   115668841.027 6      2557.791          36.187    22011057.780    90131584.905 6      1993.084          36.000    22011057.780    90131587.903 8      1993.084          49.812
R05  19804510.520   105866467.146 8      1859.869          51.187    19804510.520   105866467.152 8      1859.869          50.625    19804519.580    82340631.861 8      1446.564          50.937    19804519.200    82340629.860 8      1446.564          50.750
G08  22262582.200   116990601.648 7       -19.902          46.312    22262581.400   116990601.650 7       -19.902          44.937    22262593.080    91161530.850 7       -15.508          44.250    22262594.940    91161536.857 7       -15.508          47.500
G21  22317043.580   117276834.933 7      1276.565          46.625    22317041.780   117276834.940 6      1276.565          36.562    22317046.360    91384556.956 6       994.726          37.000
R04  22980359.160   123058769.191 7     -1101.998          45.062    22980361.520   123058769.238 7     -1101.998          43.812    22980372.040    95712439.878 7      -857.109          45.687    22980371.560    95712436.883 7      -857.109          46.000
G17  23131017.980   121554331.554 7      5410.236          43.437    23131017.000   121554331.554 5      5410.236          34.500    23131022.780    94717672.009 5      4215.768          34.125    23131023.120    94717676.018 7      4215.768          46.937
G04  23016314.240   120951577.428 7      5569.476          44.687    23016314.160   120951577.430 5      5569.476          31.750    23016330.800    94248038.592 5      4339.851          31.500    23016332.760    94248062.625 7      4339.851          45.750
R11  22709560.380   121352977.989 7      1706.474          45.687    22709560.720   121352977.996 7      1706.474          45.500    22709573.040    94385712.825 7      1327.257          45.312    22709572.220    94385712.829 7      1327.257          44.750
G22  23436786.980   123161152.343 6      3888.372          41.000    23436786.440   123161152.351 4      3888.372          29.562    23436792.760    95969753.297 4      3029.900          29.000
R20  20562086.020   109954706.387 6      2964.267          37.562    20562084.780   109954706.394 6      2964.267          37.062    20562097.780    85520376.901 7      2305.541          45.437    20562098.400    85520380.901 7      2305.541          45.000
G27  25460590.580   133796323.893 5      -707.446          34.750    25460589.360   133796323.911 5      -707.446          30.250    25460615.780   104256852.168 5      -551.257          30.375    25460615.320   104256982.177 6      -551.257          38.875
> 2024 05 06 16 07 17.0000000  0 13
G02  21729309.720   114188281.762 7      2014.144          46.937    21729308.160   114188281.767 6      2014.144          39.562    21729310.620    88977884.212 6      1569.463          39.750
G03  19929655.760   104731055.071 8      2737.509          48.437    19929655.000   104731055.076 8      2737.509          49.812    19929661.100    81608645.476 8      2133.124          50.812    19929661.880    81608649.475 8      2133.124          50.687
G14  22010565.060   115666283.394 7      2557.302          42.937    22010563.960   115666283.404 6      2557.302          36.062    22010571.160    90129591.952 5      1992.703          35.375    22010571.340    90129594.944 8      1992.703          49.562
R05  19804162.700   105864607.763 8      1858.900          48.875    19804162.640   105864607.762 8      1858.900          49.062    19804171.660    82339185.664 8      1445.811          50.812    19804171.580    82339183.661 8      1445.811          50.187
G08  22262585.940   116990621.880 7       -20.478          44.875    22262585.140   116990621.880 7       -20.478          43.687    22262596.920    91161546.603 7       -15.957          43.562    22262598.980    91161552.608 7       -15.957          47.375
G21  22316800.740   117275558.432 7      1276.397          46.250    22316799.000   117275558.442 6      1276.397          36.562    22316803.420    91383562.280 6       994.595          36.375
R04  22980565.080   123059871.490 7     -1102.335          44.875    22980567.600   123059871.513 7     -1102.335          43.812    22980577.760    95713297.196 7      -857.372          45.687    22980577.620    95713294.204 7      -857.372          46.000
G17  23129988.360   121548921.511 7      5409.944          43.000    23129987.660   121548921.511 5      5409.944          34.312    23129993.300    94713456.399 5      4215.541          34.250    23129993.440    94713460.407 7      4215.541          46.625
G04  23015254.660   120946008.068 7      5569.364          43.625    23015254.360   120946008.070 5      5569.364          31.750    23015270.960    94243698.852 5      4339.764          31.437    23015272.760    94243722.870 7      4339.764          45.562
R11  22709241.380   121351271.995 7      1705.650          44.625    22709241.360   121351271.996 7      1705.650          45.250    22709253.640    94384385.934 7      1326.617          44.875    22709253.420    94384385.931 7      1326.617          44.500
G22  23436047.220   123157264.355 6      3887.657          39.875    23436046.480   123157264.360 4      3887.657          29.562    23436052.840    95966723.700 4      3029.343          29.000
R20  20561531.640   109951742.306 6      2964.057          37.562    20561530.520   109951742.305 6      2964.057          37.062    20561543.420    85518071.497 7      2305.377          44.812    20561544.160    85518075.495 7      2305.377          45.125
G27  25460724.940   133797031.349 5      -707.627          34.750    25460724.160   133797031.367 5      -707.627          30.250    25460750.300   104257403.443 4      -551.397          29.687    25460749.660   104257533.467 6      -551.397          38.875
> 2024 05 06 16 07 18.0000000  0 13
G02  21728926.340   114186267.551 7      2013.833          47.125    21728924.920   114186267.554 6      2013.833          39.312    21728927.240    88976314.697 6      1569.220          39.187
G03  19929134.780   104728317.841 8      2736.699          48.000    19929134.160   104728317.846 8      2736.699          50.000    19929140.200    81606512.574 8      2132.493          50.062    19929140.880    81606516.571 8      2132.493          50.687
G14  22010078.280   115663726.349 7      2556.499          43.250    22010077.420   115663726.362 5      2556.499          35.812    22010084.520    90127599.447 5      1992.077          35.187    22010084.580    90127602.447 8      1992.077          49.000
R05  19803815.020   105862749.193 8      1857.913          49.062    19803814.820   105862749.197 8      1857.913          48.875    19803824.020    82337740.118 8      1445.043          50.750    19803823.620    82337738.115 8      1445.043          50.062
G08  22262589.740   116990642.351 7       -20.872          44.937    22262589.040   116990642.345 7       -20.872          44.187    22262600.860    91161562.546 7       -16.264          43.937    22262602.680    91161568.547 7       -16.264          47.000
G21  22316557.700   117274281.881 7      1276.240          46.875    22316556.140   117274281.889 6      1276.240          36.375    22316560.540    91382567.566 6       994.473          36.937
R04  22980771.260   123060974.155 7     -1103.128          43.187    22980772.920   123060974.178 7     -1103.128          42.375    22980783.920    95714154.825 7      -857.989          45.062    22980783.600    95714151.826 7      -857.989          45.937
G17  23128958.920   121543511.470 7      5409.675          43.000    23128958.240   121543511.470 5      5409.675          34.312    23128963.740    94709240.792 5      4215.331          34.250    23128963.780    94709244.801 7      4215.331          46.875
G04  23014194.800   120940438.778 7      5568.942          43.125    23014194.560   120940438.781 5      5568.942          31.750    23014211.080    94239359.168 5      4339.435          31.437    23014212.820    94239383.197 7      4339.435          45.750
R11  22708922.520   121349566.637 7      1704.756          44.750    22708922.020   121349566.630 7      1704.756          43.750    22708934.180    94383059.541 7      1325.921          44.250    22708934.040    94383059.547 7      1325.921          44.187
G22  23435307.980   123153376.838 6      3886.929          40.875    23435306.780   123153376.845 4      3886.929          29.562    23435312.960    95963694.466 4      3028.776          29.125
R20  20560977.460   109948778.322 6      2963.714          37.562    20560976.260   109948778.316 6      2963.714          37.437    20560989.140    85515766.180 7      2305.111          44.812    20560989.660    85515770.169 7      2305.111          44.562
G27  25460860.220   133797738.906 5      -708.035          34.250    25460858.920   133797738.919 5      -708.035          30.250    25460884.880   104257954.794 4      -551.716          29.687    25460884.320   104258084.797 6      -551.716          38.875
> 2024 05 06 16 07 19.0000000  0 13
G02  21728543.040   114184253.488 7      2014.266          46.687    21728541.740   114184253.493 6      2014.266          39.812    21728544.000    88974745.300 6      1569.558          40.000
G03  19928614.040   104725581.308 8      2736.442          48.437    19928613.380   104725581.315 8      2736.442          50.000    19928619.440    81604380.220 8      2132.292          50.562    19928620.200    81604384.219 8      2132.292          51.062
G14  22009591.720   115661170.053 7      2556.261          42.875    22009590.880   115661170.060 5      2556.261          35.625    22009598.020    90125607.522 5      1991.892          35.187    22009598.000    90125610.512 8      1991.892          49.125
R05  19803467.620   105860891.649 8      1857.336          50.062    19803467.200   105860891.656 8      1857.336          49.187    19803476.480    82336295.368 8      1444.595          50.875    19803476.060    82336293.364 8      1444.595          50.625
G08  22262593.800   116990663.305 7       -20.879          45.062    22262593.060   116990663.305 7       -20.879          44.187    22262604.940    91161578.870 7       -16.269          44.125    22262606.800    91161584.873 7       -16.269          47.437
G21  22316314.880   117273005.457 7      1276.677          47.187    22316313.080   117273005.462 6      1276.677          36.562    22316317.600    91381572.947 6       994.814          36.625
R04  22980977.240   123062077.351 7     -1103.162          43.187    22980978.580   123062077.382 7     -1103.162          42.375    22980990.220    95715012.868 7      -858.015          45.937    22980989.480    95715009.874 7      -858.015          45.875
G17  23127929.320   121538101.598 7      5410.074          43.812    23127928.760   121538101.597 5      5410.074          34.000    23127934.120    94705025.309 5      4215.642          33.687    23127934.340    94705029.312 7      4215.642          46.500
G04  23013135.040   120934869.699 7      5569.199          43.625    23013134.720   120934869.702 5      5569.199          31.375    23013151.220    94235019.649 5      4339.635          31.437    23013153.200    94235043.673 7      4339.635          45.875
R11  22708603.760   121347862.075 7      1704.462          44.125    22708603.180   121347862.074 7      1704.462          43.625    22708615.380    94381733.768 7      1325.692          44.625    22708615.240    94381733.771 7      1325.692          44.562
G22  23434568.060   123149489.909 6      3886.970          40.437    23434567.040   123149489.911 4      3886.970          29.187    23434573.200    95960665.686 4      3028.807          29.125
R20  20560423.840   109945814.603 6      2963.947          37.562    20560422.120   109945814.604 6      2963.947          37.437    20560434.980    85513461.065 7      2305.292          45.000    20560435.540    85513465.058 7      2305.292          45.687
G27  25460995.180   133798446.622 5      -707.629          34.250    25460993.680   133798446.630 5      -707.629          30.250    25461019.360   104258506.274 4      -551.399          29.687    25461019.100   104258636.299 6      -551.399          38.437
> 2024 05 06 16 07 20.0000000  0 13
G02  21728159.960   114182239.112 7      2014.196          46.812    21728158.440   114182239.120 6      2014.196          39.812    21728160.660    88973175.658 6      1569.503          39.687
G03  19928093.300   104722844.966 8      2735.827          48.500    19928092.660   104722844.968 8      2735.827          50.562    19928098.720    81602248.002 8      2131.813          51.000    19928099.540    81602252.003 8      2131.813          51.500
G14  22009105.380   115658613.951 7      2555.692          43.500    22009104.380   115658613.958 6      2555.692          36.125    22009111.560    90123615.754 5      1991.448          35.437    22009111.660    90123618.752 8      1991.448          49.312
R05  19803120.280   105859034.624 8      1856.416          48.375    19803119.900   105859034.627 8      1856.416          49.125    19803129.080    82334851.013 8      1443.879          50.812    19803128.740    82334849.007 8      1443.879          50.750
G08  22262598.080   116990684.218 7       -21.276          45.187    22262597.020   116990684.215 7       -21.276          44.500    22262608.840    91161595.155 7       -16.579          44.062    22262610.840    91161601.156 7       -16.579          47.187
G21  22316071.900   117271728.678 7      1276.662          46.250    22316070.200   117271728.685 6      1276.662          36.812    22316074.640    91380578.052 6       994.802          36.812
R04  22981183.020   123063180.589 7     -1103.681          43.312    22981184.420   123063180.620 6     -1103.681          41.687    22981196.280    95715870.949 7      -858.418          46.250    22981195.660    95715867.954 7      -858.418          46.375
G17  23126900.120   121532691.413 7      5409.977          43.687    23126899.260   121532691.410 5      5409.977          34.000    23126904.600    94700809.586 5      4215.567          34.187    23126904.740    94700813.589 7      4215.567          46.562
G04  23012075.300   120929300.331 7      5569.210          44.500    23012074.840   120929300.336 5      5569.210          31.375    23012091.480    94230679.902 5      4339.644          31.375    23012093.320    94230703.929 7      4339.644          45.812
R11  22708284.500   121346157.794 7      1703.933          44.875    22708284.300   121346157.793 7      1703.933          44.187    22708295.940    94380408.214 7      1325.281          44.687    22708296.300    94380408.229 7      1325.281          44.875
G22  23433828.280   123145603.116 6      3886.335          39.687    23433827.360   123145603.116 4      3886.335          29.187    23433833.560    95957637.016 4      3028.313          29.125
R20  20559869.260   109942850.634 6      2963.741          37.562    20559867.220   109942850.625 6      2963.741          37.437    20559880.940    85511155.750 7      2305.132          45.375    20559881.460    85511159.748 7      2305.132          45.000
G27  25461129.880   133799154.121 5      -707.775          34.250    25461128.280   133799154.128 4      -707.775          29.437    25461154.060   104259057.582 4      -551.513          29.687    25461152.940   104259187.618 6      -551.513          38.437
> 2024 05 06 16 07 21.0000000  0 13
G02  21727776.560   114180224.873 7      2014.025          47.250    21727775.040   114180224.878 6      2014.025          40.000    21727777.420    88971606.121 6      1569.370          40.062
G03  19927572.800   104720109.260 8      2735.333          48.437    19927572.100   104720109.263 8      2735.333          50.312    19927578.160    81600116.287 8      2131.428          50.750    19927579.160    81600120.286 8      2131.428          51.687
G14  22008619.300   115656058.556 7      2554.968          44.687    22008617.960   115656058.569 6      2554.968          36.187    22008625.500    90121624.536 5      1990.884          35.937    22008625.560    90121627.539 8      1990.884          49.625
R05  19802772.780   105857178.576 8      1855.443          49.750    19802772.720   105857178.583 8      1855.443          48.750    19802781.860    82333407.427 8      1443.123          51.187    19802781.740    82333405.419 8      1443.123          50.812
G08  22262602.060   116990705.530 7       -21.671          45.125    22262601.120   116990705.529 7       -21.671          44.250    22262612.980    91161611.754 7       -16.886          44.062    22262614.940    91161617.757 7       -16.886          47.500
G21  22315829.120   117270451.991 7      1276.519          47.062    22315827.420   117270451.995 6      1276.519          36.812    22315831.700    91379583.231 6       994.690          37.062
R04  22981389.180   123064284.293 7     -1104.082          43.312    22981390.400   123064284.325 6     -1104.082          41.687    22981402.320    95716729.377 7      -858.730          45.750    22981401.920    95716726.383 7      -858.730          46.437
G17  23125870.700   121527281.375 7      5409.874          43.625    23125869.840   121527281.372 5      5409.874          34.562    23125875.120    94696593.976 5      4215.487          34.187    23125875.020    94696597.971 7      4215.487          46.500
G04  23011015.460   120923731.163 7      5569.027          43.500    23011015.080   120923731.168 5      5569.027          31.375    23011031.640    94226340.311 5      4339.501          31.375    23011033.860    94226364.337 7      4339.501          45.687
R11  22707966.100   121344454.317 7      1703.097          44.750    22707965.500   121344454.326 7      1703.097          44.625    22707976.700    94379083.279 7      1324.631          44.937    22707977.500    94379083.280 7      1324.631          44.250
G22  23433088.760   123141716.886 6      3885.959          40.687    23433088.020   123141716.886 4      3885.959          29.187    23433093.920    95954608.793 4      3028.020          29.125
R20  20559314.640   109939886.861 6      2963.745          37.562    20559313.720   109939886.860 6      2963.745          37.437    20559326.440    85508850.598 7      2305.135          44.812    20559327.120    85508854.591 7      2305.135          44.937
G27  25461263.900   133799861.764 5      -707.730          34.500    25461262.780   133799861.766 4      -707.730          29.437    25461288.660   104259609.002 4      -551.478          29.250    25461288.660   104259739.017 6      -551.478          38.437
> 2024 05 06 16 07 22.0000000  0 13
G02  21727393.140   114178210.620 7      2014.228          47.375    21727391.780   114178210.623 6      2014.228          39.375    21727394.020    88970036.573 6      1569.529          39.000
G03  19927052.260   104717374.080 8      2734.947          48.937    19927051.540   104717374.085 7      2734.947          47.875    19927057.660    81597984.982 7      2131.128          47.625    19927058.540    81597988.981 7      2131.128          47.937
G14  22008133.300   115653503.713 7      2554.573          44.062    22008131.760   115653503.723 6      2554.573          36.000    22008139.160    90119633.745 5      1990.576          35.937    22008139.180    90119636.746 7      1990.576          47.312
R05  19802425.840   105855323.371 8      1854.798          49.375    19802425.760   105855323.372 8      1854.798          49.125    19802434.660    82331964.483 7      1442.620          47.812    19802434.560    82331962.480 7      1442.620          47.937
G08  22262606.320   116990727.117 7       -21.674          45.250    22262605.200   116990727.114 7       -21.674          43.312    22262617.140    91161628.563 7       -16.889          43.062    22262619.040    91161634.568 7       -16.889          46.250
G21  22315586.180   117269175.232 7      1276.796          47.312    22315584.400   117269175.240 6      1276.796          36.125    22315588.760    91378588.355 6       994.906          36.625
R04  22981595.240   123065388.349 7     -1104.159          43.750    22981597.340   123065388.380 6     -1104.159          41.875    22981608.360    95717588.084 7      -858.790          44.375    22981608.060    95717585.088 7      -858.790          45.250
G17  23124840.860   121521871.318 7      5410.047          43.625    23124840.440   121521871.313 5      5410.047          34.625    23124845.660    94692378.348 5      4215.621          34.437    23124846.060    94692382.355 7      4215.621          45.437
G04  23009955.740   120918162.031 7      5569.203          44.062    23009955.240   120918162.034 5      5569.203          31.437    23009971.860    94222000.744 5      4339.639          31.375    23009973.900    94222024.769 7      4339.639          45.125
R11  22707647.440   121342751.476 7      1702.504          45.250    22707646.720   121342751.474 7      1702.504          44.875    22707658.280    94377758.839 7      1324.170          43.812    22707658.680    94377758.842 7      1324.170          43.375
G22  23432349.280   123137831.113 6      3885.521          40.937    23432348.660   123137831.116 4      3885.521          29.187    23432354.360    95951580.920 4      3027.679          29.312
R20  20558759.620   109936923.198 6      2963.547          36.625    20558759.460   109936923.207 6      2963.547          37.437    20558772.000    85506545.536 7      2304.981          44.187    20558772.660    85506549.534 7      2304.981          43.562
G27  25461399.400   133800569.470 5      -707.385          34.500    25461397.520   133800569.470 4      -707.385          29.437    25461423.520   104260160.472 4      -551.209          29.250    25461423.020   104260290.467 6      -551.209          38.500
> 2024 05 06 16 07 23.0000000  0 13
G02  21727009.840   114176196.536 7      2013.744          47.312    21727008.520   114176196.541 6      2013.744          40.000    21727010.700    88968467.157 6      1569.151          39.750
G03  19926531.860   104714639.609 8      2733.886          49.437    19926531.220   104714639.614 8      2733.886          50.812    19926537.240    81595854.226 8      2130.301          50.875    19926538.340    81595858.229 8      2130.301          51.562
G14  22007646.960   115650949.589 7      2553.642          44.812    22007645.820   115650949.594 6      2553.642          36.312    22007653.080    90117643.515 5      1989.851          35.687    22007653.140    90117646.510 8      1989.851          49.625
R05  19802079.020   105853469.171 8      1853.477          48.625    19802078.720   105853469.170 8      1853.477          49.375    19802087.820    82330522.327 8      1441.594          50.812    19802087.760    82330520.326 8      1441.594          51.250
G08  22262610.480   116990749.165 7       -22.482          45.437    22262609.400   116990749.164 7       -22.482          44.125    22262621.340    91161645.739 7       -17.519          43.875    22262623.180    91161651.740 7       -17.519          47.437
G21  22315343.220   117267898.616 7      1276.370          46.562    22315341.440   117267898.621 6      1276.370          37.000    22315345.720    91377593.589 6       994.574          36.937
R04  22981801.880   123066492.961 7     -1105.141          43.062    22981803.660   123066493.005 6     -1105.141          41.875    22981814.780    95718447.233 7      -859.554          45.375    22981814.140    95718444.237 7      -859.554          45.687
G17  23123811.560   121516461.449 7      5409.547          43.562    23123811.120   121516461.446 5      5409.547          34.625    23123816.120    94688162.869 5      4215.232          34.437    23123816.240    94688166.874 7      4215.232          46.500
G04  23008895.940   120912593.129 7      5568.522          44.500    23008895.460   120912593.136 5      5568.522          31.437    23008911.880    94217661.358 5      4339.108          31.375    23008914.120    94217685.390 7      4339.108          45.375
R11  22707328.300   121341049.402 7      1701.405          44.750    22707328.220   121341049.408 7      1701.405          44.062    22707339.900    94376435.005 7      1323.315          43.937    22707340.000    94376435.010 7      1323.315          44.562
G22  23431610.160   123133945.958 6      3884.582          40.687    23431609.400   123133945.963 4      3884.582          29.437    23431615.100    95948553.529 4      3026.947          29.312
R20  20558206.260   109933959.805 6      2963.095          36.625    20558205.780   109933959.798 6      2963.095          36.812    20558217.840    85504240.660 7      2304.630          44.500    20558218.560    85504244.654 7      2304.630          44.937
G27  25461533.900   133801277.447 5      -708.289          34.500    25461532.060   133801277.441 4      -708.289          29.375    25461558.160   104260712.150 4      -551.913          29.250    25461558.080   104260842.159 6      -551.913          38.500
> 2024 05 06 16 07 24.0000000  0 13
G02  21726626.580   114174182.554 7      2014.176          47.437    21726625.220   114174182.562 6      2014.176          40.062    21726627.420    88966897.821 6      1569.488          39.625
G03  19926011.640   104711905.753 8      2733.776          49.625    19926011.080   104711905.755 8      2733.776          50.312    19926017.060    81593723.948 8      2130.215          50.750    19926017.740    81593727.949 8      2130.215          51.625
G14  22007161.120   115648396.120 7      2553.405          44.562    22007160.060   115648396.128 6      2553.405          36.187    22007167.240    90115653.800 5      1989.666          35.687    22007167.100    90115656.806 8      1989.666          49.875
R05  19801732.100   105851615.914 8      1853.038          49.312    19801731.940   105851615.913 8      1853.038          48.812    19801741.080    82329080.905 8      1441.252          51.000    19801740.940    82329078.900 8      1441.252          50.812
G08  22262614.680   116990771.599 7       -22.363          44.812    22262613.600   116990771.598 7       -22.363          44.187    22262625.700    91161663.207 7       -17.426          44.062    22262627.420    91161669.213 7       -17.426          47.875
G21  22315100.260   117266622.073 7      1276.676          46.937    22315098.520   117266622.081 6      1276.676          36.625    22315102.920    91376598.880 6       994.813          36.937
R04  22982007.680   123067598.025 7     -1105.073          43.062    22982010.420   123067598.072 6     -1105.073          41.687    22982020.920    95719306.724 7      -859.501          45.250    22982020.480    95719303.725 7      -859.501          45.875
G17  23122781.740   121511051.694 7      5409.971          43.562    23122781.740   121511051.697 5      5409.971          34.437    23122786.660    94683947.482 5      4215.562          34.437    23122787.040    94683951.477 7      4215.562          46.625
G04  23007836.280   120907024.367 7      5569.012          43.812    23007835.740   120907024.370 5      5569.012          31.187    23007852.020    94213322.080 5      4339.490          31.375    23007854.020    94213346.110 7      4339.490          45.312
R11  22707010.040   121339348.102 7      1701.230          45.500    22707010.040   121339348.106 7      1701.230          44.187    22707021.520    94375111.758 7      1323.179          44.062    22707021.880    94375111.763 7      1323.179          44.562
G22  23430871.080   123130061.336 6      3884.601          40.937    23430870.240   123130061.346 4      3884.601          29.437    23430875.900    95945526.554 4      3026.962          29.312
R20  20557651.800   109930996.612 6      2963.174          36.625    20557651.060   109930996.597 6      2963.174          36.812    20557663.940    85501935.953 7      2304.691          44.687    20557664.380    85501939.956 7      2304.691          44.875
G27  25461668.340   133801985.537 5      -708.010          34.500    25461666.800   133801985.539 4      -708.010          29.375    25461692.900   104261263.925 4      -551.696          29.250    25461691.940   104261393.963 6      -551.696          38.500
> 2024 05 06 16 07 25.0000000  0 13
G02  21726243.240   114172168.536 7      2013.842          47.750    21726241.980   114172168.543 6      2013.842          39.312    21726244.380    88965328.453 6      1569.227          39.562
G03  19925491.560   104709172.370 8      2732.970          49.750    19925490.840   104709172.378 8      2732.970          50.187    19925496.960    81591594.045 8      2129.587          50.750    19925497.560    81591598.044 8      2129.587          51.687
G14  22006675.400   115645843.166 7      2552.629          44.875    22006674.360   115645843.179 6      2552.629          36.187    22006681.400    90113664.484 6      1989.061          36.312    22006681.380    90113667.483 8      1989.061          50.312
R05  19801385.780   105849763.438 7      1851.899          47.937    19801385.260   105849763.437 8      1851.899          48.687    19801394.340    82327640.093 8      1440.366          50.937    19801394.360    82327638.085 8      1440.366          50.687
G08  22262618.900   116990794.266 7       -22.954          45.250    22262617.920   116990794.268 7       -22.954          44.312    22262629.940    91161680.864 7       -17.886          43.937    22262631.740    91161686.870 7       -17.886          47.937
G21  22314857.060   117265345.405 7      1276.640          46.750    22314855.600   117265345.412 6      1276.640          36.375    22314860.000    91375604.073 6       994.784          36.562
R04  22982214.160   123068703.352 7     -1105.604          43.375    22982216.980   123068703.399 6     -1105.604          41.687    22982227.340    95720166.425 7      -859.914          45.437    22982227.020    95720163.424 7      -859.914          46.187
G17  23121752.520   121505641.901 7      5409.663          43.187    23121752.060   121505641.900 5      5409.663          34.375    23121757.220    94679732.063 5      4215.322          34.125    23121757.400    94679736.059 7      4215.322          46.625
G04  23006776.560   120901455.614 7      5568.554          43.437    23006776.000   120901455.624 5      5568.554          31.187    23006792.140    94208982.818 5      4339.133          31.375    23006794.620    94209006.857 7      4339.133          45.687
R11  22706691.560   121337647.385 7      1700.301          44.375    22706691.800   121337647.389 7      1700.301          44.125    22706703.320    94373788.984 7      1322.457          44.437    22706703.240    94373788.987 7      1322.457          44.812
G22  23430131.900   123126177.158 6      3883.845          41.625    23430131.180   123126177.165 4      3883.845          29.437    23430136.740    95942499.920 4      3026.373          29.562
R20  20557098.400   109928033.422 6      2963.013          36.625    20557097.040   109928033.402 6      2963.013          36.812    20557109.700    85499631.241 7      2304.566          44.750    20557109.960    85499635.240 7      2304.566          44.812
G27  25461802.660   133802693.621 5      -708.185          34.500    25461801.540   133802693.626 4      -708.185          29.375    25461827.860   104261815.693 4      -551.833          29.500    25461828.100   104261945.717 6      -551.833          38.937
> 2024 05 06 16 07 26.0000000  0 13
G02  21725860.200   114170154.467 7      2014.169          47.375    21725858.760   114170154.469 6      2014.169          40.187    21725860.960    88963759.049 6      1569.482          40.062
G03  19924971.500   104706439.473 8      2732.766          50.125    19924970.800   104706439.478 8      2732.766          50.625    19924976.840    81589464.515 8      2129.428          51.125    19924977.480    81589468.518 8      2129.428          51.687
G14  22006189.580   115643290.746 7      2552.256          45.000    22006188.640   115643290.753 6      2552.256          36.125    22006195.540    90111675.582 5      1988.771          35.687    22006195.740    90111678.588 8      1988.771          50.062
R05  19801039.480   105847911.750 8      1851.357          48.875    19801038.880   105847911.757 8      1851.357          48.687    19801047.880    82326199.899 8      1439.944          50.625    19801047.800    82326197.894 8      1439.944          50.750
G08  22262623.360   116990817.186 7       -22.978          45.312    22262622.200   116990817.188 7       -22.978          43.812    22262634.300    91161698.716 7       -17.905          43.687    22262636.040    91161704.723 7       -17.905          47.687
G21  22314614.320   117264068.702 7      1276.797          46.625    22314612.540   117264068.709 6      1276.797          36.687    22314617.040    91374609.238 6       994.907          36.937
R04  22982420.900   123069809.013 7     -1105.728          43.375    22982423.300   123069809.050 6     -1105.728          41.750    22982433.820    95721026.375 7      -860.011          45.437    22982433.560    95721023.377 7      -860.011          46.812
G17  23120722.820   121500232.070 7      5409.924          43.562    23120722.700   121500232.070 5      5409.924          34.375    23120727.700    94675516.610 5      4215.525          34.125    23120728.240    94675520.619 7      4215.525          46.375
G04  23005717.000   120895886.874 7      5568.908          44.125    23005716.380   120895886.882 5      5568.908          31.187    23005732.600    94204643.561 5      4339.409          31.250    23005734.360    94204667.587 7      4339.409          45.625
R11  22706373.620   121335947.296 7      1699.800          44.500    22706373.320   121335947.292 7      1699.800          43.937    22706385.060    94372466.689 7      1322.066          44.250    22706385.220    94372466.691 7      1322.066          44.437
G22  23429393.040   123122293.369 6      3883.608          41.187    23429392.100   123122293.374 4      3883.608          29.937    23429397.660    95939473.587 4      3026.188          29.562
R20  20556544.480   109925070.293 6      2963.178          36.625    20556543.320   109925070.286 6      2963.178          36.812    20556555.380    85497326.598 7      2304.694          44.937    20556556.160    85497330.599 7      2304.694          44.062
G27  25461937.240   133803401.764 5      -708.255          34.500    25461936.340   133803401.774 4      -708.255          29.375    25461962.740   104262367.505 4      -551.887          29.500    25461962.340   104262497.545 6      -551.887          38.937
> 2024 05 06 16 07 27.0000000  0 13
G02  21725476.960   114168140.380 7      2014.131          47.562    21725475.540   114168140.385 6      2014.131          39.625    21725477.700    88962189.631 6      1569.453          39.625
G03  19924451.420   104703707.083 8      2732.185          49.125    19924450.860   104703707.088 8      2732.185          50.500    19924456.900    81587335.378 8      2128.976          50.812    19924457.640    81587339.379 8      2128.976          51.125
G14  22005703.720   115640738.840 7      2551.692          45.062    22005703.180   115640738.848 6      2551.692          36.125    22005709.840    90109687.080 5      1988.332          35.937    22005710.100    90109690.084 8      1988.332          49.875
R05  19800693.300   105846060.899 8      1850.513          48.312    19800692.720   105846060.900 8      1850.513          49.312    19800701.620    82324760.338 8      1439.288          50.687    19800701.440    82324758.335 8      1439.288          50.562
G08  22262627.740   116990840.355 7       -23.239          44.000    22262626.680   116990840.360 7       -23.239          43.875    22262638.760    91161716.758 7       -18.108          43.500    22262640.620    91161722.761 7       -18.108          47.250
G21  22314371.440   117262791.914 7      1276.850          46.812    22314369.520   117262791.919 6      1276.850          36.875    22314374.040    91373614.334 6       994.948          36.687
R04  22982627.660   123070915.028 7     -1106.205          43.312    22982630.180   123070915.060 6     -1106.205          41.750    22982640.240    95721886.603 7      -860.381          44.875    22982640.020    95721883.602 7      -860.381          45.937
G17  23119693.600   121494822.235 7      5409.848          44.125    23119693.240   121494822.239 5      5409.848          34.312    23119698.360    94671301.162 5      4215.466          34.125    23119698.640    94671305.161 7      4215.466          46.500
G04  23004657.260   120890318.189 7      5568.638          44.062    23004656.660   120890318.197 5      5568.638          31.312    23004672.940    94200304.346 5      4339.198          31.250    23004674.720    94200328.371 7      4339.198          45.812
R11  22706055.520   121334247.781 7      1699.182          44.812    22706055.220   121334247.783 7      1699.182          44.250    22706067.280    94371144.844 7      1321.586          44.375    22706067.440    94371144.842 7      1321.586          44.687
G22  23428654.280   123118410.000 6      3883.236          41.437    23428653.360   123118410.002 4      3883.236          29.937    23428658.640    95936447.585 4      3025.898          29.562
R20  20555989.680   109922107.237 6      2963.027          37.062    20555989.540   109922107.249 6      2963.027          36.812    20556000.940    85495022.005 7      2304.576          44.375    20556002.040    85495026.002 7      2304.576          43.687
G27  25462071.760   133804109.898 5      -708.257          34.750    25462071.220   133804109.916 4      -708.257          29.750    25462097.640   104262919.308 4      -551.889          29.500    25462097.320   104263049.348 6      -551.889          38.937
> 2024 05 06 16 07 28.0000000  0 13
G02  21725093.760   114166126.246 7      2014.132          46.250    21725092.160   114166126.248 6      2014.132          39.250    21725094.360    88960620.172 6      1569.454          39.437
G03  19923931.740   104700975.159 8      2731.648          48.187    19923930.940   104700975.158 8      2731.648          48.812    19923937.040    81585206.606 8      2128.557          49.562    19923937.700    81585210.607 8      2128.557          50.187
G14  22005218.260   115638187.444 7      2551.110          44.375    22005217.620   115638187.449 6      2551.110          36.000    22005224.440    90107698.973 6      1987.878          36.000    22005224.560    90107701.981 8      1987.878          49.312
R05  19800347.020   105844210.858 8      1849.601          48.562    19800346.620   105844210.861 8      1849.601          48.500    19800355.460    82323321.425 8      1438.579          49.500    19800355.500    82323319.420 8      1438.579          49.062
G08  22262632.420   116990863.764 7       -23.490          44.000    22262631.080   116990863.761 7       -23.490          43.687    22262643.320    91161734.988 7       -18.304          43.250    22262645.280    91161740.983 7       -18.304          46.937
G21  22314128.340   117261515.030 7      1276.914          46.562    22314126.580   117261515.040 6      1276.914          36.437    22314130.960    91372619.360 6       994.998          36.375
R04  22982834.220   123072021.335 7     -1106.432          43.312    22982836.400   123072021.356 6     -1106.432          41.812    22982846.580    95722747.060 7      -860.558          45.125    22982846.540    95722744.055 7      -860.558          45.625
G17  23118664.240   121489412.349 7      5409.891          43.562    23118663.580   121489412.354 5      5409.891          34.312    23118669.020    94667085.669 5      4215.499          34.312    23118669.140    94667089.670 7      4215.499          46.312
G04  23003597.460   120884749.468 7      5568.622          43.687    23003597.100   120884749.475 5      5568.622          31.312    23003613.080    94195965.097 5      4339.186          31.250    23003615.120    94195989.136 7      4339.186          45.062
R11  22705737.580   121332548.846 7      1698.631          44.062    22705737.080   121332548.850 7      1698.631          44.062    22705748.700    94369823.452 7      1321.158          43.750    22705749.220    94369823.446 7      1321.158          44.375
G22  23427915.380   123114527.054 6      3882.674          40.312    23427914.520   123114527.054 4      3882.674          29.937    23427919.760    95933421.909 4      3025.461          29.562
R20  20555435.560   109919144.226 6      2962.865          37.062    20555434.600   109919144.248 6      2962.865          36.750    20555446.960    85492717.451 7      2304.451          44.437    20555447.600    85492721.450 7      2304.451          44.062
G27  25462207.340   133804818.032 5      -708.005          34.750    25462205.900   133804818.050 4      -708.005          29.750    25462232.340   104263471.113 4      -551.692          29.500    25462232.580   104263601.137 6      -551.692          39.375
> 2024 05 06 16 07 29.0000000  0 13
G02  21724710.280   114164112.167 7      2014.003          46.687    21724708.880   114164112.169 6      2014.003          39.875    21724711.240    88959050.761 6      1569.353          39.625
G03  19923411.900   104698243.807 8      2731.051          49.375    19923411.120   104698243.811 8      2731.051          49.812    19923417.300    81583078.286 8      2128.091          50.312    19923417.780    81583082.287 8      2128.091          51.000
G14  22004732.900   115635636.650 7      2550.533          44.812    22004732.260   115635636.652 5      2550.533          35.812    22004739.040    90105711.342 5      1987.428          35.437    22004739.040    90105714.349 8      1987.428          49.937
R05  19800000.980   105842361.736 8      1848.610          49.562    19800000.800   105842361.742 8      1848.610          49.125    19800009.540    82321883.223 8      1437.808          50.437    19800009.480    82321881.214 8      1437.808          49.812
G08  22262636.900   116990887.519 7       -23.947          44.500    22262635.580   116990887.519 7       -23.947          44.125    22262647.660    91161753.488 7       -18.660          44.062    22262649.700    91161759.491 7       -18.660          47.375
G21  22313885.520   117260238.180 7      1276.793          46.250    22313883.620   117260238.185 6      1276.793          36.375    22313887.940    91371624.410 6       994.904          36.312
R04  22983040.860   123073128.060 7     -1107.038          43.187    22983043.000   123073128.086 6     -1107.038          41.812    22983052.860    95723607.845 7      -861.029          45.250    22983053.280    95723604.845 7      -861.029          45.375
G17  23117634.860   121484002.555 7      5409.581          43.750    23117634.180   121484002.560 5      5409.581          34.750    23117639.460    94662870.251 5      4215.258          34.312    23117639.960    94662874.254 7      4215.258          46.437
G04  23002537.620   120879180.869 7      5568.405          43.312    23002537.280   120879180.882 5      5568.405          31.312    23002553.360    94191625.952 5      4339.017          31.250    23002555.480    94191649.989 7      4339.017          45.062
R11  22705420.280   121330850.625 7      1697.853          44.312    22705419.060   121330850.631 7      1697.853          43.937    22705431.420    94368502.611 7      1320.553          43.687    22705431.680    94368502.610 7      1320.553          44.312
G22  23427176.400   123110644.595 6      3882.136          40.125    23427175.720   123110644.594 4      3882.136          29.937    23427181.100    95930396.616 4      3025.041          29.875
R20  20554881.440   109916181.386 6      2962.549          37.062    20554881.180   109916181.411 6      2962.549          36.750    20554892.880    85490413.022 7      2304.205          44.687    20554893.720    85490417.023 7      2304.205          44.937
G27  25462341.780   133805526.319 5      -708.250          35.187    25462340.600   133805526.329 4      -708.250          29.750    25462367.260   104264023.029 4      -551.883          29.687    25462367.480   104264153.047 6      -551.883          39.375
> 2024 05 06 16 07 30.0000000  0 13
G02  21724327.220   114162098.209 7      2014.043          47.500    21724325.740   114162098.214 6      2014.043          39.875    21724328.140    88957481.443 6      1569.384          39.625
G03  19922892.240   104695513.101 8      2730.538          49.437    19922891.480   104695513.106 8      2730.538          50.562    19922897.560    81580950.467 8      2127.692          51.062    19922898.120    81580954.468 8      2127.692          51.312
G14  22004247.540   115633086.518 7      2550.120          45.312    22004246.940   115633086.523 5      2550.120          35.875    22004253.760    90103724.228 5      1987.106          35.625    22004253.860    90103727.236 8      1987.106          49.687
R05  19799655.340   105840513.581 8      1847.836          48.812    19799655.060   105840513.582 8      1847.836          49.375    19799663.860    82320445.768 8      1437.206          50.875    19799663.720    82320443.758 8      1437.206          50.437
G08  22262641.440   116990911.664 7       -24.175          45.250    22262640.100   116990911.666 7       -24.175          44.187    22262652.360    91161772.294 7       -18.838          43.937    22262654.200    91161778.297 7       -18.838          47.625
G21  22313642.620   117258961.406 7      1276.879          47.062    22313640.700   117258961.408 6      1276.879          37.000    22313644.960    91370629.515 6       994.971          37.312
R04  22983247.660   123074235.210 7     -1107.198          43.187    22983249.420   123074235.236 6     -1107.198          41.812    22983259.920    95724468.975 7      -861.154          45.312    22983259.900    95724465.972 7      -861.154          45.250
G17  23116605.420   121478592.856 7      5409.762          43.250    23116604.640   121478592.859 5      5409.762          34.750    23116610.000    94658654.906 5      4215.399          34.125    23116610.200    94658658.907 7      4215.399          46.750
G04  23001477.780   120873612.432 7      5568.499          44.312    23001477.640   120873612.442 5      5568.499          31.062    23001493.560    94187286.926 5      4339.090          31.187    23001495.240    94187310.965 7      4339.090          45.250
R11  22705102.220   121329153.157 7      1697.129          45.250    22705101.880   121329153.169 7      1697.129          44.312    22705113.880    94367182.356 7      1319.989          44.125    22705113.940    94367182.363 7      1319.989          44.875
G22  23426437.800   123106762.711 6      3881.722          41.000    23426437.020   123106762.710 5      3881.722          30.187    23426442.540    95927371.771 4      3024.718          29.875
R20  20554326.140   109913218.698 6      2962.839          37.062    20554326.380   109913218.726 6      2962.839          36.750    20554338.960    85488108.709 7      2304.430          44.625    20554339.520    85488112.709 7      2304.430          44.750
G27  25462476.520   133806234.777 5      -708.352          35.187    25462475.380   133806234.787 4      -708.352          29.750    25462502.140   104264575.084 4      -551.963          29.687    25462501.440   104264705.108 6      -551.963          39.375
> 2024 05 06 16 07 31.0000000  0 13
G02  21723943.880   114160084.243 7      2014.018          47.000    21723942.400   114160084.245 6      2014.018          39.500    21723944.780    88955912.117 6      1569.365          39.625
G03  19922372.740   104692782.913 8      2730.009          49.187    19922372.000   104692782.918 8      2730.009          50.062    19922378.080    81578823.050 8      2127.280          50.625    19922378.460    81578827.049 8      2127.280          51.812
G14  22003762.360   115630536.998 7      2549.222          44.812    22003761.880   115630537.011 5      2549.222          35.500    22003768.660    90101737.591 5      1986.407          35.375    22003768.740    90101740.593 8      1986.407          49.875
R05  19799309.600   105838666.239 8      1846.970          49.500    19799309.320   105838666.249 8      1846.970          48.125    19799318.140    82319008.953 8      1436.533          51.062    19799318.120    82319006.945 8      1436.533          50.375
G08  22262646.220   116990936.107 7       -24.547          45.125    22262644.860   116990936.110 7       -24.547          43.875    22262657.080    91161791.329 7       -19.128          43.875    22262658.780    91161797.330 7       -19.128          47.375
G21  22313399.640   117257684.577 7      1276.894          46.500    22313397.720   117257684.582 6      1276.894          36.875    22313402.160    91369634.583 6       994.982          37.000
R04  22983454.820   123075342.762 7     -1107.711          43.000    22983455.980   123075342.796 6     -1107.711          41.375    22983466.360    95725330.408 7      -861.553          44.375    22983466.440    95725327.414 7      -861.553          44.750
G17  23115575.980   121473183.186 7      5409.672          44.437    23115575.160   121473183.183 5      5409.672          34.187    23115580.600    94654439.578 5      4215.329          34.125    23115580.720    94654443.579 7      4215.329          46.375
G04  23000418.340   120868044.044 7      5568.488          43.937    23000417.880   120868044.051 5      5568.488          31.062    23000433.960    94182947.945 5      4339.081          31.187    23000435.780    94182971.971 7      4339.081          44.937
R11  22704784.660   121327456.298 7      1696.673          44.750    22704784.240   121327456.302 7      1696.673          43.875    22704796.060    94365862.569 7      1319.634          44.312    22704796.200    94365862.575 7      1319.634          44.625
G22  23425699.220   123102881.286 6      3881.138          41.062    23425698.320   123102881.286 5      3881.138          30.187    23425703.980    95924347.289 4      3024.263          29.875
R20  20553772.060   109910256.139 6      2962.709          37.062    20553772.560   109910256.170 6      2962.709          36.750    20553784.580    85485804.503 7      2304.329          44.312    20553785.720    85485808.509 7      2304.329          44.500
G27  25462612.120   133806943.250 5      -708.430          35.187    25462610.240   133806943.266 4      -708.430          29.937    25462636.780   104265127.154 4      -552.024          29.687    25462636.120   104265257.179 6      -552.024          39.250
> 2024 05 06 16 07 32.0000000  0 13
G02  21723560.760   114158070.437 7      2013.758          47.812    21723559.080   114158070.442 6      2013.758          39.750    21723561.560    88954342.924 6      1569.162          39.500
G03  19921853.060   104690053.413 8      2729.208          49.312    19921852.580   104690053.418 8      2729.208          50.375    19921858.640    81576696.169 8      2126.655          50.875    19921859.120    81576700.168 8      2126.655          51.750
G14  22003277.580   115627988.143 7      2548.454          45.375    22003276.840   115627988.156 5      2548.454          35.875    22003283.540    90099751.468 5      1985.808          35.812    22003283.900    90099754.472 8      1985.808          49.750
R05  19798964.300   105836819.892 8      1845.913          50.000    19798964.280   105836819.898 8      1845.913          49.125    19798972.760    82317572.903 8      1435.710          50.687    19798972.720    82317570.901 8      1435.710          50.250
G08  22262650.840   116990960.964 7       -25.045          44.250    22262649.600   116990960.969 7       -25.045          44.187    22262661.880    91161810.693 7       -19.516          44.000    22262663.480    91161816.698 7       -19.516          47.187
G21  22313156.720   117256407.869 7      1276.662          46.937    22313154.700   117256407.876 6      1276.662          36.562    22313159.140    91368639.745 6       994.801          37.062
R04  22983661.820   123076450.804 7     -1108.286          43.000    22983662.780   123076450.843 6     -1108.286          41.375    22983673.100    95726192.225 7      -862.001          44.062    22983673.180    95726189.232 7      -862.001          44.875
G17  23114546.480   121467773.653 7      5409.467          44.687    23114545.700   121467773.655 5      5409.467          34.187    23114551.200    94650224.361 5      4215.169          34.000    23114551.620    94650228.364 7      4215.169          46.375
G04  22999358.860   120862475.874 7      5568.131          43.500    22999358.280   120862475.884 5      5568.131          31.062    22999374.480    94178609.129 5      4338.803          31.187    22999376.420    94178633.160 7      4338.803          44.875
R11  22704467.160   121325760.265 7      1695.764          44.625    22704467.240   121325760.274 7      1695.764          44.000    22704478.680    94364543.428 7      1318.927          43.500    22704478.980    94364543.426 7      1318.927          45.562
G22  23424960.520   123099000.406 6      3880.661          41.187    23424959.840   123099000.408 5      3880.661          30.187    23424965.440    95921323.226 5      3023.891          30.125
R20  20553218.380   109907293.879 6      2961.962          36.687    20553219.580   109907293.915 6      2961.962          36.750    20553230.440    85483500.529 7      2303.748          44.812    20553231.760    85483504.535 7      2303.748          44.625
G27  25462746.520   133807651.968 5      -708.513          35.187    25462745.220   133807651.981 4      -708.513          29.937    25462771.640   104265679.408 4      -552.088          29.687    25462771.160   104265809.423 6      -552.088          39.250
> 2024 05 06 16 07 33.0000000  0 13
G02  21723177.500   114156056.699 8      2013.756          48.062    21723175.980   114156056.704 6      2013.756          39.625    21723178.340    88952773.774 6      1569.160          39.625
G03  19921333.980   104687324.492 8      2728.693          49.312    19921333.320   104687324.494 8      2728.693          50.500    19921339.340    81574569.739 8      2126.254          50.812    19921339.840    81574573.734 8      2126.254          51.250
G14  22002792.800   115625439.908 7      2547.976          45.875    22002792.060   115625439.921 6      2547.976          36.062    22002798.580    90097765.828 5      1985.436          35.875    22002799.060    90097768.838 8      1985.436          50.000
R05  19798619.360   105834974.461 8      1844.997          50.562    19798618.860   105834974.468 8      1844.997          49.125    19798627.460    82316137.572 8      1434.998          50.625    19798627.520    82316135.568 8      1434.998          50.437
G08  22262655.660   116990986.185 7       -25.321          44.812    22262654.300   116990986.188 7       -25.321          44.125    22262666.600    91161830.336 7       -19.731          43.875    22262668.500    91161836.339 7       -19.731          47.500
G21  22312913.740   117255131.179 7      1276.779          46.937    22312911.760   117255131.181 6      1276.779          36.500    22312916.180    91367644.920 6       994.892          36.875
R04  22983868.760   123077559.285 7     -1108.681          42.500    22983870.120   123077559.319 6     -1108.681          41.125    22983879.820    95727054.377 7      -862.307          44.187    22983880.260    95727051.382 7      -862.307          44.875
G17  23113517.060   121462364.211 7      5409.440          43.562    23113516.360   121462364.216 5      5409.440          34.187    23113521.660    94646009.214 5      4215.148          34.500    23113522.220    94646013.221 7      4215.148          46.500
G04  22998299.320   120856907.819 7      5568.099          44.000    22998298.900   120856907.824 5      5568.099          31.000    22998314.940    94174270.406 5      4338.779          31.125    22998316.660    94174294.431 7      4338.779          44.750
R11  22704149.640   121324064.940 7      1695.093          45.687    22704150.300   121324064.938 7      1695.093          44.375    22704161.600    94363224.827 7      1318.405          44.187    22704161.600    94363224.831 7      1318.405          44.500
G22  23424222.180   123095120.119 6      3879.889          40.937    23424221.240   123095120.126 5      3879.889          30.250    23424227.140    95918299.628 5      3023.290          30.125
R20  20552663.780   109904331.735 6      2962.214          36.687    20552665.300   109904331.731 6      2962.214          37.000    20552676.720    85481196.608 7      2303.944          44.875    20552677.720    85481200.605 7      2303.944          44.312
G27  25462881.200   133808360.793 5      -708.568          35.187    25462880.000   133808360.798 4      -708.568          29.937    25462906.480   104266231.747 4      -552.131          29.625    25462905.540   104266361.765 6      -552.131          39.250
> 2024 05 06 16 07 34.0000000  0 12
G02  21722794.220   114154042.852 8      2013.809          48.062    21722792.680   114154042.856 6      2013.809          39.687    21722795.060    88951204.542 6      1569.201          39.687
G03  19920814.820   104684595.965 8      2728.343          50.000    19920814.120   104684595.969 8      2728.343          49.687    19920820.160    81572443.618 8      2125.982          50.000    19920820.720    81572447.615 8      2125.982          50.375
G14  22002307.780   115622892.101 7      2547.655          45.500    22002307.300   115622892.114 6      2547.655          36.250    22002313.740    90095780.524 5      1985.186          35.875    22002314.100    90095783.536 8      1985.186          49.250
R05  19798274.340   105833129.760 8      1844.275          49.375    19798273.900   105833129.764 8      1844.275          49.000    19798282.500    82314702.802 8      1434.436          50.687    19798282.580    82314700.799 8      1434.436          50.062
G08  22262660.580   116991011.559 7       -25.473          45.250    22262659.160   116991011.561 7       -25.473          44.250    22262671.380    91161850.102 7       -19.849          43.750    22262673.300    91161856.101 7       -19.849          46.750
G21  22312670.780   117253854.339 7      1276.862          45.875    22312668.800   117253854.342 6      1276.862          36.562    22312673.260    91366649.984 6       994.958          36.562
R04  22984075.780   123078667.993 7     -1108.905          42.500    22984077.540   123078668.030 6     -1108.905          41.125    22984086.560    95727916.710 7      -862.482          44.312    22984087.420    95727913.719 7      -862.482          43.937
G17  23112487.800   121456954.646 7      5409.571          42.687    23112487.040   121456954.648 5      5409.571          34.875    23112492.200    94641793.979 5      4215.250          34.500    23112493.000    94641797.978 7      4215.250          46.375
G04  22997239.900   120851339.692 7      5568.166          43.750    22997239.240   120851339.696 5      5568.166          31.000    22997255.220    94169931.628 5      4338.831          31.125    22997257.440    94169955.656 7      4338.831          44.875
R11  22703832.740   121322370.101 7      1694.548          45.375    22703833.060   121322370.104 7      1694.548          44.187    22703844.940    94361906.627 7      1317.982          44.250    22703845.020    94361906.623 7      1317.982          44.812
G22  23423483.780   123091240.113 6      3879.834          40.812    23423482.740   123091240.124 5      3879.834          30.250    23423488.680    95915276.247 5      3023.247          30.125
R20  20552110.280   109901369.566 6      2962.080          36.687    20552111.460   109901369.578 6      2962.080          37.000    20552122.580    85478892.709 7      2303.840          44.687    20552123.720    85478896.709 7      2303.840          43.687
> 2024 05 06 16 07 35.0000000  0 12
G02  21722411.140   114152029.069 8      2013.622          48.000    21722409.500   114152029.069 6      2013.622          39.750    21722411.920    88949635.361 6      1569.056          39.687
G03  19920295.740   104681868.049 8      2727.572          49.437    19920295.000   104681868.057 8      2727.572          50.250    19920301.020    81570317.972 8      2125.381          50.625    19920301.780    81570321.969 8      2125.381          51.312
G14  22001823.180   115620344.970 7      2546.688          45.687    22001822.520   115620344.982 5      2546.688          35.500    22001829.120    90093795.747 5      1984.432          35.437    22001829.380    90093798.752 8      1984.432          49.750
R05  19797929.600   105831285.981 8      1843.222          48.750    19797929.080   105831285.987 8      1843.222          48.812    19797937.580    82313268.756 8      1433.617          50.875    19797937.380    82313266.756 8      1433.617          50.437
G08  22262665.400   116991037.306 7       -26.056          45.000    22262664.180   116991037.309 7       -26.056          44.125    22262676.340    91161870.154 7       -20.303          44.000    22262678.180    91161876.157 7       -20.303          47.812
G21  22312427.680   117252577.534 7      1276.676          45.250    22312425.740   117252577.539 6      1276.676          36.375    22312430.440    91365655.067 6       994.812          36.437
R04  22984282.740   123079777.144 7     -1109.509          42.187    22984284.220   123079777.186 6     -1109.509          41.125    22984293.980    95728779.390 7      -862.952          43.625    22984294.260    95728776.400 7      -862.952          44.812
G17  23111458.380   121451545.176 7      5409.398          43.187    23111457.380   121451545.180 5      5409.398          34.875    23111462.800    94637578.811 5      4215.116          34.500    23111463.280    94637582.810 7      4215.116          46.375
G04  22996180.060   120845771.713 7      5567.810          43.687    22996179.800   120845771.721 5      5567.810          31.000    22996195.660    94165592.960 5      4338.553          31.125    22996197.440    94165616.987 7      4338.553          44.937
R11  22703515.720   121320675.983 7      1693.628          44.625    22703515.760   121320675.998 7      1693.628          44.625    22703527.740    94360588.976 7      1317.267          44.312    22703528.120    94360588.985 7      1317.267          44.562
G22  23422745.240   123087360.660 6      3879.078          39.875    23422744.260   123087360.665 5      3879.078          30.250    23422750.460    95912253.298 5      3022.659          30.125
R20  20551556.060   109898407.579 6      2961.756          36.687    20551556.980   109898407.580 6      2961.756          37.000    20551568.740    85476588.933 7      2303.588          44.375    20551569.700    85476592.933 7      2303.588          44.687
> 2024 05 06 16 07 36.0000000  0 12
G02  21722027.720   114150015.332 8      2013.795          48.312    21722026.300   114150015.337 6      2013.795          39.937    21722028.740    88948066.215 6      1569.191          39.500
G03  19919776.580   104679140.715 8      2727.183          49.125    19919775.960   104679140.717 8      2727.183          50.375    19919782.040    81568192.774 8      2125.078          51.062    19919782.880    81568196.771 8      2125.078          51.312
G14  22001338.420   115617798.403 7      2546.428          46.062    22001337.860   115617798.416 6      2546.428          36.500    22001344.580    90091811.407 5      1984.230          35.812    22001344.820    90091814.411 8      1984.230          49.750
R05  19797584.620   105829443.094 8      1842.495          49.187    19797584.420   105829443.098 8      1842.495          48.250    19797592.740    82311835.396 8      1433.052          50.937    19797592.680    82311833.396 8      1433.052          50.312
G08  22262670.420   116991063.390 7       -26.192          44.375    22262669.160   116991063.389 7       -26.192          44.250    22262681.220    91161890.466 7       -20.409          44.125    22262683.420    91161896.468 7       -20.409          47.937
G21  22312184.680   117251300.744 7      1276.830          46.125    22312182.800   117251300.746 6      1276.830          36.250    22312187.440    91364660.164 6       994.933          36.437
R04  22984490.160   123080886.698 7     -1109.730          42.187    22984491.440   123080886.737 6     -1109.730          41.250    22984501.420    95729642.375 7      -863.123          44.375    22984501.600    95729639.387 7      -863.123          44.750
G17  23110429.020   121446135.768 7      5409.494          43.687    23110428.020   121446135.770 5      5409.494          34.812    23110433.320    94633363.691 5      4215.191          34.500    23110434.040    94633367.690 7      4215.191          46.250
G04  22995120.280   120840203.812 7      5567.943          43.875    22995120.240   120840203.819 5      5567.943          31.000    22995136.120    94161254.356 5      4338.657          30.937    22995138.080    94161278.380 7      4338.657          45.125
R11  22703199.140   121318982.560 7      1693.135          45.437    22703198.780   121318982.559 7      1693.135          44.187    22703210.720    94359271.857 7      1316.883          44.625    22703210.780    94359271.868 7      1316.883          44.687
G22  23422007.120   123083481.661 6      3878.941          39.812    23422006.020   123083481.671 5      3878.941          30.250    23422012.420    95909230.708 4      3022.551          29.125
R20  20551001.540   109895445.709 6      2961.937          36.687    20551003.040   109895445.713 6      2961.937          37.000    20551014.660    85474285.259 7      2303.729          44.687    20551015.580    85474289.250 7      2303.729          43.687
> 2024 05 06 16 07 37.0000000  0 12
G02  21721644.520   114148001.474 8      2013.788          48.125    21721643.120   114148001.476 6      2013.788          39.312    21721645.480    88946496.970 6      1569.186          39.250
G03  19919257.760   104676413.772 8      2726.563          49.750    19919256.980   104676413.777 8      2726.563          50.312    19919263.140    81566067.890 8      2124.595          50.875    19919263.860    81566071.888 8      2124.595          51.312
G14  22000854.080   115615252.302 7      2545.701          45.875    22000853.380   115615252.309 6      2545.701          36.000    22000859.940    90089827.430 6      1983.663          36.062    22000860.180    90089830.431 8      1983.663          49.062
R05  19797239.860   105827600.914 8      1841.639          49.937    19797239.620   105827600.915 8      1841.639          48.937    19797248.260    82310402.590 8      1432.386          50.312    19797248.300    82310400.589 8      1432.386          50.312
G08  22262675.440   116991089.618 7       -26.548          45.000    22262674.140   116991089.620 7       -26.548          44.250    22262686.380    91161910.898 7       -20.687          43.625    22262688.540    91161916.895 8       -20.687          48.062
G21  22311941.640   117250023.778 7      1276.849          46.500    22311939.780   117250023.783 6      1276.849          36.750    22311944.380    91363665.125 6       994.947          36.500
R04  22984697.240   123081996.456 7     -1110.079          42.375    22984698.940   123081996.493 6     -1110.079          41.250    22984708.940    95730505.523 7      -863.395          44.437    22984708.680    95730502.530 7      -863.395          44.875
G17  23109399.640   121440726.250 7      5409.389          43.375    23109398.500   121440726.253 5      5409.389          34.812    23109404.020    94629148.488 5      4215.108          34.562    23109404.580    94629152.485 7      4215.108          46.250
G04  22994060.820   120834635.852 7      5567.856          43.750    22994060.720   120834635.859 5      5567.856          30.937    22994076.540    94156915.706 5      4338.589          30.937    22994078.240    94156939.729 7      4338.589          44.875
R11  22702882.340   121317289.632 7      1692.490          45.500    22702881.860   121317289.638 7      1692.490          44.375    22702893.800    94357955.134 7      1316.381          44.250    22702894.260    94357955.148 7      1316.381          44.625
G22  23421268.840   123079603.056 6      3878.247          40.000    23421267.540   123079603.068 4      3878.247          29.062    23421274.420    95906208.418 4      3022.010          29.125
R20  20550447.840   109892483.824 6      2961.822          36.625    20550449.440   109892483.823 6      2961.822          37.000    20550461.140    85471981.560 7      2303.640          44.500    20550461.620    85471985.553 7      2303.640          44.250
> 2024 05 06 16 07 38.0000000  0 12
G02  21721261.340   114145987.789 8      2013.838          48.125    21721259.800   114145987.788 6      2013.838          39.000    21721262.320    88944927.863 6      1569.224          39.187
G03  19918738.900   104673687.520 8      2726.064          49.562    19918738.280   104673687.522 8      2726.064          50.062    19918744.280    81563943.535 8      2124.205          50.187    19918745.060    81563947.536 8      2124.205          51.187
G14  22000369.900   115612706.878 7      2545.391          45.250    22000368.900   115612706.888 5      2545.391          35.625    22000375.580    90087843.979 5      1983.422          35.312    22000376.080    90087846.982 8      1983.422          49.375
R05  19796895.580   105825759.749 8      1840.871          49.500    19796895.240   105825759.755 8      1840.871          48.687    19796903.740    82308970.582 8      1431.788          50.125    19796903.820    82308968.580 8      1431.788          49.187
G08  22262680.780   116991116.297 7       -26.754          44.437    22262679.200   116991116.302 7       -26.754          44.375    22262691.460    91161931.679 7       -20.848          43.937    22262693.760    91161937.676 7       -20.848          47.625
G21  22311698.720   117248746.931 7      1277.059          46.750    22311696.780   117248746.931 6      1277.059          36.625    22311701.460    91362670.175 6       995.111          36.875
R04  22984904.840   123083106.726 7     -1110.311          42.375    22984906.340   123083106.781 6     -1110.311          41.375    22984916.020    95731369.078 7      -863.575          44.062    22984916.400    95731366.086 7      -863.575          44.875
G17  23108370.420   121435316.888 7      5409.498          43.750    23108369.200   121435316.890 5      5409.498          34.812    23108374.680    94624933.402 5      4215.193          34.500    23108375.280    94624937.405 7      4215.193          46.125
G04  22993001.580   120829068.110 7      5567.837          43.250    22993001.120   120829068.115 5      5567.837          30.937    22993017.060    94152577.225 5      4338.574          30.937    22993018.880    94152601.249 7      4338.574          45.125
R11  22702565.860   121315597.521 7      1691.908          44.875    22702565.000   121315597.519 7      1691.908          44.375    22702577.140    94356639.048 7      1315.928          44.125    22702577.660    94356639.051 7      1315.928          44.875
G22  23420531.060   123075725.021 6      3877.980          40.500    23420529.640   123075725.031 4      3877.980          29.062    23420536.540    95903186.579 4      3021.803          29.125
R20  20549894.640   109889522.193 6      2961.766          36.625    20549895.520   109889522.194 6      2961.766          37.000    20549906.920    85469678.071 7      2303.596          43.875    20549907.960    85469682.068 7      2303.596          43.937
> 2024 05 06 16 07 39.0000000  0 12
G02  21720878.080   114143974.054 7      2013.683          47.375    21720876.660   114143974.059 6      2013.683          39.437    21720878.940    88943358.725 6      1569.103          39.437
G03  19918220.160   104670961.733 8      2725.531          49.062    19918219.580   104670961.735 8      2725.531          49.312    19918225.640    81561819.548 8      2123.790          49.812    19918226.260    81561823.544 8      2123.790          51.250
G14  21999885.620   115610162.001 7      2544.625          45.000    21999884.820   115610162.011 6      2544.625          36.062    21999891.160    90085860.958 5      1982.824          35.375    21999891.920    90085863.966 8      1982.824          49.812
R05  19796551.280   105823919.391 8      1839.993          49.812    19796551.040   105823919.397 8      1839.993          48.750    19796559.580    82307539.192 8      1431.106          49.812    19796559.480    82307537.189 8      1431.106          49.625
G08  22262685.700   116991143.219 7       -27.134          44.625    22262684.440   116991143.221 7       -27.134          44.125    22262696.560    91161952.646 7       -21.144          43.562    22262698.880    91161958.644 7       -21.144          47.625
G21  22311455.740   117247470.020 7      1276.869          46.625    22311453.840   117247470.023 6      1276.869          36.625    22311458.580    91361675.182 6       994.963          36.875
R04  22985111.520   123084217.349 7     -1110.840          42.062    22985114.080   123084217.407 6     -1110.840          41.375    22985123.640    95732232.900 7      -863.987          44.062    22985123.820    95732229.905 7      -863.987          45.250
G17  23107341.060   121429907.504 7      5409.433          42.875    23107339.800   121429907.501 5      5409.433          34.375    23107345.340    94620718.304 5      4215.143          34.500    23107345.920    94620722.301 7      4215.143          46.000
G04  22991942.120   120823500.353 7      5567.792          43.562    22991941.540   120823500.360 5      5567.792          30.937    22991957.420    94148238.733 5      4338.539          30.937    22991959.320    94148262.760 7      4338.539          44.812
R11  22702248.780   121313905.990 7      1691.204          45.125    22702248.880   121313905.983 7      1691.204          44.250    22702260.860    94355323.407 7      1315.381          44.625    22702261.300    94355323.405 7      1315.381          44.625
G22  23419793.340   123071847.396 6      3877.549          39.937    23419791.780   123071847.401 4      3877.549          29.062    23419798.540    95900165.053 4      3021.467          29.125
R20  20549340.160   109886560.623 6      2961.458          36.625    20549341.060   109886560.629 6      2961.458          36.687    20549353.180    85467374.632 7      2303.356          44.812    20549353.980    85467378.634 7      2303.356          43.937
> 2024 05 06 16 07 40.0000000  0 12
G02  21720494.940   114141960.387 8      2013.534          48.187    21720493.400   114141960.390 6      2013.534          39.500    21720495.780    88941789.628 6      1568.987          39.625
G03  19917701.540   104668236.540 8      2724.854          49.562    19917701.000   104668236.542 8      2724.854          50.187    19917707.020    81559696.023 8      2123.263          51.062    19917707.840    81559700.025 8      2123.263          51.625
G14  21999401.360   115607617.734 7      2543.900          44.937    21999400.600   115607617.744 6      2543.900          36.000    21999407.060    90083878.410 5      1982.260          35.875    21999407.960    90083881.417 8      1982.260          50.625
R05  19796206.980   105822079.939 8      1838.976          49.687    19796206.880   105822079.951 8      1838.976          49.000    19796215.620    82306108.514 8      1430.315          50.750    19796215.740    82306106.510 8      1430.315          50.375
G08  22262690.880   116991170.458 7       -27.427          45.062    22262689.640   116991170.466 7       -27.427          44.312    22262701.800    91161973.868 7       -21.372          44.062    22262703.960    91161979.863 7       -21.372          47.875
G21  22311212.840   117246193.107 7      1276.832          46.500    22311210.860   117246193.109 6      1276.832          36.500    22311215.460    91360680.178 6       994.934          36.812
R04  22985318.800   123085328.389 7     -1111.374          42.062    22985321.460   123085328.442 6     -1111.374          41.375    22985330.980    95733097.039 7      -864.402          44.312    22985331.480    95733094.044 7      -864.402          45.125
G17  23106311.960   121424498.183 7      5409.227          43.125    23106310.360   121424498.183 5      5409.227          34.375    23106315.980    94616503.255 5      4214.982          34.125    23106316.660    94616507.256 7      4214.982          45.875
G04  22990882.660   120817932.751 7      5567.407          43.437    22990881.880   120817932.763 5      5567.407          30.812    22990897.900    94143900.364 5      4338.239          30.937    22990899.920    94143924.386 7      4338.239          45.062
R11  22701932.520   121312215.158 7      1690.356          45.437    22701932.880   121312215.159 7      1690.356          44.312    22701944.600    94354008.311 7      1314.722          44.687    22701944.860    94354008.314 7      1314.722          44.687
G22  23419055.240   123067970.301 6      3876.866          40.562    23419054.200   123067970.309 4      3876.866          29.062    23419060.800    95897143.940 4      3020.935          28.875
R20  20548786.440   109883599.192 6      2961.206          36.625    20548787.900   109883599.185 6      2961.206          36.687    20548799.220    85465071.289 7      2303.161          44.500    20548800.380    85465075.286 7      2303.161          44.000
> 2024 05 06 16 07 41.0000000  0 12
G02  21720111.780   114139946.676 8      2013.692          48.125    21720110.380   114139946.678 6      2013.692          39.750    21720112.720    88940220.507 6      1569.110          39.875
G03  19917183.120   104665511.833 8      2724.458          50.000    19917182.480   104665511.835 8      2724.458          50.875    19917188.480    81557572.876 8      2122.954          50.750    19917189.560    81557576.881 8      2122.954          51.937
G14  21998917.100   115605073.984 7      2543.487          44.937    21998916.420   115605073.994 6      2543.487          36.000    21998923.200    90081896.267 5      1981.938          35.312    21998923.800    90081899.275 8      1981.938          50.250
R05  19795863.120   105820241.313 8      1838.168          49.562    19795862.820   105820241.320 8      1838.168          49.187    19795871.620    82304678.471 8      1429.686          50.687    19795871.240    82304676.472 8      1429.686          50.500
G08  22262696.160   116991197.968 7       -27.637          45.187    22262694.800   116991197.973 7       -27.637          44.562    22262707.040    91161995.292 7       -21.535          44.250    22262709.180    91162001.289 8       -21.535          48.000
G21  22310969.680   117244916.141 7      1276.963          47.187    22310967.860   117244916.144 5      1276.963          35.750    22310972.500    91359685.140 6       995.036          36.500
R04  22985526.460   123086439.754 7     -1111.603          42.437    22985529.120   123086439.799 6     -1111.603          41.062    22985538.700    95733961.429 7      -864.580          44.562    22985538.780    95733958.432 7      -864.580          45.500
G17  23105282.280   121419088.839 7      5409.390          43.000    23105281.020   121419088.839 5      5409.390          34.125    23105286.520    94612288.188 5      4215.109          34.125    23105287.080    94612292.183 7      4215.109          46.500
G04  22989823.000   120812365.146 7      5567.523          43.562    22989822.480   120812365.153 5      5567.523          30.812    22989838.440    94139561.987 5      4338.330          30.937    22989840.540    94139586.013 7      4338.330          45.187
R11  22701616.580   121310524.902 7      1689.939          45.875    22701616.240   121310524.905 7      1689.939          44.187    22701628.860    94352693.674 7      1314.397          44.625    22701628.500    94352693.672 7      1314.397          44.562
G22  23418317.520   123064093.641 6      3876.427          40.312    23418316.680   123064093.646 4      3876.427          29.437    23418322.800    95894123.164 4      3020.593          28.875
R20  20548233.900   109880637.799 6      2961.170          36.625    20548234.120   109880637.819 6      2961.170          36.687    20548245.360    85462768.003 7      2303.132          44.625    20548246.360    85462771.995 7      2303.132          44.000
> 2024 05 06 16 07 42.0000000  0 12
G02  21719728.520   114137932.999 7      2013.614          46.812    21719727.080   114137932.999 6      2013.614          39.562    21719729.520    88938651.402 6      1569.050          39.625
G03  19916664.720   104662787.678 8      2723.776          49.125    19916664.080   104662787.683 8      2723.776          50.562    19916670.120    81555450.162 8      2122.423          51.062    19916671.180    81555454.165 8      2122.423          51.437
G14  21998433.260   115602530.807 7      2542.875          44.375    21998432.400   115602530.814 5      2542.875          35.687    21998439.120    90079914.566 5      1981.461          35.312    21998439.860    90079917.570 8      1981.461          50.187
R05  19795519.200   105818403.526 8      1837.307          50.187    19795519.020   105818403.525 8      1837.307          48.625    19795527.800    82303249.077 8      1429.016          51.062    19795527.640    82303247.078 8      1429.016          50.875
G08  22262701.220   116991225.797 7       -28.129          44.875    22262700.140   116991225.804 7       -28.129          44.000    22262712.380    91162016.968 7       -21.918          43.812    22262714.560    91162022.963 7       -21.918          47.750
G21  22310726.840   117243639.142 7      1276.962          46.750    22310724.840   117243639.141 6      1276.962          36.937    22310729.460    91358690.073 6       995.035          36.375
R04  22985734.180   123087551.477 7     -1112.041          42.437    22985736.720   123087551.517 6     -1112.041          41.062    22985746.320    95734826.103 7      -864.921          44.500    22985746.260    95734823.104 7      -864.921          45.250
G17  23104252.940   121413679.529 7      5409.267          43.187    23104251.480   121413679.526 5      5409.267          34.125    23104257.220    94608073.139 5      4215.013          34.312    23104257.560    94608077.138 7      4215.013          45.875
G04  22988763.320   120806797.611 7      5567.387          43.437    22988762.900   120806797.616 5      5567.387          30.812    22988778.880    94135223.671 5      4338.224          30.937    22988780.900    94135247.696 7      4338.224          45.437
R11  22701300.240   121308835.348 7      1689.090          45.187    22701299.920   121308835.351 7      1689.090          44.187    22701312.600    94351379.576 7      1313.737          45.000    22701312.340    94351379.575 7      1313.737          45.062
G22  23417579.760   123060217.408 6      3875.969          39.875    23417579.040   123060217.408 4      3875.969          29.437    23417585.260    95891102.723 4      3020.235          28.875
R20  20547681.020   109877676.512 6      2961.162          36.812    20547679.360   109877676.535 6      2961.162          36.687    20547691.620    85460464.787 7      2303.126          44.187    20547692.760    85460468.782 7      2303.126          44.000
> 2024 05 06 16 07 43.0000000  0 12
G02  21719345.300   114135919.585 7      2013.267          45.937    21719343.960   114135919.587 6      2013.267          39.750    21719346.340    88937082.512 6      1568.780          39.562
G03  19916146.520   104660064.295 8      2723.012          48.000    19916145.800   104660064.297 8      2723.012          50.375    19916151.840    81553328.046 8      2121.827          50.812    19916152.820    81553332.049 8      2121.827          51.562
G14  21997949.520   115599988.447 7      2542.028          44.625    21997948.640   115599988.454 5      2542.028          35.687    21997955.260    90077933.507 5      1980.801          35.625    21997955.900    90077936.512 8      1980.801          50.062
R05  19795175.980   105816566.862 8      1836.157          49.812    19795175.200   105816566.864 8      1836.157          48.812    19795184.240    82301820.563 8      1428.122          50.687    19795184.040    82301818.562 8      1428.122          50.750
G08  22262706.580   116991254.142 7       -28.577          44.062    22262705.480   116991254.144 7       -28.577          44.250    22262717.800    91162039.043 7       -22.268          44.000    22262719.880    91162045.043 7       -22.268          47.812
G21  22310483.840   117242362.373 7      1276.699          46.375    22310482.020   117242362.375 6      1276.699          36.187    22310486.520    91357695.189 6       994.830          36.687
R04  22985941.960   123088663.787 7     -1112.552          42.437    22985944.080   123088663.826 6     -1112.552          41.250    22985954.200    95735691.231 7      -865.318          44.375    22985954.180    95735688.230 7      -865.318          45.250
G17  23103223.840   121408270.495 7      5408.895          42.437    23103222.200   121408270.497 5      5408.895          34.250    23103227.860    94603858.315 5      4214.723          33.687    23103228.340    94603862.318 7      4214.723          46.375
G04  22987703.860   120801230.380 7      5567.196          43.625    22987703.460   120801230.387 5      5567.196          31.000    22987719.480    94130885.585 5      4338.075          31.000    22987721.060    94130909.620 7      4338.075          45.250
R11  22700984.080   121307146.651 7      1688.357          45.750    22700984.120   121307146.660 7      1688.357          44.375    22700996.440    94350066.145 7      1313.166          44.937    22700996.180    94350066.150 7      1313.166          44.625
G22  23416842.340   123056341.901 6      3875.217          40.500    23416841.580   123056341.909 4      3875.217          29.437    23416847.700    95888082.851 4      3019.650          28.875
R20  20547126.820   109874715.621 6      2960.763          36.812    20547125.680   109874715.641 6      2960.763          36.687    20547137.580    85458161.864 7      2302.816          44.187    20547138.940    85458165.863 7      2302.816          44.625
> 2024 05 06 16 07 44.0000000  0 12
G02  21718962.400   114133906.076 7      2013.608          46.750    21718960.820   114133906.078 6      2013.608          39.875    21718963.260    88935513.546 6      1569.045          39.875
G03  19915628.440   104657341.364 8      2722.719          48.375    19915627.620   104657341.364 8      2722.719          50.562    19915633.660    81551206.281 8      2121.599          50.562    19915634.500    81551210.284 8      2121.599          51.437
G14  21997465.720   115597446.581 7      2541.684          44.625    21997464.820   115597446.586 5      2541.684          35.625    21997471.640    90075952.830 5      1980.533          35.625    21997472.080    90075955.830 8      1980.533          50.000
R05  19794832.360   105814730.973 8      1835.525          48.125    19794831.680   105814730.975 8      1835.525          49.187    19794840.840    82300392.653 8      1427.631          50.687    19794840.680    82300390.650 8      1427.631          50.562
G08  22262712.140   116991282.709 7       -28.633          45.687    22262711.000   116991282.713 7       -28.633          43.687    22262723.140    91162061.297 7       -22.311          43.500    22262725.400    91162067.296 7       -22.311          47.562
G21  22310240.900   117241085.486 7      1276.954          47.062    22310239.000   117241085.491 6      1276.954          36.250    22310243.500    91356700.212 6       995.029          36.250
R04  22986149.880   123089776.381 7     -1112.807          42.250    22986151.740   123089776.436 6     -1112.807          41.250    22986162.100    95736556.594 7      -865.516          45.125    22986161.580    95736553.593 7      -865.516          44.937
G17  23102194.680   121402861.381 7      5409.183          43.187    23102192.920   121402861.378 5      5409.183          34.000    23102198.540    94599643.426 5      4214.948          33.687    23102199.000    94599647.431 7      4214.948          46.125
G04  22986644.740   120795663.145 7      5567.300          44.250    22986643.940   120795663.155 5      5567.300          31.000    22986659.920    94126547.502 5      4338.156          31.000    22986662.100    94126571.535 7      4338.156          45.250
R11  22700668.100   121305458.553 7      1687.858          45.687    22700668.280   121305458.552 7      1687.858          44.625    22700680.400    94348753.172 7      1312.778          44.750    22700679.980    94348753.181 7      1312.778          44.500
G22  23416104.700   123052466.793 6      3874.827          40.187    23416104.100   123052466.801 4      3874.827          29.437    23416110.360    95885063.293 4      3019.346          29.562
R20  20546573.500   109871754.728 6      2960.993          36.812    20546572.780   109871754.737 6      2960.993          36.750    20546584.160    85455858.936 7      2302.994          44.125    20546585.460    85455862.935 7      2302.994          44.625
> 2024 05 06 16 07 45.0000000  0 12
G02  21718579.360   114131892.633 7      2013.461          46.625    21718577.700   114131892.640 6      2013.461          39.750    21718580.100    88933944.633 6      1568.931          39.687
G03  19915110.460   104654618.988 8      2722.179          48.437    19915109.560   104654618.987 8      2722.179          49.750    19915115.660    81549084.955 8      2121.179          50.437    19915116.440    81549088.954 8      2121.179          51.062
G14  21996982.160   115594905.301 7      2541.056          44.062    21996981.280   115594905.303 6      2541.056          36.187    21996988.020    90073972.612 6      1980.044          36.000    21996988.640    90073975.605 8      1980.044          50.062
R05  19794489.220   105812895.969 8      1834.668          48.812    19794488.620   105812895.970 8      1834.668          48.812    19794497.620    82298965.428 8      1426.964          50.625    19794497.240    82298963.427 8      1426.964          50.812
G08  22262717.640   116991311.595 7       -28.986          44.875    22262716.620   116991311.598 7       -28.986          44.125    22262728.680    91162083.796 7       -22.586          43.875    22262730.800    91162089.795 7       -22.586          47.312
G21  22309997.720   117239808.596 7      1276.964          46.562    22309995.880   117239808.601 6      1276.964          36.500    22310000.460    91355705.233 6       995.037          36.687
R04  22986357.420   123090889.328 7     -1113.056          42.250    22986359.480   123090889.375 6     -1113.056          41.250    22986369.680    95737422.219 7      -865.711          44.750    22986369.620    95737419.216 7      -865.711          45.125
G17  23101165.220   121397452.329 7      5409.050          43.500    23101163.540   121397452.328 5      5409.050          34.000    23101169.280    94595428.582 5      4214.844          33.937    23101169.660    94595432.585 7      4214.844          45.937
G04  22985585.400   120790096.016 7      5567.161          43.437    22985584.560   120790096.023 5      5567.161          31.000    22985600.640    94122209.500 5      4338.048          31.000    22985602.860    94122233.525 7      4338.048          45.187
R11  22700352.500   121303771.137 7      1687.109          45.750    22700352.440   121303771.135 7      1687.109          44.312    22700364.640    94347440.725 7      1312.196          44.312    22700364.500    94347440.713 7      1312.196          45.000
G22  23415367.540   123048592.145 6      3874.480          39.750    23415366.660   123048592.155 4      3874.480          29.625    23415373.080    95882044.087 4      3019.076          29.562
R20  20546019.600   109868793.933 6      2960.954          36.812    20546018.120   109868793.959 6      2960.954          36.750    20546030.280    85453556.112 7      2302.964          44.187    20546031.860    85453560.110 7      2302.964          44.500
> 2024 05 06 16 07 46.0000000  0 12
G02  21718195.960   114129879.140 7      2013.358          46.500    21718194.420   114129879.142 6      2013.358          39.312    21718196.880    88932375.671 6      1568.850          39.312
G03  19914592.260   104651897.111 8      2721.406          48.750    19914591.660   104651897.116 8      2721.406          50.062    19914597.680    81546964.014 8      2120.576          50.500    19914598.540    81546968.013 8      2120.576          48.500
G14  21996498.620   115592364.544 7      2540.264          44.312    21996497.700   115592364.549 5      2540.264          35.437    21996504.640    90071992.797 5      1979.427          35.375    21996505.400    90071995.801 8      1979.427          48.250
R05  19794146.060   105811061.799 8      1833.546          49.562    19794145.240   105811061.800 8      1833.546          48.812    19794154.600    82297538.849 8      1426.091          50.750    19794154.280    82297536.850 8      1426.091          50.500
G08  22262723.120   116991340.735 7       -29.472          45.500    22262722.220   116991340.740 7       -29.472          43.875    22262734.260    91162106.489 7       -22.965          43.750    22262736.100    91162112.493 7       -22.965          46.312
G21  22309754.660   117238531.633 7      1276.779          46.437    22309752.880   117238531.633 6      1276.779          36.250    22309757.520    91354710.191 6       994.893          36.312
R04  22986565.840   123092002.634 6     -1113.598          41.937    22986567.240   123092002.675 6     -1113.598          40.750    22986577.420    95738288.113 7      -866.132          44.375    22986577.380    95738285.112 7      -866.132          44.062
G17  23100135.720   121392043.252 7      5408.884          43.375    23100134.260   121392043.252 5      5408.884          34.500    23100139.940    94591213.721 5      4214.715          33.937    23100140.060    94591217.720 7      4214.715          46.187
G04  22984526.000   120784528.902 7      5566.828          43.250    22984525.240   120784528.907 5      5566.828          31.062    22984541.280    94117871.508 5      4337.788          30.937    22984543.320    94117895.532 7      4337.788          44.937
R11  22700036.960   121302084.287 7      1686.365          45.937    22700036.760   121302084.283 7      1686.365          44.687    22700048.940    94346128.718 7      1311.617          43.437    22700048.600    94346128.727 7      1311.617          44.375
G22  23414630.360   123044717.905 6      3873.995          40.062    23414629.340   123044717.915 4      3873.995          29.625    23414635.880    95879025.198 4      3018.697          29.562
R20  20545464.980   109865833.243 6      2960.547          36.812    20545464.860   109865833.255 6      2960.547          36.750    20545476.960    85451253.345 7      2302.648          44.125    20545478.160    85451257.338 7      2302.648          43.312
> 2024 05 06 16 07 47.0000000  0 12
G02  21717812.840   114127865.702 7      2013.644          47.687    21717811.320   114127865.706 6      2013.644          39.187    21717813.720    88930806.760 6      1569.073          39.062
G03  19914074.420   104649175.793 8      2721.260          49.312    19914073.800   104649175.795 8      2721.260          49.937    19914079.800    81544843.509 8      2120.462          50.000    19914080.560    81544847.504 8      2120.462          51.375
G14  21996015.460   115589824.375 7      2540.160          44.562    21996014.300   115589824.378 5      2540.160          35.187    21996021.180    90070013.447 5      1979.346          35.000    21996021.980    90070016.453 8      1979.346          50.062
R05  19793802.880   105809228.481 8      1833.161          49.875    19793802.240   105809228.477 8      1833.161          49.000    19793811.600    82296112.937 8      1425.792          50.562    19793811.520    82296110.936 8      1425.792          50.375
G08  22262728.960   116991370.186 7       -29.338          44.312    22262727.740   116991370.194 7       -29.338          43.750    22262739.860    91162129.435 7       -22.861          43.625    22262742.000    91162135.436 7       -22.861          47.250
G21  22309511.860   117237254.662 7      1277.217          46.875    22309509.920   117237254.665 6      1277.217          36.250    22309514.740    91353715.148 6       995.234          36.187
R04  22986773.380   123093116.354 6     -1113.691          41.937    22986775.280   123093116.399 6     -1113.691          40.750    22986785.200    95739154.345 7      -866.204          44.875    22986785.500    95739151.346 7      -866.204          44.500
G17  23099106.580   121386634.213 7      5409.327          42.625    23099105.040   121386634.210 5      5409.327          34.500    23099110.600    94586998.892 5      4215.060          34.000    23099111.040    94587002.892 7      4215.060          46.125
G04  22983466.580   120778961.867 7      5567.204          44.125    22983465.840   120778961.870 5      5567.204          31.062    22983481.840    94113533.577 5      4338.081          30.937    22983484.060    94113557.608 7      4338.081          44.875
R11  22699721.520   121300398.110 7      1686.179          45.312    22699720.900   121300398.108 7      1686.179          44.437    22699733.300    94344817.247 7      1311.472          44.437    22699733.440    94344817.241 7      1311.472          45.125
G22  23413893.300   123040844.187 6      3873.852          39.437    23413892.300   123040844.197 4      3873.852          29.625    23413898.740    95876006.716 4      3018.586          29.562
R20  20544911.240   109862872.687 6      2960.804          36.437    20544912.560   109862872.707 6      2960.804          36.750    20544923.480    85448950.690 7      2302.848          44.500    20544924.500    85448954.681 7      2302.848          44.000
> 2024 05 06 16 07 48.0000000  0 12
G02  21717429.500   114125852.216 7      2013.407          47.687    21717428.140   114125852.221 6      2013.407          39.062    21717430.480    88929237.811 6      1568.889          39.125
G03  19913556.600   104646454.951 8      2720.574          49.187    19913556.020   104646454.956 8      2720.574          49.687    19913562.060    81542723.377 8      2119.927          50.062    19913562.840    81542727.373 8      2119.927          50.750
G14  21995531.860   115587284.745 7      2539.213          44.437    21995531.000   115587284.753 5      2539.213          35.500    21995538.140    90068034.514 5      1978.608          35.187    21995538.400    90068037.520 8      1978.608          49.562
R05  19793460.200   105807395.944 8      1832.042          48.875    19793459.420   105807395.948 8      1832.042          48.812    19793468.800    82294687.635 8      1424.922          49.937    19793468.660    82294685.635 8      1424.922          49.812
G08  22262734.440   116991399.898 7       -29.955          44.375    22262733.540   116991399.909 7       -29.955          44.125    22262745.620    91162152.581 7       -23.342          43.875    22262747.660    91162158.582 7       -23.342          47.437
G21  22309268.740   117235977.626 7      1276.928          47.375    22309266.820   117235977.628 5      1276.928          35.937    22309271.680    91352720.051 6       995.009          36.187
R04  22986981.740   123094230.383 6     -1114.330          41.875    22986983.120   123094230.433 6     -1114.330          40.500    22986993.180    95740020.813 7      -866.701          44.437    22986993.220    95740017.821 7      -866.701          43.937
G17  23098077.400   121381225.158 7      5408.999          42.937    23098075.800   121381225.157 5      5408.999          34.500    23098081.260    94582784.054 5      4214.805          34.500    23098081.520    94582788.054 7      4214.805          46.187
G04  22982406.940   120773394.846 7      5566.864          43.937    22982406.420   120773394.850 5      5566.864          31.062    22982422.480    94109195.661 5      4337.816          30.937    22982424.680    94109219.691 7      4337.816          45.000
R11  22699405.940   121298712.542 7      1685.239          44.562    22699405.800   121298712.535 7      1685.239          43.812    22699418.420    94343506.252 7      1310.742          44.812    22699417.780    94343506.250 7      1310.742          44.687
G22  23413156.620   123036970.871 6      3873.046          40.625    23413155.100   123036970.878 4      3873.046          29.625    23413161.660    95872988.550 4      3017.958          29.500
R20  20544356.060   109859912.151 6      2960.396          36.437    20544358.240   109859912.182 6      2960.396          36.750    20544369.620    85446648.062 7      2302.531          43.750    20544370.860    85446652.057 7      2302.531          44.250
> 2024 05 06 16 07 49.0000000  0 12
G02  21717046.540   114123838.658 8      2013.600          48.187    21717045.020   114123838.660 6      2013.600          39.500    21717047.340    88927668.798 6      1569.039          39.437
G03  19913039.000   104643734.572 8      2720.188          49.625    19913038.440   104643734.574 8      2720.188          50.000    19913044.360    81540603.600 8      2119.627          50.250    19913045.080    81540607.597 8      2119.627          51.437
G14  21995048.600   115584745.565 7      2539.073          45.187    21995047.680   115584745.567 5      2539.073          35.562    21995054.920    90066055.928 5      1978.498          34.937    21995055.400    90066058.924 8      1978.498          50.125
R05  19793117.360   105805564.168 8      1831.438          49.937    19793116.880   105805564.175 8      1831.438          49.000    19793126.100    82293262.926 8      1424.452          50.125    19793125.960    82293260.923 8      1424.452          49.687
G08  22262740.020   116991429.805 7       -29.947          45.937    22262739.320   116991429.812 7       -29.947          44.062    22262751.360    91162175.872 7       -23.335          43.875    22262753.200    91162181.875 7       -23.335          47.625
G21  22309025.860   117234700.452 7      1277.264          47.062    22309023.720   117234700.452 6      1277.264          36.125    22309028.540    91351724.849 6       995.271          36.500
R04  22987189.360   123095344.698 6     -1114.310          41.875    22987191.300   123095344.732 6     -1114.310          40.500    22987201.200    95740887.495 7      -866.685          44.500    22987201.380    95740884.500 7      -866.685          44.437
G17  23097048.220   121375816.023 7      5409.274          43.062    23097046.620   121375816.023 5      5409.274          34.625    23097051.820    94578569.146 5      4215.019          34.500    23097052.480    94578573.145 7      4215.019          45.937
G04  22981347.380   120767827.811 7      5567.048          43.750    22981347.080   120767827.818 5      5567.048          30.687    22981363.080    94104857.730 5      4337.959          30.750    22981365.400    94104881.757 7      4337.959          45.187
R11  22699090.300   121297027.522 7      1684.800          44.437    22699090.300   121297027.524 7      1684.800          43.875    22699103.480    94342195.679 7      1310.400          44.750    22699102.820    94342195.681 7      1310.400          45.125
G22  23412419.520   123033097.915 6      3872.874          40.187    23412418.020   123033097.928 4      3872.874          29.375    23412424.540    95869970.667 4      3017.824          29.500
R20  20543802.780   109856951.624 6      2960.729          36.437    20543804.020   109856951.642 6      2960.729          36.437    20543816.120    85444345.419 7      2302.789          43.812    20543817.180    85444349.415 7      2302.789          44.062
> 2024 05 06 16 07 50.0000000  0 12
G02  21716663.420   114121825.230 7      2013.225          47.062    21716661.800   114121825.232 6      2013.225          39.250    21716664.220    88926099.893 6      1568.747          39.187
G03  19912521.480   104641014.841 8      2719.291          48.812    19912520.860   104641014.846 8      2719.291          50.062    19912526.840    81538484.330 8      2118.928          50.937    19912527.680    81538488.329 8      2118.928          51.312
G14  21994565.540   115582207.107 7      2537.989          45.375    21994564.840   115582207.109 5      2537.989          35.875    21994571.800    90064077.905 5      1977.654          35.625    21994571.920    90064080.902 8      1977.654          50.187
R05  19792775.120   105803733.406 8      1830.136          49.812    19792774.660   105803733.412 8      1830.136          48.062    19792783.700    82291839.000 8      1423.439          50.375    19792783.500    82291836.997 8      1423.439          50.625
G08  22262745.820   116991460.129 7       -30.589          45.187    22262745.080   116991460.139 7       -30.589          43.937    22262756.980    91162199.493 7       -23.835          43.500    22262759.340    91162205.496 8       -23.835          48.125
G21  22308783.040   117233423.382 7      1276.894          46.437    22308780.740   117233423.384 6      1276.894          36.312    22308785.540    91350729.729 6       994.982          36.500
R04  22987397.760   123096459.543 6     -1115.210          41.875    22987399.720   123096459.583 6     -1115.210          40.500    22987409.420    95741754.603 7      -867.385          44.687    22987409.480    95741751.612 7      -867.385          44.312
G17  23096018.780   121370407.055 7      5408.819          44.625    23096017.480   121370407.057 5      5408.819          34.625    23096022.560    94574354.371 5      4214.664          34.812    23096023.340    94574358.368 7      4214.664          46.250
G04  22980288.220   120762260.960 7      5566.658          43.812    22980287.780   120762260.967 5      5566.658          30.687    22980303.620    94100519.947 5      4337.656          30.750    22980305.680    94100543.973 7      4337.656          45.250
R11  22698775.240   121295343.272 7      1683.778          44.875    22698775.000   121295343.281 7      1683.778          44.375    22698787.960    94340885.710 7      1309.605          44.625    22698787.660    94340885.715 7      1309.605          45.187
G22  23411682.820   123029225.577 6      3871.891          39.812    23411681.340   123029225.589 4      3871.891          29.375    23411687.760    95866953.260 4      3017.058          29.500
R20  20543250.480   109853991.381 6      2960.042          36.437    20543251.280   109853991.382 6      2960.042          36.437    20543262.600    85442042.995 7      2302.255          44.187    20543263.540    85442046.992 7      2302.255          43.937
> 2024 05 06 16 07 51.0000000  0 12
G02  21716280.200   114119811.866 7      2013.303          47.875    21716278.700   114119811.871 6      2013.303          39.437    21716281.100    88924531.042 6      1568.807          39.062
G03  19912004.020   104638295.702 8      2718.825          49.812    19912003.460   104638295.707 8      2718.825          50.125    19912009.360    81536365.526 8      2118.565          50.875    19912010.200    81536369.525 8      2118.565          51.437
G14  21994082.580   115579669.237 7      2537.582          45.437    21994081.720   115579669.245 5      2537.582          35.750    21994088.840    90062100.346 5      1977.337          35.625    21994089.340    90062103.350 8      1977.337          50.312
R05  19792432.600   105801903.560 8      1829.348          49.250    19792432.420   105801903.564 8      1829.348          48.750    19792441.500    82290415.787 8      1422.827          50.812    19792441.240    82290413.781 8      1422.827          51.187
G08  22262752.020   116991490.826 7       -30.914          45.375    22262751.020   116991490.831 7       -30.914          44.375    22262762.860    91162223.403 7       -24.089          43.812    22262764.920    91162229.404 7       -24.089          47.750
G21  22308540.000   117232146.342 7      1277.006          47.250    22308537.660   117232146.344 6      1277.006          36.437    22308542.540    91349734.633 6       995.070          36.812
R04  22987605.640   123097574.793 7     -1115.543          42.187    22987607.460   123097574.835 6     -1115.543          40.250    22987617.660    95742622.025 7      -867.644          44.500    22987617.420    95742619.037 7      -867.644          44.875
G17  23094989.620   121364998.157 7      5408.883          44.375    23094988.300   121364998.154 5      5408.883          34.812    23094993.340    94570139.648 5      4214.714          34.812    23094994.100    94570143.647 7      4214.714          46.375
G04  22979228.660   120756694.235 7      5566.645          44.187    22979228.580   120756694.243 5      5566.645          30.687    22979244.400    94096182.257 5      4337.646          30.750    22979246.220    94096206.286 7      4337.646          45.437
R11  22698460.560   121293659.743 7      1683.150          45.187    22698460.260   121293659.747 7      1683.150          44.187    22698473.180    94339576.295 7      1309.116          45.312    22698472.500    94339576.297 7      1309.116          44.937
G22  23410946.300   123025353.737 6      3871.569          41.000    23410944.700   123025353.747 4      3871.569          29.375    23410950.840    95863936.242 4      3016.807          29.500
R20  20542696.340   109851031.273 6      2959.977          36.437    20542697.440   109851031.272 6      2959.977          36.437    20542709.080    85439740.687 7      2302.204          44.250    20542710.060    85439744.685 7      2302.204          44.687
> 2024 05 06 16 07 52.0000000  0 12
G02  21715897.160   114117798.593 7      2013.364          47.625    21715895.460   114117798.596 6      2013.364          39.312    21715897.900    88922962.256 6      1568.855          39.500
G03  19911486.700   104635577.154 8      2718.388          49.875    19911486.060   104635577.161 8      2718.388          50.625    19911492.020    81534247.179 8      2118.224          50.750    19911492.760    81534251.182 8      2118.224          51.187
G14  21993599.700   115577132.033 7      2537.015          45.250    21993598.780   115577132.040 5      2537.015          35.562    21993605.880    90060123.304 5      1976.895          35.250    21993606.900    90060126.299 8      1976.895          50.437
R05  19792090.720   105800074.633 8      1828.611          49.437    19792090.280   105800074.637 8      1828.611          49.750    19792099.240    82288993.288 8      1422.253          50.937    19792098.960    82288991.283 8      1422.253          50.875
G08  22262757.940   116991521.847 7       -31.018          45.125    22262756.940   116991521.854 7       -31.018          44.250    22262768.860    91162247.567 7       -24.170          44.062    22262770.880    91162253.566 7       -24.170          47.750
G21  22308297.020   117230869.340 7      1277.103          46.500    22308294.720   117230869.339 6      1277.103          36.437    22308299.580    91348739.562 6       995.145          36.687
R04  22987813.440   123098690.428 7     -1115.621          42.187    22987816.480   123098690.473 6     -1115.621          40.250    22987826.120    95743489.740 7      -867.705          44.812    22987825.900    95743486.753 7      -867.705          44.500
G17  23093960.160   121359589.352 7      5408.883          43.125    23093959.160   121359589.354 5      5408.883          35.437    23093964.040    94565924.998 5      4214.714          35.000    23093964.780    94565928.995 7      4214.714          46.062
G04  22978169.540   120751127.634 7      5566.765          43.312    22978169.240   120751127.644 5      5566.765          31.062    22978185.100    94091844.666 5      4337.739          31.187    22978186.960    94091868.695 7      4337.739          45.250
R11  22698145.140   121291976.930 7      1682.533          44.937    22698145.500   121291976.928 7      1682.533          44.000    22698158.020    94338267.430 7      1308.637          45.000    22698157.420    94338267.426 7      1308.637          45.375
G22  23410209.460   123021482.429 6      3871.167          41.312    23410208.020   123021482.444 4      3871.167          29.375    23410214.020    95860919.643 4      3016.493          29.125
R20  20542143.240   109848071.332 6      2959.987          36.437    20542144.920   109848071.330 6      2959.987          36.437    20542155.440    85437438.502 7      2302.212          44.187    20542156.700    85437442.500 7      2302.212          44.375
> 2024 05 06 16 07 53.0000000  0 12
G02  21715513.980   114115785.353 7      2013.254          46.875    21715512.460   114115785.352 6      2013.254          39.812    21715514.920    88921393.495 6      1568.769          39.500
G03  19910969.600   104632859.176 8      2717.720          49.500    19910968.840   104632859.176 8      2717.720          50.375    19910974.780    81532129.270 8      2117.704          50.625    19910975.580    81532133.271 8      2117.704          51.187
G14  21993117.140   115574595.411 7      2536.326          45.437    21993116.100   115574595.416 5      2536.326          35.687    21993123.100    90058146.709 5      1976.358          35.500    21993124.080    90058149.707 8      1976.358          50.062
R05  19791748.540   105798246.576 8      1827.683          49.187    19791748.380   105798246.582 8      1827.683          48.875    19791757.360    82287571.470 8      1421.531          50.875    19791757.000    82287569.471 8      1421.531          50.312
G08  22262764.060   116991553.222 7       -31.523          44.937    22262762.940   116991553.227 7       -31.523          44.375    22262774.860    91162272.007 7       -24.564          44.375    22262776.860    91162278.008 7       -24.564          47.375
G21  22308054.280   117229592.329 7      1277.040          46.937    22308051.700   117229592.332 6      1277.040          36.562    22308056.600    91347744.489 6       995.096          36.687
R04  22988022.480   123099806.452 6     -1116.133          41.375    22988024.920   123099806.494 6     -1116.133          40.250    22988034.200    95744357.756 7      -868.103          44.125    22988034.520    95744354.767 7      -868.103          45.062
G17  23092930.580   121354180.583 7      5408.899          44.562    23092929.940   121354180.577 5      5408.899          35.437    23092934.840    94561710.375 5      4214.727          35.250    23092935.700    94561714.372 7      4214.727          45.687
G04  22977110.280   120745561.146 7      5566.406          44.125    22977110.040   120745561.158 5      5566.406          31.062    22977125.980    94087507.162 5      4337.459          31.187    22977127.660    94087531.196 7      4337.459          45.250
R11  22697830.580   121290294.756 7      1681.829          43.812    22697830.700   121290294.751 7      1681.829          44.187    22697843.020    94336959.068 7      1308.089          44.625    22697842.980    94336959.068 7      1308.089          45.250
G22  23409472.380   123017611.596 6      3870.714          41.187    23409471.340   123017611.611 4      3870.714          29.250    23409477.520    95857903.409 4      3016.141          29.125
R20  20541589.440   109845111.516 6      2959.526          37.250    20541590.620   109845111.536 6      2959.526          36.437    20541602.140    85435136.446 7      2301.854          44.437    20541603.140    85435140.452 7      2301.854          44.437
> 2024 05 06 16 07 54.0000000  0 12
G02  21715130.960   114113772.088 7      2013.344          46.812    21715129.380   114113772.090 6      2013.344          39.437    21715131.720    88919824.722 6      1568.840          39.187
G03  19910452.560   104630141.687 8      2717.301          49.625    19910451.760   104630141.689 8      2717.301          50.500    19910457.700    81530011.752 8      2117.377          50.875    19910458.520    81530015.753 8      2117.377          51.250
G14  21992634.620   115572059.310 7      2535.863          44.187    21992633.460   115572059.318 5      2535.863          35.687    21992640.660    90056170.529 5      1975.997          35.375    21992641.380    90056173.526 8      1975.997          50.750
R05  19791406.840   105796419.333 8      1826.902          49.500    19791406.600   105796419.340 8      1826.902          49.500    19791415.440    82286150.287 8      1420.924          51.062    19791415.100    82286148.288 8      1420.924          50.812
G08  22262769.860   116991584.826 7       -31.666          45.500    22262768.880   116991584.833 7       -31.666          44.562    22262780.920    91162296.627 7       -24.674          44.625    22262782.960    91162302.630 7       -24.674          47.625
G21  22307811.480   117228315.261 7      1277.129          45.562    22307808.700   117228315.261 6      1277.129          36.437    22307813.480    91346749.369 6       995.166          36.687
R04  22988230.820   123100922.780 6     -1116.515          41.375    22988232.760   123100922.833 6     -1116.515          40.437    22988242.820    95745226.024 7      -868.400          44.375    22988242.940    95745223.038 7      -868.400          44.750
G17  23091901.300   121348771.822 7      5408.823          44.125    23091900.820   121348771.816 5      5408.823          35.437    23091905.640    94557495.760 5      4214.667          35.250    23091906.480    94557499.763 7      4214.667          46.375
G04  22976051.060   120739994.663 7      5566.615          43.312    22976050.620   120739994.673 5      5566.615          31.062    22976066.680    94083169.661 5      4337.622          31.187    22976068.660    94083193.693 7      4337.622          45.312
R11  22697515.960   121288613.180 7      1681.388          44.875    22697515.780   121288613.178 7      1681.388          43.937    22697528.540    94335651.175 7      1307.746          44.687    22697528.380    94335651.174 7      1307.746          44.875
G22  23408735.760   123013741.202 6      3870.396          39.937    23408734.700   123013741.217 4      3870.396          29.250    23408741.120    95854887.518 4      3015.893          29.125
R20  20541036.320   109842151.783 6      2959.566          37.250    20541037.320   109842151.784 6      2959.566          36.500    20541048.540    85432834.417 7      2301.885          44.187    20541049.380    85432838.416 7      2301.885          44.562
> 2024 05 06 16 07 55.0000000  0 12
G02  21714747.760   114111758.813 7      2013.325          47.812    21714746.240   114111758.813 6      2013.325          39.500    21714748.580    88918255.934 6      1568.825          39.625
G03  19909935.480   104627424.707 8      2716.747          49.687    19909934.740   104627424.710 8      2716.747          50.187    19909940.720    81527894.625 8      2116.945          50.687    19909941.580    81527898.628 8      2116.945          51.500
G14  21992152.020   115569523.763 7      2535.264          45.187    21992151.080   115569523.768 5      2535.264          35.812    21992158.160    90054194.778 5      1975.530          35.250    21992158.800    90054197.774 8      1975.530          50.312
R05  19791065.120   105794592.906 8      1826.068          48.312    19791064.980   105794592.913 8      1826.068          49.312    19791073.740    82284729.733 8      1420.275          50.562    19791073.540    82284727.732 8      1420.275          51.125
G08  22262776.120   116991616.719 7       -31.973          45.812    22262775.020   116991616.721 7       -31.973          44.062    22262786.920    91162321.466 7       -24.914          43.937    22262789.140    91162327.465 7       -24.914          47.937
G21  22307568.180   117227038.127 7      1277.151          46.812    22307565.780   117227038.132 6      1277.151          36.500    22307570.560    91345754.202 6       995.183          36.750
R04  22988439.200   123102039.465 6     -1116.885          41.375    22988441.740   123102039.520 6     -1116.885          40.437    22988451.760    95746094.565 7      -868.688          44.687    22988451.580    95746091.572 7      -868.688          45.250
G17  23090872.120   121343363.037 7      5408.837          44.500    23090871.480   121343363.034 5      5408.837          35.437    23090876.340    94553281.129 5      4214.678          34.937    23090876.980    94553285.128 7      4214.678          46.375
G04  22974991.760   120734428.243 7      5566.424          43.625    22974991.320   120734428.250 5      5566.424          31.437    22975007.460    94078832.209 5      4337.473          31.062    22975009.120    94078856.240 7      4337.473          45.625
R11  22697201.180   121286932.272 7      1680.582          45.312    22697201.620   121286932.273 7      1680.582          44.562    22697214.120    94334343.794 7      1307.120          45.687    22697213.900    94334343.793 7      1307.120          45.250
G22  23407999.140   123009871.268 6      3869.780          40.312    23407998.220   123009871.281 4      3869.780          29.250    23408004.660    95851871.983 4      3015.413          29.125
R20  20540483.380   109839192.060 6      2959.687          37.250    20540483.460   109839192.075 6      2959.687          36.500    20540494.920    85430532.423 7      2301.978          44.187    20540496.200    85430536.423 7      2301.978          43.625
> 2024 05 06 16 07 56.0000000  0 12
G02  21714364.780   114109745.477 7      2013.242          47.187    21714362.880   114109745.477 6      2013.242          39.875    21714365.400    88916687.099 6      1568.760          39.687
G03  19909418.460   104624708.180 8      2716.202          49.250    19909417.820   104624708.185 8      2716.202          50.312    19909423.700    81525777.855 8      2116.521          50.250    19909424.640    81525781.860 8      2116.521          51.500
G14  21991669.720   115566988.692 7      2534.725          44.937    21991668.420   115566988.695 5      2534.725          35.687    21991675.720    90052219.394 5      1975.111          35.750    21991676.380    90052222.391 8      1975.111          49.750
R05  19790723.500   105792767.267 8      1825.152          49.312    19790723.420   105792767.271 8      1825.152          49.375    19790732.400    82283309.792 8      1419.563          51.000    19790732.280    82283307.788 8      1419.563          50.875
G08  22262782.020   116991648.806 7       -32.290          45.437    22262781.160   116991648.816 7       -32.290          44.375    22262793.200    91162346.465 7       -25.161          44.125    22262795.040    91162352.464 7       -25.161          47.812
G21  22307325.200   117225760.891 7      1277.219          46.312    22307322.680   117225760.896 6      1277.219          36.312    22307327.540    91344758.948 6       995.236          36.750
R04  22988648.060   123103156.506 6     -1117.357          40.812    22988650.340   123103156.558 6     -1117.357          40.437    22988660.200    95746963.366 7      -869.055          44.437    22988660.440    95746960.376 7      -869.055          45.187
G17  23089842.740   121337954.221 7      5408.696          44.437    23089842.140   121337954.220 5      5408.696          35.500    23089847.120    94549066.473 5      4214.568          35.437    23089847.800    94549070.472 7      4214.568          46.625
G04  22973932.540   120728861.791 7      5566.388          43.500    22973932.060   120728861.799 5      5566.388          31.437    22973948.160    94074494.733 5      4337.445          31.062    22973950.100    94074518.764 7      4337.445          45.500
R11  22696886.760   121285251.906 7      1679.901          44.250    22696886.940   121285251.913 7      1679.901          44.062    22696900.080    94333036.847 7      1306.590          45.500    22696899.400    94333036.844 7      1306.590          45.687
G22  23407263.160   123006001.688 6      3869.275          39.812    23407261.600   123006001.696 4      3869.275          29.250    23407268.440    95848856.724 4      3015.019          29.062
R20  20539929.840   109836232.397 6      2959.718          37.250    20539929.960   109836232.404 6      2959.718          36.500    20539941.240    85428230.452 7      2302.003          44.437    20539942.600    85428234.454 7      2302.003          43.437
> 2024 05 06 16 07 57.0000000  0 12
G02  21713981.620   114107732.289 7      2013.171          47.625    21713979.820   114107732.289 6      2013.171          39.062    21713982.380    88915118.381 6      1568.705          39.250
G03  19908901.600   104621992.343 8      2715.538          49.750    19908900.940   104621992.343 8      2715.538          50.375    19908906.920    81523661.616 8      2116.003          50.562    19908907.820    81523665.619 8      2116.003          51.000
G14  21991187.560   115564454.344 7      2533.965          44.625    21991186.180   115564454.349 5      2533.965          35.562    21991193.420    90050244.577 5      1974.519          35.000    21991193.980    90050247.570 8      1974.519          49.875
R05  19790382.180   105790942.649 8      1824.095          49.250    19790382.120   105790942.650 8      1824.095          48.812    19790390.980    82281890.646 8      1418.740          50.312    19790390.940    82281888.645 8      1418.740          50.875
G08  22262788.280   116991681.358 7       -32.827          45.125    22262787.420   116991681.366 7       -32.827          44.687    22262799.420    91162371.822 7       -25.580          44.125    22262801.260    91162377.819 7       -25.580          47.812
G21  22307081.980   117224483.783 7      1277.071          47.062    22307079.680   117224483.788 6      1277.071          36.375    22307084.440    91343763.802 6       995.120          36.625
R04  22988856.680   123104274.053 6     -1117.862          40.812    22988858.860   123104274.089 6     -1117.862          40.125    22988869.060    95747832.563 7      -869.448          44.687    22988869.480    95747829.572 7      -869.448          45.187
G17  23088813.480   121332545.567 7      5408.574          45.187    23088812.880   121332545.567 5      5408.574          35.500    23088818.040    94544851.940 5      4214.473          35.062    23088818.500    94544855.939 7      4214.473          46.062
G04  22972873.320   120723295.555 7      5566.160          43.812    22972872.660   120723295.563 5      5566.160          31.437    22972888.880    94070157.431 5      4337.267          31.062    22972890.880    94070181.467 7      4337.267          45.437
R11  22696572.700   121283572.318 7      1679.197          44.687    22696572.500   121283572.325 7      1679.197          44.187    22696586.000    94331730.505 7      1306.042          45.437    22696585.240    94331730.514 7      1306.042          45.937
G22  23406526.340   123002132.742 6      3868.416          37.625    23406525.060   123002132.749 4      3868.416          28.937    23406532.220    95845841.962 4      3014.350          29.062
R20  20539376.300   109833273.025 6      2959.291          37.250    20539376.580   109833273.018 6      2959.291          36.500    20539387.740    85425928.716 7      2301.671          44.312    20539389.220    85425932.716 7      2301.671          43.812
> 2024 05 06 16 07 58.0000000  0 12
G02  21713598.640   114105719.038 7      2013.285          47.062    21713596.720   114105719.040 6      2013.285          39.062    21713599.180    88913549.616 6      1568.793          38.625
G03  19908384.980   104619276.946 8      2715.121          50.187    19908384.260   104619276.951 7      2715.121          47.375    19908390.160    81521545.728 7      2115.679          47.000    19908391.120    81521549.729 8      2115.679          48.687
G14  21990705.580   115561920.468 7      2533.613          44.000    21990703.900   115561920.476 5      2533.613          35.125    21990711.240    90048270.128 5      1974.244          35.000    21990711.640    90048273.120 8      1974.244          48.312
R05  19790041.140   105789118.807 8      1823.378          50.250    19790040.920   105789118.808 8      1823.378          48.437    19790049.840    82280472.102 7      1418.183          47.437    19790049.780    82280470.105 7      1418.183          47.062
G08  22262794.520   116991714.115 7       -33.021          45.312    22262793.660   116991714.123 7       -33.021          43.437    22262805.560    91162397.337 7       -25.731          42.812    22262807.340    91162403.338 7       -25.731          46.500
G21  22306839.100   117223206.565 7      1277.196          46.625    22306836.560   117223206.565 6      1277.196          36.500    22306841.340    91342768.563 6       995.218          36.875
R04  22989065.160   123105391.795 6     -1117.942          40.812    22989068.360   123105391.850 6     -1117.942          40.125    22989077.660    95748701.926 7      -869.510          44.750    22989078.240    95748698.932 7      -869.510          43.750
G17  23087784.400   121327136.869 7      5408.579          44.812    23087783.600   121327136.869 5      5408.579          35.250    23087788.840    94540637.376 5      4214.477          35.062    23087789.160    94540641.373 7      4214.477          45.500
G04  22971814.160   120717729.330 7      5566.058          44.062    22971813.500   120717729.337 5      5566.058          31.125    22971829.600    94065820.132 5      4337.188          31.062    22971831.640    94065844.167 7      4337.188          45.312
R11  22696258.180   121281893.289 7      1678.656          44.812    22696258.300   121281893.298 7      1678.656          44.312    22696271.560    94330424.596 7      1305.621          43.875    22696271.340    94330424.590 7      1305.621          44.687
G22  23405790.120   122998264.148 6      3868.161          38.437    23405788.720   122998264.161 4      3868.161          28.937    23405796.080    95842827.478 4      3014.151          29.062
R20  20538823.060   109830313.626 6      2959.223          37.250    20538823.140   109830313.638 6      2959.223          36.500    20538834.400    85423626.970 7      2301.618          44.500    20538835.600    85423630.971 7      2301.618          43.812
> 2024 05 06 16 07 59.0000000  0 12
G02  21713215.320   114103705.810 7      2013.206          47.625    21713213.660   114103705.815 6      2013.206          39.187    21713216.180    88911980.869 6      1568.732          38.937
G03  19907868.200   104616562.087 8      2714.685          49.500    19907867.620   104616562.091 8      2714.685          49.500    19907873.480    81519430.256 8      2115.339          49.375    19907874.420    81519434.259 8      2115.339          50.750
G14  21990223.440   115559387.173 7      2533.131          44.812    21990221.920   115559387.178 5      2533.131          35.437    21990229.020    90046296.126 5      1973.868          34.562    21990229.580    90046299.119 8      1973.868          49.500
R05  19789700.100   105787295.832 8      1822.567          50.187    19789699.940   105787295.834 8      1822.567          49.250    19789708.900    82279054.235 8      1417.552          49.687    19789708.800    82279052.240 8      1417.552          49.750
G08  22262801.000   116991747.149 7       -33.086          45.000    22262799.960   116991747.151 7       -33.086          44.125    22262811.860    91162423.063 7       -25.781          43.625    22262813.920    91162429.064 7       -25.781          47.500
G21  22306595.620   117221929.303 7      1277.335          46.000    22306593.520   117221929.305 6      1277.335          36.500    22306598.220    91341773.293 6       995.326          36.437
R04  22989273.880   123106509.904 6     -1118.286          40.812    22989276.660   123106509.968 6     -1118.286          40.125    22989286.960    95749571.571 7      -869.778          44.500    22989286.900    95749568.576 7      -869.778          45.125
G17  23086755.060   121321728.169 7      5408.729          44.437    23086754.220   121321728.168 5      5408.729          35.125    23086759.540    94536422.809 5      4214.594          35.250    23086759.980    94536426.810 7      4214.594          45.812
G04  22970754.780   120712163.136 7      5566.208          44.062    22970754.180   120712163.143 5      5566.208          31.125    22970770.440    94061482.859 5      4337.305          31.000    22970772.500    94061506.892 7      4337.305          44.187
R11  22695944.520   121280214.919 7      1678.085          44.187    22695944.400   121280214.917 7      1678.085          44.062    22695956.880    94329119.189 7      1305.177          44.062    22695956.920    94329119.198 7      1305.177          44.500
G22  23405053.940   122994396.024 6      3867.890          38.625    23405052.780   122994396.029 4      3867.890          28.937    23405060.040    95839813.353 4      3013.940          29.062
R20  20538269.400   109827354.321 6      2959.308          37.250    20538270.100   109827354.338 6      2959.308          36.500    20538281.120    85421325.290 7      2301.684          44.062    20538282.180    85421329.285 7      2301.684          42.687
> 2024 05 06 16 08  0.0000000  0 12
G02  21712832.280   114101692.740 7      2012.956          47.187    21712830.620   114101692.740 6      2012.956          39.937    21712833.040    88910412.241 6      1568.537          39.500
G03  19907351.740   104613847.937 8      2713.791          49.312    19907351.140   104613847.942 8      2713.791          49.812    19907356.980    81517315.334 8      2114.642          50.062    19907357.800    81517319.337 8      2114.642          51.500
G14  21989741.460   115556854.595 7      2532.254          44.312    21989740.020   115556854.603 5      2532.254          35.687    21989747.000    90044322.691 5      1973.185          35.750    21989747.800    90044325.682 8      1973.185          49.875
R05  19789359.140   105785473.858 8      1821.448          49.187    19789359.040   105785473.862 8      1821.448          48.812    19789368.140    82277637.148 8      1416.681          50.625    19789368.080    82277635.151 8      1416.681          50.687
G08  22262807.320   116991780.655 7       -33.708          45.375    22262806.360   116991780.654 7       -33.708          44.875    22262818.340    91162449.159 7       -26.266          44.312    22262820.420    91162455.160 7       -26.266          47.750
G21  22306352.740   117220652.187 7      1277.035          46.687    22306350.460   117220652.192 5      1277.035          35.937    22306355.360    91340778.134 6       995.093          36.375
R04  22989483.040   123107628.536 6     -1118.917          40.812    22989485.380   123107628.588 6     -1118.917          40.250    22989495.760    95750441.611 7      -870.269          45.000    22989495.920    95750438.610 7      -870.269          45.625
G17  23085726.220   121316319.668 7      5408.384          44.812    23085725.100   121316319.665 5      5408.384          35.125    23085730.260    94532208.396 5      4214.325          35.000    23085730.780    94532212.393 7      4214.325          46.125
G04  22969695.680   120706597.181 7      5565.847          43.750    22969695.060   120706597.191 5      5565.847          31.125    22969711.200    94057145.770 5      4337.024          31.000    22969713.300    94057169.811 7      4337.024          44.875
R11  22695630.340   121278537.362 7      1677.122          45.062    22695630.620   121278537.360 7      1677.122          44.500    22695642.840    94327814.420 7      1304.429          44.500    22695642.880    94327814.429 7      1304.429          45.187
G22  23404318.540   122990528.462 6      3867.505          38.625    23404316.740   122990528.465 4      3867.505          28.937    23404323.920    95836799.671 4      3013.641          28.062
R20  20537716.420   109824395.283 6      2958.908          37.250    20537716.480   109824395.298 6      2958.908          36.625    20537727.540    85419023.818 7      2301.373          44.250    20537728.720    85419027.809 7      2301.373          44.062
> 2024 05 06 16 08  1.0000000  0 12
G02  21712449.160   114099679.617 7      2013.126          46.562    21712447.560   114099679.620 6      2013.126          39.312    21712449.940    88908843.572 6      1568.670          39.125
G03  19906835.560   104611134.239 8      2713.417          48.625    19906834.760   104611134.244 8      2713.417          50.312    19906840.620    81515200.768 8      2114.351          51.062    19906841.500    81515204.767 8      2114.351          51.312
G14  21989259.600   115554322.528 7      2531.790          43.750    21989258.300   115554322.532 5      2531.790          35.312    21989265.240    90042349.649 5      1972.823          34.937    21989266.160    90042352.642 8      1972.823          49.687
R05  19789018.300   105783652.669 8      1820.742          49.437    19789018.320   105783652.668 8      1820.742          48.250    19789027.460    82276220.664 8      1416.133          51.250    19789027.320    82276218.667 8      1416.133          51.125
G08  22262813.740   116991814.374 7       -33.883          45.000    22262812.720   116991814.376 7       -33.883          44.250    22262824.800    91162475.432 7       -26.403          44.125    22262826.780    91162481.431 7       -26.403          47.750
G21  22306109.580   117219374.961 7      1277.268          46.375    22306107.360   117219374.966 6      1277.268          36.437    22306112.200    91339782.891 6       995.274          36.875
R04  22989691.760   123108747.496 6     -1119.171          40.812    22989694.460   123108747.535 6     -1119.171          40.250    22989704.620    95751311.901 7      -870.466          45.312    22989704.880    95751308.903 7      -870.466          45.562
G17  23084696.840   121310911.107 7      5408.550          44.437    23084695.880   121310911.104 5      5408.550          35.000    23084700.960    94527993.937 5      4214.455          35.000    23084701.520    94527997.938 7      4214.455          46.250
G04  22968636.360   120701031.231 7      5565.879          43.500    22968635.840   120701031.244 5      5565.879          31.000    22968651.920    94052808.691 5      4337.048          31.000    22968653.860    94052832.723 7      4337.048          45.187
R11  22695316.520   121276860.357 7      1676.700          44.500    22695316.780   121276860.361 7      1676.700          44.062    22695328.640    94326510.079 7      1304.100          44.875    22695329.120    94326510.079 7      1304.100          45.375
G22  23403582.780   122986661.392 6      3866.855          37.437    23403580.800   122986661.394 4      3866.855          28.937    23403588.020    95833786.371 4      3013.134          28.062
R20  20537163.200   109821436.293 6      2958.718          37.250    20537162.800   109821436.324 6      2958.718          36.625    20537174.140    85416722.394 7      2301.225          43.875    20537175.520    85416726.390 7      2301.225          43.875
> 2024 05 06 16 08  2.0000000  0 12
G02  21712066.140   114097666.560 7      2012.904          46.687    21712064.480   114097666.563 6      2012.904          39.687    21712066.740    88907274.956 6      1568.497          39.125
G03  19906319.100   104608421.133 8      2712.579          49.750    19906318.460   104608421.138 8      2712.579          50.250    19906324.280    81513086.661 8      2113.698          51.062    19906325.320    81513090.660 8      2113.698          51.312
G14  21988777.940   115551791.077 7      2530.936          45.000    21988776.480   115551791.090 5      2530.936          35.250    21988783.280    90040377.090 5      1972.158          35.250    21988784.720    90040380.077 8      1972.158          49.625
R05  19788677.780   105781832.381 8      1819.658          49.812    19788677.820   105781832.388 8      1819.658          48.437    19788687.040    82274804.891 8      1415.289          50.750    19788686.780    82274802.892 8      1415.289          51.000
G08  22262820.160   116991848.442 7       -34.356          45.437    22262819.280   116991848.444 7       -34.356          44.437    22262831.220    91162501.968 7       -26.771          44.437    22262833.420    91162507.970 7       -26.771          47.812
G21  22305866.580   117218097.788 7      1276.914          46.750    22305864.320   117218097.790 6      1276.914          36.250    22305869.240    91338787.691 6       994.998          36.312
R04  22989900.680   123109866.891 6     -1119.915          40.562    22989903.280   123109866.943 6     -1119.915          40.250    22989913.280    95752182.550 7      -871.045          45.312    22989913.820    95752179.549 7      -871.045          45.937
G17  23083667.640   121305502.635 7      5408.253          44.812    23083666.780   121305502.629 5      5408.253          35.750    23083671.880    94523779.550 5      4214.223          35.375    23083671.960    94523783.550 7      4214.223          46.125
G04  22967577.340   120695465.400 7      5565.613          43.562    22967576.600   120695465.410 5      5565.613          31.000    22967592.660    94048471.695 5      4336.841          30.750    22967594.580    94048495.722 7      4336.841          45.312
R11  22695002.580   121275184.106 7      1675.717          45.125    22695003.180   121275184.110 7      1675.717          43.937    22695015.400    94325206.318 7      1303.335          44.562    22695015.220    94325206.312 7      1303.335          45.187
G22  23402846.800   122982794.803 6      3866.052          38.250    23402844.960   122982794.807 4      3866.052          28.250    23402852.160    95830773.446 4      3012.508          28.062
R20  20536609.740   109818477.429 6      2958.447          37.250    20536609.320   109818477.460 6      2958.447          36.625    20536620.880    85414421.051 7      2301.014          44.250    20536622.100    85414425.051 7      2301.014          43.687
> 2024 05 06 16 08  3.0000000  0 12
G02  21711683.100   114095653.658 7      2012.956          47.062    21711681.300   114095653.661 6      2012.956          39.937    21711683.780    88905706.463 6      1568.537          39.562
G03  19905803.240   104605708.696 8      2712.095          49.187    19905802.260   104605708.696 8      2712.095          51.125    19905808.160    81510973.077 8      2113.321          51.250    19905809.200    81510977.075 8      2113.321          51.312
G14  21988296.500   115549260.320 7      2530.439          44.812    21988295.060   115549260.333 5      2530.439          35.250    21988301.720    90038405.074 5      1971.771          35.000    21988302.780    90038408.059 8      1971.771          49.875
R05  19788337.720   105780013.117 8      1818.842          50.000    19788337.520   105780013.113 8      1818.842          48.937    19788346.680    82273389.903 8      1414.655          51.000    19788346.380    82273387.904 8      1414.655          51.062
G08  22262826.500   116991882.941 7       -34.618          46.062    22262825.800   116991882.946 7       -34.618          44.562    22262837.740    91162528.845 7       -26.975          44.125    22262839.820    91162534.842 7       -26.975          47.687
G21  22305623.580   117216820.701 7      1277.027          46.125    22305621.480   117216820.701 6      1277.027          36.375    22305626.140    91337792.557 6       995.086          36.562
R04  22990110.280   123110986.786 6     -1120.060          40.562    22990112.680   123110986.827 6     -1120.060          40.250    22990122.380    95753053.571 7      -871.157          44.875    22990122.900    95753050.568 7      -871.157          45.312
G17  23082638.540   121300094.315 7      5408.311          44.750    23082637.740   121300094.309 5      5408.311          35.750    23082642.660    94519565.273 5      4214.268          35.125    23082643.060    94519569.282 7      4214.268          46.062
G04  22966518.020   120689899.776 7      5565.604          43.625    22966517.440   120689899.781 5      5565.604          31.000    22966533.560    94044134.864 5      4336.834          30.750    22966535.440    94044158.891 7      4336.834          45.312
R11  22694689.220   121273508.630 7      1675.098          45.500    22694689.720   121273508.621 7      1675.098          44.125    22694702.160    94323903.159 7      1302.854          45.000    22694701.900    94323903.164 7      1302.854          45.187
G22  23402111.040   122978928.797 6      3865.773          38.750    23402109.260   122978928.804 4      3865.773          28.250    23402116.520    95827760.978 4      3012.291          28.062
R20  20536056.660   109815518.867 6      2958.402          37.187    20536056.880   109815518.852 6      2958.402          36.625    20536067.540    85412119.917 7      2300.980          44.312    20536068.580    85412123.910 7      2300.980          44.187
> 2024 05 06 16 08  4.0000000  0 12
G02  21711300.160   114093640.806 7      2012.812          46.375    21711298.300   114093640.809 6      2012.812          39.375    21711300.640    88904138.007 6      1568.425          39.125
G03  19905287.160   104602996.801 8      2711.664          49.750    19905286.180   104602996.806 8      2711.664          50.187    19905292.040    81508859.916 8      2112.985          50.750    19905293.120    81508863.912 8      2112.985          51.437
G14  21987814.820   115546730.184 7      2529.765          43.875    21987813.460   115546730.194 5      2529.765          35.187    21987820.280    90036433.533 5      1971.246          35.000    21987820.900    90036436.524 8      1971.246          49.625
R05  19787997.560   105778194.738 8      1817.937          49.437    19787997.280   105778194.736 8      1817.937          49.187    19788006.600    82271975.612 8      1413.951          51.000    19788006.320    82271973.615 8      1413.951          50.812
G08  22262832.980   116991917.777 7       -34.996          45.312    22262832.360   116991917.777 7       -34.996          44.312    22262844.480    91162555.977 7       -27.270          43.812    22262846.640    91162561.978 7       -27.270          47.875
G21  22305380.580   117215543.609 7      1277.089          46.812    22305378.480   117215543.612 6      1277.089          36.750    22305383.120    91336797.420 6       995.134          36.750
R04  22990319.000   123112107.039 6     -1120.335          40.562    22990321.620   123112107.073 6     -1120.335          40.187    22990331.540    95753924.879 7      -871.372          44.812    22990331.920    95753921.872 7      -871.372          44.875
G17  23081609.620   121294686.051 7      5408.213          44.812    23081608.540   121294686.045 5      5408.213          35.312    23081613.520    94515351.049 5      4214.192          35.125    23081613.880    94515355.054 7      4214.192          45.625
G04  22965458.780   120684334.228 7      5565.578          43.437    22965458.280   120684334.236 5      5565.578          31.000    22965474.500    94039798.092 5      4336.814          30.750    22965476.220    94039822.127 7      4336.814          45.000
R11  22694376.020   121271833.814 7      1674.498          45.000    22694375.960   121271833.807 7      1674.498          44.562    22694389.060    94322600.527 7      1302.387          45.062    22694388.460    94322600.527 7      1302.387          45.750
G22  23401375.200   122975063.300 6      3865.272          39.250    23401373.680   122975063.308 4      3865.272          28.250    23401380.880    95824748.903 4      3011.901          28.062
R20  20535503.200   109812560.388 6      2958.074          37.187    20535503.000   109812560.389 6      2958.074          36.625    20535514.540    85409818.888 7      2300.724          44.250    20535515.340    85409822.887 7      2300.724          43.937
> 2024 05 06 16 08  5.0000000  0 12
G02  21710917.300   114091628.025 7      2012.505          46.562    21710915.180   114091628.025 6      2012.505          39.562    21710917.520    88902569.602 6      1568.185          39.500
G03  19904771.100   104600285.529 8      2710.750          49.625    19904770.200   104600285.531 8      2710.750          50.250    19904776.080    81506747.234 8      2112.273          50.375    19904777.140    81506751.231 8      2112.273          51.437
G14  21987333.460   115544200.659 7      2528.898          44.875    21987332.060   115544200.672 5      2528.898          35.625    21987338.900    90034462.475 5      1970.570          35.187    21987339.560    90034465.462 8      1970.570          49.937
R05  19787657.820   105776377.291 8      1816.685          49.500    19787657.380   105776377.295 8      1816.685          48.937    19787666.600    82270562.049 8      1412.977          51.312    19787666.200    82270560.046 8      1412.977          51.750
G08  22262839.940   116991952.949 7       -35.566          45.375    22262839.080   116991952.954 7       -35.566          44.500    22262851.280    91162583.380 7       -27.714          44.375    22262853.120    91162589.381 8       -27.714          48.187
G21  22305137.600   117214266.557 7      1276.806          46.562    22305135.420   117214266.559 6      1276.806          36.625    22305140.200    91335802.312 6       994.913          36.625
R04  22990527.380   123113227.738 6     -1121.266          40.875    22990530.840   123113227.777 6     -1121.266          40.187    22990540.780    95754796.536 7      -872.096          44.750    22990541.060    95754793.531 7      -872.096          45.562
G17  23080580.600   121289277.876 7      5407.847          45.437    23080579.460   121289277.873 5      5407.847          35.187    23080584.320    94511136.892 5      4213.907          35.125    23080584.760    94511140.889 7      4213.907          45.937
G04  22964399.960   120678768.854 7      5564.985          43.125    22964399.340   120678768.864 5      5564.985          31.000    22964415.300    94035461.457 5      4336.352          31.187    22964417.360    94035485.490 7      4336.352          45.312
R11  22694063.100   121270159.695 7      1673.618          44.937    22694062.640   121270159.694 7      1673.618          44.562    22694075.700    94321298.434 7      1301.703          44.875    22694075.140    94321298.437 7      1301.703          45.562
G22  23400639.800   122971198.327 6      3864.491          39.562    23400638.360   122971198.332 4      3864.491          28.250    23400645.260    95821737.236 4      3011.292          28.500
R20  20534949.640   109809602.013 6      2958.042          37.187    20534949.700   109809602.028 6      2958.042          36.562    20534961.160    85407517.938 7      2300.699          44.187    20534962.360    85407521.935 7      2300.699          43.812
> 2024 05 06 16 08  6.0000000  0 12
G02  21710534.120   114089615.234 7      2012.756          46.937    21710532.260   114089615.241 6      2012.756          39.312    21710534.580    88901001.197 6      1568.381          39.187
G03  19904255.100   104597574.774 8      2710.465          49.312    19904254.420   104597574.773 8      2710.465          50.187    19904260.320    81504634.957 8      2112.051          50.562    19904261.240    81504638.958 8      2112.051          51.187
G14  21986852.120   115541671.705 7      2528.478          44.375    21986850.900   115541671.710 5      2528.478          35.500    21986857.700    90032491.855 5      1970.243          35.375    21986858.360    90032494.842 8      1970.243          49.187
R05  19787317.760   105774560.683 8      1816.117          49.437    19787317.540   105774560.685 8      1816.117          48.750    19787326.720    82269149.132 8      1412.536          51.562    19787326.520    82269147.129 8      1412.536          51.750
G08  22262846.680   116991988.431 7       -35.690          44.562    22262845.800   116991988.436 7       -35.690          44.312    22262857.960    91162611.016 7       -27.811          43.687    22262859.880    91162617.017 7       -27.811          47.812
G21  22304894.440   117212989.460 7      1277.127          46.437    22304892.260   117212989.462 6      1277.127          37.000    22304897.160    91334807.172 6       995.164          36.625
R04  22990737.120   123114348.776 6     -1121.364          40.875    22990740.080   123114348.810 6     -1121.364          40.187    22990750.180    95755668.446 7      -872.172          44.937    22990750.220    95755665.441 7      -872.172          44.812
G17  23079551.180   121283869.706 7      5408.163          45.062    23079550.320   121283869.703 5      5408.163          35.625    23079555.280    94506922.736 5      4214.153          35.625    23079555.540    94506926.729 7      4214.153          46.000
G04  22963340.980   120673203.493 7      5565.356          44.812    22963340.340   120673203.498 5      5565.356          31.000    22963356.280    94031124.831 5      4336.641          31.187    22963358.100    94031148.853 7      4336.641          45.312
R11  22693749.500   121268486.205 7      1673.224          44.562    22693749.420   121268486.211 7      1673.224          43.687    22693762.200    94319996.838 7      1301.397          44.875    22693761.900    94319996.845 7      1301.397          45.312
G22  23399904.680   122967333.800 6      3864.272          40.250    23399903.200   122967333.799 4      3864.272          29.062    23399909.740    95818725.910 4      3011.121          28.500
R20  20534396.780   109806643.828 6      2957.855          37.187    20534396.720   109806643.832 6      2957.855          36.562    20534407.760    85405217.123 7      2300.554          44.062    20534408.920    85405221.114 7      2300.554          44.000
> 2024 05 06 16 08  7.0000000  0 12
G02  21710150.980   114087602.398 7      2012.910          47.375    21710149.340   114087602.402 6      2012.910          39.562    21710151.560    88899432.751 6      1568.501          39.500
G03  19903739.320   104594864.479 8      2710.052          48.125    19903738.660   104594864.481 8      2710.052          49.750    19903744.520    81502523.043 8      2111.729          50.500    19903745.640    81502527.046 8      2111.729          51.875
G14  21986370.940   115539143.213 7      2528.292          44.437    21986369.680   115539143.218 5      2528.292          35.437    21986376.440    90030521.599 5      1970.098          35.187    21986376.920    90030524.587 8      1970.098          49.062
R05  19786978.080   105772744.840 8      1815.499          48.812    19786977.860   105772744.839 8      1815.499          48.500    19786987.060    82267736.808 8      1412.055          51.375    19786986.880    82267734.808 8      1412.055          51.500
G08  22262853.380   116992024.110 7       -35.812          44.812    22262852.600   116992024.115 7       -35.812          44.375    22262864.760    91162638.809 7       -27.906          44.062    22262866.680    91162644.813 8       -27.906          48.000
G21  22304651.520   117211712.271 7      1277.270          46.875    22304649.160   117211712.276 6      1277.270          36.562    22304654.100    91333811.962 6       995.276          36.687
R04  22990946.940   123115470.098 6     -1121.487          40.875    22990948.820   123115470.137 6     -1121.487          40.375    22990959.380    95756540.598 7      -872.268          45.062    22990959.500    95756537.595 7      -872.268          44.625
G17  23078522.180   121278461.489 7      5408.269          44.750    23078521.380   121278461.491 5      5408.269          35.625    23078526.200    94502708.547 5      4214.236          35.750    23078525.820    94502712.544 7      4214.236          46.062
G04  22962281.860   120667638.140 7      5565.453          43.687    22962281.460   120667638.145 5      5565.453          31.062    22962297.120    94026788.212 5      4336.717          31.187    22962299.100    94026812.243 7      4336.717          45.250
R11  22693436.440   121266813.328 7      1672.561          44.812    22693436.440   121266813.335 7      1672.561          44.062    22693449.240    94318695.712 7      1300.881          44.875    22693448.840    94318695.709 7      1300.881          45.500
G22  23399169.380   122963469.649 6      3864.110          39.875    23399167.900   122963469.656 4      3864.110          29.062    23399174.260    95815714.883 4      3010.995          28.500
R20  20533842.720   109803685.609 6      2958.126          37.187    20533844.160   109803685.629 6      2958.126          36.562    20533854.640    85402916.292 7      2300.765          44.250    20533856.000    85402920.281 7      2300.765          44.000
> 2024 05 06 16 08  8.0000000  0 12
G02  21709768.100   114085589.793 7      2012.575          47.500    21709766.340   114085589.797 6      2012.575          39.312    21709768.660    88897864.490 6      1568.240          39.062
G03  19903223.900   104592154.911 8      2709.397          48.875    19903223.040   104592154.914 8      2709.397          49.812    19903228.880    81500411.694 8      2111.218          49.625    19903229.960    81500415.697 8      2111.218          50.687
G14  21985890.080   115536615.512 7      2527.507          44.000    21985888.720   115536615.522 5      2527.507          35.437    21985895.380    90028551.962 5      1969.486          35.250    21985895.820    90028554.962 8      1969.486          48.500
R05  19786638.680   105770930.045 8      1814.452          49.187    19786638.160   105770930.049 8      1814.452          49.062    19786647.560    82266325.308 8      1411.240          50.500    19786647.220    82266323.307 8      1411.240          50.187
G08  22262860.440   116992060.288 7       -36.214          45.062    22262859.520   116992060.296 7       -36.214          44.312    22262871.740    91162666.996 7       -28.219          43.625    22262873.580    91162672.997 8       -28.219          48.000
G21  22304408.280   117210435.276 7      1277.052          46.375    22304406.280   117210435.276 6      1277.052          36.687    22304411.120    91332816.893 6       995.106          36.937
R04  22991156.540   123116592.020 6     -1122.165          40.562    22991158.320   123116592.062 6     -1122.165          40.375    22991168.760    95757413.204 7      -872.795          44.562    22991168.740    95757410.203 7      -872.795          44.062
G17  23077492.940   121273053.513 7      5407.975          45.500    23077492.520   121273053.513 5      5407.975          35.937    23077497.020    94498494.542 5      4214.006          35.375    23077497.140    94498498.545 7      4214.006          46.062
G04  22961222.720   120662073.099 7      5564.973          43.687    22961222.320   120662073.104 5      5564.973          31.062    22961238.240    94022451.834 5      4336.342          31.187    22961240.360    94022475.858 7      4336.342          45.187
R11  22693123.380   121265141.251 7      1671.883          44.562    22693123.660   121265141.249 7      1671.883          44.187    22693136.300    94317395.191 7      1300.353          44.812    22693135.920    94317395.183 7      1300.353          44.750
G22  23398434.640   122959606.199 6      3863.229          39.187    23398432.620   122959606.207 4      3863.229          29.062    23398439.000    95812704.407 4      3010.308          28.500
R20  20533290.860   109800727.715 6      2958.042          37.187    20533290.140   109800727.733 6      2958.042          36.562    20533301.600    85400615.704 7      2300.700          43.937    20533302.840    85400619.699 7      2300.700          44.437
> 2024 05 06 16 08  9.0000000  0 12
G02  21709385.180   114083577.167 7      2012.467          47.500    21709383.380   114083577.171 6      2012.467          39.250    21709385.660    88896296.210 6      1568.156          39.062
G03  19902708.320   104589445.886 8      2708.610          48.312    19902707.520   104589445.890 8      2708.610          49.750    19902713.400    81498300.767 8      2110.606          49.625    19902714.440    81498304.770 8      2110.606          50.875
G14  21985409.200   115534088.373 7      2526.702          43.875    21985407.960   115534088.381 5      2526.702          35.312    21985414.540    90026582.761 5      1968.858          35.125    21985414.880    90026585.765 8      1968.858          48.625
R05  19786299.300   105769116.097 8      1813.373          49.187    19786298.900   105769116.104 8      1813.373          48.625    19786308.220    82264914.464 8      1410.401          49.875    19786307.880    82264912.461 8      1410.401          49.500
G08  22262867.140   116992096.769 7       -36.735          45.125    22262866.360   116992096.771 7       -36.735          44.000    22262878.720    91162695.410 7       -28.625          43.312    22262880.340    91162701.411 7       -28.625          47.625
G21  22304165.300   117209158.234 7      1276.834          47.062    22304163.240   117209158.234 6      1276.834          36.375    22304168.020    91331821.793 6       994.936          36.562
R04  22991366.560   123117714.245 6     -1122.520          40.562    22991367.920   123117714.276 6     -1122.520          40.375    22991378.060    95758286.035 7      -873.071          45.125    22991378.100    95758283.038 7      -873.071          44.312
G17  23076463.940   121267645.538 7      5407.843          44.937    23076463.280   121267645.532 5      5407.843          35.625    23076467.960    94494280.538 5      4213.904          35.375    23076468.260    94494284.536 7      4213.904          45.750
G04  22960163.880   120656508.064 7      5564.842          43.812    22960163.320   120656508.069 5      5564.842          31.062    22960179.300    94018115.463 5      4336.241          30.875    22960181.480    94018139.492 7      4336.241          45.500
R11  22692810.620   121263469.831 7      1671.049          44.562    22692810.960   121263469.824 7      1671.049          43.875    22692823.880    94316095.196 7      1299.705          44.125    22692823.240    94316095.198 7      1299.705          44.750
G22  23397699.040   122955743.186 6      3862.653          38.937    23397697.480   122955743.191 4      3862.653          29.062    23397703.900    95809694.269 4      3009.859          28.437
R20  20532737.840   109797769.961 6      2957.578          36.062    20532736.380   109797769.991 6      2957.578          36.562    20532748.500    85398315.234 7      2300.339          43.437    20532749.700    85398319.232 7      2300.339          43.625
> 2024 05 06 16 08 10.0000000  0 12
G02  21709002.060   114081564.462 7      2012.699          46.937    21709000.320   114081564.467 6      2012.699          38.750    21709002.520    88894727.866 6      1568.337          38.875
G03  19902192.700   104586737.283 8      2708.311          48.437    19902192.040   104586737.287 7      2708.311          47.937    19902197.940    81496190.173 7      2110.372          47.937    19902198.680    81496194.172 8      2110.372          49.687
G14  21984928.440   115531561.705 7      2526.306          44.312    21984927.220   115531561.713 5      2526.306          35.125    21984933.800    90024613.931 5      1968.550          35.125    21984933.980    90024616.928 8      1968.550          48.187
R05  19785959.840   105767302.887 8      1812.702          49.437    19785959.780   105767302.899 8      1812.702          49.500    19785968.980    82263504.193 7      1409.880          47.500    19785968.800    82263502.192 7      1409.880          47.312
G08  22262874.120   116992133.433 7       -36.849          45.062    22262873.400   116992133.430 7       -36.849          43.187    22262885.580    91162723.968 7       -28.713          43.125    22262887.040    91162729.967 7       -28.713          46.375
G21  22303922.200   117207881.053 7      1277.109          47.500    22303920.140   117207881.058 6      1277.109          36.250    22303924.880    91330826.589 6       995.150          36.375
R04  22991575.820   123118836.734 6     -1122.781          40.562    22991577.800   123118836.773 6     -1122.781          39.687    22991587.640    95759159.086 7      -873.274          44.312    22991587.820    95759156.094 7      -873.274          43.562
G17  23075434.860   121262237.489 7      5408.049          44.937    23075434.160   121262237.488 5      5408.049          35.562    23075438.840    94490066.476 5      4214.064          35.250    23075439.280    94490070.483 7      4214.064          45.437
G04  22959104.900   120650943.010 7      5565.082          43.437    22959104.220   120650943.018 5      5565.082          31.000    22959120.320    94013779.076 5      4336.428          30.875    22959122.240    94013803.101 7      4336.428          45.500
R11  22692497.860   121261798.969 7      1670.520          44.375    22692498.280   121261798.962 7      1670.520          44.312    22692511.400    94314795.634 7      1299.293          43.312    22692510.560    94314795.625 7      1299.293          43.937
G22  23396964.380   122951880.514 6      3862.640          39.562    23396962.380   122951880.524 4      3862.640          28.562    23396968.940    95806684.395 4      3009.849          28.437
R20  20532185.120   109794812.236 6      2957.740          36.062    20532183.740   109794812.224 6      2957.740          36.562    20532195.360    85396014.752 7      2300.465          43.625    20532196.540    85396018.754 7      2300.465          43.062
> 2024 05 06 16 08 11.0000000  0 12
G02  21708619.160   114079551.736 7      2012.760          47.562    21708617.280   114079551.738 6      2012.760          39.562    21708619.520    88893159.508 6      1568.385          39.437
G03  19901677.440   104584029.189 8      2707.790          48.437    19901676.740   104584029.189 8      2707.790          50.187    19901682.660    81494079.969 8      2109.966          50.375    19901683.540    81494083.972 8      2109.966          51.187
G14  21984447.720   115529035.547 7      2525.879          44.062    21984446.540   115529035.559 5      2525.879          35.125    21984452.960    90022645.495 5      1968.218          35.125    21984453.400    90022648.489 8      1968.218          48.937
R05  19785620.800   105765490.494 8      1811.970          49.562    19785620.660   105765490.501 8      1811.970          48.750    19785630.020    82262094.553 8      1409.310          50.875    19785629.660    82262092.549 8      1409.310          50.687
G08  22262881.280   116992170.350 7       -37.037          45.562    22262880.380   116992170.352 7       -37.037          44.375    22262892.620    91162752.730 7       -28.860          44.250    22262894.080    91162758.729 7       -28.860          47.750
G21  22303679.320   117206603.814 7      1277.239          46.687    22303677.140   117206603.819 6      1277.239          36.375    22303681.920    91329831.340 6       995.251          36.375
R04  22991785.980   123119959.558 6     -1123.050          40.250    22991787.040   123119959.603 6     -1123.050          39.687    22991797.480    95760032.398 7      -873.483          45.062    22991797.380    95760029.408 7      -873.483          44.875
G17  23074405.640   121256829.445 7      5408.078          45.125    23074404.980   121256829.442 5      5408.078          35.562    23074409.640    94485852.420 5      4214.087          35.687    23074410.180    94485856.427 7      4214.087          46.062
G04  22958045.840   120645378.006 7      5564.995          44.125    22958045.300   120645378.011 5      5564.995          31.000    22958061.280    94009442.730 5      4336.360          30.875    22958063.500    94009466.761 7      4336.360          45.125
R11  22692185.500   121260128.719 7      1669.906          44.562    22692185.660   121260128.725 7      1669.906          43.875    22692198.780    94313496.566 7      1298.816          44.750    22692198.240    94313496.564 7      1298.816          45.125
G22  23396229.160   122948018.326 6      3861.948          39.375    23396227.320   122948018.333 4      3861.948          28.562    23396234.300    95803674.895 4      3009.310          28.437
R20  20531631.540   109791854.543 6      2957.583          36.062    20531629.640   109791854.549 6      2957.583          36.312    20531642.380    85393714.343 7      2300.342          44.312    20531643.580    85393718.345 7      2300.342          44.000
> 2024 05 06 16 08 12.0000000  0 12
G02  21708236.180   114077538.976 7      2012.612          47.375    21708234.340   114077538.978 6      2012.612          39.625    21708236.480    88891591.126 6      1568.269          39.250
G03  19901162.300   104581321.556 8      2707.272          48.125    19901161.540   104581321.558 8      2707.272          50.125    19901167.400    81491970.127 8      2109.562          50.687    19901167.980    81491974.129 8      2109.562          51.437
G14  21983967.120   115526509.913 7      2525.254          44.062    21983965.920   115526509.931 5      2525.254          35.437    21983972.320    90020677.472 5      1967.731          34.937    21983972.620    90020680.465 8      1967.731          49.125
R05  19785281.900   105763678.919 8      1811.031          49.187    19785281.620   105763678.926 8      1811.031          48.812    19785291.000    82260685.552 8      1408.579          50.875    19785290.840    82260683.549 8      1408.579          50.500
G08  22262888.400   116992207.519 7       -37.457          45.750    22262887.400   116992207.521 7       -37.457          43.875    22262899.740    91162781.682 7       -29.187          43.687    22262901.420    91162787.675 7       -29.187          47.875
G21  22303436.280   117205326.507 7      1277.196          46.375    22303434.080   117205326.512 6      1277.196          36.687    22303438.840    91328836.035 6       995.218          36.500
R04  22991995.100   123121082.677 6     -1123.206          40.250    22991996.460   123121082.730 6     -1123.206          39.687    22992007.300    95760905.941 7      -873.605          45.375    22992007.240    95760902.951 7      -873.605          44.500
G17  23073376.560   121251421.399 7      5407.898          44.875    23073375.940   121251421.398 5      5407.898          35.875    23073380.500    94481638.362 5      4213.946          35.437    23073381.100    94481642.369 7      4213.946          46.187
G04  22956987.020   120639813.000 7      5564.915          44.250    22956986.300   120639813.008 5      5564.915          31.000    22957002.340    94005106.384 5      4336.298          31.250    22957004.540    94005130.413 7      4336.298          45.875
R11  22691873.120   121258459.038 7      1669.361          44.625    22691872.960   121258459.042 7      1669.361          43.875    22691885.880    94312197.908 7      1298.392          44.000    22691885.780    94312197.915 7      1298.392          44.687
G22  23395494.400   122944156.497 6      3861.420          39.375    23395492.260   122944156.510 4      3861.420          28.562    23395499.560    95800665.684 4      3008.899          28.437
R20  20531078.300   109788896.908 6      2957.521          36.062    20531077.240   109788896.921 6      2957.521          36.312    20531089.140    85391413.957 7      2300.294          44.187    20531090.480    85391417.956 7      2300.294          43.625
> 2024 05 06 16 08 13.0000000  0 12
G02  21707853.040   114075526.210 7      2012.753          47.687    21707851.300   114075526.213 6      2012.753          38.937    21707853.460    88890022.735 6      1568.379          39.125
G03  19900647.140   104578614.446 8      2706.861          48.500    19900646.340   104578614.453 8      2706.861          50.500    19900652.220    81489860.696 8      2109.242          50.687    19900652.860    81489864.697 8      2109.242          50.812
G14  21983486.780   115523984.827 7      2524.939          44.750    21983485.520   115523984.842 5      2524.939          35.812    21983491.760    90018709.866 5      1967.485          35.875    21983492.180    90018712.855 8      1967.485          49.250
R05  19784943.280   105761868.203 8      1810.261          49.375    19784942.760   105761868.207 8      1810.261          48.750    19784952.280    82259277.217 8      1407.980          51.062    19784952.040    82259275.214 8      1407.980          50.812
G08  22262895.540   116992244.963 7       -37.697          45.625    22262894.380   116992244.971 7       -37.697          44.375    22262906.820    91162810.854 7       -29.374          44.375    22262908.700    91162816.857 7       -29.374          47.875
G21  22303193.140   117204049.150 7      1277.362          46.125    22303190.940   117204049.152 6      1277.362          36.812    22303195.880    91327840.688 6       995.347          37.062
R04  22992205.060   123122206.243 6     -1123.666          40.250    22992206.960   123122206.279 6     -1123.666          39.812    22992217.280    95761779.815 7      -873.963          45.062    22992217.280    95761776.829 7      -873.963          44.875
G17  23072347.120   121246013.358 7      5407.981          44.687    23072346.720   121246013.352 6      5407.981          36.125    23072351.540    94477424.308 6      4214.011          36.000    23072351.860    94477428.311 7      4214.011          45.812
G04  22955927.940   120634248.078 7      5564.734          43.687    22955927.420   120634248.088 5      5564.734          31.125    22955943.400    94000770.103 5      4336.157          31.250    22955945.540    94000794.128 7      4336.157          45.625
R11  22691560.420   121256789.998 7      1668.675          44.062    22691561.100   121256789.997 7      1668.675          44.437    22691572.980    94310899.760 7      1297.858          45.125    22691573.620    94310899.750 7      1297.858          45.187
G22  23394759.600   122940295.124 6      3861.193          38.750    23394757.260   122940295.139 4      3861.193          28.562    23394764.720    95797656.824 4      3008.722          28.500
R20  20530524.760   109785939.363 6      2957.653          36.062    20530524.080   109785939.375 6      2957.653          36.312    20530536.180    85389113.652 7      2300.397          44.312    20530537.340    85389117.639 7      2300.397          43.812
> 2024 05 06 16 08 14.0000000  0 12
G02  21707470.120   114073513.637 7      2012.381          47.625    21707468.440   114073513.639 6      2012.381          39.187    21707470.500    88888454.494 6      1568.089          39.062
G03  19900132.140   104575908.073 8      2705.889          49.562    19900131.320   104575908.076 8      2705.889          51.562    19900137.200    81487751.832 8      2108.485          51.312    19900137.980    81487755.833 8      2108.485          51.375
G14  21983006.180   115521460.531 7      2523.712          45.125    21983005.200   115521460.547 5      2523.712          35.875    21983011.420    90016742.878 5      1966.529          35.500    21983011.700    90016745.865 8      1966.529          48.875
R05  19784604.920   105760058.520 8      1809.108          50.437    19784604.220   105760058.522 8      1809.108          50.500    19784613.740    82257869.684 8      1407.084          51.062    19784613.580    82257867.683 8      1407.084          51.500
G08  22262903.000   116992282.878 7       -38.259          45.687    22262901.720   116992282.881 7       -38.259          45.000    22262914.000    91162840.382 7       -29.812          44.375    22262915.860    91162846.379 7       -29.812          47.750
G21  22302950.340   117202771.950 7      1277.017          46.875    22302947.940   117202771.955 6      1277.017          36.500    22302952.840    91326845.465 6       995.078          36.437
R04  22992415.440   123123330.283 6     -1124.356          40.750    22992416.380   123123330.335 6     -1124.356          39.812    22992427.100    95762654.077 7      -874.499          45.375    22992427.280    95762651.085 7      -874.499          44.875
G17  23071318.440   121240605.503 7      5407.648          45.750    23071317.440   121240605.503 5      5407.648          35.562    23071322.380    94473210.399 6      4213.752          36.000    23071322.420    94473214.406 7      4213.752          46.437
G04  22954869.200   120628683.374 7      5564.389          44.375    22954868.520   120628683.384 5      5564.389          31.125    22954884.420    93996433.989 5      4335.887          31.250    22954886.480    93996458.015 7      4335.887          45.625
R11  22691248.620   121255121.779 7      1667.675          46.625    22691249.100   121255121.767 7      1667.675          45.437    22691261.360    94309602.238 7      1297.081          44.375    22691260.900    94309602.236 7      1297.081          44.187
G22  23394024.840   122936434.428 6      3860.229          38.687    23394022.480   122936434.441 4      3860.229          28.875    23394030.160    95794648.485 4      3007.971          28.500
R20  20529970.920   109782982.111 6      2957.090          36.062    20529971.160   109782982.150 6      2957.090          36.312    20529983.100    85386813.582 7      2299.959          44.562    20529984.480    85386817.569 7      2299.959          44.375
> 2024 05 06 16 08 15.0000000  0 12
G02  21707087.080   114071501.221 7      2012.369          46.625    21707085.340   114071501.226 6      2012.369          39.500    21707087.420    88886886.376 6      1568.080          39.437
G03  19899617.320   104573202.363 8      2705.390          49.312    19899616.400   104573202.366 8      2705.390          51.312    19899622.320    81485643.489 8      2108.096          51.062    19899623.220    81485647.486 8      2108.096          51.437
G14  21982526.260   115518936.900 7      2523.304          45.500    21982524.980   115518936.913 5      2523.304          35.312    21982531.300    90014776.406 5      1966.211          35.312    21982531.640    90014779.400 8      1966.211          49.562
R05  19784266.560   105758249.840 8      1808.226          50.937    19784265.800   105758249.839 8      1808.226          50.812    19784275.320    82256462.933 8      1406.398          51.000    19784275.140    82256460.926 8      1406.398          50.937
G08  22262909.940   116992321.227 7       -38.462          45.437    22262908.940   116992321.224 7       -38.462          44.812    22262921.420    91162870.249 7       -29.971          44.625    22262922.900    91162876.253 7       -29.971          47.937
G21  22302707.140   117201494.863 7      1277.084          47.562    22302704.940   117201494.868 6      1277.084          36.812    22302709.840    91325850.329 6       995.131          36.625
R04  22992625.160   123124454.842 6     -1124.636          40.750    22992627.680   123124454.876 6     -1124.636          39.812    22992637.140    95763528.722 7      -874.717          45.312    22992637.300    95763525.731 7      -874.717          45.375
G17  23070289.420   121235197.822 7      5407.663          45.312    23070288.260   121235197.824 5      5407.663          35.687    23070293.400    94468996.628 5      4213.764          35.875    23070293.420    94469000.631 7      4213.764          46.125
G04  22953809.940   120623118.890 7      5564.385          44.250    22953809.620   120623118.903 5      5564.385          31.125    22953825.500    93992098.046 5      4335.885          31.187    22953827.780    93992122.072 7      4335.885          46.375
R11  22690936.160   121253454.340 7      1667.140          46.000    22690937.040   121253454.338 7      1667.140          45.875    22690949.780    94308305.340 7      1296.665          44.250    22690948.940    94308305.333 7      1296.665          44.812
G22  23393290.280   122932574.297 6      3859.955          39.562    23393287.840   122932574.307 4      3859.955          28.875    23393295.540    95791640.593 4      3007.757          28.500
R20  20529417.520   109780025.158 6      2956.868          36.062    20529418.640   109780025.178 6      2956.868          36.312    20529430.340    85384513.717 7      2299.786          44.375    20529431.280    85384517.711 7      2299.786          44.375
> 2024 05 06 16 08 16.0000000  0 12
G02  21706704.420   114069488.755 7      2012.464          46.687    21706702.360   114069488.758 6      2012.464          39.875    21706704.400    88885318.221 6      1568.154          39.812
G03  19899102.500   104570497.126 8      2704.964          49.062    19899101.660   104570497.131 8      2704.964          51.562    19899107.540    81483535.514 8      2107.764          50.937    19899108.320    81483539.509 8      2107.764          51.250
G14  21982046.060   115516413.792 7      2522.791          45.500    21982044.880   115516413.805 6      2522.791          36.000    21982051.160    90012810.348 5      1965.811          35.750    21982051.380    90012813.339 8      1965.811          49.062
R05  19783928.360   105756441.920 8      1807.449          50.687    19783927.460   105756441.918 8      1807.449          50.187    19783937.020    82255056.773 8      1405.794          51.312    19783936.840    82255054.769 8      1405.794          50.437
G08  22262917.460   116992359.831 7       -38.799          44.562    22262916.280   116992359.830 7       -38.799          44.937    22262928.720    91162900.326 7       -30.233          44.312    22262930.280    91162906.323 7       -30.233          47.875
G21  22302463.860   117200217.695 7      1277.145          46.687    22302461.880   117200217.703 6      1277.145          36.250    22302466.720    91324855.133 6       995.178          36.187
R04  22992835.880   123125579.690 6     -1125.011          40.750    22992837.400   123125579.727 6     -1125.011          41.375    22992847.540    95764403.606 7      -875.009          45.375    22992847.580    95764400.615 7      -875.009          45.312
G17  23069260.460   121229790.120 7      5407.654          45.187    23069259.180   121229790.122 5      5407.654          35.750    23069264.480    94464782.836 5      4213.756          35.687    23069264.040    94464786.839 7      4213.756          45.937
G04  22952751.240   120617554.417 7      5564.393          44.312    22952750.600   120617554.433 5      5564.393          31.312    22952766.640    93987762.115 5      4335.891          31.187    22952768.760    93987786.140 7      4335.891          46.062
R11  22690624.460   121251787.499 7      1666.486          46.375    22690624.440   121251787.492 7      1666.486          45.250    22690637.660    94307008.915 7      1296.156          44.375    22690637.200    94307008.920 7      1296.156          45.187
G22  23392555.660   122928714.599 6      3859.433          39.812    23392553.360   122928714.607 4      3859.433          28.875    23392561.240    95788633.037 4      3007.350          28.500
R20  20528865.040   109777068.225 6      2956.762          36.312    20528866.160   109777068.250 6      2956.762          37.000    20528877.320    85382213.886 7      2299.704          44.187    20528878.400    85382217.890 7      2299.704          44.500
> 2024 05 06 16 08 17.0000000  0 12
G02  21706321.240   114067476.382 7      2012.240          45.750    21706319.480   114067476.386 6      2012.240          39.437    21706321.520    88883750.139 6      1567.980          39.000
G03  19898587.940   104567792.493 8      2704.290          48.500    19898587.000   104567792.498 8      2704.290          50.187    19898592.880    81481428.012 8      2107.239          50.375    19898593.640    81481432.009 8      2107.239          50.937
G14  21981565.960   115513891.325 7      2522.069          45.562    21981564.880   115513891.338 5      2522.069          35.750    21981571.180    90010844.787 5      1965.249          35.750    21981571.320    90010847.787 8      1965.249          49.062
R05  19783590.040   105754634.915 8      1806.390          49.000    19783589.520   105754634.914 8      1806.390          48.562    19783599.080    82253651.329 8      1404.970          51.062    19783598.860    82253649.330 8      1404.970          51.125
G08  22262924.860   116992398.773 7       -39.198          44.937    22262923.660   116992398.775 7       -39.198          43.812    22262936.200    91162930.665 7       -30.544          43.875    22262937.820    91162936.668 8       -30.544          48.000
G21  22302220.860   117198940.572 7      1276.978          46.562    22302218.900   117198940.571 6      1276.978          36.187    22302223.880    91323859.970 6       995.048          36.312
R04  22993045.860   123126704.970 6     -1125.623          41.500    22993047.240   123126705.025 6     -1125.623          41.375    22993057.540    95765278.842 7      -875.484          45.187    22993057.740    95765275.845 7      -875.484          45.500
G17  23068231.280   121224382.494 7      5407.544          44.812    23068230.080   121224382.494 5      5407.544          35.750    23068235.340    94460569.104 5      4213.671          35.312    23068235.280    94460573.113 7      4213.671          45.625
G04  22951692.580   120611990.107 7      5564.076          43.125    22951691.760   120611990.120 5      5564.076          31.312    22951707.680    93983426.310 5      4335.644          31.187    22951710.020    93983450.332 7      4335.644          46.125
R11  22690312.180   121250121.356 7      1665.562          44.750    22690312.560   121250121.360 7      1665.562          45.250    22690325.500    94305713.045 7      1295.437          44.562    22690325.280    94305713.045 7      1295.437          44.437
G22  23391821.520   122924855.417 6      3858.853          40.500    23391819.120   122924855.422 4      3858.853          28.875    23391827.040    95785625.885 4      3006.899          29.062
R20  20528312.500   109774111.508 6      2956.169          36.312    20528312.500   109774111.546 6      2956.169          37.000    20528324.600    85379914.222 7      2299.242          44.250    20528325.760    85379918.231 7      2299.242          44.375
> 2024 05 06 16 08 18.0000000  0 12
G02  21705938.220   114065464.137 7      2012.212          46.187    21705936.620   114065464.139 6      2012.212          39.375    21705938.560    88882182.156 6      1567.958          39.375
G03  19898073.340   104565088.525 8      2703.662          48.500    19898072.440   104565088.530 8      2703.662          49.937    19898078.280    81479321.024 8      2106.749          50.500    19898079.080    81479325.021 8      2106.749          50.187
G14  21981085.900   115511369.555 7      2521.402          44.687    21981085.000   115511369.567 6      2521.402          36.000    21981091.380    90008879.771 5      1964.729          35.750    21981091.640    90008882.763 8      1964.729          48.062
R05  19783252.200   105752828.873 8      1805.571          48.375    19783251.580   105752828.872 8      1805.571          49.125    19783261.100    82252246.630 8      1404.333          50.437    19783260.960    82252244.633 8      1404.333          50.312
G08  22262932.500   116992438.141 7       -39.475          45.125    22262931.140   116992438.143 7       -39.475          44.000    22262943.640    91162961.331 7       -30.760          43.687    22262945.220    91162967.334 7       -30.760          47.562
G21  22301977.860   117197663.525 7      1276.976          45.687    22301976.020   117197663.530 6      1276.976          36.250    22301980.840    91322864.870 6       995.046          36.625
R04  22993256.400   123127830.766 6     -1126.033          41.500    22993258.200   123127830.808 6     -1126.033          41.375    22993267.720    95766154.451 7      -875.804          45.125    22993268.060    95766151.458 7      -875.804          45.250
G17  23067202.200   121218975.023 7      5407.355          44.875    23067201.040   121218975.025 5      5407.355          35.687    23067206.140    94456355.502 5      4213.523          35.312    23067205.860    94456359.505 7      4213.523          45.937
G04  22950633.320   120606425.957 7      5564.084          43.062    22950632.800   120606425.965 5      5564.084          31.625    22950649.040    93979090.625 5      4335.650          31.562    22950651.160    93979114.648 7      4335.650          45.812
R11  22690000.680   121248455.996 7      1664.931          44.687    22690001.160   121248455.989 7      1664.931          43.687    22690013.240    94304417.754 7      1294.947          44.250    22690013.440    94304417.759 7      1294.947          43.562
G22  23391087.080   122920996.839 6      3858.346          40.625    23391085.060   122920996.846 4      3858.346          29.562    23391092.800    95782619.203 4      3006.503          29.062
R20  20527759.620   109771154.956 6      2956.294          36.312    20527759.920   109771154.998 6      2956.294          37.000    20527771.680    85377614.688 7      2299.339          44.375    20527772.600    85377618.694 7      2299.339          44.187
> 2024 05 06 16 08 19.0000000  0 12
G02  21705555.200   114063451.899 7      2012.249          46.750    21705553.700   114063451.904 6      2012.249          39.062    21705555.620    88880614.177 6      1567.986          39.312
G03  19897558.840   104562385.075 8      2703.169          49.375    19897558.000   104562385.080 8      2703.169          49.937    19897563.840    81477214.437 8      2106.365          49.875    19897564.680    81477218.436 8      2106.365          50.750
G14  21980605.960   115508848.330 7      2520.858          45.312    21980605.300   115508848.341 5      2520.858          35.625    21980611.620    90006915.175 5      1964.305          35.687    21980611.720    90006918.172 8      1964.305          48.437
R05  19782914.560   105751023.705 8      1804.735          48.562    19782913.940   105751023.701 8      1804.735          48.625    19782923.460    82250842.608 8      1403.683          50.937    19782923.340    82250840.607 8      1403.683          50.625
G08  22262939.980   116992477.798 7       -39.798          44.937    22262938.600   116992477.806 7       -39.798          44.250    22262951.220    91162992.224 7       -31.011          43.937    22262952.820    91162998.227 7       -31.011          47.875
G21  22301734.780   117196386.446 7      1277.094          46.125    22301732.900   117196386.453 6      1277.094          36.687    22301737.740    91321869.740 6       995.138          36.562
R04  22993466.780   123128956.889 6     -1126.228          41.500    22993468.840   123128956.917 6     -1126.228          40.000    22993478.480    95767030.314 7      -875.955          45.062    22993478.120    95767027.315 7      -875.955          44.750
G17  23066173.100   121213567.560 7      5407.460          44.750    23066171.800   121213567.562 5      5407.460          35.312    23066177.120    94452141.897 5      4213.605          35.437    23066177.080    94452145.891 7      4213.605          45.437
G04  22949574.580   120600861.881 7      5564.058          43.000    22949573.920   120600861.891 5      5564.058          31.625    22949590.300    93974755.002 5      4335.630          31.562    22949592.340    93974779.022 7      4335.630          45.750
R11  22689689.280   121246791.268 7      1664.417          44.437    22689689.740   121246791.270 7      1664.417          43.812    22689701.400    94303122.956 7      1294.547          43.750    22689701.780    94303122.954 7      1294.547          43.437
G22  23390353.220   122917138.702 6      3857.974          40.562    23390350.980   122917138.707 4      3857.974          29.562    23390358.720    95779612.861 4      3006.213          29.062
R20  20527207.100   109768198.531 6      2956.432          36.312    20527207.040   109768198.545 6      2956.432          37.000    20527219.160    85375315.227 7      2299.447          44.312    20527219.980    85375319.224 7      2299.447          43.750
> 2024 05 06 16 08 20.0000000  0 12
G02  21705172.380   114061439.975 7      2011.933          47.500    21705170.900   114061439.980 6      2011.933          39.250    21705172.760    88879046.444 6      1567.740          39.125
G03  19897044.460   104559682.445 8      2702.431          48.375    19897043.680   104559682.447 8      2702.431          49.750    19897049.580    81475108.494 8      2105.790          50.187    19897050.460    81475112.492 8      2105.790          51.437
G14  21980126.560   115506327.963 7      2520.085          44.875    21980125.700   115506327.973 5      2520.085          35.750    21980131.880    90004951.252 5      1963.703          35.562    21980132.000    90004954.250 8      1963.703          48.687
R05  19782577.200   105749219.703 8      1803.681          48.812    19782576.300   105749219.701 8      1803.681          48.562    19782586.060    82249439.499 8      1402.863          50.937    19782585.640    82249437.498 8      1402.863          50.687
G08  22262947.420   116992518.052 7       -40.332          43.937    22262946.220   116992518.049 7       -40.332          44.250    22262958.840    91163023.576 7       -31.427          44.000    22262960.740    91163029.578 8       -31.427          48.437
G21  22301491.820   117195109.643 7      1276.882          45.375    22301490.040   117195109.648 6      1276.882          36.125    22301494.780    91320874.827 6       994.973          36.500
R04  22993677.060   123130083.638 6     -1126.789          40.312    22993679.060   123130083.680 6     -1126.789          40.000    22993688.940    95767906.683 7      -876.391          45.750    22993688.760    95767903.686 7      -876.391          45.437
G17  23065144.260   121208160.410 7      5407.221          45.187    23065143.120   121208160.412 5      5407.221          35.312    23065148.140    94447928.533 5      4213.419          35.312    23065148.240    94447932.536 7      4213.419          45.312
G04  22948515.820   120595298.162 7      5563.793          42.937    22948515.160   120595298.175 5      5563.793          31.625    22948531.620    93970419.655 5      4335.423          31.562    22948534.260    93970443.675 7      4335.423          46.312
R11  22689378.100   121245127.466 7      1663.574          44.937    22689378.860   121245127.469 7      1663.574          43.687    22689390.040    94301828.887 7      1293.891          43.500    22689390.320    94301828.879 7      1293.891          43.750
G22  23389619.100   122913281.335 6      3857.186          40.500    23389617.240   122913281.340 4      3857.186          29.562    23389624.600    95776607.123 4      3005.600          29.062
R20  20526654.500   109765242.514 6      2956.042          36.312    20526654.540   109765242.540 6      2956.042          37.000    20526666.160    85373016.111 7      2299.144          44.562    20526667.080    85373020.103 7      2299.144          43.750
