     3.05           OBSERVATION DATA    MIXED               RINEX VERSION / TYPE
TPS2RIN 1.0.29.3920 TPS-USER            20240511 185610 UTC PGM / RUN BY / DATE
Win64 build Feb 23, 2024 (c) Topcon Positioning Systems     COMMENT
SRC: 20240508_GUI07.tps                                     COMMENT
OPT: -S -v 3.05                                             COMMENT
Observer            Agency                                  OBSERVER / AGENCY
O0M3X53SBGM         TPS HIPER_SR        4.8 HSR Jul,08,2022 REC # / TYPE / VERS
FW: 4.8 HSR Jul,08,2022 p3                                  COMMENT
SN: HiPer SR 1212-12575                                     COMMENT
000                 TPSHIPER_SR     NONE                    ANT # / TYPE
        1.8000        0.0000        0.0000                  ANTENNA: DELTA H/E/N
GUI07                                                       MARKER NAME
  5386129.8871 -1577759.5846  3021158.2749                  APPROX POSITION XYZ
  2024     5     8     8    41   25.0000000     GPS         TIME OF FIRST OBS
  2024     5     8     8    56   55.0000000     GPS         TIME OF LAST OBS
     1.000                                                  INTERVAL
   931 EPOCHS                                               COMMENT
G   16 C1C L1C D1C S1C C1W L1W D1W S1W C2W L2W D2W S2W C2X  SYS / # / OBS TYPES
       L2X D2X S2X                                          SYS / # / OBS TYPES
R   16 C1C L1C D1C S1C C1P L1P D1P S1P C2P L2P D2P S2P C2C  SYS / # / OBS TYPES
       L2C D2C S2C                                          SYS / # / OBS TYPES
    15                                                      # OF SATELLITES
   G04   884   884   884   884   882   882   882   882   882PRN / # OF OBS
         882   882   882   878   878   878   878            PRN / # OF OBS
   G16   931   931   931   931   931   931   931   931   931PRN / # OF OBS
         931   931   931     0     0     0     0            PRN / # OF OBS
   G18   931   931   931   931   931   931   931   931   931PRN / # OF OBS
         931   931   931   931   931   931   931            PRN / # OF OBS
   G25   931   931   931   931   931   931   931   931   931PRN / # OF OBS
         931   931   931   931   931   931   931            PRN / # OF OBS
   G26   931   931   931   931   931   931   931   931   931PRN / # OF OBS
         931   931   931   931   931   931   931            PRN / # OF OBS
   G27   931   931   931   931   931   931   931   931   931PRN / # OF OBS
         931   931   931   931   931   931   931            PRN / # OF OBS
   G28   931   931   931   931   931   931   931   931   931PRN / # OF OBS
         931   931   931   931   931   931   931            PRN / # OF OBS
   G29   931   931   931   931   931   931   931   931   931PRN / # OF OBS
         931   931   931   931   931   931   931            PRN / # OF OBS
   G31   931   931   931   931   931   931   931   931   931PRN / # OF OBS
         931   931   931   931   931   931   931            PRN / # OF OBS
   G32   931   931   931   931   931   931   931   931   931PRN / # OF OBS
         931   931   931   931   931   931   931            PRN / # OF OBS
   R07   769   769   769   769   769   769   769   769   769PRN / # OF OBS
         769   769   769   769   769   769   769            PRN / # OF OBS
   R09   931   931   931   931   931   931   931   931   931PRN / # OF OBS
         931   931   931   931   931   931   931            PRN / # OF OBS
   R16   931   931   931   931   931   931   931   931   931PRN / # OF OBS
         931   931   931   931   931   931   931            PRN / # OF OBS
   R18   931   931   931   931   931   931   931   931   931PRN / # OF OBS
         931   931   931   931   931   931   931            PRN / # OF OBS
   R19   931   931   931   931   931   931   931   931   931PRN / # OF OBS
         931   931   931   931   931   931   931            PRN / # OF OBS
G L1C                                                       SYS / PHASE SHIFT
G L1W -0.25000                                              SYS / PHASE SHIFT
G L2W  0.00000                                              SYS / PHASE SHIFT
G L2X  0.25000                                              SYS / PHASE SHIFT
R L1C                                                       SYS / PHASE SHIFT
R L1P -0.25000                                              SYS / PHASE SHIFT
R L2P -0.25000                                              SYS / PHASE SHIFT
R L2C                                                       SYS / PHASE SHIFT
  5 R07  5 R09 -2 R16 -1 R18 -3 R19  3                      GLONASS SLOT / FRQ #
                                                            GLONASS COD/PHS/BIS
    18    18  1929     7GPS                                 LEAP SECONDS
                                                            END OF HEADER
> 2024 05 08 08 41 25.0000000  0 14
G25  24101660.760   126655076.832 7       278.761          42.000    24101660.220   126655076.829 5       278.761          34.250    24101666.940    98692298.352 5       217.216          34.500    24101668.660    98692302.374 6       217.216          38.625
G27  23643754.080   124248769.903 6      5578.659          41.687    23643752.720   124248769.921 5      5578.659          30.437    23643757.500    96817230.139 5      4347.007          30.125    23643758.140    96817245.141 7      4347.007          44.562
R19  19486829.420   104241405.864 6      3449.430          37.312    19486828.940   104241405.873 6      3449.430          36.875    19486835.460    81076668.408 7      2682.890          47.812    19486835.920    81076670.409 7      2682.890          47.750
R07  23546346.400   126045423.663 6       800.659          38.437    23546347.480   126045423.710 6       800.659          38.250    23546357.900    98035388.993 6       622.734          41.500    23546357.800    98035387.998 7       622.734          42.875
G29  22717896.240   119383348.555 7      -285.671          43.500    22717896.060   119383348.568 7      -285.671          42.437    22717897.400    93025989.701 6      -222.601          41.812    22717898.380    93025993.698 7      -222.601          46.375
G26  21384704.080   112377374.668 7      3847.168          46.812    21384702.840   112377374.675 6      3847.168          38.750    21384707.580    87566809.177 6      2997.793          38.687    21384707.780    87566805.176 8      2997.793          48.875
R18  20705778.040   110528853.936 8       -94.211          48.562    20705780.080   110528853.940 7       -94.211          47.625    20705786.540    85966917.282 8       -73.275          49.437    20705786.700    85966917.287 8       -73.275          50.187
R09  21290062.860   113687738.360 7      5125.283          46.500    21290062.660   113687738.366 7      5125.283          45.875    21290069.000    88423824.515 8      3986.332          48.812    21290068.840    88423826.508 8      3986.332          49.312
R16  20340771.840   108656755.939 8      2524.788          48.750    20340772.020   108656755.938 8      2524.788          48.000    20340778.260    84510832.548 8      1963.724          50.562    20340778.560    84510831.543 8      1963.724          51.062
G31  20679430.440   108671139.738 7      3604.678          47.562    20679429.880   108671139.741 7      3604.678          42.312    20679430.500    84678809.580 6      2808.840          41.750    20679430.920    84678811.584 8      2808.840          50.000
G32  24331228.560   127861437.749 7      -525.099          44.875    24331231.060   127861437.754 4      -525.099          28.500    24331234.820    99632277.550 4      -409.168          28.562    24331234.460    99632334.569 6      -409.168          40.437
G16  23497837.020   123481966.920 6      4709.622          40.187    23497837.020   123481966.922 4      4709.622          25.750    23497840.020    96219727.336 4      3669.836          25.437
G18  21774917.320   114427963.578 7      3876.800          43.937    21774916.320   114427963.582 5      3876.800          32.812    21774919.620    89164653.911 5      3020.883          32.750    21774919.260    89164654.920 7      3020.883          46.062
G28  20432872.640   107375469.494 7      1732.308          47.562    20432871.820   107375469.499 7      1732.308          42.375    20432873.820    83669199.846 7      1349.851          42.000    20432874.180    83669199.844 9      1349.851          54.375
> 2024 05 08 08 41 26.0000000  0 14
G25  24101607.640   126654797.853 6       278.987          41.937    24101607.180   126654797.858 5       278.987          34.437    24101613.740    98692080.966 5       217.393          34.500    24101615.580    98692084.983 6       217.393          38.500
G27  23642692.600   124243191.144 6      5578.737          41.750    23642691.320   124243191.159 5      5578.737          30.437    23642696.140    96812883.057 5      4347.068          30.125    23642696.820    96812898.064 7      4347.068          44.562
R19  19486184.900   104237956.811 6      3448.398          37.312    19486183.440   104237956.821 6      3448.398          36.875    19486190.820    81073985.813 7      2682.087          47.625    19486190.960    81073987.813 7      2682.087          47.062
R07  23546196.400   126044623.056 6       800.441          38.437    23546198.060   126044623.106 6       800.441          37.875    23546208.440    98034766.303 6       622.565          41.500    23546208.500    98034765.296 7       622.565          43.000
G29  22717950.560   119383634.082 7      -285.432          42.625    22717950.400   119383634.090 7      -285.432          42.875    22717951.760    93026212.186 7      -222.415          42.312    22717952.520    93026216.183 7      -222.415          45.812
G26  21383972.040   112373527.273 7      3847.442          47.312    21383970.660   112373527.280 6      3847.442          38.750    21383975.440    87563811.209 6      2998.006          38.562    21383975.740    87563807.210 8      2998.006          48.687
R18  20705795.700   110528948.252 7       -94.522          46.187    20705797.680   110528948.261 7       -94.522          47.500    20705804.280    85966990.636 8       -73.517          50.062    20705804.300    85966990.641 8       -73.517          49.000
R09  21289103.040   113682612.916 7      5125.591          46.000    21289102.960   113682612.922 7      5125.591          45.687    21289109.040    88419838.061 8      3986.571          48.562    21289108.840    88419840.053 8      3986.571          48.500
R16  20340299.160   108654231.082 8      2524.782          49.562    20340299.080   108654231.078 8      2524.782          48.812    20340305.440    84508868.770 8      1963.719          50.312    20340305.840    84508867.767 8      1963.719          50.437
G31  20678744.620   108667535.233 7      3604.346          47.750    20678744.060   108667535.230 7      3604.346          42.125    20678744.540    84676000.879 6      2808.581          41.625    20678745.180    84676002.879 8      2808.581          50.437
G32  24331328.180   127861962.532 7      -524.589          44.625    24331331.120   127861962.535 4      -524.589          28.500    24331334.680    99632686.464 4      -408.771          28.562    24331334.660    99632743.475 6      -408.771          40.437
G16  23496941.440   123477257.233 6      4709.562          40.375    23496940.760   123477257.230 4      4709.562          25.750    23496944.040    96216057.453 4      3669.788          25.437
G18  21774179.560   114424086.804 7      3876.612          44.687    21774178.560   114424086.809 5      3876.612          32.812    21774181.920    89161633.050 5      3020.737          32.750    21774181.820    89161634.058 7      3020.737          45.687
G28  20432543.080   107373737.287 8      1731.989          48.125    20432542.180   107373737.287 7      1731.989          42.687    20432544.320    83667850.073 7      1349.602          42.375    20432544.660    83667850.069 9      1349.602          54.562
> 2024 05 08 08 41 27.0000000  0 14
G25  24101554.640   126654518.811 7       279.022          42.187    24101554.000   126654518.813 5       279.022          34.437    24101560.660    98691863.526 5       217.420          34.250    24101562.620    98691867.539 6       217.420          38.500
G27  23641631.460   124237612.538 6      5578.535          41.562    23641629.660   124237612.556 5      5578.535          30.437    23641634.620    96808536.091 5      4346.910          30.437    23641635.100    96808551.084 7      4346.910          44.250
R19  19485539.980   104234508.411 6      3447.847          37.187    19485539.600   104234508.426 6      3447.847          36.875    19485546.240    81071303.735 7      2681.659          47.500    19485546.320    81071305.730 8      2681.659          48.000
R07  23546046.300   126043822.814 6       800.068          38.437    23546048.220   126043822.856 6       800.068          37.875    23546059.000    98034143.888 7       622.275          42.062    23546058.660    98034142.885 7       622.275          43.125
G29  22718004.540   119383919.656 7      -285.621          43.500    22718004.720   119383919.661 7      -285.621          42.562    22718006.160    93026434.711 7      -222.562          42.250    22718007.180    93026438.704 7      -222.562          46.187
G26  21383239.800   112369679.896 7      3847.235          47.750    21383238.560   112369679.903 6      3847.235          38.687    21383243.200    87560813.250 6      2997.845          38.562    21383243.500    87560809.254 8      2997.845          48.875
R18  20705813.240   110529043.099 8       -95.174          48.500    20705815.340   110529043.100 7       -95.174          47.875    20705822.000    85967064.404 8       -74.024          49.500    20705822.400    85967064.409 8       -74.024          49.812
R09  21288143.240   113677487.384 7      5125.519          45.812    21288143.000   113677487.390 7      5125.519          45.500    21288149.300    88415851.544 8      3986.515          48.875    21288148.980    88415853.535 8      3986.515          49.625
R16  20339826.460   108651706.458 8      2524.423          49.000    20339826.720   108651706.459 8      2524.423          48.187    20339832.880    84506905.173 8      1963.440          50.500    20339833.560    84506904.168 8      1963.440          50.875
G31  20678058.820   108663931.101 8      3603.846          48.312    20678058.240   108663931.104 7      3603.846          42.250    20678058.720    84673192.464 6      2808.192          41.875    20678059.360    84673194.471 8      2808.192          50.687
G32  24331427.960   127862487.114 7      -524.473          44.812    24331430.980   127862487.119 4      -524.473          28.500    24331434.400    99633095.225 4      -408.681          28.562    24331434.560    99633152.235 6      -408.681          40.625
G16  23496045.360   123472547.392 6      4709.556          40.000    23496044.620   123472547.392 4      4709.556          25.750    23496047.920    96212387.451 4      3669.784          25.437
G18  21773441.820   114420210.458 7      3875.993          45.187    21773440.880   114420210.463 5      3875.993          32.812    21773444.180    89158612.523 5      3020.254          32.750    21773444.280    89158613.531 7      3020.254          45.812
G28  20432213.820   107372005.522 7      1731.419          47.937    20432212.580   107372005.524 7      1731.419          42.687    20432214.720    83666500.647 7      1349.158          42.437    20432215.220    83666500.647 9      1349.158          54.625
> 2024 05 08 08 41 28.0000000  0 14
G25  24101501.340   126654239.695 7       279.261          42.375    24101500.740   126654239.692 5       279.261          34.250    24101507.620    98691646.031 5       217.606          34.250    24101509.260    98691650.042 6       217.606          38.500
G27  23640569.460   124232034.076 6      5578.363          41.625    23640568.020   124232034.094 5      5578.363          30.625    23640573.160    96804189.239 5      4346.776          30.437    23640573.480    96804204.243 7      4346.776          44.187
R19  19484894.940   104231060.827 6      3447.290          37.187    19484894.380   104231060.847 6      3447.290          36.875    19484901.660    81068622.289 7      2681.226          47.437    19484901.960    81068624.286 7      2681.226          47.562
R07  23545896.780   126043022.944 6       799.825          38.687    23545898.660   126043022.980 6       799.825          37.875    23545909.760    98033521.763 6       622.086          41.812    23545909.200    98033520.753 7       622.086          42.687
G29  22718059.140   119384205.236 7      -285.514          44.312    22718059.120   119384205.241 7      -285.514          42.562    22718060.360    93026657.241 7      -222.478          42.437    22718061.180    93026661.240 7      -222.478          45.750
G26  21382507.600   112365832.487 7      3847.471          47.062    21382506.400   112365832.495 6      3847.471          38.750    21382511.000    87557815.276 6      2998.030          38.687    21382511.440    87557811.279 8      2998.030          49.062
R18  20705831.180   110529138.479 8       -95.558          48.437    20705833.520   110529138.483 7       -95.558          47.687    20705839.780    85967138.591 8       -74.323          48.875    20705840.180    85967138.598 8       -74.323          49.312
R09  21287183.280   113672361.769 7      5125.720          45.375    21287183.340   113672361.778 7      5125.720          45.375    21287189.340    88411864.957 8      3986.671          48.687    21287189.060    88411866.954 8      3986.671          49.375
R16  20339354.060   108649182.092 8      2524.273          48.812    20339353.780   108649182.094 7      2524.273          47.750    20339360.080    84504941.778 8      1963.324          50.812    20339360.440    84504940.773 8      1963.324          51.125
G31  20677372.920   108660327.364 8      3603.565          48.375    20677372.420   108660327.366 7      3603.565          42.312    20677372.960    84670384.359 6      2807.972          41.750    20677373.820    84670386.365 8      2807.972          49.812
G32  24331527.800   127863011.519 7      -524.255          45.062    24331530.700   127863011.526 4      -524.255          28.375    24331534.200    99633503.846 4      -408.511          28.562    24331534.680    99633560.859 6      -408.511          40.625
G16  23495149.080   123467837.493 6      4709.915          40.750    23495148.420   123467837.493 4      4709.915          25.750    23495151.720    96208717.400 4      3670.064          26.000
G18  21772704.280   114416334.512 7      3875.782          44.937    21772703.260   114416334.512 5      3875.782          32.937    21772706.540    89155592.304 5      3020.090          32.875    21772706.620    89155593.309 7      3020.090          45.937
G28  20431884.500   107370274.216 8      1731.125          48.125    20431883.160   107370274.219 7      1731.125          43.062    20431885.360    83665151.582 7      1348.929          42.687    20431885.620    83665151.578 9      1348.929          54.062
> 2024 05 08 08 41 29.0000000  0 14
G25  24101448.260   126653960.584 7       279.140          42.812    24101447.860   126653960.584 5       279.140          34.437    24101454.480    98691428.540 5       217.512          34.312    24101455.240    98691432.558 6       217.512          38.187
G27  23639508.000   124226455.787 6      5578.195          41.000    23639506.660   124226455.808 5      5578.195          30.625    23639511.640    96799842.525 5      4346.646          30.437    23639512.000    96799857.523 7      4346.646          44.250
R19  19484251.040   104227614.117 6      3446.167          37.187    19484250.240   104227614.135 6      3446.167          36.875    19484257.440    81065941.517 7      2680.352          47.187    19484257.520    81065943.516 7      2680.352          47.375
R07  23545747.640   126042223.480 6       799.291          38.687    23545748.420   126042223.525 6       799.291          37.875    23545761.000    98032899.964 6       621.671          41.812    23545759.940    98032898.965 7       621.671          43.062
G29  22718113.700   119384490.892 7      -285.673          44.437    22718113.400   119384490.902 7      -285.673          42.062    22718114.840    93026879.830 6      -222.602          41.437    22718115.400    93026883.831 7      -222.602          45.937
G26  21381775.340   112361985.144 7      3847.353          46.937    21381774.360   112361985.154 6      3847.353          38.812    21381779.000    87554817.350 6      2997.938          38.562    21381779.400    87554813.356 8      2997.938          48.750
R18  20705849.380   110529234.479 8       -96.320          48.937    20705851.440   110529234.480 7       -96.320          47.937    20705857.900    85967213.253 8       -74.915          48.562    20705858.140    85967213.260 8       -74.915          48.187
R09  21286223.520   113667236.109 7      5125.687          44.625    21286223.240   113667236.121 7      5125.687          45.875    21286229.560    88407878.333 8      3986.645          48.250    21286229.200    88407880.325 8      3986.645          48.375
R16  20338881.580   108646658.026 8      2523.909          48.375    20338881.580   108646658.025 8      2523.909          48.062    20338887.820    84502978.613 8      1963.040          49.687    20338888.120    84502977.608 8      1963.040          49.875
G31  20676687.200   108656724.070 7      3603.076          47.812    20676686.600   108656724.072 7      3603.076          42.000    20676687.360    84667576.597 6      2807.591          41.437    20676688.040    84667578.602 8      2807.591          50.500
G32  24331627.520   127863535.746 7      -524.107          45.187    24331630.500   127863535.753 4      -524.107          28.375    24331634.060    99633912.326 4      -408.395          28.812    24331634.240    99633969.335 6      -408.395          40.750
G16  23494252.680   123463127.583 6      4709.852          40.187    23494252.120   123463127.586 4      4709.852          25.750    23494255.400    96205047.342 4      3670.015          26.000
G18  21771966.620   114412459.060 7      3875.217          44.875    21771965.780   114412459.060 5      3875.217          32.937    21771969.080    89152572.473 5      3019.650          32.875    21771969.200    89152573.474 7      3019.650          46.000
G28  20431554.820   107368543.439 7      1730.514          47.562    20431553.820   107368543.446 7      1730.514          42.875    20431555.900    83663802.926 7      1348.452          42.187    20431556.440    83663802.928 9      1348.452          54.312
> 2024 05 08 08 41 30.0000000  0 14
G25  24101395.560   126653681.657 7       278.785          42.937    24101394.660   126653681.657 5       278.785          34.437    24101401.440    98691211.191 5       217.235          34.687    24101402.920    98691215.204 6       217.235          38.187
G27  23638446.520   124220877.898 7      5577.696          42.250    23638445.300   124220877.916 5      5577.696          30.625    23638450.200    96795496.116 5      4346.257          30.937    23638450.340    96795511.109 7      4346.257          44.187
R19  19483606.440   104224168.363 6      3445.241          37.187    19483606.620   104224168.372 6      3445.241          36.625    19483613.180    81063261.475 7      2679.632          47.687    19483613.580    81063263.472 7      2679.632          47.750
R07  23545597.740   126041424.571 6       798.759          38.687    23545599.400   126041424.610 6       798.759          37.875    23545611.720    98032278.586 6       621.257          41.750    23545611.040    98032277.585 7       621.257          43.187
G29  22718167.720   119384776.782 7      -285.876          43.625    22718167.740   119384776.797 7      -285.876          42.500    22718169.160    93027102.605 7      -222.761          42.625    22718169.940    93027106.606 7      -222.761          45.875
G26  21381043.400   112358138.027 7      3847.037          47.125    21381042.460   112358138.040 6      3847.037          38.937    21381046.920    87551819.603 6      2997.691          38.812    21381047.240    87551815.609 8      2997.691          48.625
R18  20705867.300   110529331.240 7       -97.072          47.500    20705869.440   110529331.243 7       -97.072          47.875    20705875.960    85967288.509 8       -75.501          49.437    20705876.380    85967288.514 8       -75.501          49.812
R09  21285263.980   113662110.612 7      5125.490          45.812    21285263.580   113662110.626 7      5125.490          46.687    21285269.620    88403891.847 8      3986.492          48.750    21285269.380    88403893.841 8      3986.492          49.062
R16  20338408.960   108644134.395 8      2523.504          48.500    20338409.300   108644134.386 7      2523.504          47.687    20338415.360    84501015.785 8      1962.726          50.937    20338415.740    84501014.780 8      1962.726          50.687
G31  20676001.660   108653121.375 7      3602.419          47.250    20676001.240   108653121.375 7      3602.419          42.062    20676001.820    84664769.305 6      2807.080          41.812    20676002.500    84664771.314 8      2807.080          50.687
G32  24331727.420   127864060.009 7      -524.191          45.000    24331730.480   127864060.019 4      -524.191          28.375    24331733.680    99634320.839 4      -408.460          28.812    24331733.880    99634377.854 6      -408.460          40.750
G16  23493356.620   123458417.831 6      4709.469          41.000    23493355.820   123458417.831 4      4709.469          26.062    23493359.120    96201377.404 4      3669.716          26.000
G18  21771229.620   114408584.236 7      3874.492          44.875    21771228.540   114408584.236 5      3874.492          32.375    21771231.740    89149553.132 5      3019.084          32.437    21771231.720    89149554.131 7      3019.084          46.062
G28  20431225.360   107366813.329 8      1729.878          48.062    20431224.520   107366813.336 7      1729.878          42.812    20431226.680    83662454.786 7      1347.957          42.312    20431227.240    83662454.791 9      1347.957          54.750
> 2024 05 08 08 41 31.0000000  0 14
G25  24101342.620   126653402.854 7       278.775          42.375    24101341.600   126653402.851 5       278.775          34.625    24101348.680    98690993.941 5       217.227          34.687    24101349.920    98690997.963 6       217.227          38.562
G27  23637385.000   124215300.348 7      5577.498          42.312    23637384.000   124215300.364 5      5577.498          31.000    23637388.840    96791149.975 5      4346.102          30.937    23637389.460    96791164.968 7      4346.102          44.375
R19  19482962.720   104220723.589 6      3444.284          36.937    19482962.120   104220723.618 6      3444.284          36.625    19482969.300    81060582.223 8      2678.888          48.062    19482969.620    81060584.221 7      2678.888          47.687
R07  23545448.500   126040626.279 6       798.070          38.687    23545450.480   126040626.316 6       798.070          38.062    23545462.700    98031657.689 7       620.721          42.187    23545462.040    98031656.688 7       620.721          43.437
G29  22718222.080   119385062.950 7      -286.183          43.250    22718222.260   119385062.973 7      -286.183          43.062    22718223.700    93027325.596 7      -223.000          42.000    22718224.500    93027329.598 7      -223.000          45.750
G26  21380311.380   112354291.139 7      3846.854          47.562    21380310.480   112354291.152 6      3846.854          39.312    21380314.940    87548822.034 6      2997.549          38.875    21380315.180    87548818.038 8      2997.549          49.062
R18  20705885.940   110529428.761 7       -97.806          47.812    20705887.700   110529428.759 7       -97.806          47.875    20705894.360    85967364.357 8       -76.071          49.750    20705894.720    85967364.364 8       -76.071          49.437
R09  21284303.780   113656985.330 7      5125.410          47.062    21284303.840   113656985.339 7      5125.410          46.000    21284309.860    88399905.513 8      3986.430          48.437    21284309.880    88399907.505 8      3986.430          49.437
R16  20337937.080   108641611.237 8      2523.066          48.750    20337936.880   108641611.236 8      2523.066          48.312    20337943.020    84499053.331 8      1962.384          50.625    20337943.360    84499052.326 8      1962.384          50.250
G31  20675316.420   108649519.309 8      3601.845          48.000    20675315.780   108649519.311 7      3601.845          42.000    20675316.340    84661962.502 6      2806.633          41.375    20675317.180    84661964.508 8      2806.633          50.500
G32  24331827.300   127864584.314 7      -524.253          44.875    24331830.180   127864584.327 4      -524.253          28.375    24331833.520    99634729.383 4      -408.509          28.812    24331833.520    99634786.401 6      -408.509          40.562
G16  23492460.400   123453708.190 6      4709.749          39.500    23492459.560   123453708.189 4      4709.749          26.062    23492462.980    96197707.561 4      3669.934          26.000
G18  21770492.080   114404710.069 7      3873.834          43.750    21770491.300   114404710.069 5      3873.834          32.375    21770494.460    89146534.302 5      3018.572          32.437    21770494.360    89146535.306 7      3018.572          46.000
G28  20430896.440   107365083.928 8      1729.208          48.312    20430895.400   107365083.930 7      1729.208          43.125    20430897.580    83661107.201 7      1347.435          42.625    20430897.960    83661107.204 9      1347.435          55.125
> 2024 05 08 08 41 32.0000000  0 14
G25  24101289.400   126653123.885 6       279.122          41.812    24101288.580   126653123.885 5       279.122          34.937    24101295.660    98690776.565 5       217.498          34.562    24101296.660    98690780.580 6       217.498          38.562
G27  23636323.780   124209722.837 6      5577.534          41.750    23636322.760   124209722.855 5      5577.534          31.000    23636327.460    96786803.865 5      4346.130          30.937    23636328.380    96786818.862 7      4346.130          44.562
R19  19482318.740   104217279.493 6      3443.746          36.937    19482318.420   104217279.532 6      3443.746          36.625    19482325.560    81057903.492 7      2678.469          47.562    19482325.780    81057905.492 8      2678.469          48.250
R07  23545300.120   126039828.192 6       797.984          38.687    23545300.540   126039828.233 6       797.984          38.062    23545313.860    98031036.958 7       620.654          42.000    23545312.760    98031035.957 7       620.654          43.437
G29  22718276.540   119385348.995 7      -285.852          43.812    22718276.720   119385349.010 7      -285.852          42.437    22718278.100    93027548.481 7      -222.741          42.375    22718279.380    93027552.480 7      -222.741          46.062
G26  21379579.240   112350444.127 7      3847.131          47.437    21379578.440   112350444.132 6      3847.131          39.125    21379582.820    87545824.358 6      2997.764          38.937    21379582.880    87545820.360 8      2997.764          48.937
R18  20705904.200   110529526.666 7       -98.030          46.125    20705906.180   110529526.665 7       -98.030          47.625    20705912.720    85967440.504 8       -76.245          49.500    20705912.980    85967440.509 8       -76.245          49.875
R09  21283343.580   113651859.820 7      5125.685          46.437    21283343.800   113651859.829 7      5125.685          45.937    21283349.880    88395919.003 8      3986.644          48.625    21283349.940    88395920.999 8      3986.644          49.375
R16  20337464.560   108639088.186 8      2523.055          48.187    20337464.920   108639088.184 8      2523.055          48.625    20337470.740    84497090.957 8      1962.376          50.562    20337471.160    84497089.953 8      1962.376          50.562
G31  20674630.980   108645917.491 7      3601.758          47.125    20674630.340   108645917.491 7      3601.758          42.625    20674630.920    84659155.895 6      2806.564          41.937    20674631.840    84659157.896 8      2806.564          50.625
G32  24331926.800   127865108.275 7      -523.662          44.625    24331929.820   127865108.286 4      -523.662          28.375    24331933.080    99635137.656 4      -408.049          28.812    24331933.580    99635194.672 6      -408.049          40.875
G16  23491564.060   123448998.390 6      4709.945          39.687    23491563.220   123448998.385 4      4709.945          26.062    23491566.740    96194037.584 4      3670.087          26.000
G18  21769755.100   114400836.170 7      3873.843          44.125    21769754.220   114400836.172 5      3873.843          32.687    21769757.360    89143515.679 5      3018.579          32.625    21769757.080    89143516.687 7      3018.579          45.562
G28  20430567.400   107363354.866 7      1728.923          47.937    20430566.360   107363354.871 7      1728.923          42.625    20430568.600    83659759.883 7      1347.213          42.250    20430569.020    83659759.883 9      1347.213          54.437
> 2024 05 08 08 41 33.0000000  0 14
G25  24101236.200   126652844.662 7       279.281          42.500    24101235.300   126652844.664 5       279.281          34.937    24101242.420    98690558.988 5       217.622          34.562    24101243.600    98690562.997 6       217.622          38.562
G27  23635262.240   124204145.266 6      5577.515          41.000    23635261.220   124204145.287 5      5577.515          31.000    23635266.300    96782457.714 5      4346.115          30.937    23635266.980    96782472.711 7      4346.115          44.812
R19  19481674.780   104213835.996 6      3443.161          36.937    19481674.660   104213836.008 6      3443.161          36.625    19481681.760    81055225.196 7      2678.014          47.812    19481681.960    81055227.193 7      2678.014          47.937
R07  23545151.120   126039030.262 6       797.929          38.250    23545152.100   126039030.301 6       797.929          38.062    23545165.100    98030416.350 7       620.611          42.000    23545163.980    98030415.351 7       620.611          43.500
G29  22718331.120   119385634.892 7      -285.874          43.750    22718331.220   119385634.897 6      -285.874          41.937    22718332.640    93027771.248 6      -222.759          41.562    22718333.520    93027775.247 7      -222.759          45.687
G26  21378847.340   112346596.913 7      3847.206          46.750    21378846.220   112346596.921 6      3847.206          39.250    21378850.700    87542826.529 6      2997.823          38.875    21378851.040    87542822.533 8      2997.823          49.250
R18  20705922.500   110529624.951 7       -98.648          47.125    20705924.180   110529624.949 7       -98.648          47.187    20705931.220    85967516.949 8       -76.726          49.937    20705931.220    85967516.956 8       -76.726          50.062
R09  21282383.700   113646734.066 7      5125.726          46.375    21282384.280   113646734.083 7      5125.726          45.937    21282389.880    88391932.320 8      3986.676          48.812    21282389.920    88391934.316 8      3986.676          49.500
R16  20336992.220   108636565.183 8      2522.847          48.500    20336992.380   108636565.184 8      2522.847          48.312    20336998.540    84495128.626 8      1962.214          50.625    20336998.800    84495127.625 8      1962.214          51.000
G31  20673945.620   108642315.898 7      3601.370          47.125    20673945.020   108642315.900 7      3601.370          42.562    20673945.440    84656349.456 7      2806.263          42.375    20673946.260    84656351.461 8      2806.263          50.812
G32  24332026.620   127865631.864 7      -523.425          44.375    24332029.400   127865631.871 4      -523.425          28.375    24332032.560    99635545.636 4      -407.864          28.812    24332033.180    99635602.637 6      -407.864          40.875
G16  23490667.700   123444288.297 6      4710.161          40.250    23490666.860   123444288.291 4      4710.161          26.062    23490670.460    96190367.383 4      3670.256          26.000
G18  21769017.760   114396962.520 7      3873.521          44.812    21769017.020   114396962.520 5      3873.521          32.687    21769020.140    89140497.253 5      3018.328          32.625    21769020.160    89140498.255 7      3018.328          46.062
G28  20430238.420   107361626.073 8      1728.552          48.937    20430237.480   107361626.078 7      1728.552          42.750    20430239.540    83658412.777 7      1346.924          42.250    20430239.980    83658412.773 9      1346.924          54.500
> 2024 05 08 08 41 34.0000000  0 14
G25  24101182.660   126652565.359 7       279.373          42.625    24101182.280   126652565.361 5       279.373          34.875    24101189.300    98690341.350 5       217.694          35.000    24101189.860    98690345.369 6       217.694          38.875
G27  23634201.020   124198567.816 6      5577.442          41.687    23634199.800   124198567.837 5      5577.442          30.812    23634204.900    96778111.653 5      4346.059          30.750    23634205.460    96778126.658 7      4346.059          45.375
R19  19481031.180   104210393.231 6      3442.391          36.937    19481030.980   104210393.246 6      3442.391          36.625    19481037.980    81052547.494 8      2677.416          48.000    19481038.520    81052549.498 7      2677.416          47.625
R07  23545002.280   126038232.739 6       797.459          38.250    23545003.460   126038232.778 6       797.459          38.062    23545015.860    98029796.044 6       620.246          41.875    23545014.900    98029795.043 7       620.246          43.312
G29  22718385.560   119385920.774 7      -285.789          43.812    22718385.600   119385920.784 7      -285.789          42.312    22718387.060    93027994.016 6      -222.693          41.750    22718387.900    93027998.014 7      -222.693          46.312
G26  21378114.940   112342749.686 7      3847.280          46.187    21378114.120   112342749.693 6      3847.280          39.312    21378118.760    87539828.694 6      2997.880          39.000    21378118.860    87539824.700 8      2997.880          49.000
R18  20705940.960   110529723.743 7       -98.995          47.062    20705942.980   110529723.741 7       -98.995          47.000    20705949.780    85967593.787 8       -76.996          50.000    20705949.740    85967593.792 8       -76.996          49.687
R09  21281424.040   113641608.200 7      5125.946          46.375    21281424.260   113641608.204 7      5125.946          45.812    21281430.040    88387945.533 8      3986.847          48.562    21281430.120    88387947.526 8      3986.847          49.375
R16  20336519.840   108634042.380 8      2522.647          48.875    20336520.100   108634042.378 8      2522.647          48.625    20336526.280    84493166.450 8      1962.059          50.687    20336526.720    84493165.441 8      1962.059          51.375
G31  20673260.380   108638714.653 7      3601.148          47.250    20673259.740   108638714.650 7      3601.148          42.312    20673260.300    84653543.288 6      2806.090          41.937    20673261.120    84653545.297 8      2806.090          51.125
G32  24332126.180   127866155.223 7      -523.183          44.812    24332128.960   127866155.231 4      -523.183          28.375    24332131.960    99635953.439 4      -407.675          28.125    24332132.560    99636010.447 6      -407.675          40.562
G16  23489771.200   123439578.088 6      4710.425          40.500    23489770.580   123439578.085 4      4710.425          26.062    23489774.180    96186697.098 4      3670.461          26.000
G18  21768280.840   114393089.268 7      3873.164          44.687    21768279.920   114393089.270 5      3873.164          32.812    21768283.040    89137479.138 5      3018.050          32.625    21768283.140    89137480.142 7      3018.050          46.125
G28  20429909.640   107359897.710 8      1728.216          48.437    20429908.620   107359897.715 7      1728.216          42.937    20429910.660    83657065.999 7      1346.662          42.625    20429911.120    83657065.997 9      1346.662          54.187
> 2024 05 08 08 41 35.0000000  0 14
G25  24101129.640   126652286.009 6       279.313          41.812    24101129.180   126652286.009 5       279.313          35.000    24101136.300    98690123.675 5       217.647          35.312    24101137.060    98690127.694 6       217.647          38.875
G27  23633139.560   124192990.508 6      5577.301          40.375    23633138.360   124192990.528 5      5577.301          30.812    23633143.680    96773765.700 5      4345.949          30.750    23633144.000    96773780.712 7      4345.949          44.812
R19  19480388.100   104206951.256 6      3441.438          36.937    19480387.700   104206951.268 6      3441.438          37.125    19480394.560    81049870.402 7      2676.674          47.562    19480394.860    81049872.399 7      2676.674          47.625
R07  23544853.780   126037435.534 6       797.074          38.250    23544854.300   126037435.563 6       797.074          38.062    23544867.240    98029175.994 7       619.946          42.000    23544866.040    98029174.995 7       619.946          43.500
G29  22718439.820   119386206.664 7      -285.823          44.312    22718439.860   119386206.674 7      -285.823          42.750    22718441.480    93028216.789 7      -222.719          42.250    22718442.280    93028220.792 7      -222.719          45.875
G26  21377382.960   112338902.430 7      3847.313          46.375    21377382.040   112338902.440 6      3847.313          39.187    21377386.780    87536830.838 6      2997.906          39.250    21377386.980    87536826.848 8      2997.906          48.750
R18  20705959.580   110529823.049 7       -99.592          47.562    20705961.360   110529823.047 7       -99.592          47.250    20705968.360    85967671.026 8       -77.460          50.062    20705968.620    85967671.033 8       -77.460          50.062
R09  21280464.480   113636482.233 7      5126.066          46.062    21280464.440   113636482.234 7      5126.066          45.937    21280469.920    88383958.668 8      3986.940          48.500    21280469.920    88383960.662 8      3986.940          49.187
R16  20336047.820   108631519.780 8      2522.459          49.250    20336047.760   108631519.778 8      2522.459          48.125    20336054.000    84491204.430 8      1961.913          51.000    20336054.140    84491203.423 8      1961.913          51.250
G31  20672575.020   108635113.806 7      3600.659          47.000    20672574.440   108635113.806 7      3600.659          42.125    20672575.220    84650737.439 6      2805.708          41.625    20672575.800    84650739.446 8      2805.708          51.312
G32  24332225.400   127866678.367 7      -523.024          44.875    24332228.420   127866678.369 4      -523.024          28.375    24332231.420    99636361.077 4      -407.552          28.125    24332231.740    99636418.094 6      -407.552          40.562
G16  23488875.300   123434867.823 6      4710.476          39.625    23488874.280   123434867.826 4      4710.476          26.062    23488877.840    96183026.765 4      3670.501          26.312
G18  21767543.940   114389216.420 7      3872.713          44.562    21767543.060   114389216.422 5      3872.713          32.812    21767546.240    89134461.333 5      3017.698          32.812    21767545.920    89134462.338 7      3017.698          46.125
G28  20429580.620   107358169.810 8      1727.689          49.687    20429579.800   107358169.815 7      1727.689          43.062    20429581.820    83655719.583 7      1346.251          42.375    20429582.180    83655719.581 9      1346.251          54.125
> 2024 05 08 08 41 36.0000000  0 14
G25  24101076.220   126652006.581 7       279.680          42.750    24101075.940   126652006.578 5       279.680          35.000    24101083.000    98689905.934 5       217.932          35.312    24101083.860    98689909.957 6       217.932          38.875
G27  23632078.260   124187413.383 6      5577.196          40.812    23632076.840   124187413.404 5      5577.196          30.812    23632082.220    96769419.895 5      4345.867          30.750    23632082.180    96769434.905 7      4345.867          44.625
R19  19479744.800   104203510.050 6      3441.139          37.312    19479743.880   104203510.049 6      3441.139          37.125    19479751.440    81047193.899 7      2676.441          47.562    19479751.560    81047195.894 7      2676.441          47.562
R07  23544704.600   126036638.737 6       796.739          38.250    23544705.440   126036638.778 6       796.739          37.625    23544718.420    98028556.275 7       619.686          42.312    23544717.180    98028555.286 7       619.686          42.937
G29  22718494.620   119386492.619 7      -285.775          43.187    22718494.220   119386492.632 7      -285.775          42.062    22718495.840    93028439.613 6      -222.682          41.687    22718496.560    93028443.614 7      -222.682          45.875
G26  21376650.800   112335055.229 7      3847.420          46.375    21376649.780   112335055.236 6      3847.420          39.312    21376654.600    87533833.019 6      2997.990          38.875    21376654.560    87533829.021 8      2997.990          48.625
R18  20705978.580   110529922.898 7       -99.945          47.187    20705980.020   110529922.901 7       -99.945          47.375    20705986.960    85967748.692 8       -77.735          49.187    20705987.180    85967748.697 8       -77.735          49.937
R09  21279504.360   113631356.204 7      5126.310          46.250    21279504.300   113631356.210 7      5126.310          46.312    21279510.180    88379971.767 8      3987.130          48.375    21279510.040    88379973.761 8      3987.130          49.187
R16  20335575.480   108628997.417 8      2522.453          49.375    20335575.700   108628997.413 7      2522.453          47.875    20335581.780    84489242.590 8      1961.908          50.062    20335581.940    84489241.586 8      1961.908          50.250
G31  20671889.760   108631513.360 7      3600.457          47.000    20671889.220   108631513.363 6      3600.457          41.750    20671889.960    84647931.899 6      2805.551          41.687    20671890.720    84647933.906 8      2805.551          50.562
G32  24332324.680   127867201.340 7      -522.710          44.937    24332327.820   127867201.348 4      -522.710          28.375    24332330.980    99636768.583 4      -407.307          28.125    24332331.300    99636825.597 6      -407.307          40.562
G16  23487979.300   123430157.509 6      4710.475          40.312    23487977.980   123430157.514 4      4710.475          26.062    23487981.380    96179356.394 4      3670.500          26.312
G18  21766807.140   114385344.031 7      3872.365          45.250    21766806.160   114385344.033 5      3872.365          32.812    21766809.160    89131443.891 5      3017.427          32.812    21766809.180    89131444.897 7      3017.427          46.062
G28  20429252.180   107356442.388 8      1727.470          48.625    20429251.100   107356442.395 7      1727.470          42.937    20429253.160    83654373.540 7      1346.080          42.375    20429253.460    83654373.538 9      1346.080          54.125
> 2024 05 08 08 41 37.0000000  0 14
G25  24101022.980   126651727.073 7       279.425          42.437    24101022.600   126651727.073 5       279.425          35.125    24101029.760    98689688.136 5       217.734          35.312    24101030.320    98689692.143 6       217.734          38.812
G27  23631017.040   124181836.337 6      5576.822          41.687    23631015.700   124181836.355 5      5576.822          30.812    23631021.000    96765074.147 5      4345.576          30.625    23631021.180    96765089.147 7      4345.576          44.937
R19  19479101.560   104200069.621 6      3439.784          37.312    19479101.220   104200069.625 6      3439.784          37.125    19479108.340    81044518.017 7      2675.388          47.875    19479108.300    81044520.015 8      2675.388          48.125
R07  23544555.840   126035842.236 6       796.248          39.062    23544556.700   126035842.264 6       796.248          37.625    23544569.500    98027936.762 7       619.304          42.312    23544568.020    98027935.769 7       619.304          43.625
G29  22718548.820   119386778.553 7      -286.134          43.625    22718548.740   119386778.561 7      -286.134          43.375    22718550.220    93028662.417 7      -222.961          42.187    22718550.920    93028666.420 7      -222.961          46.000
G26  21375918.660   112331207.973 7      3847.133          46.750    21375917.820   112331207.978 6      3847.133          39.312    21375922.540    87530835.159 6      2997.766          38.812    21375922.580    87530831.159 8      2997.766          48.937
R18  20705997.180   110530023.245 7      -100.725          46.375    20705998.920   110530023.246 7      -100.725          47.562    20706005.820    85967826.738 8       -78.341          50.062    20706005.840    85967826.741 8       -78.341          50.000
R09  21278543.980   113626230.074 7      5126.011          46.500    21278544.180   113626230.078 7      5126.011          46.000    21278550.340    88375984.781 8      3986.897          48.562    21278550.100    88375986.775 8      3986.897          49.187
R16  20335103.380   108626475.258 8      2521.897          49.062    20335103.460   108626475.251 8      2521.897          48.562    20335109.720    84487280.913 8      1961.475          50.437    20335109.860    84487279.906 8      1961.475          50.687
G31  20671204.740   108627913.272 7      3599.757          47.625    20671204.040   108627913.274 7      3599.757          42.000    20671204.800    84645126.638 6      2805.005          41.312    20671205.660    84645128.646 8      2805.005          51.125
G32  24332424.320   127867724.085 7      -522.849          44.500    24332427.300   127867724.087 4      -522.849          28.375    24332430.400    99637175.910 4      -407.415          28.125    24332430.700    99637232.916 6      -407.415          40.562
G16  23487082.540   123425447.074 6      4710.181          40.625    23487081.620   123425447.076 4      4710.181          26.250    23487085.220    96175685.927 4      3670.271          26.312
G18  21766070.080   114381472.008 7      3871.690          45.250    21766069.380   114381472.010 5      3871.690          33.125    21766072.240    89128426.732 5      3016.901          33.000    21766072.460    89128427.734 7      3016.901          46.125
G28  20428923.420   107354715.399 8      1726.685          48.625    20428922.400   107354715.404 7      1726.685          42.750    20428924.380    83653027.834 7      1345.469          42.562    20428924.920    83653027.834 9      1345.469          54.437
> 2024 05 08 08 41 38.0000000  0 14
G25  24100970.020   126651447.660 7       279.274          42.437    24100969.460   126651447.665 5       279.274          35.375    24100976.680    98689470.412 5       217.616          35.375    24100977.380    98689474.429 6       217.616          38.812
G27  23629955.820   124176259.607 6      5576.571          41.437    23629954.360   124176259.622 5      5576.571          30.937    23629959.840    96760728.643 5      4345.380          30.625    23629960.240    96760743.640 7      4345.380          44.812
R19  19478459.520   104196630.095 6      3438.943          37.312    19478458.300   104196630.100 6      3438.943          37.125    19478465.280    81041842.835 8      2674.733          48.000    19478465.480    81041844.832 8      2674.733          48.187
R07  23544407.640   126035046.260 6       795.484          39.062    23544407.060   126035046.283 6       795.484          37.625    23544420.820    98027317.669 7       618.710          42.062    23544419.820    98027316.681 7       618.710          43.812
G29  22718603.340   119387064.643 7      -286.148          44.000    22718603.240   119387064.653 7      -286.148          42.625    22718604.820    93028885.342 7      -222.973          42.125    22718605.660    93028889.339 7      -222.973          45.875
G26  21375186.820   112327360.869 7      3847.007          46.437    21375185.820   112327360.876 6      3847.007          38.812    21375190.420    87527837.418 6      2997.668          38.937    21375190.580    87527833.420 8      2997.668          48.812
R18  20706015.960   110530124.330 8      -101.492          48.187    20706017.740   110530124.331 7      -101.492          47.375    20706024.760    85967905.355 8       -78.938          50.375    20706024.620    85967905.358 8       -78.938          49.812
R09  21277584.300   113621104.016 7      5126.024          45.625    21277584.240   113621104.025 7      5126.024          46.250    21277590.180    88371997.847 8      3986.908          48.750    21277590.300    88371999.845 8      3986.908          49.312
R16  20334631.340   108623953.502 8      2521.519          49.250    20334631.340   108623953.498 8      2521.519          48.562    20334637.620    84485319.545 8      1961.182          51.000    20334637.800    84485318.538 8      1961.182          51.125
G31  20670519.780   108624313.717 7      3599.266          47.750    20670519.240   108624313.720 6      3599.266          41.500    20670520.040    84642321.794 6      2804.623          41.062    20670520.700    84642323.802 8      2804.623          50.875
G32  24332523.880   127868246.743 7      -522.723          44.250    24332526.940   127868246.748 4      -522.723          28.312    24332529.860    99637583.168 4      -407.317          28.125    24332530.140    99637640.191 6      -407.317          40.312
G16  23486186.080   123420736.699 6      4710.195          40.812    23486185.240   123420736.699 4      4710.195          26.250    23486188.900    96172015.505 4      3670.282          26.312
G18  21765333.380   114377600.568 7      3871.163          45.375    21765332.540   114377600.571 5      3871.163          33.125    21765335.380    89125410.026 5      3016.491          33.000    21765335.660    89125411.025 7      3016.491          45.687
G28  20428595.120   107352989.023 8      1726.056          48.562    20428593.980   107352989.030 7      1726.056          42.562    20428595.980    83651682.606 7      1344.979          42.562    20428596.420    83651682.604 9      1344.979          54.187
> 2024 05 08 08 41 39.0000000  0 14
G25  24100917.080   126651168.324 7       279.110          42.125    24100916.420   126651168.328 5       279.110          35.375    24100923.680    98689252.743 5       217.488          35.375    24100924.720    98689256.756 6       217.488          39.000
G27  23628894.960   124170683.113 6      5576.326          41.250    23628893.080   124170683.134 5      5576.326          30.937    23628898.680    96756383.327 5      4345.189          30.625    23628899.140    96756398.331 7      4345.189          44.750
R19  19477816.240   104193191.469 6      3438.090          37.312    19477814.980   104193191.467 6      3438.090          37.125    19477822.680    81039168.343 7      2674.070          47.812    19477822.760    81039170.341 7      2674.070          47.875
R07  23544259.380   126034250.659 6       795.373          39.062    23544258.940   126034250.682 6       795.373          37.625    23544272.220    98026698.862 6       618.624          41.625    23544271.140    98026697.871 7       618.624          43.125
G29  22718657.740   119387350.869 7      -286.341          43.625    22718657.580   119387350.884 7      -286.341          42.562    22718659.240    93029108.381 6      -223.122          41.750    22718660.140    93029112.390 7      -223.122          46.125
G26  21374454.800   112323513.862 7      3846.940          46.500    21374453.760   112323513.867 6      3846.940          39.312    21374458.380    87524839.753 6      2997.616          38.937    21374458.560    87524835.761 8      2997.616          49.187
R18  20706034.920   110530226.031 8      -102.026          48.125    20706036.700   110530226.032 7      -102.026          47.375    20706043.940    85967984.456 8       -79.353          49.750    20706043.840    85967984.459 8       -79.353          49.250
R09  21276624.100   113615977.984 7      5125.913          45.812    21276624.160   113615977.993 7      5125.913          46.562    21276630.140    88368010.942 8      3986.821          48.437    21276630.200    88368012.938 8      3986.821          49.312
R16  20334159.300   108621432.075 8      2521.214          49.062    20334159.580   108621432.079 8      2521.214          48.562    20334165.860    84483358.439 8      1960.945          51.125    20334166.280    84483357.432 8      1960.945          50.625
G31  20669834.940   108620714.662 7      3598.865          47.875    20669834.440   108620714.656 6      3598.865          41.937    20669835.020    84639517.331 6      2804.310          41.687    20669835.720    84639519.340 8      2804.310          50.750
G32  24332623.020   127868769.317 7      -522.484          44.375    24332626.320   127868769.322 4      -522.484          28.312    24332629.200    99637990.364 4      -407.130          28.312    24332629.820    99638047.393 6      -407.130          40.312
G16  23485289.540   123416026.356 6      4710.205          40.625    23485288.860   123416026.356 4      4710.205          26.250    23485292.440    96168345.108 4      3670.290          26.312
G18  21764596.860   114373729.646 7      3870.618          44.875    21764596.020   114373729.648 5      3870.618          32.750    21764598.800    89122393.727 5      3016.066          32.500    21764599.040    89122394.731 7      3016.066          45.437
G28  20428266.500   107351263.216 8      1725.502          48.562    20428265.460   107351263.221 7      1725.502          42.625    20428267.500    83650337.826 7      1344.547          42.250    20428268.020    83650337.824 9      1344.547          54.125
> 2024 05 08 08 41 40.0000000  0 14
G25  24100863.680   126650888.966 7       279.235          42.062    24100863.240   126650888.973 5       279.235          34.812    24100870.540    98689035.061 5       217.586          35.000    24100871.500    98689039.072 6       217.586          39.000
G27  23627833.540   124165106.895 7      5575.987          42.312    23627832.040   124165106.911 5      5575.987          30.937    23627837.520    96752038.222 5      4344.925          31.000    23627838.220    96752053.222 7      4344.925          44.750
R19  19477173.700   104189753.724 6      3437.154          37.875    19477172.320   104189753.734 6      3437.154          37.437    19477179.960    81036494.549 8      2673.342          48.250    19477180.080    81036496.548 8      2673.342          48.375
R07  23544110.740   126033455.545 6       794.867          39.062    23544109.540   126033455.589 6       794.867          37.625    23544124.000    98026080.463 6       618.230          41.625    23544122.520    98026079.472 7       618.230          43.375
G29  22718712.260   119387637.218 7      -286.425          43.437    22718712.200   119387637.226 6      -286.425          41.750    22718713.740    93029331.507 6      -223.188          41.437    22718714.820    93029335.510 7      -223.188          45.562
G26  21373722.600   112319666.958 7      3846.900          47.812    21373721.660   112319666.966 6      3846.900          39.875    21373726.360    87521842.169 6      2997.584          39.250    21373726.560    87521838.175 8      2997.584          48.937
R18  20706054.340   110530328.375 7      -102.655          47.875    20706055.860   110530328.384 8      -102.655          48.062    20706063.080    85968064.063 8       -79.843          48.625    20706063.040    85968064.066 8       -79.843          50.437
R09  21275664.220   113610851.988 7      5125.939          46.500    21275664.420   113610851.997 7      5125.939          45.875    21275670.380    88364024.062 8      3986.841          48.312    21275670.220    88364026.058 8      3986.841          49.875
R16  20333687.360   108618910.979 8      2520.978          48.437    20333687.160   108618910.980 8      2520.978          48.187    20333693.680    84481397.584 8      1960.761          50.875    20333694.080    84481396.580 8      1960.761          50.875
G31  20669150.280   108617116.087 7      3598.370          47.937    20669149.700   108617116.084 7      3598.370          42.500    20669150.260    84636713.253 7      2803.925          42.125    20669151.080    84636715.261 8      2803.925          49.125
G32  24332722.540   127869291.807 7      -522.429          45.000    24332725.500   127869291.811 4      -522.429          28.312    24332728.540    99638397.495 4      -407.088          28.312    24332729.280    99638454.516 6      -407.088          40.750
G16  23484393.260   123411316.050 6      4710.172          40.750    23484392.380   123411316.049 4      4710.172          26.250    23484396.060    96164674.741 4      3670.264          26.312
G18  21763860.400   114369859.239 7      3870.104          44.937    21763859.740   114369859.241 5      3870.104          32.750    21763862.200    89119377.827 5      3015.665          32.500    21763862.160    89119378.831 7      3015.665          44.875
G28  20427938.180   107349537.959 8      1725.007          48.687    20427937.240   107349537.967 7      1725.007          42.562    20427939.200    83648993.472 6      1344.161          41.875    20427939.720    83648993.470 8      1344.161          51.000
> 2024 05 08 08 41 41.0000000  0 14
G25  24100810.600   126650609.834 7       279.005          42.312    24100810.020   126650609.836 5       279.005          35.125    24100817.380    98688817.550 5       217.406          34.875    24100818.040    98688821.555 6       217.406          39.000
G27  23626772.500   124159531.016 7      5575.764          42.000    23626770.940   124159531.032 5      5575.764          31.125    23626776.560    96747693.388 5      4344.751          31.000    23626777.240    96747708.389 7      4344.751          44.875
R19  19476530.800   104186317.005 6      3436.179          37.875    19476530.060   104186317.006 6      3436.179          37.437    19476537.500    81033821.548 7      2672.584          46.687    19476537.460    81033823.548 7      2672.584          46.312
R07  23543962.060   126032661.070 6       794.338          39.062    23543961.520   126032661.085 6       794.338          37.562    23543975.880    98025462.526 6       617.818          41.250    23543974.520    98025461.533 7       617.818          42.437
G29  22718767.140   119387923.825 7      -286.617          43.375    22718766.680   119387923.835 7      -286.617          42.562    22718768.260    93029554.839 7      -223.338          42.000    22718769.540    93029558.838 7      -223.338          46.000
G26  21372990.660   112315820.299 7      3846.649          47.562    21372989.760   112315820.304 6      3846.649          39.000    21372994.400    87518844.774 6      2997.389          39.000    21372994.460    87518840.778 8      2997.389          49.250
R18  20706073.720   110530431.493 7      -103.338          46.687    20706075.240   110530431.496 8      -103.338          48.000    20706082.360    85968144.264 8       -80.374          48.687    20706082.400    85968144.267 7       -80.374          47.687
R09  21274704.520   113605726.138 7      5125.857          46.687    21274704.420   113605726.147 7      5125.857          46.312    21274710.400    88360037.294 7      3986.778          47.937    21274710.460    88360039.288 8      3986.778          48.875
R16  20333215.520   108616390.366 8      2520.436          48.750    20333215.040   108616390.364 8      2520.436          48.437    20333221.780    84479437.112 8      1960.339          48.312    20333222.320    84479436.107 8      1960.339          48.625
G31  20668465.560   108613518.169 7      3597.628          47.750    20668465.000   108613518.166 7      3597.628          42.687    20668465.540    84633909.676 6      2803.346          41.812    20668466.480    84633911.685 8      2803.346          50.937
G32  24332822.440   127869814.323 7      -522.384          44.250    24332824.980   127869814.328 4      -522.384          28.312    24332827.980    99638804.648 4      -407.052          28.312    24332828.920    99638861.665 6      -407.052          40.750
G16  23483497.180   123406605.867 6      4710.125          40.625    23483496.160   123406605.864 4      4710.125          26.250    23483499.760    96161004.473 4      3670.228          26.625
G18  21763124.060   114365989.496 7      3869.497          44.625    21763123.360   114365989.501 5      3869.497          32.375    21763125.860    89116362.450 5      3015.193          32.500    21763125.780    89116363.443 7      3015.193          45.312
G28  20427610.220   107347813.420 7      1724.288          47.312    20427609.040   107347813.425 7      1724.288          42.625    20427611.080    83647649.677 7      1343.601          42.187    20427611.420    83647649.675 9      1343.601          54.375
> 2024 05 08 08 41 42.0000000  0 14
G25  24100757.660   126650330.568 6       279.279          41.250    24100756.840   126650330.571 5       279.279          35.125    24100764.080    98688599.938 5       217.620          34.875    24100764.960    98688603.945 6       217.620          38.625
G27  23625711.760   124153955.255 6      5575.582          41.187    23625709.880   124153955.273 5      5575.582          31.125    23625715.820    96743348.643 5      4344.610          31.000    23625715.500    96743363.651 7      4344.610          44.937
R19  19475887.760   104182881.055 6      3435.456          37.875    19475887.640   104182881.073 6      3435.456          37.437    19475895.280    81031149.145 7      2672.021          47.875    19475895.700    81031151.145 8      2672.021          48.000
R07  23543814.320   126031866.930 6       793.919          38.437    23543813.060   126031866.948 6       793.919          37.562    23543827.320    98024844.862 6       617.493          41.437    23543826.020    98024843.863 7       617.493          43.937
G29  22718821.380   119388210.456 7      -286.719          43.187    22718820.920   119388210.464 7      -286.719          42.000    22718822.980    93029778.183 6      -223.418          41.375    22718823.960    93029782.180 7      -223.418          46.875
G26  21372258.580   112311973.623 7      3846.556          47.562    21372257.780   112311973.628 6      3846.556          39.250    21372262.400    87515847.367 6      2997.316          39.312    21372262.640    87515843.375 8      2997.316          48.875
R18  20706092.780   110530535.161 7      -103.975          47.062    20706094.700   110530535.159 7      -103.975          46.875    20706101.840    85968224.892 8       -80.870          49.375    20706102.100    85968224.895 8       -80.870          50.187
R09  21273744.320   113600600.197 7      5125.791          46.562    21273744.340   113600600.201 7      5125.791          46.062    21273750.640    88356050.451 8      3986.726          48.625    21273750.960    88356052.446 8      3986.726          49.625
R16  20332744.060   108613869.967 8      2520.165          48.375    20332743.340   108613869.960 7      2520.165          47.937    20332750.240    84477476.799 8      1960.129          50.937    20332750.120    84477475.795 8      1960.129          51.187
G31  20667781.080   108609920.593 8      3597.273          48.500    20667780.440   108609920.590 7      3597.273          42.000    20667780.980    84631106.376 6      2803.070          41.500    20667781.560    84631108.389 8      2803.070          50.625
G32  24332922.080   127870336.639 7      -522.318          43.937    24332924.260   127870336.641 4      -522.318          28.312    24332927.420    99639211.642 4      -407.001          28.312    24332927.880    99639268.654 6      -407.001          40.500
G16  23482600.500   123401895.613 6      4710.282          39.937    23482599.780   123401895.607 4      4710.282          26.250    23482603.360    96157334.148 4      3670.349          26.625
G18  21762387.920   114362120.151 7      3869.029          45.125    21762387.080   114362120.156 5      3869.029          32.375    21762389.600    89113347.377 5      3014.828          32.250    21762389.480    89113348.375 7      3014.828          45.500
G28  20427282.000   107346089.319 8      1723.798          48.000    20427280.920   107346089.321 7      1723.798          42.437    20427282.840    83646306.217 7      1343.220          42.000    20427283.540    83646306.218 8      1343.220          53.875
> 2024 05 08 08 41 43.0000000  0 14
G25  24100704.740   126650051.208 6       279.359          41.625    24100703.640   126650051.208 5       279.359          34.562    24100710.960    98688382.251 5       217.683          34.812    24100711.500    98688386.252 6       217.683          38.625
G27  23624650.900   124148379.605 6      5575.546          40.437    23624648.820   124148379.628 5      5575.546          31.125    23624654.840    96739003.984 5      4344.581          30.750    23624654.940    96739018.978 7      4344.581          44.625
R19  19475245.660   104179445.798 6      3434.814          37.875    19475246.060   104179445.819 6      3434.814          37.437    19475252.940    81028477.285 7      2671.522          47.625    19475253.420    81028479.285 8      2671.522          48.250
R07  23543665.680   126031073.093 6       793.482          38.437    23543664.580   126031073.121 6       793.482          37.562    23543679.220    98024227.435 6       617.152          41.437    23543678.160    98024226.440 7       617.152          43.625
G29  22718875.780   119388497.008 7      -286.704          43.562    22718875.520   119388497.021 7      -286.704          42.000    22718877.320    93030001.473 6      -223.406          41.875    22718878.660    93030005.469 7      -223.406          46.500
G26  21371526.960   112308126.858 7      3846.623          47.375    21371525.700   112308126.863 6      3846.623          39.250    21371530.420    87512849.890 6      2997.368          39.125    21371530.580    87512845.889 8      2997.368          49.687
R18  20706112.580   110530639.264 7      -104.383          47.750    20706114.140   110530639.267 7      -104.383          47.250    20706121.100    85968305.868 8       -81.187          49.875    20706121.600    85968305.871 8       -81.187          50.000
R09  21272784.640   113595474.081 7      5126.116          45.375    21272784.200   113595474.084 7      5126.116          45.812    21272790.700    88352063.476 8      3986.979          48.500    21272790.400    88352065.470 8      3986.979          49.312
R16  20332271.840   108611349.701 8      2520.012          48.750    20332271.660   108611349.705 7      2520.012          47.562    20332278.200    84475516.599 8      1960.009          51.125    20332278.780    84475515.594 8      1960.009          50.875
G31  20667096.520   108606323.337 7      3597.020          47.750    20667095.780   108606323.334 6      3597.020          41.812    20667096.500    84628303.324 6      2802.873          41.250    20667097.040    84628305.335 8      2802.873          50.750
G32  24333021.300   127870858.661 7      -521.948          43.750    24333023.460   127870858.663 4      -521.948          28.000    24333026.720    99639618.402 4      -406.713          28.312    24333027.560    99639675.417 6      -406.713          40.812
G16  23481704.140   123397185.204 6      4710.389          40.062    23481703.480   123397185.207 4      4710.389          26.562    23481706.920    96153663.705 4      3670.433          26.625
G18  21761651.640   114358251.141 7      3868.752          45.062    21761650.760   114358251.146 5      3868.752          32.625    21761653.300    89110332.567 5      3014.612          32.250    21761653.600    89110333.566 7      3014.612          45.625
G28  20426953.920   107344365.601 8      1723.391          48.375    20426952.800   107344365.604 7      1723.391          42.562    20426954.940    83644963.063 7      1342.902          42.250    20426955.380    83644963.063 8      1342.902          53.750
> 2024 05 08 08 41 44.0000000  0 14
G25  24100651.260   126649771.766 7       279.536          42.000    24100650.440   126649771.763 5       279.536          34.437    24100657.660    98688164.500 5       217.820          34.812    24100658.640    98688168.513 6       217.820          38.625
G27  23623589.800   124142804.065 6      5575.598          41.375    23623587.740   124142804.086 5      5575.598          30.875    23623593.920    96734659.412 5      4344.622          30.750    23623594.300    96734674.409 7      4344.622          45.000
R19  19474604.260   104176011.333 6      3434.223          38.125    19474603.500   104176011.343 6      3434.223          37.437    19474610.740    81025806.035 8      2671.063          48.187    19474611.180    81025808.034 8      2671.063          48.062
R07  23543517.820   126030279.585 6       793.443          38.437    23543515.860   126030279.600 6       793.443          37.562    23543531.220    98023610.259 6       617.123          41.750    23543530.020    98023609.258 7       617.123          43.812
G29  22718930.420   119388783.573 7      -286.554          43.187    22718930.040   119388783.583 7      -286.554          42.125    22718931.660    93030224.774 6      -223.289          41.875    22718932.820    93030228.775 7      -223.289          46.000
G26  21370794.780   112304280.083 7      3846.838          47.500    21370793.620   112304280.088 6      3846.838          39.625    21370798.320    87509852.409 6      2997.536          39.625    21370798.600    87509848.410 8      2997.536          49.312
R18  20706132.060   110530743.895 7      -104.828          46.500    20706133.740   110530743.891 7      -104.828          47.312    20706140.860    85968387.239 8       -81.533          50.312    20706140.980    85968387.242 8       -81.533          50.125
R09  21271824.920   113590347.905 7      5126.091          46.062    21271824.260   113590347.911 7      5126.091          45.750    21271830.620    88348076.460 8      3986.960          48.812    21271830.560    88348078.457 8      3986.960          49.000
R16  20331800.260   108608829.657 8      2519.935          49.062    20331799.860   108608829.661 8      2519.935          48.250    20331806.740    84473556.567 8      1959.950          50.500    20331806.660    84473555.564 8      1959.950          50.812
G31  20666412.060   108602726.473 7      3596.674          47.750    20666411.380   108602726.473 7      3596.674          42.125    20666411.960    84625500.579 6      2802.603          41.750    20666412.580    84625502.587 8      2802.603          50.812
G32  24333120.300   127871380.491 7      -521.721          43.812    24333122.880   127871380.491 4      -521.721          28.000    24333126.120    99640025.015 4      -406.536          28.312    24333126.720    99640082.031 6      -406.536          40.812
G16  23480807.600   123392474.743 6      4710.415          39.750    23480807.080   123392474.745 4      4710.415          26.562    23480810.660    96149993.220 4      3670.454          26.625
G18  21760915.500   114354382.566 7      3868.388          45.937    21760914.600   114354382.573 5      3868.388          32.625    21760917.240    89107318.096 5      3014.328          32.875    21760917.080    89107319.102 7      3014.328          45.750
G28  20426625.980   107342642.339 8      1723.027          48.312    20426624.920   107342642.344 7      1723.027          42.562    20426626.980    83643620.265 7      1342.618          42.312    20426627.260    83643620.263 9      1342.618          54.625
> 2024 05 08 08 41 45.0000000  0 14
G25  24100598.280   126649492.275 6       279.588          41.187    24100597.320   126649492.277 5       279.588          34.437    24100604.500    98687946.712 5       217.861          34.625    24100605.440    98687950.725 6       217.861          38.750
G27  23622528.860   124137228.680 6      5575.396          41.375    23622526.760   124137228.698 5      5575.396          30.875    23622532.980    96730314.958 5      4344.464          30.750    23622533.240    96730329.962 7      4344.464          45.062
R19  19473962.140   104172577.625 6      3433.475          38.125    19473961.440   104172577.651 6      3433.475          37.000    19473969.020    81023135.387 7      2670.480          47.687    19473969.460    81023137.387 8      2670.480          48.125
R07  23543369.660   126029486.441 6       793.128          38.437    23543367.400   126029486.456 6       793.128          37.562    23543383.040    98022993.378 6       616.877          41.687    23543381.720    98022992.377 7       616.877          44.125
G29  22718984.860   119389070.161 7      -286.459          43.625    22718984.500   119389070.169 7      -286.459          42.375    22718986.320    93030448.086 6      -223.215          41.562    22718987.280    93030452.085 7      -223.215          46.000
G26  21370062.780   112300433.324 7      3846.778          47.500    21370061.660   112300433.326 6      3846.778          39.562    21370066.360    87506854.940 6      2997.490          39.187    21370066.620    87506850.942 8      2997.490          49.062
R18  20706152.180   110530849.007 7      -105.302          47.125    20706153.480   110530849.008 7      -105.302          47.687    20706160.560    85968468.997 8       -81.902          49.625    20706160.620    85968468.998 8       -81.902          49.625
R09  21270864.640   113585221.631 7      5126.315          46.000    21270864.220   113585221.632 7      5126.315          45.875    21270870.600    88344089.356 8      3987.134          48.687    21270870.800    88344091.353 8      3987.134          49.375
R16  20331328.420   108606309.864 8      2519.632          48.250    20331328.340   108606309.865 8      2519.632          48.125    20331335.100    84471596.728 8      1959.714          50.687    20331335.260    84471595.726 8      1959.714          51.437
G31  20665727.600   108599130.000 7      3596.313          47.562    20665727.080   108599130.000 6      3596.313          41.875    20665727.720    84622698.130 6      2802.322          41.812    20665728.260    84622700.139 8      2802.322          50.875
G32  24333219.380   127871902.088 7      -521.456          44.250    24333222.020   127871902.090 4      -521.456          28.000    24333225.400    99640431.454 4      -406.329          28.062    24333226.300    99640488.464 6      -406.329          41.562
G16  23479911.080   123387764.205 6      4710.510          39.812    23479910.560   123387764.208 4      4710.510          26.562    23479914.380    96146322.675 4      3670.527          26.625
G18  21760179.400   114350514.400 7      3868.004          45.500    21760178.640   114350514.405 5      3868.004          32.812    21760181.300    89104303.943 5      3014.029          32.875    21760181.100    89104304.947 7      3014.029          45.937
G28  20426298.120   107340919.538 7      1722.654          47.750    20426297.120   107340919.538 6      1722.654          41.875    20426299.100    83642277.817 6      1342.328          41.875    20426299.480    83642277.817 8      1342.328          53.937
> 2024 05 08 08 41 46.0000000  0 14
G25  24100545.360   126649212.594 7       279.734          42.062    24100544.040   126649212.599 5       279.734          34.562    24100551.340    98687728.781 5       217.974          34.625    24100551.860    98687732.798 6       217.974          38.750
G27  23621467.780   124131653.324 7      5575.308          42.125    23621465.920   124131653.339 5      5575.308          30.875    23621471.960    96725970.527 5      4344.396          31.375    23621471.980    96725985.524 7      4344.396          44.687
R19  19473320.020   104169144.621 6      3432.657          38.125    19473320.500   104169144.644 6      3432.657          37.000    19473327.120    81020465.275 7      2669.844          47.250    19473327.740    81020467.272 7      2669.844          47.437
R07  23543220.180   126028693.543 6       792.669          38.437    23543220.000   126028693.560 6       792.669          37.562    23543234.800    98022376.671 6       616.521          41.687    23543233.980    98022375.662 7       616.521          43.812
G29  22719039.380   119389356.661 7      -286.419          43.750    22719038.960   119389356.671 7      -286.419          42.125    22719040.880    93030671.334 6      -223.184          41.312    22719041.840    93030675.329 7      -223.184          46.312
G26  21369330.720   112296586.425 7      3846.939          47.750    21369329.520   112296586.430 6      3846.939          39.250    21369334.420    87503857.359 6      2997.615          39.187    21369334.480    87503853.362 8      2997.615          49.187
R18  20706171.720   110530954.568 8      -105.823          48.000    20706173.260   110530954.571 7      -105.823          47.750    20706180.280    85968551.100 8       -82.307          49.437    20706180.120    85968551.100 8       -82.307          49.562
R09  21269904.720   113580095.169 7      5126.547          46.375    21269904.300   113580095.173 7      5126.547          45.937    21269910.740    88340102.117 8      3987.314          48.437    21269910.640    88340104.113 8      3987.314          49.625
R16  20330856.900   108603790.168 8      2519.651          49.562    20330856.500   108603790.166 8      2519.651          48.000    20330863.320    84469636.960 8      1959.728          50.000    20330863.400    84469635.957 8      1959.728          50.687
G31  20665043.240   108595533.798 7      3595.989          47.812    20665042.600   108595533.798 7      3595.989          42.312    20665043.100    84619895.899 6      2802.070          41.562    20665044.140    84619897.910 8      2802.070          50.375
G32  24333318.800   127872423.398 7      -521.168          43.625    24333321.140   127872423.403 4      -521.168          28.000    24333324.540    99640837.661 4      -406.105          28.062    24333325.760    99640894.678 6      -406.105          41.250
G16  23479014.780   123383053.418 6      4710.999          40.125    23479014.020   123383053.418 4      4710.999          26.562    23479017.900    96142651.936 4      3670.909          26.625
G18  21759443.580   114346646.523 7      3867.773          45.000    21759442.640   114346646.528 5      3867.773          32.812    21759445.240    89101290.011 5      3013.849          32.687    21759445.120    89101291.019 7      3013.849          45.812
G28  20425970.420   107339197.082 8      1722.268          48.437    20425969.440   107339197.082 7      1722.268          42.312    20425971.280    83640935.647 6      1342.027          41.937    20425971.780    83640935.646 9      1342.027          54.062
> 2024 05 08 08 41 47.0000000  0 14
G25  24100492.120   126648932.939 6       279.544          41.937    24100490.840   126648932.944 5       279.544          34.562    24100498.240    98687510.870 5       217.827          34.625    24100498.800    98687514.882 6       217.827          38.375
G27  23620406.840   124126078.178 6      5574.994          41.687    23620405.020   124126078.190 5      5574.994          31.437    23620411.020    96721626.257 5      4344.152          31.375    23620411.240    96721641.255 7      4344.152          45.250
R19  19472678.480   104165712.437 6      3431.730          38.125    19472678.940   104165712.468 6      3431.730          37.000    19472685.600    81017795.805 7      2669.124          47.500    19472685.940    81017797.800 7      2669.124          47.750
R07  23543072.480   126027901.051 6       792.076          38.437    23543071.520   126027901.053 6       792.076          37.000    23543086.740    98021760.277 6       616.059          41.625    23543085.640    98021759.269 7       616.059          43.875
G29  22719093.840   119389643.270 7      -286.756          43.562    22719093.560   119389643.283 7      -286.756          42.062    22719095.460    93030894.666 6      -223.446          41.875    22719096.540    93030898.663 7      -223.446          46.187
G26  21368598.580   112292739.605 7      3846.754          47.750    21368597.600   112292739.615 6      3846.754          39.750    21368602.300    87500859.845 6      2997.471          39.562    21368602.660    87500855.846 8      2997.471          49.562
R18  20706191.680   110531060.774 7      -106.565          46.437    20706193.180   110531060.769 7      -106.565          47.312    20706200.220    85968633.696 8       -82.884          49.937    20706200.260    85968633.697 8       -82.884          49.750
R09  21268944.620   113574968.740 7      5126.427          44.750    21268944.380   113574968.741 7      5126.427          46.187    21268950.520    88336114.896 8      3987.221          48.687    21268950.700    88336116.893 8      3987.221          49.062
R16  20330385.020   108601270.797 8      2519.116          48.750    20330384.820   108601270.798 8      2519.116          48.250    20330391.860    84467677.453 8      1959.312          50.500    20330391.860    84467676.451 8      1959.312          51.437
G31  20664359.000   108591938.054 7      3595.444          47.250    20664358.540   108591938.051 7      3595.444          42.062    20664358.900    84617094.022 6      2801.644          41.812    20664359.540    84617096.033 8      2801.644          50.875
G32  24333418.100   127872944.566 7      -521.251          44.000    24333420.460   127872944.571 4      -521.251          28.000    24333423.720    99641243.762 4      -406.170          28.062    24333424.940    99641300.789 6      -406.170          41.250
G16  23478118.180   123378342.718 6      4710.472          39.687    23478117.480   123378342.717 4      4710.472          26.562    23478121.540    96138981.262 4      3670.498          26.125
G18  21758707.540   114342779.150 7      3867.139          44.937    21758706.800   114342779.153 5      3867.139          32.812    21758709.360    89098276.480 5      3013.355          32.687    21758709.220    89098277.482 7      3013.355          45.625
G28  20425642.780   107337475.159 8      1721.575          48.687    20425641.780   107337475.162 7      1721.575          42.437    20425643.700    83639593.892 6      1341.487          41.875    20425644.000    83639593.894 9      1341.487          54.062
> 2024 05 08 08 41 48.0000000  0 14
G25  24100438.820   126648653.248 6       279.864          41.875    24100437.600   126648653.253 5       279.864          34.375    24100444.860    98687292.927 5       218.076          34.500    24100445.600    98687296.938 6       218.076          38.375
G27  23619345.880   124120503.231 6      5575.017          41.875    23619344.180   124120503.244 5      5575.017          31.437    23619350.280    96717282.141 5      4344.169          31.375    23619350.380    96717297.139 7      4344.169          45.375
R19  19472037.020   104162281.110 6      3431.140          38.125    19472037.160   104162281.124 6      3431.140          37.000    19472044.160    81015126.982 8      2668.665          48.125    19472044.360    81015128.984 8      2668.665          48.125
R07  23542924.860   126027108.892 5       792.317          35.937    23542923.360   126027108.905 6       792.317          37.000    23542939.160    98021144.153 6       616.247          41.312    23542937.800    98021143.152 7       616.247          43.625
G29  22719148.400   119389929.933 7      -286.543          43.437    22719148.080   119389929.943 6      -286.543          41.875    22719150.060    93031118.035 6      -223.280          41.125    22719150.840    93031122.030 7      -223.280          45.937
G26  21367866.600   112288892.819 7      3847.044          47.687    21367865.600   112288892.827 6      3847.044          39.750    21367870.320    87497862.349 6      2997.696          39.625    21367870.420    87497858.351 8      2997.696          49.250
R18  20706211.880   110531167.543 7      -106.827          47.000    20706213.080   110531167.536 7      -106.827          47.437    20706220.220    85968716.739 8       -83.088          49.375    20706220.340    85968716.740 8       -83.088          49.750
R09  21267984.680   113569842.303 7      5126.750          46.625    21267984.380   113569842.291 7      5126.750          45.687    21267990.580    88332127.665 8      3987.472          48.437    21267990.520    88332129.660 8      3987.472          49.125
R16  20329913.540   108598751.677 8      2519.204          49.000    20329913.320   108598751.676 8      2519.204          48.062    20329920.260    84465718.138 8      1959.381          51.062    20329920.300    84465717.135 8      1959.381          51.375
G31  20663674.980   108588342.745 8      3595.280          48.625    20663674.320   108588342.744 7      3595.280          42.562    20663674.880    84614292.487 7      2801.517          42.000    20663675.580    84614294.494 8      2801.517          50.562
G32  24333517.140   127873465.553 7      -520.662          43.500    24333519.520   127873465.558 4      -520.662          28.375    24333522.820    99641649.722 4      -405.711          28.062    24333523.520    99641706.744 6      -405.711          41.375
G16  23477221.760   123373631.920 6      4710.854          39.437    23477221.020   123373631.919 4      4710.854          26.562    23477225.120    96135310.513 4      3670.795          26.125
G18  21757971.620   114338912.243 7      3866.935          46.000    21757970.940   114338912.251 5      3866.935          32.687    21757973.560    89095263.310 5      3013.196          32.687    21757973.580    89095264.309 7      3013.196          46.062
G28  20425315.140   107335753.744 8      1721.358          49.062    20425314.240   107335753.746 7      1721.358          42.750    20425316.120    83638252.531 7      1341.318          42.250    20425316.380    83638252.531 8      1341.318          53.375
> 2024 05 08 08 41 49.0000000  0 14
G25  24100385.560   126648373.528 6       279.798          41.500    24100384.400   126648373.530 5       279.798          34.500    24100391.600    98687074.957 5       218.025          34.750    24100392.080    98687078.960 6       218.025          38.375
G27  23618285.020   124114928.440 6      5574.629          40.875    23618283.400   124114928.453 5      5574.629          31.437    23618289.360    96712938.148 5      4343.867          31.375    23618289.240    96712953.162 7      4343.867          45.000
R19  19471396.660   104158850.525 6      3430.347          37.312    19471395.640   104158850.543 6      3430.347          37.000    19471402.680    81012458.756 7      2668.047          47.500    19471402.800    81012460.758 8      2668.047          48.250
R07  23542776.520   126026317.175 5       791.514          35.937    23542774.940   126026317.216 6       791.514          37.000    23542791.120    98020528.393 6       615.622          41.312    23542789.900    98020527.388 7       615.622          44.062
G29  22719202.940   119390216.660 7      -286.901          43.062    22719202.460   119390216.668 7      -286.901          42.062    22719204.700    93031341.457 7      -223.559          42.187    22719205.560    93031345.452 7      -223.559          46.312
G26  21367134.600   112285046.073 7      3846.755          47.125    21367133.540   112285046.078 6      3846.755          39.750    21367138.280    87494864.889 6      2997.472          39.562    21367138.460    87494860.894 8      2997.472          49.812
R18  20706231.580   110531274.838 7      -107.584          47.687    20706233.020   110531274.834 7      -107.584          47.125    20706240.180    85968800.195 8       -83.676          49.750    20706240.260    85968800.196 8       -83.676          50.125
R09  21267024.560   113564715.775 7      5126.537          45.500    21267024.080   113564715.763 7      5126.537          45.937    21267030.540    88328140.368 8      3987.307          48.875    21267030.660    88328142.364 8      3987.307          48.937
R16  20329442.080   108596232.827 8      2518.674          49.375    20329441.700   108596232.828 7      2518.674          47.937    20329448.820    84463759.035 8      1958.969          51.000    20329448.780    84463758.034 8      1958.969          51.312
G31  20662990.780   108584747.838 8      3594.752          48.437    20662990.120   108584747.838 6      3594.752          41.937    20662990.700    84611491.265 7      2801.105          42.250    20662991.420    84611493.278 8      2801.105          50.437
G32  24333616.180   127873986.393 7      -520.728          44.062    24333618.440   127873986.397 4      -520.728          28.375    24333622.080    99642055.567 4      -405.762          28.062    24333623.480    99642112.579 6      -405.762          41.562
G16  23476325.380   123368921.043 6      4710.943          39.875    23476324.560   123368921.043 4      4710.943          26.312    23476328.440    96131639.704 4      3670.864          26.125
G18  21757235.900   114335045.788 7      3866.193          45.875    21757235.260   114335045.795 5      3866.193          32.687    21757237.780    89092250.487 5      3012.618          32.687    21757237.720    89092251.495 7      3012.618          46.187
G28  20424987.460   107334032.812 8      1720.697          48.375    20424986.680   107334032.814 7      1720.697          42.375    20424988.500    83636911.543 6      1340.802          41.937    20424988.860    83636911.541 8      1340.802          53.687
> 2024 05 08 08 41 50.0000000  0 14
G25  24100332.440   126648093.715 7       279.593          42.375    24100331.260   126648093.720 5       279.593          34.500    24100338.380    98686856.930 5       217.865          34.750    24100339.900    98686860.949 6       217.865          38.375
G27  23617224.400   124109353.754 6      5574.335          40.687    23617222.640   124109353.772 5      5574.335          31.312    23617228.340    96708594.249 5      4343.638          31.062    23617228.340    96708609.253 7      4343.638          44.312
R19  19470755.640   104155420.728 6      3429.142          37.312    19470754.500   104155420.751 6      3429.142          37.000    19470761.760    81009791.144 8      2667.110          48.125    19470761.520    81009793.146 7      2667.110          47.937
R07  23542629.580   126025525.786 5       791.044          35.937    23542628.300   126025525.839 6       791.044          37.000    23542643.260    98019912.869 6       615.257          41.687    23542642.360    98019911.862 7       615.257          44.062
G29  22719257.520   119390503.312 7      -286.858          43.375    22719256.960   119390503.325 6      -286.858          41.812    22719259.220    93031564.822 6      -223.526          41.312    22719260.040    93031568.819 7      -223.526          46.375
G26  21366402.680   112281199.274 7      3846.634          47.500    21366401.580   112281199.279 6      3846.634          40.000    21366406.340    87491867.387 6      2997.377          39.937    21366406.460    87491863.393 8      2997.377          49.250
R18  20706251.780   110531382.622 7      -108.270          47.937    20706253.420   110531382.625 7      -108.270          47.750    20706260.340    85968884.025 8       -84.210          49.875    20706260.520    85968884.025 8       -84.210          50.062
R09  21266065.000   113559589.105 7      5126.457          46.687    21266064.320   113559589.104 7      5126.457          45.750    21266070.420    88324152.966 8      3987.244          48.750    21266070.460    88324154.965 8      3987.244          49.250
R16  20328970.540   108593714.140 8      2518.473          48.062    20328970.380   108593714.141 8      2518.473          48.062    20328977.200    84461800.056 8      1958.812          50.875    20328977.300    84461799.055 8      1958.812          51.250
G31  20662306.820   108581153.305 8      3594.168          48.750    20662306.100   108581153.302 6      3594.168          41.562    20662306.660    84608690.328 6      2800.651          41.062    20662307.520    84608692.332 8      2800.651          50.687
G32  24333715.240   127874506.980 7      -520.683          44.312    24333717.600   127874506.982 4      -520.683          28.375    24333721.380    99642461.213 4      -405.727          28.312    24333722.360    99642518.222 6      -405.727          41.562
G16  23475428.600   123364210.093 6      4710.874          41.750    23475428.280   123364210.095 4      4710.874          26.312    23475432.000    96127968.840 4      3670.811          26.125
G18  21756500.240   114331179.684 7      3865.777          45.187    21756499.580   114331179.692 5      3865.777          32.812    21756502.160    89089237.943 5      3012.294          32.687    21756502.120    89089238.947 7      3012.294          46.312
G28  20424660.180   107332312.303 8      1720.046          48.250    20424659.380   107332312.307 7      1720.046          42.375    20424661.060    83635570.888 7      1340.296          42.000    20424661.600    83635570.890 8      1340.296          53.312
> 2024 05 08 08 41 51.0000000  0 14
G25  24100279.080   126647813.874 7       280.003          42.312    24100278.120   126647813.871 5       280.003          35.062    24100285.060    98686638.866 5       218.184          35.000    24100287.120    98686642.866 6       218.184          38.375
G27  23616163.680   124103779.210 6      5574.545          41.250    23616161.820   124103779.230 5      5574.545          31.312    23616167.360    96704250.454 5      4343.801          31.062    23616167.580    96704265.480 7      4343.801          45.062
R19  19470114.820   104151991.716 6      3428.547          37.312    19470113.900   104151991.728 6      3428.547          37.062    19470120.680    81007124.131 7      2666.647          47.687    19470120.720    81007126.135 7      2666.647          47.625
R07  23542482.540   126024734.829 5       790.939          35.937    23542481.600   126024734.849 6       790.939          37.000    23542494.940    98019297.653 6       615.175          41.312    23542494.300    98019296.637 7       615.175          43.625
G29  22719312.040   119390790.056 7      -286.746          43.625    22719311.680   119390790.066 7      -286.746          42.187    22719313.720    93031788.259 7      -223.439          42.000    22719314.760    93031792.258 7      -223.439          46.062
G26  21365670.320   112277352.522 7      3846.825          47.437    21365669.720   112277352.522 6      3846.825          39.312    21365674.340    87488869.920 6      2997.526          39.500    21365674.300    87488865.918 8      2997.526          49.500
R18  20706272.140   110531491.019 8      -108.655          48.937    20706273.380   110531491.020 7      -108.655          47.750    20706280.740    85968968.334 8       -84.509          49.875    20706281.040    85968968.335 8       -84.509          50.375
R09  21265104.740   113554462.431 7      5126.759          47.000    21265104.520   113554462.426 7      5126.759          46.812    21265110.240    88320165.563 8      3987.480          49.125    21265110.480    88320167.562 8      3987.480          49.187
R16  20328499.020   108591195.757 8      2518.277          49.312    20328498.940   108591195.764 8      2518.277          48.687    20328505.880    84459841.318 8      1958.660          50.812    20328506.040    84459840.315 8      1958.660          51.250
G31  20661622.900   108577559.191 8      3593.920          48.437    20661622.060   108577559.194 7      3593.920          42.125    20661622.620    84605889.726 6      2800.457          41.562    20661623.500    84605891.733 8      2800.457          50.812
G32  24333814.640   127875027.399 7      -520.291          44.687    24333816.780   127875027.407 4      -520.291          28.375    24333820.600    99642866.724 4      -405.422          28.312    24333821.360    99642923.729 6      -405.422          41.937
G16  23474532.400   123359499.135 6      4710.887          40.187    23474531.760   123359499.135 4      4710.887          26.312    23474535.480    96124297.972 4      3670.821          26.125
G18  21755764.360   114327314.080 7      3865.430          46.062    21755763.880   114327314.085 5      3865.430          32.812    21755766.500    89086225.782 5      3012.023          32.937    21755766.500    89086226.792 7      3012.023          46.250
G28  20424332.900   107330592.298 8      1719.758          49.562    20424332.060   107330592.305 7      1719.758          42.250    20424333.800    83634230.625 7      1340.071          42.000    20424334.260    83634230.625 8      1340.071          53.875
> 2024 05 08 08 41 52.0000000  0 14
G25  24100225.960   126647534.036 7       279.996          42.750    24100224.980   126647534.030 5       279.996          35.062    24100231.940    98686420.807 5       218.178          35.187    24100233.560    98686424.806 6       218.178          38.375
G27  23615102.780   124098204.941 6      5574.353          41.000    23615100.920   124098204.954 5      5574.353          31.312    23615106.580    96699906.873 5      4343.652          31.062    23615106.780    96699921.882 7      4343.652          44.812
R19  19469473.800   104148563.550 6      3427.811          37.312    19469472.680   104148563.544 6      3427.811          37.062    19469479.980    81004457.769 7      2666.075          47.312    19469479.860    81004459.769 7      2666.075          47.937
R07  23542334.940   126023944.195 5       790.539          35.937    23542333.380   126023944.234 6       790.539          37.000    23542347.260    98018682.755 6       614.864          41.312    23542346.540    98018681.739 7       614.864          43.187
G29  22719366.620   119391076.894 7      -286.822          44.375    22719366.280   119391076.901 7      -286.822          42.500    22719368.520    93032011.765 7      -223.498          42.250    22719369.620    93032015.764 7      -223.498          45.437
G26  21364938.340   112273505.839 7      3846.713          47.937    21364937.640   112273505.841 6      3846.713          40.312    21364942.440    87485872.505 6      2997.439          39.812    21364942.360    87485868.512 8      2997.439          48.125
R18  20706292.300   110531600.023 8      -109.240          49.250    20706293.840   110531600.026 7      -109.240          47.812    20706301.060    85969053.124 8       -84.964          49.500    20706301.420    85969053.127 8       -84.964          50.000
R09  21264144.440   113549335.764 7      5126.767          47.000    21264144.880   113549335.754 7      5126.767          47.062    21264150.320    88316178.155 8      3987.485          48.375    21264150.420    88316180.154 8      3987.485          49.062
R16  20328027.480   108588677.674 8      2517.983          50.000    20328027.420   108588677.680 8      2517.983          49.500    20328034.480    84457882.811 8      1958.431          50.812    20328034.720    84457881.808 8      1958.431          51.625
G31  20660939.060   108573965.538 8      3593.512          48.312    20660938.200   108573965.535 6      3593.512          41.937    20660938.820    84603089.475 6      2800.139          41.500    20660939.720    84603091.486 8      2800.139          48.375
G32  24333914.020   127875547.700 7      -520.164          45.375    24333915.680   127875547.705 4      -520.164          28.375    24333919.640    99643272.148 4      -405.323          28.312    24333920.380    99643329.144 7      -405.323          42.187
G16  23473636.220   123354788.127 6      4711.136          40.000    23473635.120   123354788.127 4      4711.136          26.312    23473638.960    96120627.055 4      3671.015          26.125
G18  21755028.920   114323448.933 7      3864.927          45.937    21755028.460   114323448.938 5      3864.927          33.125    21755030.980    89083213.982 5      3011.631          32.937    21755031.000    89083214.989 7      3011.631          46.687
G28  20424005.720   107328872.824 8      1719.243          49.500    20424004.840   107328872.829 6      1719.243          41.875    20424006.580    83632890.771 6      1339.670          41.562    20424007.120    83632890.771 8      1339.670          50.062
> 2024 05 08 08 41 53.0000000  0 14
G25  24100172.100   126647254.160 7       279.896          42.250    24100171.580   126647254.157 5       279.896          35.062    24100178.860    98686202.721 5       218.101          35.187    24100179.880    98686206.718 6       218.101          38.687
G27  23614041.840   124092630.823 6      5573.944          40.437    23614040.160   124092630.836 5      5573.944          31.312    23614045.840    96695563.412 5      4343.333          31.000    23614045.780    96695578.422 7      4343.333          44.875
R19  19468832.840   104145136.176 6      3426.881          38.687    19468831.740   104145136.164 6      3426.881          37.062    19468839.140    81001792.023 8      2665.352          48.250    19468839.220    81001794.021 8      2665.352          48.250
R07  23542186.560   126023153.987 5       789.993          35.937    23542186.180   126023154.007 6       789.993          37.312    23542198.980    98018068.132 6       614.439          41.312    23542198.720    98018067.112 7       614.439          43.250
G29  22719421.360   119391363.761 7      -286.976          43.875    22719420.680   119391363.769 7      -286.976          42.500    22719423.040    93032235.300 7      -223.618          42.000    22719424.020    93032239.297 7      -223.618          46.187
G26  21364206.380   112269659.171 7      3846.498          47.562    21364205.740   112269659.176 6      3846.498          39.625    21364210.480    87482875.110 6      2997.271          39.500    21364210.660    87482871.115 8      2997.271          49.500
R18  20706312.900   110531709.560 8      -109.953          48.937    20706314.620   110531709.563 8      -109.953          48.062    20706321.380    85969138.318 8       -85.519          48.250    20706321.900    85969138.319 8       -85.519          49.312
R09  21263184.300   113544209.006 8      5126.769          48.812    21263185.000   113544209.012 7      5126.769          47.750    21263190.380    88312190.694 8      3987.487          48.687    21263190.220    88312192.690 8      3987.487          49.625
R16  20327556.380   108586159.860 8      2517.571          50.625    20327556.240   108586159.861 8      2517.571          49.437    20327563.140    84455924.511 8      1958.111          51.125    20327563.220    84455923.511 8      1958.111          51.187
G31  20660255.280   108570372.300 8      3592.937          49.437    20660254.580   108570372.299 7      3592.937          42.312    20660255.060    84600289.549 6      2799.691          41.750    20660255.620    84600291.556 8      2799.691          50.250
G32  24334012.780   127876067.807 7      -520.116          44.812    24334014.780   127876067.812 4      -520.116          29.125    24334018.620    99643677.415 4      -405.285          28.312    24334019.200    99643734.430 6      -405.285          41.750
G16  23472739.600   123350077.077 6      4710.938          41.000    23472738.500   123350077.080 4      4710.938          26.312    23472742.520    96116956.109 4      3670.861          26.937
G18  21754293.500   114319584.246 7      3864.317          45.625    21754292.940   114319584.251 5      3864.317          33.125    21754295.520    89080202.541 5      3011.156          32.937    21754295.460    89080203.543 7      3011.156          46.187
G28  20423678.520   107327153.826 8      1718.635          49.625    20423677.580   107327153.831 7      1718.635          42.375    20423679.520    83631551.296 6      1339.196          41.625    20423680.100    83631551.294 8      1339.196          53.125
> 2024 05 08 08 41 54.0000000  0 14
G25  24100118.940   126646974.306 7       279.847          42.062    24100118.260   126646974.308 5       279.847          35.250    24100125.460    98685984.655 5       218.062          35.562    24100126.260    98685988.676 6       218.062          38.687
G27  23612981.120   124087056.909 6      5573.749          40.750    23612979.460   124087056.922 5      5573.749          31.187    23612985.000    96691220.104 5      4343.181          31.000    23612985.060    96691235.110 7      4343.181          44.375
R19  19468192.280   104141709.649 6      3426.087          38.687    19468191.460   104141709.650 6      3426.087          37.062    19468198.500    80999126.951 8      2664.734          48.125    19468198.720    80999128.948 8      2664.734          48.000
R07  23542039.260   126022364.189 6       789.658          37.250    23542038.680   126022364.217 6       789.658          37.312    23542050.860    98017453.849 6       614.179          41.062    23542051.120    98017452.841 7       614.179          43.250
G29  22719476.040   119391650.725 7      -286.936          44.125    22719475.420   119391650.733 7      -286.936          42.500    22719477.420    93032458.909 7      -223.586          42.062    22719478.360    93032462.899 7      -223.586          46.375
G26  21363474.560   112265812.564 7      3846.660          47.750    21363473.740   112265812.564 6      3846.660          39.375    21363478.340    87479877.745 6      2997.398          39.250    21363478.640    87479873.747 8      2997.398          49.500
R18  20706333.760   110531819.681 8      -110.419          48.562    20706335.080   110531819.680 7      -110.419          47.250    20706341.980    85969223.966 8       -85.882          49.500    20706342.420    85969223.971 8       -85.882          49.687
R09  21262224.300   113539082.281 7      5126.718          46.187    21262224.880   113539082.276 7      5126.718          47.250    21262230.200    88308203.230 8      3987.447          49.000    21262230.300    88308205.227 8      3987.447          49.062
R16  20327085.260   108583642.335 8      2517.427          49.562    20327085.080   108583642.339 8      2517.427          48.687    20327091.940    84453966.436 8      1957.999          51.125    20327092.020    84453965.435 8      1957.999          51.062
G31  20659571.380   108566779.521 8      3592.608          48.250    20659570.940   108566779.521 7      3592.608          42.000    20659571.320    84597489.979 6      2799.435          41.812    20659572.060    84597491.986 8      2799.435          50.250
G32  24334111.540   127876587.785 7      -519.958          44.125    24334113.660   127876587.790 4      -519.958          29.125    24334117.600    99644082.589 4      -405.162          29.125    24334117.960    99644139.597 6      -405.162          41.750
G16  23471843.480   123345365.996 6      4711.223          40.812    23471842.080   123345365.998 4      4711.223          26.312    23471845.880    96113285.138 4      3671.083          26.937
G18  21753558.100   114315720.024 7      3864.030          45.812    21753557.700   114315720.029 5      3864.030          32.937    21753560.200    89077191.457 5      3010.932          32.937    21753560.100    89077192.463 7      3010.932          45.937
G28  20423351.540   107325435.342 8      1718.294          48.312    20423350.600   107325435.347 6      1718.294          41.937    20423352.540    83630212.224 6      1338.931          41.437    20423353.080    83630212.226 8      1338.931          53.687
> 2024 05 08 08 41 55.0000000  0 14
G25  24100065.960   126646694.515 7       279.916          42.000    24100064.940   126646694.520 5       279.916          35.375    24100072.260    98685766.637 5       218.117          35.437    24100073.360    98685770.644 6       218.117          39.250
G27  23611920.420   124081483.282 6      5573.498          40.250    23611918.940   124081483.289 5      5573.498          31.187    23611924.400    96686877.031 5      4342.985          31.000    23611924.420    96686892.030 7      4342.985          43.812
R19  19467551.260   104138284.037 6      3425.061          38.687    19467550.940   104138284.044 6      3425.061          37.062    19467558.280    80996462.595 7      2663.937          47.437    19467558.380    80996464.594 8      2663.937          48.250
R07  23541891.240   126021574.917 6       789.200          37.250    23541890.180   126021574.943 6       789.200          37.312    23541903.680    98016839.975 6       613.822          41.062    23541903.360    98016838.964 7       613.822          43.000
G29  22719530.600   119391937.876 7      -287.167          43.437    22719530.180   119391937.892 7      -287.167          42.375    22719532.260    93032682.663 7      -223.766          42.000    22719533.120    93032686.659 7      -223.766          46.312
G26  21362742.620   112261966.115 7      3846.430          47.437    21362741.800   112261966.119 6      3846.430          39.437    21362746.380    87476880.520 6      2997.218          39.000    21362746.620    87476876.530 8      2997.218          49.562
R18  20706354.500   110531930.513 7      -111.133          46.000    20706355.840   110531930.514 7      -111.133          47.187    20706362.620    85969310.168 8       -86.437          49.875    20706363.000    85969310.173 8       -86.437          50.187
R09  21261264.120   113533955.592 7      5126.676          46.375    21261265.040   113533955.593 7      5126.676          46.562    21261270.280    88304215.821 8      3987.415          48.812    21261270.260    88304217.819 8      3987.415          49.875
R16  20326613.700   108581125.187 8      2517.024          48.812    20326613.820   108581125.190 8      2517.024          48.687    20326620.700    84452008.654 8      1957.686          50.875    20326620.940    84452007.653 8      1957.686          52.000
G31  20658887.800   108563187.289 7      3591.960          47.812    20658887.220   108563187.289 6      3591.960          41.625    20658887.820    84594690.844 6      2798.930          41.125    20658888.520    84594692.856 8      2798.930          50.562
G32  24334210.340   127877107.692 7      -519.880          43.812    24334212.580   127877107.691 4      -519.880          29.125    24334216.620    99644487.705 4      -405.101          29.125    24334217.020    99644544.728 6      -405.101          41.625
G16  23470946.680   123340655.030 6      4711.006          40.125    23470945.580   123340655.032 4      4711.006          26.812    23470949.200    96109614.262 4      3670.914          26.937
G18  21752822.980   114311856.396 7      3863.415          45.687    21752822.400   114311856.401 5      3863.415          32.937    21752824.740    89074180.842 5      3010.453          32.625    21752824.860    89074181.843 7      3010.453          45.562
G28  20423024.600   107323717.503 8      1717.607          48.625    20423023.600   107323717.510 6      1717.607          41.937    20423025.600    83628873.648 6      1338.395          41.687    20423026.060    83628873.648 8      1338.395          53.312
> 2024 05 08 08 41 56.0000000  0 14
G25  24100012.260   126646414.485 6       280.147          41.812    24100011.800   126646414.487 5       280.147          35.500    24100018.880    98685548.424 5       218.297          35.437    24100019.860    98685552.439 6       218.297          39.250
G27  23610859.440   124075909.592 6      5573.701          41.875    23610858.320   124075909.602 5      5573.701          31.187    23610863.660    96682533.901 5      4343.144          30.125    23610863.980    96682548.895 7      4343.144          44.312
R19  19466911.400   104134858.957 6      3424.760          38.687    19466910.560   104134858.980 6      3424.760          37.687    19466917.980    80993798.654 7      2663.702          47.187    19466918.140    80993800.652 7      2663.702          47.562
R07  23541742.940   126020785.791 6       789.101          37.250    23541743.220   126020785.816 6       789.101          37.312    23541755.960    98016226.210 6       613.745          41.062    23541755.840    98016225.186 7       613.745          42.750
G29  22719585.160   119392224.793 7      -286.733          43.312    22719584.880   119392224.817 7      -286.733          42.250    22719586.840    93032906.240 7      -223.428          42.000    22719587.740    93032910.241 7      -223.428          46.125
G26  21362010.680   112258119.436 8      3846.910          48.062    21362009.740   112258119.444 6      3846.910          40.062    21362014.400    87473883.108 6      2997.593          39.562    21362014.800    87473879.112 8      2997.593          49.437
R18  20706375.360   110532041.649 7      -111.184          46.812    20706376.720   110532041.650 7      -111.184          47.812    20706383.480    85969396.607 8       -86.476          49.312    20706384.120    85969396.615 8       -86.476          49.125
R09  21260304.200   113528828.624 7      5127.106          47.062    21260304.600   113528828.630 7      5127.106          46.375    21260310.100    88300228.185 8      3987.749          48.437    21260310.160    88300230.181 8      3987.749          49.437
R16  20326142.420   108578608.011 8      2517.280          48.375    20326142.580   108578608.012 7      2517.280          47.875    20326149.360    84450050.853 8      1957.885          50.062    20326149.760    84450049.852 8      1957.885          50.625
G31  20658204.180   108559595.205 7      3592.101          47.625    20658203.780   108559595.199 7      3592.101          42.062    20658204.320    84591891.810 6      2799.040          41.875    20658204.720    84591893.821 8      2799.040          50.062
G32  24334309.240   127877627.184 7      -519.202          44.812    24334311.340   127877627.183 4      -519.202          29.125    24334315.440    99644892.498 4      -404.573          29.125    24334315.760    99644949.510 6      -404.573          41.625
G16  23470050.500   123335943.754 6      4711.480          39.937    23470048.900   123335943.754 4      4711.480          26.812    23470052.560    96105943.136 4      3671.283          26.937
G18  21752087.900   114307992.962 7      3863.373          44.625    21752087.080   114307992.967 5      3863.373          32.437    21752089.660    89071170.376 5      3010.420          32.625    21752089.640    89071171.375 7      3010.420          45.375
G28  20422697.820   107321999.889 8      1717.488          48.000    20422696.780   107321999.899 7      1717.488          42.187    20422698.760    83627535.250 6      1338.302          41.625    20422699.080    83627535.252 8      1338.302          52.375
> 2024 05 08 08 41 57.0000000  0 14
G25  24099958.780   126646134.328 7       280.051          42.187    24099958.400   126646134.328 5       280.051          35.500    24099965.560    98685330.122 5       218.222          35.250    24099967.400    98685334.131 6       218.222          39.250
G27  23609798.840   124070335.996 6      5573.541          40.875    23609797.620   124070336.011 5      5573.541          30.000    23609803.220    96678190.838 5      4343.019          30.125    23609803.720    96678205.825 7      4343.019          44.250
R19  19466271.040   104131434.640 6      3423.815          37.625    19466270.520   104131434.647 6      3423.815          37.687    19466277.800    80991135.292 7      2662.967          47.812    19466277.740    80991137.292 8      2662.967          48.125
R07  23541595.860   126019996.950 6       788.316          37.250    23541595.540   126019996.989 6       788.316          37.312    23541608.560    98015612.688 6       613.135          41.062    23541608.040    98015611.677 6       613.135          41.625
G29  22719639.920   119392511.747 7      -287.031          43.562    22719639.460   119392511.760 7      -287.031          42.437    22719641.340    93033129.841 6      -223.661          41.812    22719642.480    93033133.832 7      -223.661          46.375
G26  21361278.720   112254272.750 8      3846.597          48.062    21361277.840   112254272.753 6      3846.597          39.500    21361282.380    87470885.691 6      2997.349          39.375    21361282.660    87470881.692 8      2997.349          49.812
R18  20706396.440   110532153.313 8      -112.056          48.250    20706397.880   110532153.312 7      -112.056          47.562    20706404.460    85969483.455 8       -87.155          49.500    20706404.840    85969483.460 8       -87.155          49.687
R09  21259344.060   113523701.535 7      5127.107          47.437    21259344.800   113523701.536 7      5127.107          46.937    21259350.080    88296240.451 8      3987.750          48.687    21259349.980    88296242.450 8      3987.750          49.187
R16  20325671.600   108576091.063 8      2516.701          49.625    20325671.480   108576091.067 8      2516.701          48.437    20325678.340    84448093.230 8      1957.434          50.312    20325678.520    84448092.234 8      1957.434          51.437
G31  20657520.780   108556003.488 8      3591.380          48.000    20657520.200   108556003.490 7      3591.380          42.312    20657520.780    84589093.082 6      2798.478          41.687    20657521.340    84589095.097 8      2798.478          50.437
G32  24334407.840   127878146.452 7      -519.290          44.625    24334410.060   127878146.452 4      -519.290          28.875    24334414.120    99645297.116 4      -404.642          29.125    24334414.580    99645354.135 6      -404.642          41.625
G16  23469153.900   123331232.394 6      4711.265          40.312    23469152.280   123331232.394 4      4711.265          26.812    23469156.100    96102271.946 4      3671.116          26.937
G18  21751352.920   114304129.912 7      3862.769          45.312    21751351.940   114304129.917 5      3862.769          32.437    21751354.440    89068160.209 5      3009.950          32.625    21751354.380    89068161.206 7      3009.950          45.875
G28  20422371.160   107320282.720 8      1716.802          48.187    20422370.060   107320282.725 7      1716.802          42.375    20422371.960    83626197.193 6      1337.767          41.625    20422372.380    83626197.194 8      1337.767          53.562
> 2024 05 08 08 41 58.0000000  0 14
G25  24099905.680   126645854.106 7       280.498          42.250    24099905.060   126645854.103 5       280.498          35.250    24099912.320    98685111.767 5       218.570          35.437    24099913.520    98685115.778 6       218.570          38.812
G27  23608738.660   124064762.587 6      5573.493          41.937    23608737.000   124064762.602 5      5573.493          30.000    23608742.640    96673847.913 5      4342.981          30.125    23608743.280    96673862.895 7      4342.981          45.312
R19  19465630.540   104128011.080 6      3423.440          37.625    19465630.660   104128011.081 6      3423.440          37.687    19465637.840    80988472.519 7      2662.676          47.500    19465638.040    80988474.516 8      2662.676          48.000
R07  23541448.460   126019208.426 6       788.481          37.250    23541448.540   126019208.470 6       788.481          37.500    23541461.020    98014999.383 6       613.263          41.187    23541460.640    98014998.369 6       613.263          41.625
G29  22719694.880   119392798.704 7      -286.813          43.687    22719693.980   119392798.714 7      -286.813          42.375    22719695.920    93033353.435 7      -223.490          42.437    22719696.960    93033357.432 7      -223.490          45.875
G26  21360546.740   112250426.041 7      3846.828          47.687    21360545.660   112250426.046 6      3846.828          39.125    21360550.460    87467888.261 6      2997.528          39.250    21360550.640    87467884.271 8      2997.528          49.750
R18  20706417.460   110532265.480 7      -112.279          46.625    20706418.780   110532265.475 7      -112.279          47.812    20706425.440    85969570.696 8       -87.328          49.625    20706425.900    85969570.701 8       -87.328          49.875
R09  21258383.620   113518574.372 7      5127.261          46.437    21258384.520   113518574.375 7      5127.261          46.312    21258389.920    88292252.655 8      3987.870          48.937    21258389.860    88292254.654 8      3987.870          50.062
R16  20325200.180   108573574.352 8      2516.772          49.625    20325200.360   108573574.353 8      2516.772          48.062    20325207.160    84446135.785 8      1957.489          50.875    20325207.640    84446134.784 8      1957.489          51.625
G31  20656837.340   108552412.162 7      3591.323          47.750    20656836.800   108552412.162 6      3591.323          41.625    20656837.480    84586294.649 6      2798.434          41.500    20656837.920    84586296.658 8      2798.434          50.625
G32  24334506.760   127878665.502 7      -518.761          45.000    24334508.720   127878665.507 4      -518.761          28.875    24334512.900    99645701.569 4      -404.229          29.125    24334513.360    99645758.586 6      -404.229          41.625
G16  23468257.400   123326520.908 6      4711.623          40.062    23468255.720   123326520.905 4      4711.623          26.812    23468259.480    96098600.662 4      3671.395          26.937
G18  21750617.740   114300267.285 7      3862.631          44.875    21750616.940   114300267.290 5      3862.631          33.062    21750619.340    89065150.370 5      3009.843          33.187    21750619.340    89065151.371 7      3009.843          45.812
G28  20422044.460   107318565.994 7      1716.664          47.562    20422043.300   107318565.999 6      1716.664          41.750    20422045.200    83624859.489 6      1337.661          41.500    20422045.620    83624859.485 8      1337.661          53.312
> 2024 05 08 08 41 59.0000000  0 14
G25  24099852.800   126645573.871 7       280.179          42.062    24099851.800   126645573.868 5       280.179          35.875    24099859.020    98684893.398 5       218.322          35.437    24099859.960    98684897.397 6       218.322          38.812
G27  23607677.960   124059189.291 6      5573.134          41.937    23607676.380   124059189.303 5      5573.134          30.000    23607681.980    96669505.087 5      4342.702          30.125    23607682.820    96669520.089 7      4342.702          45.125
R19  19464991.400   104124588.346 6      3422.177          37.625    19464990.740   104124588.350 6      3422.177          37.687    19464997.980    80985810.398 7      2661.693          47.687    19464998.320    80985812.394 7      2661.693          47.750
R07  23541301.460   126018420.338 6       787.583          37.250    23541301.680   126018420.366 6       787.583          37.500    23541314.220    98014386.417 6       612.565          41.250    23541313.380    98014385.397 7       612.565          42.000
G29  22719749.540   119393085.692 7      -287.123          44.187    22719748.760   119393085.704 7      -287.123          42.625    22719750.480    93033577.064 7      -223.733          42.375    22719751.820    93033581.067 7      -223.733          46.000
G26  21359814.820   112246579.350 7      3846.654          47.187    21359813.660   112246579.352 6      3846.654          39.875    21359818.420    87464890.847 6      2997.393          39.437    21359818.440    87464886.849 8      2997.393          49.562
R18  20706438.700   110532378.214 8      -113.205          48.062    20706439.940   110532378.204 7      -113.205          46.937    20706446.420    85969658.376 8       -88.048          49.625    20706446.980    85969658.383 8       -88.048          49.500
R09  21257423.760   113513447.131 7      5127.179          46.812    21257424.400   113513447.129 7      5127.179          46.500    21257429.820    88288264.807 8      3987.806          49.062    21257429.680    88288266.806 8      3987.806          49.687
R16  20324729.320   108571057.922 8      2516.159          48.375    20324729.180   108571057.921 8      2516.159          48.500    20324736.060    84444178.559 8      1957.012          50.687    20324736.460    84444177.561 8      1957.012          51.062
G31  20656154.040   108548821.271 7      3590.525          47.875    20656153.560   108548821.262 6      3590.525          41.687    20656153.980    84583496.547 6      2797.812          41.000    20656154.720    84583498.556 8      2797.812          50.562
G32  24334605.660   127879184.406 7      -518.925          43.875    24334607.300   127879184.408 4      -518.925          28.875    24334611.780    99646105.903 4      -404.358          28.625    24334612.120    99646162.907 7      -404.358          42.000
G16  23467360.400   123321809.390 6      4711.546          40.625    23467359.200   123321809.390 4      4711.546          26.812    23467362.840    96094929.350 4      3671.334          26.625
G18  21749882.760   114296405.105 7      3861.863          44.937    21749881.900   114296405.109 5      3861.863          33.062    21749884.340    89062140.881 5      3009.244          33.187    21749884.600    89062141.888 7      3009.244          45.687
G28  20421717.880   107316849.765 7      1715.842          47.937    20421716.820   107316849.773 7      1715.842          42.437    20421718.640    83623522.166 7      1337.019          42.000    20421719.140    83623522.164 8      1337.019          53.187
> 2024 05 08 08 42  0.0000000  0 14
G25  24099799.460   126645293.698 7       280.272          42.000    24099798.560   126645293.698 5       280.272          34.937    24099805.680    98684675.084 5       218.394          35.625    24099805.900    98684679.081 6       218.394          39.250
G27  23606617.460   124053616.312 6      5572.848          40.875    23606615.880   124053616.330 5      5572.848          30.000    23606621.440    96665162.511 5      4342.479          30.062    23606622.400    96665177.523 7      4342.479          45.375
R19  19464351.220   104121166.537 6      3421.314          37.625    19464350.980   104121166.533 6      3421.314          37.687    19464358.320    80983148.990 7      2661.022          47.875    19464358.740    80983150.991 8      2661.022          48.562
R07  23541154.560   126017632.745 6       787.329          37.250    23541154.820   126017632.752 6       787.329          37.500    23541166.740    98013773.814 6       612.367          41.250    23541166.400    98013772.800 7       612.367          42.187
G29  22719803.860   119393372.840 7      -287.106          43.812    22719803.440   119393372.853 7      -287.106          42.437    22719805.120    93033800.818 7      -223.719          42.375    22719806.120    93033804.813 7      -223.719          45.937
G26  21359082.860   112242732.819 7      3846.551          47.562    21359081.780   112242732.821 6      3846.551          39.937    21359086.560    87461893.546 6      2997.312          39.500    21359086.480    87461889.548 8      2997.312          48.937
R18  20706460.120   110532491.608 8      -113.682          48.187    20706461.280   110532491.604 7      -113.682          47.875    20706468.100    85969746.569 8       -88.419          49.062    20706468.320    85969746.577 8       -88.419          49.500
R09  21256463.800   113508319.983 7      5127.155          46.375    21256464.340   113508319.979 7      5127.155          46.625    21256469.520    88284277.022 8      3987.787          49.062    21256469.500    88284279.023 8      3987.787          49.187
R16  20324258.100   108568541.869 8      2515.904          48.375    20324258.160   108568541.867 8      2515.904          48.062    20324265.080    84442221.631 8      1956.815          51.000    20324265.180    84442220.628 8      1956.815          51.750
G31  20655471.100   108545230.888 7      3590.136          47.750    20655470.340   108545230.891 7      3590.136          42.000    20655470.760    84580698.853 6      2797.508          41.250    20655471.640    84580700.864 8      2797.508          50.437
G32  24334704.160   127879703.217 7      -518.823          43.937    24334705.900   127879703.216 4      -518.823          28.875    24334710.560    99646510.167 4      -404.278          28.625    24334711.080    99646567.178 7      -404.278          42.000
G16  23466464.020   123317097.959 6      4711.492          39.375    23466462.840   123317097.956 4      4711.492          26.812    23466466.240    96091258.111 4      3671.292          26.625
G18  21749147.960   114292543.489 7      3861.377          45.625    21749147.180   114292543.494 5      3861.377          33.375    21749149.540    89059131.834 5      3008.865          33.062    21749149.720    89059132.835 7      3008.865          45.687
G28  20421391.340   107315134.146 7      1715.274          47.812    20421390.280   107315134.154 6      1715.274          41.625    20421392.300    83622185.324 6      1336.577          41.312    20421392.640    83622185.322 8      1336.577          53.625
> 2024 05 08 08 42  1.0000000  0 14
G25  24099745.980   126645013.802 6       279.768          41.625    24099745.180   126645013.804 5       279.768          34.937    24099752.380    98684456.983 5       218.001          34.937    24099753.380    98684460.988 6       218.001          39.250
G27  23605557.280   124048043.812 6      5572.332          41.250    23605555.440   124048043.825 5      5572.332          30.625    23605561.100    96660820.307 5      4342.077          30.062    23605561.760    96660835.315 7      4342.077          44.937
R19  19463711.500   104117745.812 6      3420.102          37.625    19463710.920   104117745.811 6      3420.102          36.812    19463718.660    80980488.426 7      2660.079          47.937    19463719.340    80980490.427 7      2660.079          47.937
R07  23541007.140   126016845.880 6       786.341          36.750    23541006.540   126016845.884 6       786.341          37.500    23541020.640    98013161.795 6       611.599          41.062    23541019.240    98013160.792 6       611.599          41.750
G29  22719858.560   119393660.359 7      -287.718          44.187    22719857.960   119393660.374 7      -287.718          42.437    22719859.740    93034024.859 7      -224.196          42.062    22719860.940    93034028.858 7      -224.196          45.812
G26  21358350.700   112238886.600 7      3846.205          47.687    21358349.840   112238886.605 6      3846.205          40.000    21358354.560    87458896.491 6      2997.043          40.125    21358354.520    87458892.493 8      2997.043          48.937
R18  20706481.500   110532605.872 7      -114.616          47.000    20706482.580   110532605.873 7      -114.616          47.750    20706489.180    85969835.443 8       -89.145          49.687    20706489.580    85969835.449 8       -89.145          49.937
R09  21255503.820   113503193.092 7      5126.800          46.187    21255503.980   113503193.085 7      5126.800          46.000    21255509.540    88280289.440 8      3987.511          49.187    21255509.360    88280291.439 8      3987.511          49.625
R16  20323787.020   108566026.379 8      2515.256          49.250    20323787.360   108566026.374 7      2515.256          47.687    20323794.200    84440265.139 8      1956.310          51.000    20323794.520    84440264.136 8      1956.310          51.437
G31  20654788.020   108541641.234 7      3589.335          47.250    20654787.300   108541641.239 6      3589.335          41.687    20654787.640    84577901.724 6      2796.884          41.250    20654788.360    84577903.737 8      2796.884          50.687
G32  24334803.060   127880222.165 7      -519.059          44.375    24334804.680   127880222.167 4      -519.059          28.875    24334809.360    99646914.534 4      -404.462          28.625    24334809.560    99646971.547 6      -404.462          41.937
G16  23465567.380   123312386.773 6      4711.151          40.250    23465566.340   123312386.770 4      4711.151          26.625    23465569.660    96087587.056 4      3671.027          26.625
G18  21748413.080   114288682.625 7      3860.551          44.500    21748412.340   114288682.630 5      3860.551          33.375    21748414.820    89056123.370 5      3008.221          33.062    21748415.180    89056124.372 7      3008.221          45.937
G28  20421064.800   107313419.297 8      1714.483          48.250    20421063.900   107313419.307 6      1714.483          41.562    20421066.020    83620849.072 6      1335.961          41.687    20421066.380    83620849.072 8      1335.961          53.500
> 2024 05 08 08 42  2.0000000  0 14
G25  24099692.420   126644733.898 6       279.981          41.625    24099691.980   126644733.905 5       279.981          35.375    24099698.900    98684238.870 5       218.167          34.937    24099700.760    98684242.885 6       218.167          39.250
G27  23604497.260   124042471.512 6      5572.330          41.937    23604495.220   124042471.519 5      5572.330          30.625    23604500.580    96656478.249 5      4342.075          30.062    23604501.340    96656493.250 7      4342.075          45.250
R19  19463072.820   104114325.916 6      3419.491          37.312    19463071.720   104114325.917 6      3419.491          36.812    19463079.480    80977828.521 7      2659.604          47.625    19463079.840    80977830.521 8      2659.604          48.062
R07  23540860.740   126016059.378 6       786.226          36.750    23540859.360   126016059.410 6       786.226          37.500    23540873.040    98012550.087 6       611.509          41.062    23540872.320    98012549.083 7       611.509          42.500
G29  22719913.420   119393947.948 7      -287.712          44.312    22719912.880   119393947.964 7      -287.712          42.312    22719914.560    93034248.955 7      -224.191          42.062    22719915.820    93034252.951 7      -224.191          45.750
G26  21357618.840   112235040.448 7      3846.143          46.937    21357618.080   112235040.455 6      3846.143          39.500    21357622.560    87455899.495 6      2996.994          39.250    21357622.580    87455895.499 8      2996.994          49.750
R18  20706502.860   110532720.723 7      -115.063          47.812    20706504.040   110532720.724 7      -115.063          47.562    20706510.720    85969924.772 8       -89.494          49.437    20706511.280    85969924.781 8       -89.494          49.437
R09  21254543.540   113498066.196 7      5126.926          46.687    21254543.440   113498066.194 7      5126.926          45.312    21254549.340    88276301.866 8      3987.609          49.500    21254549.300    88276303.867 8      3987.609          49.812
R16  20323316.320   108563511.161 8      2515.100          48.625    20323316.320   108563511.167 8      2515.100          48.062    20323323.360    84438308.862 8      1956.189          51.250    20323323.440    84438307.860 8      1956.189          51.500
G31  20654104.920   108538052.029 7      3589.032          47.625    20654104.440   108538052.026 6      3589.032          41.625    20654104.700    84575104.939 6      2796.648          41.062    20654105.480    84575106.952 8      2796.648          50.937
G32  24334901.480   127880740.971 7      -518.814          44.125    24334903.360   127880740.973 4      -518.814          28.562    24334907.980    99647318.790 4      -404.271          28.625    24334908.740    99647375.803 6      -404.271          41.687
G16  23464670.940   123307675.583 6      4711.187          40.500    23464669.860   123307675.578 4      4711.187          26.625    23464673.160    96083916.000 4      3671.055          26.625
G18  21747678.640   114284822.226 7      3860.178          44.875    21747677.900   114284822.234 5      3860.178          33.000    21747680.060    89053115.267 5      3007.931          33.062    21747680.340    89053116.268 7      3007.931          45.812
G28  20420738.780   107311704.986 8      1714.057          48.000    20420737.920   107311704.993 6      1714.057          41.875    20420739.780    83619513.249 6      1335.629          41.687    20420740.160    83619513.247 8      1335.629          53.437
> 2024 05 08 08 42  3.0000000  0 14
G25  24099639.420   126644453.944 7       279.869          42.000    24099638.820   126644453.951 5       279.869          35.000    24099645.860    98684020.724 5       218.080          35.062    24099647.460    98684024.731 6       218.080          38.812
G27  23603437.040   124036899.330 6      5571.994          41.312    23603434.840   124036899.337 5      5571.994          30.625    23603440.260    96652136.293 5      4341.814          30.062    23603440.500    96652151.307 7      4341.814          44.437
R19  19462433.260   104110906.825 6      3418.593          37.312    19462433.240   104110906.818 6      3418.593          36.812    19462440.280    80975169.228 7      2658.905          47.562    19462440.600    80975171.227 8      2658.905          48.000
R07  23540713.380   126015273.303 6       785.674          36.750    23540712.900   126015273.326 6       785.674          37.500    23540726.620    98011938.682 6       611.080          41.125    23540725.500    98011937.670 7       611.080          42.500
G29  22719968.220   119394235.522 7      -287.719          43.437    22719967.320   119394235.540 7      -287.719          42.125    22719969.400    93034473.042 6      -224.196          41.500    22719970.540    93034477.045 7      -224.196          46.062
G26  21356886.860   112231194.287 7      3846.036          46.562    21356886.080   112231194.295 6      3846.036          39.250    21356890.660    87452902.487 6      2996.911          38.625    21356890.840    87452898.491 8      2996.911          49.687
R18  20706524.240   110532836.100 7      -115.804          47.687    20706525.920   110532836.109 8      -115.804          48.125    20706532.200    85970014.516 8       -90.070          49.562    20706532.800    85970014.527 8       -90.070          49.875
R09  21253583.180   113492939.225 7      5126.836          46.250    21253583.580   113492939.223 7      5126.836          45.937    21253589.200    88272314.222 8      3987.539          49.437    21253589.240    88272316.221 8      3987.539          49.312
R16  20322845.260   108560996.163 8      2514.777          48.500    20322845.420   108560996.166 8      2514.777          48.500    20322852.340    84436352.754 8      1955.938          51.250    20322852.740    84436351.750 8      1955.938          51.312
G31  20653421.980   108534463.229 8      3588.395          48.062    20653421.600   108534463.226 7      3588.395          42.250    20653421.780    84572308.471 6      2796.152          41.937    20653422.540    84572310.484 8      2796.152          50.750
G32  24335000.360   127881259.551 7      -518.669          43.750    24335002.040   127881259.556 4      -518.669          28.562    24335006.460    99647722.873 4      -404.158          28.625    24335007.460    99647779.879 6      -404.158          41.687
G16  23463774.320   123302964.279 6      4711.196          40.062    23463773.360   123302964.270 4      4711.196          26.625    23463776.580    96080244.857 4      3671.062          26.625
G18  21746944.000   114280962.258 7      3859.661          45.812    21746943.300   114280962.265 5      3859.661          33.000    21746945.440    89050107.498 5      3007.528          33.062    21746946.020    89050108.499 7      3007.528          45.875
G28  20420412.800   107309991.135 8      1713.425          48.187    20420411.620   107309991.140 6      1713.425          41.375    20420413.520    83618177.777 6      1335.136          41.187    20420414.020    83618177.771 8      1335.136          53.250
> 2024 05 08 08 42  4.0000000  0 14
G25  24099585.880   126644174.021 7       280.023          42.062    24099585.360   126644174.029 5       280.023          35.000    24099592.520    98683802.602 5       218.200          35.312    24099594.120    98683806.609 6       218.200          38.812
G27  23602376.300   124031327.426 6      5571.919          41.500    23602374.560   124031327.436 5      5571.919          30.625    23602379.840    96647794.554 5      4341.755          30.312    23602380.240    96647809.553 7      4341.755          44.250
R19  19461794.440   104107488.619 6      3417.820          37.312    19461793.380   104107488.626 6      3417.820          36.812    19461801.420    80972510.636 7      2658.304          47.812    19461801.740    80972512.638 7      2658.304          47.937
R07  23540566.760   126014487.648 6       785.718          36.750    23540567.240   126014487.682 6       785.718          36.812    23540579.860    98011327.625 6       611.114          41.187    23540579.140    98011326.605 7       611.114          42.000
G29  22720022.880   119394523.251 7      -287.565          43.875    22720022.220   119394523.267 7      -287.565          42.250    22720024.300    93034697.243 6      -224.077          41.750    22720025.160    93034701.237 7      -224.077          45.812
G26  21356154.980   112227348.240 7      3846.226          46.875    21356154.040   112227348.245 6      3846.226          39.062    21356158.840    87449905.569 6      2997.059          38.500    21356158.840    87449901.565 7      2997.059          47.937
R18  20706546.060   110532952.137 7      -116.108          47.687    20706547.460   110532952.143 7      -116.108          47.687    20706554.100    85970104.760 8       -90.307          49.312    20706554.520    85970104.767 8       -90.307          49.437
R09  21252623.000   113487812.267 7      5127.087          45.937    21252623.440   113487812.265 7      5127.087          45.875    21252628.800    88268326.592 8      3987.734          49.000    21252629.040    88268328.593 8      3987.734          49.187
R16  20322374.440   108558481.503 8      2514.778          49.187    20322375.060   108558481.507 8      2514.778          49.000    20322381.740    84434396.902 8      1955.939          51.000    20322382.040    84434395.899 8      1955.939          51.562
G31  20652739.120   108530874.886 8      3588.284          48.375    20652738.760   108530874.885 7      3588.284          42.250    20652738.880    84569512.368 7      2796.066          42.187    20652739.520    84569514.380 8      2796.066          48.625
G32  24335099.440   127881778.039 7      -518.274          43.812    24335100.620   127881778.044 4      -518.274          28.562    24335104.860    99648126.881 4      -403.850          28.750    24335105.520    99648183.894 6      -403.850          41.687
G16  23462877.700   123298253.026 6      4711.451          40.625    23462876.860   123298253.018 4      4711.451          26.625    23462880.220    96076573.756 4      3671.261          26.625
G18  21746209.400   114277102.815 7      3859.365          45.250    21746208.720   114277102.823 5      3859.365          33.125    21746211.060    89047100.138 5      3007.298          33.187    21746211.380    89047101.141 7      3007.298          46.000
G28  20420086.520   107308277.820 8      1713.324          48.312    20420085.480   107308277.822 6      1713.324          41.625    20420087.460    83616842.728 6      1335.058          41.062    20420087.960    83616842.724 8      1335.058          50.000
> 2024 05 08 08 42  5.0000000  0 14
G25  24099532.740   126643894.001 6       279.829          41.875    24099532.100   126643894.009 5       279.829          35.000    24099539.160    98683584.403 5       218.049          35.312    24099540.180    98683588.406 6       218.049          38.812
G27  23601316.160   124025755.580 6      5571.748          41.562    23601314.600   124025755.591 5      5571.748          30.500    23601319.600    96643452.862 5      4341.622          30.312    23601320.020    96643467.868 7      4341.622          44.375
R19  19461155.440   104104071.125 6      3417.063          37.312    19461154.540   104104071.121 6      3417.063          36.812    19461162.500    80969852.579 7      2657.716          47.437    19461163.020    80969854.580 8      2657.716          48.125
R07  23540420.120   126013702.306 6       785.175          37.687    23540420.940   126013702.342 6       785.175          36.812    23540432.860    98010716.812 6       610.692          41.187    23540432.220    98010715.807 7       610.692          42.062
G29  22720077.460   119394810.930 7      -287.697          44.250    22720077.060   119394810.946 7      -287.697          42.250    22720079.040    93034921.404 7      -224.179          42.375    22720079.820    93034925.405 7      -224.179          46.250
G26  21355423.100   112223502.114 7      3846.163          47.000    21355422.060   112223502.119 6      3846.163          38.625    21355426.840    87446908.586 6      2997.010          38.500    21355426.960    87446904.587 8      2997.010          49.937
R18  20706567.640   110533068.653 7      -116.730          46.750    20706569.060   110533068.651 7      -116.730          47.312    20706576.080    85970195.382 8       -90.790          49.937    20706576.620    85970195.389 8       -90.790          49.562
R09  21251662.920   113482685.194 7      5127.026          46.312    21251663.140   113482685.206 7      5127.026          46.000    21251668.820    88264338.882 8      3987.687          48.187    21251668.840    88264340.882 8      3987.687          48.687
R16  20321903.900   108555967.034 8      2514.364          48.812    20321904.200   108555967.037 8      2514.364          48.687    20321910.980    84432441.212 8      1955.616          50.812    20321911.360    84432440.209 8      1955.616          51.187
G31  20652056.300   108527286.889 7      3587.792          47.937    20652056.080   108527286.886 7      3587.792          42.187    20652056.260    84566716.532 7      2795.682          42.000    20652056.660    84566718.545 8      2795.682          51.062
G32  24335197.840   127882296.264 7      -518.063          44.000    24335199.320   127882296.266 4      -518.063          28.562    24335203.600    99648530.683 4      -403.685          28.750    24335203.920    99648587.685 6      -403.685          41.625
G16  23461981.300   123293541.616 6      4711.489          40.500    23461980.400   123293541.608 4      4711.489          26.625    23461983.700    96072902.531 4      3671.290          26.687
G18  21745474.860   114273243.738 7      3858.791          46.437    21745474.500   114273243.746 5      3858.791          33.125    21745476.620    89044093.069 5      3006.850          33.187    21745476.920    89044094.072 7      3006.850          45.937
G28  20419760.680   107306564.930 7      1712.683          47.562    20419759.460   107306564.938 6      1712.683          41.437    20419761.380    83615508.015 6      1334.558          41.062    20419761.880    83615508.013 8      1334.558          53.250
> 2024 05 08 08 42  6.0000000  0 14
G25  24099479.580   126643613.968 7       280.150          42.562    24099478.760   126643613.976 5       280.150          35.187    24099485.840    98683366.197 5       218.299          35.062    24099486.720    98683370.204 6       218.299          38.812
G27  23600255.900   124020183.990 7      5571.610          42.062    23600254.520   124020184.000 5      5571.610          30.500    23600259.160    96639111.371 5      4341.514          30.312    23600260.420    96639126.370 7      4341.514          44.812
R19  19460517.260   104100654.505 6      3416.147          37.250    19460515.920   104100654.528 6      3416.147          37.062    19460523.920    80967195.222 7      2657.003          47.562    19460524.180    80967197.226 7      2657.003          47.750
R07  23540273.560   126012917.395 6       784.770          37.687    23540274.660   126012917.442 6       784.770          36.812    23540285.960    98010106.327 6       610.377          41.500    23540285.480    98010105.314 7       610.377          42.375
G29  22720132.300   119395098.733 7      -287.765          43.562    22720131.860   119395098.751 7      -287.765          42.625    22720133.820    93035145.668 7      -224.233          42.125    22720134.900    93035149.660 7      -224.233          46.062
G26  21354691.200   112219656.082 7      3846.075          46.187    21354690.120   112219656.089 6      3846.075          39.250    21354694.960    87443911.692 6      2996.941          38.750    21354694.920    87443907.698 8      2996.941          48.562
R18  20706589.800   110533185.794 7      -117.358          46.937    20706591.000   110533185.790 7      -117.358          47.062    20706598.060    85970286.488 8       -91.279          49.437    20706598.300    85970286.493 8       -91.279          49.500
R09  21250702.980   113477558.164 7      5127.110          45.625    21250703.340   113477558.168 7      5127.110          45.812    21250708.820    88260351.194 8      3987.752          49.812    21250708.760    88260353.194 8      3987.752          50.062
R16  20321433.580   108553452.882 8      2514.086          48.937    20321433.460   108553452.883 8      2514.086          48.562    20321440.440    84430485.762 8      1955.400          50.937    20321440.580    84430484.762 8      1955.400          51.250
G31  20651373.700   108523699.387 7      3587.356          47.187    20651373.320   108523699.381 7      3587.356          42.625    20651373.520    84563921.082 6      2795.342          41.937    20651373.940    84563923.091 8      2795.342          49.875
G32  24335296.380   127882814.382 7      -517.922          43.812    24335297.860   127882814.379 4      -517.922          28.687    24335302.160    99648934.409 4      -403.576          28.750    24335302.140    99648991.413 6      -403.576          41.625
G16  23461085.040   123288830.241 6      4711.486          40.687    23461083.700   123288830.240 4      4711.486          26.625    23461087.240    96069231.336 4      3671.288          26.687
G18  21744740.780   114269385.165 7      3858.371          45.375    21744740.200   114269385.173 5      3858.371          33.125    21744742.220    89041086.389 5      3006.523          33.062    21744742.700    89041087.390 7      3006.523          45.312
G28  20419434.820   107304852.590 7      1712.105          47.437    20419433.560   107304852.600 6      1712.105          41.312    20419435.600    83614173.728 6      1334.108          41.062    20419435.960    83614173.724 8      1334.108          52.312
> 2024 05 08 08 42  7.0000000  0 14
G25  24099426.300   126643333.933 7       279.983          42.750    24099425.600   126643333.940 5       279.983          35.187    24099432.720    98683147.986 5       218.168          35.250    24099433.660    98683151.991 6       218.168          38.812
G27  23599195.500   124014612.567 6      5571.278          41.812    23599194.180   124014612.574 5      5571.278          30.500    23599198.900    96634770.000 5      4341.256          30.312    23599199.900    96634784.992 7      4341.256          45.125
R19  19459878.020   104097238.707 6      3415.170          37.250    19459877.620   104097238.719 6      3415.170          37.062    19459885.480    80964538.480 7      2656.244          47.187    19459885.680    80964540.479 8      2656.244          48.250
R07  23540126.820   126012132.826 6       784.347          37.687    23540127.800   126012132.876 6       784.347          36.812    23540139.020    98009496.105 6       610.048          41.125    23540138.920    98009495.098 7       610.048          42.375
G29  22720186.700   119395386.585 7      -288.016          43.750    22720186.560   119395386.598 7      -288.016          42.687    22720188.460    93035369.962 6      -224.428          41.687    22720189.600    93035373.955 7      -224.428          46.312
G26  21353959.140   112215810.076 7      3845.947          47.625    21353958.500   112215810.084 6      3845.947          38.875    21353963.340    87440914.809 6      2996.842          38.687    21353963.240    87440910.810 8      2996.842          49.812
R18  20706611.680   110533303.459 7      -118.070          46.312    20706613.340   110533303.460 7      -118.070          47.312    20706620.060    85970378.009 8       -91.832          49.375    20706620.320    85970378.018 8       -91.832          49.375
R09  21249742.700   113472431.051 7      5127.002          44.875    21249743.000   113472431.058 7      5127.002          46.375    21249748.420    88256363.433 8      3987.668          48.750    21249748.600    88256365.434 8      3987.668          48.875
R16  20320962.760   108550938.981 8      2513.680          48.812    20320962.900   108550938.979 8      2513.680          48.750    20320969.680    84428530.498 8      1955.084          51.062    20320969.840    84428529.495 8      1955.084          51.187
G31  20650691.160   108520112.294 7      3586.832          47.625    20650690.600   108520112.294 7      3586.832          42.562    20650690.920    84561125.943 6      2794.934          41.750    20650691.360    84561127.950 8      2794.934          50.437
G32  24335395.100   127883332.329 7      -517.972          44.500    24335396.520   127883332.328 4      -517.972          28.687    24335400.780    99649337.993 4      -403.615          28.750    24335400.920    99649394.994 6      -403.615          41.500
G16  23460188.820   123284118.804 6      4711.526          40.750    23460187.140   123284118.801 4      4711.526          27.187    23460190.780    96065560.085 4      3671.319          26.687
G18  21744006.620   114265527.005 7      3857.833          45.250    21744006.060   114265527.015 5      3857.833          33.125    21744008.180    89038080.034 5      3006.104          33.062    21744008.780    89038081.052 7      3006.104          45.125
G28  20419109.020   107303140.726 7      1711.562          46.625    20419107.960   107303140.731 6      1711.562          41.562    20419109.940    83612839.802 6      1333.684          41.187    20419110.180    83612839.802 8      1333.684          53.125
> 2024 05 08 08 42  8.0000000  0 14
G25  24099373.180   126643053.855 6       280.141          41.500    24099372.260   126643053.865 5       280.141          35.562    24099379.340    98682929.748 5       218.292          35.562    24099380.700    98682933.744 6       218.292          38.875
G27  23598135.320   124009041.296 7      5571.296          42.187    23598134.020   124009041.307 5      5571.296          30.500    23598138.740    96630428.755 5      4341.269          30.312    23598139.840    96630443.760 7      4341.269          44.687
R19  19459240.340   104093823.702 6      3414.611          37.250    19459239.860   104093823.693 6      3414.611          37.062    19459246.920    80961882.345 7      2655.808          47.687    19459247.020    80961884.348 8      2655.808          48.312
R07  23539981.100   126011348.675 6       783.904          37.687    23539981.280   126011348.717 6       783.904          36.812    23539991.800    98008886.216 6       609.703          41.125    23539992.160    98008885.203 6       609.703          41.562
G29  22720241.480   119395674.464 7      -287.962          43.437    22720241.460   119395674.477 7      -287.962          42.000    22720243.380    93035594.289 6      -224.386          41.687    22720243.940    93035598.284 7      -224.386          46.187
G26  21353227.280   112211964.113 7      3845.954          47.000    21353227.020   112211964.113 6      3845.954          39.312    21353231.420    87437917.952 6      2996.848          39.062    21353231.520    87437913.952 8      2996.848          49.312
R18  20706634.060   110533421.678 7      -118.512          46.937    20706635.620   110533421.679 7      -118.512          47.937    20706641.740    85970469.962 8       -92.176          49.375    20706642.420    85970469.969 8       -92.176          49.500
R09  21248782.140   113467303.885 7      5127.182          47.000    21248783.020   113467303.892 7      5127.182          46.312    21248788.260    88252375.656 8      3987.808          49.187    21248788.360    88252377.659 8      3987.808          49.187
R16  20320492.100   108548425.318 8      2513.545          49.000    20320492.200   108548425.322 8      2513.545          48.187    20320499.080    84426575.431 8      1954.979          50.375    20320499.140    84426574.432 8      1954.979          51.125
G31  20650008.660   108516525.609 7      3586.508          47.937    20650007.920   108516525.611 7      3586.508          42.312    20650008.300    84558331.132 7      2794.681          42.000    20650009.000    84558333.142 8      2794.681          50.625
G32  24335493.520   127883850.099 7      -517.774          44.125    24335495.100   127883850.099 4      -517.774          28.687    24335499.240    99649741.441 4      -403.461          28.500    24335499.920    99649798.433 6      -403.461          41.625
G16  23459291.780   123279407.331 6      4711.327          39.375    23459290.580   123279407.334 4      4711.327          27.187    23459294.160    96061888.819 4      3671.164          26.687
G18  21743272.420   114261669.333 7      3857.488          45.437    21743272.020   114261669.341 5      3857.488          33.125    21743274.120    89035074.062 5      3005.835          33.062    21743274.260    89035075.070 7      3005.835          46.062
G28  20418782.980   107301429.368 7      1711.113          47.750    20418782.220   107301429.376 6      1711.113          41.250    20418784.040    83611506.280 6      1333.335          41.000    20418784.640    83611506.279 8      1333.335          52.875
> 2024 05 08 08 42  9.0000000  0 14
G25  24099319.800   126642773.670 6       280.458          41.500    24099318.940   126642773.675 5       280.458          35.312    24099326.020    98682711.411 5       218.538          35.562    24099327.340    98682715.414 6       218.538          38.875
G27  23597074.920   124003470.168 6      5571.142          41.562    23597073.820   124003470.178 5      5571.142          30.500    23597078.680    96626087.620 5      4341.150          30.312    23597079.820    96626102.621 7      4341.150          44.812
R19  19458601.540   104090409.444 6      3413.781          37.250    19458601.360   104090409.435 6      3413.781          37.062    19458608.520    80959226.813 7      2655.163          47.312    19458609.080    80959228.814 8      2655.163          48.250
R07  23539834.460   126010564.829 6       783.646          38.937    23539834.320   126010564.863 6       783.646          37.625    23539844.680    98008276.544 6       609.502          40.687    23539845.420    98008275.537 6       609.502          40.500
G29  22720296.420   119395962.340 7      -287.900          45.125    22720296.440   119395962.350 7      -287.900          42.562    22720297.960    93035818.602 7      -224.337          42.312    22720298.740    93035822.601 7      -224.337          46.562
G26  21352495.640   112208118.097 7      3846.062          47.937    21352495.040   112208118.102 6      3846.062          39.500    21352499.380    87434921.050 6      2996.931          39.750    21352499.440    87434917.052 8      2996.931          49.500
R18  20706655.800   110533540.413 8      -119.056          48.000    20706658.020   110533540.419 8      -119.056          48.000    20706664.320    85970562.313 8       -92.599          49.500    20706664.520    85970562.322 8       -92.599          49.062
R09  21247821.820   113462176.615 7      5127.316          46.000    21247822.640   113462176.624 7      5127.316          46.062    21247828.360    88248387.781 8      3987.912          49.500    21247828.240    88248389.782 8      3987.912          49.937
R16  20320021.740   108545911.882 8      2513.238          49.312    20320021.420   108545911.885 8      2513.238          48.937    20320028.540    84424620.538 8      1954.740          50.625    20320028.740    84424619.535 8      1954.740          51.375
G31  20649326.080   108512939.310 7      3586.090          47.625    20649325.380   108512939.313 7      3586.090          42.250    20649325.940    84555536.607 6      2794.356          41.687    20649326.580    84555538.612 8      2794.356          51.437
G32  24335592.180   127884367.610 7      -517.392          44.000    24335593.540   127884367.612 4      -517.392          28.687    24335597.800    99650144.684 4      -403.163          28.500    24335598.000    99650201.688 6      -403.163          41.625
G16  23458394.800   123274695.745 6      4711.490          40.437    23458394.020   123274695.756 4      4711.490          27.187    23458397.560    96058217.462 4      3671.291          26.687
G18  21742538.500   114257812.056 7      3857.088          45.437    21742538.080   114257812.066 5      3857.088          33.125    21742540.220    89032068.391 5      3005.523          33.125    21742540.320    89032069.387 7      3005.523          45.687
G28  20418457.580   107299718.439 7      1710.725          47.937    20418456.680   107299718.447 6      1710.725          41.875    20418458.360    83610173.085 6      1333.033          41.437    20418458.900    83610173.081 8      1333.033          53.125
> 2024 05 08 08 42 10.0000000  0 14
G25  24099266.280   126642493.608 6       280.052          41.500    24099265.660   126642493.615 5       280.052          35.375    24099272.640    98682493.183 5       218.222          35.187    24099273.640    98682497.178 6       218.222          38.875
G27  23596015.080   123997899.300 6      5570.874          41.437    23596013.940   123997899.310 5      5570.874          30.500    23596018.480    96621746.681 5      4340.941          30.312    23596019.340    96621761.675 7      4340.941          44.687
R19  19457964.200   104086996.042 6      3413.159          37.625    19457963.520   104086996.033 6      3413.159          37.062    19457970.500    80956571.953 7      2654.679          47.000    19457970.820    80956573.952 7      2654.679          47.875
R07  23539687.700   126009781.473 6       783.164          38.937    23539687.900   126009781.515 6       783.164          37.625    23539699.100    98007667.263 6       609.128          40.687    23539698.940    98007666.268 6       609.128          40.500
G29  22720351.360   119396250.358 7      -287.996          44.500    22720351.100   119396250.366 7      -287.996          42.625    22720352.680    93036043.028 7      -224.413          42.125    22720353.760    93036047.025 7      -224.413          46.000
G26  21351763.920   112204272.236 7      3845.835          47.937    21351763.160   112204272.241 6      3845.835          39.875    21351767.580    87431924.280 6      2996.755          39.812    21351767.680    87431920.281 8      2996.755          49.750
R18  20706678.260   110533659.860 7      -119.748          47.125    20706680.080   110533659.859 7      -119.748          47.687    20706686.700    85970655.202 8       -93.137          49.625    20706687.020    85970655.211 8       -93.137          49.312
R09  21246861.860   113457049.452 7      5127.216          45.187    21246862.540   113457049.455 7      5127.216          46.562    21246868.220    88244399.985 8      3987.834          49.250    21246868.080    88244401.986 8      3987.834          49.250
R16  20319551.280   108543398.820 8      2512.931          49.250    20319551.220   108543398.826 8      2512.931          48.250    20319558.040    84422665.926 8      1954.502          50.875    20319558.480    84422664.923 8      1954.502          51.562
G31  20648643.500   108509353.529 8      3585.627          48.062    20648643.040   108509353.526 7      3585.627          42.187    20648643.560    84552742.485 7      2793.995          42.000    20648644.260    84552744.492 8      2793.995          50.187
G32  24335690.680   127884885.065 7      -517.350          44.062    24335692.120   127884885.068 4      -517.350          28.687    24335696.140    99650547.888 4      -403.130          28.500    24335695.920    99650604.894 6      -403.130          41.625
G16  23457498.380   123269984.238 6      4711.474          40.750    23457497.440   123269984.248 4      4711.474          27.187    23457500.920    96054546.159 4      3671.279          27.687
G18  21741804.540   114253955.325 7      3856.483          45.187    21741804.140   114253955.335 5      3856.483          33.500    21741806.160    89029063.147 5      3005.052          33.125    21741806.340    89029064.154 7      3005.052          46.187
G28  20418132.300   107298008.112 8      1710.111          48.500    20418131.280   107298008.116 6      1710.111          41.750    20418132.980    83608840.358 6      1332.554          41.312    20418133.400    83608840.352 8      1332.554          52.437
> 2024 05 08 08 42 11.0000000  0 14
G25  24099213.040   126642213.320 7       280.337          42.125    24099212.320   126642213.320 5       280.337          35.375    24099219.500    98682274.765 5       218.445          35.687    24099220.480    98682278.759 6       218.445          39.250
G27  23594954.960   123992328.468 6      5570.540          41.937    23594953.960   123992328.478 5      5570.540          30.500    23594958.320    96617405.780 5      4340.680          30.625    23594959.100    96617420.794 7      4340.680          44.687
R19  19457325.940   104083583.309 6      3412.250          37.625    19457325.080   104083583.337 6      3412.250          37.625    19457332.340    80953917.629 7      2653.973          47.562    19457332.760    80953919.635 7      2653.973          47.437
R07  23539541.840   126008998.302 6       782.869          38.937    23539541.260   126008998.338 6       782.869          37.625    23539552.500    98007058.140 6       608.898          41.125    23539552.560    98007057.149 6       608.898          40.687
G29  22720406.220   119396538.266 7      -287.968          43.875    22720405.800   119396538.276 7      -287.968          42.750    22720407.640    93036267.373 7      -224.391          42.437    22720408.600    93036271.368 7      -224.391          46.062
G26  21351031.940   112200426.215 7      3845.927          47.562    21351031.280   112200426.223 6      3845.927          39.812    21351035.800    87428927.384 6      2996.826          39.187    21351035.640    87428923.390 8      2996.826          48.937
R18  20706701.100   110533779.663 7      -120.187          47.312    20706702.700   110533779.663 7      -120.187          47.062    20706709.000    85970748.387 8       -93.479          50.125    20706709.520    85970748.395 8       -93.479          49.125
R09  21245901.900   113451922.053 7      5127.244          45.875    21245902.220   113451922.062 7      5127.244          46.000    21245908.080    88240412.017 8      3987.856          49.687    21245908.040    88240414.020 8      3987.856          50.187
R16  20319080.720   108540885.870 8      2512.708          48.687    20319080.680   108540885.876 8      2512.708          48.750    20319087.760    84420711.420 8      1954.329          51.000    20319087.860    84420710.417 8      1954.329          51.562
G31  20647961.320   108505767.995 7      3585.229          47.937    20647960.740   108505767.992 7      3585.229          42.375    20647961.300    84549948.569 7      2793.685          42.125    20647962.020    84549950.577 8      2793.685          50.750
G32  24335789.240   127885402.179 7      -517.113          43.437    24335790.520   127885402.184 4      -517.113          28.750    24335794.380    99650950.829 4      -402.945          28.500    24335794.600    99651007.836 6      -402.945          41.562
G16  23456601.920   123265272.487 6      4711.647          39.625    23456600.900   123265272.494 4      4711.647          27.187    23456604.560    96050874.665 4      3671.413          27.687
G18  21741070.580   114250098.880 7      3856.141          45.312    21741070.440   114250098.888 5      3856.141          33.500    21741072.360    89026058.125 5      3004.785          33.375    21741072.540    89026059.130 7      3004.785          45.750
G28  20417806.960   107296298.105 8      1709.633          48.562    20417805.900   107296298.110 6      1709.633          41.500    20417807.540    83607507.889 6      1332.181          41.062    20417808.100    83607507.887 8      1332.181          52.687
> 2024 05 08 08 42 12.0000000  0 15
G25  24099159.640   126641932.862 7       280.569          42.062    24099158.860   126641932.861 5       280.569          35.437    24099166.280    98682056.228 5       218.625          35.687    24099166.640    98682060.228 6       218.625          39.250
G27  23593895.000   123986757.671 7      5570.676          42.062    23593893.840   123986757.678 5      5570.676          30.937    23593898.160    96613064.897 5      4340.787          30.625    23593899.240    96613079.894 7      4340.787          45.062
R19  19456687.900   104080171.295 6      3411.662          37.625    19456687.420   104080171.307 6      3411.662          37.625    19456694.720    80951263.837 7      2653.515          47.375    19456695.000    80951265.840 7      2653.515          47.750
R07  23539395.960   126008215.366 6       782.952          38.937    23539394.660   126008215.391 6       782.952          37.625    23539405.940    98006449.177 6       608.963          40.812    23539406.300    98006448.189 6       608.963          40.687
G29  22720461.000   119396826.089 7      -287.711          43.875    22720460.800   119396826.102 7      -287.711          43.187    22720462.520    93036491.652 7      -224.191          42.562    22720463.180    93036495.642 7      -224.191          46.250
G26  21350300.080   112196580.118 7      3846.133          47.125    21350299.420   112196580.125 6      3846.133          39.500    21350303.940    87425930.427 6      2996.987          39.187    21350303.860    87425926.423 8      2996.987          49.562
R18  20706723.700   110533899.892 7      -120.451          46.500    20706725.120   110533899.890 7      -120.451          47.750    20706731.640    85970841.899 8       -93.684          49.625    20706732.000    85970841.906 8       -93.684          48.875
R09  21244941.440   113446794.468 7      5127.645          46.687    21244941.780   113446794.474 7      5127.645          45.750    21244947.680    88236423.906 8      3988.168          49.375    21244947.940    88236425.908 8      3988.168          49.562
R16  20318610.380   108538373.040 8      2512.790          48.000    20318610.360   108538373.046 8      2512.790          48.562    20318617.240    84418756.994 8      1954.392          51.062    20318617.360    84418755.992 8      1954.392          51.187
G31  20647279.180   108502182.752 7      3585.060          47.437    20647278.440   108502182.754 7      3585.060          42.375    20647279.120    84547154.877 6      2793.553          41.812    20647279.700    84547156.888 8      2793.553          50.687
G32  24335886.980   127885918.994 7      -516.685          43.062    24335888.680   127885919.001 4      -516.685          28.750    24335892.600    99651353.536 4      -402.612          28.500    24335892.700    99651410.538 6      -402.612          41.562
G04  24903319.560   130867827.604 6      4176.729          37.125
G16  23455705.500   123260560.596 6      4711.967          39.687    23455704.240   123260560.604 4      4711.967          27.687    23455707.680    96047203.062 4      3671.662          27.687
G18  21740336.760   114246242.759 7      3855.950          44.687    21740336.680   114246242.764 5      3855.950          33.500    21740338.500    89023053.357 5      3004.636          33.375    21740338.840    89023054.364 7      3004.636          45.312
G28  20417481.560   107294588.450 8      1709.446          48.000    20417480.640   107294588.457 7      1709.446          42.062    20417482.260    83606175.691 6      1332.035          41.437    20417482.720    83606175.693 8      1332.035          53.125
> 2024 05 08 08 42 13.0000000  0 15
G25  24099105.920   126641652.476 6       280.166          41.875    24099105.580   126641652.484 5       280.166          35.125    24099112.720    98681837.750 5       218.311          35.312    24099114.140    98681841.757 6       218.311          39.125
G27  23592835.140   123981187.120 6      5570.285          41.375    23592833.840   123981187.128 5      5570.285          30.937    23592838.200    96608724.210 5      4340.482          30.625    23592838.940    96608739.210 7      4340.482          45.250
R19  19456049.760   104076760.153 6      3410.895          37.625    19456049.340   104076760.144 6      3410.895          37.625    19456056.740    80948610.697 7      2652.918          47.812    19456057.280    80948612.699 7      2652.918          47.437
R07  23539250.100   126007432.928 6       782.091          38.312    23539248.340   126007432.969 6       782.091          37.625    23539260.160    98005840.631 6       608.293          40.812    23539260.040    98005839.642 6       608.293          40.312
G29  22720515.660   119397114.081 7      -288.069          44.000    22720515.300   119397114.089 7      -288.069          42.750    22720517.260    93036716.057 7      -224.469          42.562    22720517.860    93036720.051 7      -224.469          45.875
G26  21349568.220   112192734.120 7      3845.943          47.250    21349567.500   112192734.125 6      3845.943          39.937    21349572.020    87422933.544 6      2996.838          39.687    21349572.000    87422929.546 8      2996.838          49.812
R18  20706746.280   110534020.762 7      -121.168          47.812    20706747.980   110534020.763 8      -121.168          48.000    20706754.180    85970935.911 8       -94.242          49.250    20706754.680    85970935.920 8       -94.242          48.750
R09  21243981.260   113441666.939 7      5127.430          46.062    21243981.520   113441666.956 7      5127.430          46.187    21243987.460    88232435.831 8      3988.001          48.750    21243987.420    88232437.834 8      3988.001          49.187
R16  20318139.960   108535860.568 8      2512.263          49.000    20318139.940   108535860.569 8      2512.263          48.375    20318146.740    84416802.850 8      1953.983          50.625    20318147.280    84416801.847 8      1953.983          51.250
G31  20646596.720   108498598.019 8      3584.499          48.062    20646596.340   108498598.021 7      3584.499          42.062    20646596.920    84544361.583 6      2793.116          41.437    20646597.340    84544363.590 8      2793.116          50.875
G32  24335985.540   127886435.692 7      -516.630          43.375    24335986.960   127886435.703 4      -516.630          28.750    24335990.840    99651756.154 4      -402.569          28.687    24335991.340    99651813.160 6      -402.569          41.812
G04  24902524.520   130863651.225 6      4176.077          37.125
G16  23454808.560   123255848.700 6      4711.864          40.562    23454807.620   123255848.710 4      4711.864          27.687    23454810.940    96043531.458 4      3671.582          27.687
G18  21739603.120   114242387.163 7      3855.331          44.750    21739602.940   114242387.173 5      3855.331          32.937    21739604.680    89020049.001 5      3004.154          32.875    21739605.240    89020050.006 7      3004.154          45.500
G28  20417156.400   107292879.389 7      1708.669          47.812    20417155.360   107292879.399 6      1708.669          41.750    20417157.080    83604843.961 6      1331.431          41.312    20417157.480    83604843.959 8      1331.431          52.875
> 2024 05 08 08 42 14.0000000  0 15
G25  24099052.440   126641372.078 6       280.357          41.750    24099052.220   126641372.091 5       280.357          35.125    24099059.200    98681619.256 5       218.460          35.187    24099060.880    98681623.254 6       218.460          39.125
G27  23591774.980   123975616.796 6      5570.121          40.687    23591773.720   123975616.803 5      5570.121          30.937    23591778.460    96604383.702 5      4340.354          30.937    23591779.140    96604398.707 7      4340.354          45.750
R19  19455412.680   104073349.899 6      3409.768          37.750    19455412.060   104073349.895 6      3409.768          37.625    19455419.300    80945958.290 7      2652.041          47.812    19455419.520    80945960.296 7      2652.041          47.812
R07  23539103.320   126006650.923 6       781.672          38.312    23539101.840   126006650.962 6       781.672          37.625    23539114.820    98005232.407 6       607.967          40.875    23539113.820    98005231.421 6       607.967          40.312
G29  22720570.520   119397402.144 7      -288.215          44.062    22720569.960   119397402.154 7      -288.215          42.437    22720572.060    93036940.521 7      -224.583          42.687    22720572.520    93036944.520 7      -224.583          46.062
G26  21348836.460   112188888.220 7      3845.762          47.937    21348835.660   112188888.225 6      3845.762          39.625    21348840.200    87419936.737 6      2996.698          39.312    21348839.900    87419932.738 8      2996.698          49.250
R18  20706769.080   110534142.272 7      -121.868          47.562    20706770.860   110534142.276 8      -121.868          48.187    20706776.960    85971030.419 8       -94.786          49.000    20706777.560    85971030.424 8       -94.786          49.500
R09  21243021.200   113436539.391 7      5127.500          46.000    21243021.340   113436539.408 7      5127.500          46.750    21243027.120    88228447.743 8      3988.056          49.062    21243027.180    88228449.747 8      3988.056          49.187
R16  20317669.820   108533348.393 8      2511.996          48.875    20317669.660   108533348.388 8      2511.996          48.812    20317676.540    84414848.927 8      1953.775          50.875    20317676.620    84414847.927 8      1953.775          51.000
G31  20645914.840   108495013.769 7      3584.032          47.687    20645914.160   108495013.764 6      3584.032          41.625    20645914.800    84541568.659 6      2792.752          41.250    20645915.440    84541570.666 8      2792.752          50.687
G32  24336083.980   127886952.299 7      -516.525          44.062    24336085.120   127886952.304 4      -516.525          28.750    24336088.980    99652158.699 4      -402.487          28.687    24336089.320    99652215.705 6      -402.487          41.562
G04  24901730.140   130859475.325 6      4175.568          36.687    24901730.180   130859475.343 2      4175.568          14.625    24901732.300   101968430.957 2      3253.690          15.812
G16  23453911.740   123251136.854 6      4711.799          40.500    23453910.680   123251136.864 4      4711.799          27.687    23453914.320    96039859.892 4      3671.532          27.687
G18  21738869.520   114238532.095 7      3854.731          44.687    21738869.260   114238532.105 5      3854.731          32.937    21738871.080    89017045.056 5      3003.687          32.875    21738871.740    89017046.061 7      3003.687          45.937
G28  20416831.340   107291170.856 8      1708.199          48.187    20416830.220   107291170.869 6      1708.199          41.937    20416831.880    83603512.641 6      1331.064          41.500    20416832.320    83603512.635 8      1331.064          52.875
> 2024 05 08 08 42 15.0000000  0 15
G25  24098999.260   126641091.767 7       280.163          42.250    24098998.700   126641091.774 5       280.163          35.062    24099005.940    98681400.827 5       218.309          35.187    24099007.540    98681404.824 6       218.309          39.125
G27  23590714.920   123970046.731 6      5569.937          41.500    23590713.820   123970046.744 5      5569.937          31.062    23590718.640    96600043.392 5      4340.211          30.937    23590719.200    96600058.381 7      4340.211          45.250
R19  19454775.340   104069940.514 6      3408.811          37.750    19454775.240   104069940.516 6      3408.811          37.625    19454781.900    80943306.550 7      2651.297          47.687    19454782.220    80943308.552 7      2651.297          47.250
R07  23538956.980   126005869.390 6       781.222          38.312    23538955.860   126005869.426 6       781.222          37.312    23538968.860    98004624.546 6       607.617          40.875    23538968.020    98004623.568 6       607.617          41.187
G29  22720625.740   119397690.314 7      -288.169          43.937    22720624.880   119397690.316 7      -288.169          42.437    22720626.900    93037165.069 7      -224.547          42.000    22720627.580    93037169.064 7      -224.547          46.000
G26  21348104.560   112185042.411 8      3845.727          48.250    21348104.040   112185042.414 6      3845.727          39.812    21348108.380    87416940.003 6      2996.670          39.750    21348108.240    87416936.004 8      2996.670          49.375
R18  20706792.320   110534264.404 8      -122.507          48.375    20706793.480   110534264.408 7      -122.507          47.937    20706800.080    85971125.407 8       -95.283          49.625    20706800.400    85971125.416 8       -95.283          49.375
R09  21242060.780   113431411.888 7      5127.444          45.875    21242061.220   113431411.897 7      5127.444          46.062    21242066.980    88224459.683 8      3988.012          49.000    21242067.040    88224461.686 8      3988.012          49.062
R16  20317199.700   108530836.535 8      2511.625          49.125    20317199.300   108530836.533 8      2511.625          48.187    20317206.320    84412895.264 8      1953.486          50.562    20317206.420    84412894.266 8      1953.486          50.937
G31  20645232.700   108491430.006 7      3583.488          47.562    20645232.220   108491430.008 6      3583.488          41.687    20645232.860    84538776.124 6      2792.329          41.187    20645233.460    84538778.135 8      2792.329          50.875
G32  24336182.260   127887468.814 7      -516.499          44.062    24336183.460   127887468.819 4      -516.499          28.750    24336187.340    99652561.174 4      -402.467          28.687    24336187.880    99652618.170 6      -402.467          41.562
G04  24900935.040   130855299.876 6      4175.218          36.687    24900936.960   130855299.878 2      4175.218          15.687    24900941.840   101965177.342 2      3253.416          16.062
G16  23453015.680   123246425.003 6      4711.878          41.125    23453014.160   123246425.010 4      4711.878          27.687    23453017.420    96036188.318 4      3671.593          27.687
G18  21738136.340   114234677.537 7      3854.163          45.250    21738136.000   114234677.547 5      3854.163          33.187    21738137.620    89014041.508 5      3003.244          33.062    21738138.020    89014042.514 7      3003.244          45.937
G28  20416506.160   107289462.904 8      1707.615          49.375    20416505.500   107289462.909 6      1707.615          41.937    20416506.980    83602181.765 6      1330.609          41.750    20416507.320    83602181.759 8      1330.609          52.687
> 2024 05 08 08 42 16.0000000  0 15
G25  24098946.080   126640811.282 7       280.397          42.562    24098945.200   126640811.289 5       280.397          35.062    24098952.740    98681182.265 5       218.491          34.812    24098954.220    98681186.272 6       218.491          38.937
G27  23589654.940   123964476.714 6      5569.920          40.750    23589653.880   123964476.722 5      5569.920          31.062    23589658.940    96595703.121 5      4340.197          30.937    23589659.180    96595718.114 7      4340.197          44.750
R19  19454138.180   104066531.761 6      3408.364          37.750    19454137.480   104066531.778 6      3408.364          37.062    19454144.560    80940655.316 8      2650.950          48.000    19454145.020    80940657.316 7      2650.950          47.625
R07  23538811.760   126005088.127 6       781.122          38.312    23538808.840   126005088.144 6       781.122          37.312    23538823.360    98004016.895 6       607.539          41.375    23538822.660    98004015.929 6       607.539          41.187
G29  22720680.120   119397978.437 7      -288.113          43.625    22720679.740   119397978.445 7      -288.113          42.625    22720681.580    93037389.585 7      -224.504          42.187    22720682.360    93037393.584 7      -224.504          44.937
G26  21347372.640   112181196.522 8      3845.809          48.437    21347372.140   112181196.532 6      3845.809          39.250    21347376.520    87413943.206 6      2996.734          39.312    21347376.440    87413939.205 8      2996.734          48.375
R18  20706815.000   110534386.999 7      -122.943          47.437    20706816.640   110534386.994 7      -122.943          47.875    20706822.780    85971220.756 8       -95.623          49.562    20706823.480    85971220.761 7       -95.623          47.625
R09  21241100.400   113426284.209 7      5127.639          46.562    21241100.400   113426284.234 7      5127.639          46.000    21241106.540    88220471.509 7      3988.164          47.437    21241106.920    88220473.512 7      3988.164          47.812
R16  20316729.160   108528324.824 8      2511.507          48.312    20316729.000   108528324.828 8      2511.507          48.562    20316736.080    84410941.722 8      1953.394          49.250    20316736.440    84410940.719 8      1953.394          49.687
G31  20644550.700   108487846.563 7      3583.227          47.125    20644550.380   108487846.563 6      3583.227          41.500    20644550.960    84535983.831 6      2792.125          40.937    20644551.460    84535985.840 8      2792.125          48.875
G32  24336280.420   127887985.021 7      -516.169          44.000    24336281.740   127887985.024 4      -516.169          28.562    24336285.620    99652963.405 4      -402.210          28.687    24336286.240    99653020.409 6      -402.210          41.562
G04  24900141.020   130851124.711 6      4174.910          36.625    24900139.620   130851124.723 2      4174.910          16.812    24900145.140   101961923.981 2      3253.177          16.750
G16  23452119.280   123241713.020 6      4711.866          41.375    23452117.480   123241713.027 4      4711.866          27.687    23452120.800    96032516.647 4      3671.584          27.250
G18  21737402.920   114230823.313 7      3853.947          45.875    21737402.520   114230823.320 5      3853.947          33.187    21737404.240    89011038.217 5      3003.075          33.062    21737404.680    89011039.218 7      3003.075          45.687
G28  20416181.240   107287755.309 8      1707.317          48.625    20416180.420   107287755.319 7      1707.317          42.125    20416182.100    83600851.173 6      1330.377          41.937    20416182.440    83600851.169 8      1330.377          51.000
> 2024 05 08 08 42 17.0000000  0 15
G25  24098892.460   126640530.873 6       280.477          40.937    24098891.780   126640530.878 5       280.477          35.062    24098899.440    98680963.763 5       218.553          34.937    24098900.440    98680967.762 6       218.553          38.937
G27  23588594.820   123958907.007 6      5569.529          40.250    23588593.900   123958907.015 5      5569.529          31.062    23588599.160    96591363.091 5      4339.893          30.812    23588599.720    96591378.081 7      4339.893          45.125
R19  19453501.200   104063123.989 6      3407.423          37.750    19453500.120   104063124.006 6      3407.423          37.062    19453507.660    80938004.821 7      2650.218          47.875    19453507.800    80938006.818 7      2650.218          47.625
R07  23538666.500   126004307.399 6       780.498          38.312    23538663.860   126004307.414 6       780.498          37.312    23538677.460    98003409.650 6       607.054          41.375    23538676.820    98003408.678 6       607.054          41.062
G29  22720735.000   119398266.752 7      -288.468          43.312    22720734.380   119398266.760 7      -288.468          42.187    22720736.460    93037614.248 6      -224.780          41.687    22720737.360    93037618.247 7      -224.780          45.687
G26  21346640.660   112177350.768 7      3845.708          47.750    21346640.320   112177350.778 6      3845.708          39.437    21346644.760    87410946.515 6      2996.655          39.062    21346644.380    87410942.520 8      2996.655          49.312
R18  20706838.320   110534510.244 8      -123.519          48.687    20706839.800   110534510.242 7      -123.519          47.875    20706845.860    85971316.613 8       -96.070          49.187    20706846.360    85971316.616 8       -96.070          48.875
R09  21240140.180   113421156.640 7      5127.633          45.937    21240140.520   113421156.657 7      5127.633          45.937    21240146.300    88216483.385 8      3988.159          49.062    21240146.560    88216485.386 8      3988.159          48.750
R16  20316259.160   108525813.512 7      2511.211          46.562    20316259.080   108525813.515 8      2511.211          48.000    20316265.840    84408988.479 8      1953.164          50.812    20316266.400    84408987.478 8      1953.164          50.812
G31  20643869.060   108484263.646 7      3582.664          46.875    20643868.680   108484263.648 7      3582.664          42.187    20643869.220    84533191.948 7      2791.686          42.000    20643869.760    84533193.958 8      2791.686          50.687
G32  24336378.700   127888501.166 7      -516.006          44.312    24336380.020   127888501.168 4      -516.006          28.562    24336383.780    99653365.587 4      -402.083          28.687    24336384.400    99653422.594 6      -402.083          41.250
G04  24899347.160   130846950.079 6      4174.453          36.625    24899344.660   130846950.113 2      4174.453          16.875    24899352.660   101958671.017 2      3252.821          16.500
G16  23451221.860   123237001.082 6      4711.983          41.687    23451220.720   123237001.084 4      4711.983          27.687    23451223.980    96028845.009 4      3671.675          27.250
G18  21736669.600   114226969.651 7      3853.424          45.437    21736669.180   114226969.664 5      3853.424          33.062    21736670.920    89008035.369 5      3002.668          33.187    21736671.140    89008036.375 7      3002.668          45.750
G28  20415856.420   107286048.334 8      1706.698          48.062    20415855.540   107286048.344 7      1706.698          42.000    20415857.260    83599521.067 6      1329.895          41.875    20415857.600    83599521.061 8      1329.895          53.125
> 2024 05 08 08 42 18.0000000  0 15
G25  24098839.260   126640250.551 6       280.271          41.875    24098838.300   126640250.548 5       280.271          34.937    24098846.140    98680745.322 5       218.393          34.937    24098846.840    98680749.319 6       218.393          39.187
G27  23587535.040   123953337.542 6      5569.166          41.187    23587533.920   123953337.547 5      5569.166          30.875    23587539.380    96587023.252 5      4339.610          30.812    23587540.100    96587038.254 7      4339.610          45.500
R19  19452863.360   104059717.086 6      3406.470          37.750    19452863.620   104059717.090 6      3406.470          37.062    19452871.060    80935355.004 8      2649.477          48.125    19452870.900    80935357.001 7      2649.477          47.437
R07  23538520.980   126003527.073 6       780.039          38.312    23538518.100   126003527.088 6       780.039          37.312    23538531.860    98002802.744 6       606.697          41.250    23538530.940    98002801.766 6       606.697          41.687
G29  22720790.020   119398555.146 7      -288.520          44.187    22720789.180   119398555.153 7      -288.520          42.187    22720791.500    93037838.964 7      -224.821          42.000    22720792.340    93037842.959 7      -224.821          46.250
G26  21345909.060   112173505.126 8      3845.560          48.000    21345908.440   112173505.133 6      3845.560          39.625    21345912.760    87407949.910 6      2996.540          39.437    21345912.800    87407945.912 8      2996.540          49.250
R18  20706861.200   110534634.138 7      -124.279          47.750    20706863.040   110534634.139 7      -124.279          47.875    20706869.240    85971412.971 8       -96.662          49.437    20706869.460    85971412.978 8       -96.662          49.687
R09  21239180.260   113416029.097 7      5127.454          46.250    21239180.320   113416029.114 7      5127.454          46.250    21239186.000    88212495.307 8      3988.020          49.187    21239186.160    88212497.310 8      3988.020          49.250
R16  20315789.080   108523302.581 8      2510.658          48.687    20315788.960   108523302.582 8      2510.658          48.375    20315795.720    84407035.526 8      1952.734          50.875    20315795.940    84407034.530 8      1952.734          51.250
G31  20643187.380   108480681.230 7      3582.153          47.437    20643186.840   108480681.233 6      3582.153          41.312    20643187.320    84530400.455 6      2791.288          41.000    20643187.980    84530402.464 8      2791.288          50.000
G32  24336476.940   127889017.226 7      -516.098          43.750    24336478.220   127889017.228 4      -516.098          28.562    24336482.060    99653767.706 4      -402.154          28.625    24336482.440    99653824.704 6      -402.154          41.250
G04  24898552.880   130842775.939 6      4173.953          36.937    24898551.540   130842775.944 2      4173.953          17.000    24898559.040   101955418.405 2      3252.431          16.625    24898559.920   101955437.422 6      3252.431          38.500
G16  23450325.420   123232289.175 6      4711.910          41.312    23450324.180   123232289.180 4      4711.910          27.062    23450327.540    96025173.395 4      3671.619          27.250
G18  21735936.340   114223116.551 7      3852.735          45.875    21735935.920   114223116.561 5      3852.735          33.062    21735937.620    89005032.952 5      3002.132          33.187    21735937.920    89005033.949 7      3002.132          45.875
G28  20415531.800   107284341.927 8      1706.085          49.000    20415531.060   107284341.934 7      1706.085          42.000    20415532.440    83598191.393 6      1329.417          41.750    20415532.900    83598191.391 8      1329.417          52.750
> 2024 05 08 08 42 19.0000000  0 15
G25  24098785.840   126639970.030 6       280.555          41.750    24098784.960   126639970.034 5       280.555          34.812    24098792.620    98680526.734 5       218.614          34.937    24098793.800    98680530.728 6       218.614          39.187
G27  23586475.300   123947768.093 6      5569.337          40.875    23586473.920   123947768.100 5      5569.337          30.875    23586479.600    96582683.424 5      4339.743          30.812    23586480.340    96582698.431 7      4339.743          45.687
R19  19452227.100   104056310.807 6      3406.011          37.562    19452226.900   104056310.832 6      3406.011          37.062    19452234.140    80932705.688 8      2649.120          48.125    19452234.360    80932707.685 8      2649.120          48.312
R07  23538375.720   126002747.006 6       779.937          37.687    23538372.100   126002747.016 6       779.937          37.312    23538385.640    98002196.013 6       606.618          41.062    23538384.880    98002195.039 6       606.618          41.687
G29  22720844.900   119398843.487 7      -288.403          43.500    22720844.160   119398843.497 7      -288.403          42.625    22720846.420    93038063.646 7      -224.729          42.250    22720847.200    93038067.640 7      -224.729          46.437
G26  21345177.240   112169659.380 7      3845.675          47.437    21345176.780   112169659.390 6      3845.675          39.500    21345180.820    87404953.227 6      2996.630          39.250    21345181.100    87404949.231 8      2996.630          49.875
R18  20706884.440   110534758.413 8      -124.481          48.625    20706886.320   110534758.417 7      -124.481          47.750    20706892.460    85971509.634 8       -96.819          49.375    20706892.780    85971509.639 8       -96.819          49.937
R09  21238219.940   113410901.365 7      5127.761          46.250    21238220.000   113410901.385 7      5127.761          45.437    21238225.800    88208507.075 8      3988.258          49.312    21238225.900    88208509.076 8      3988.258          50.000
R16  20315319.000   108520791.752 8      2510.696          48.812    20315319.040   108520791.750 8      2510.696          48.375    20315325.640    84405082.659 8      1952.763          50.687    20315326.220    84405081.661 8      1952.763          51.062
G31  20642505.780   108477099.099 7      3581.963          46.937    20642505.200   108477099.101 6      3581.963          41.500    20642505.680    84527609.180 6      2791.140          41.062    20642506.100    84527611.190 8      2791.140          50.500
G32  24336574.600   127889532.955 7      -515.639          43.687    24336576.320   127889532.957 4      -515.639          28.562    24336580.040    99654169.562 4      -401.796          28.625    24336580.500    99654226.565 6      -401.796          41.562
G04  24897759.020   130838602.061 6      4173.635          36.937    24897757.620   130838602.100 2      4173.635          17.187    24897766.040   101952166.031 2      3252.183          16.875    24897765.000   101952185.045 6      3252.183          38.500
G16  23449428.500   123227577.066 6      4712.133          41.187    23449427.520   123227577.074 4      4712.133          27.062    23449430.840    96021501.626 4      3671.792          27.250
G18  21735202.920   114219263.740 7      3852.524          45.437    21735202.600   114219263.745 5      3852.524          33.187    21735204.460    89002030.762 5      3001.967          33.250    21735204.860    89002031.761 7      3001.967          46.062
G28  20415207.300   107282635.856 7      1705.907          47.125    20415206.300   107282635.866 7      1705.907          42.125    20415207.760    83596861.993 6      1329.278          41.562    20415208.300    83596861.993 8      1329.278          52.687
> 2024 05 08 08 42 20.0000000  0 15
G25  24098732.400   126639689.566 6       280.716          41.500    24098731.660   126639689.573 5       280.716          34.812    24098739.440    98680308.186 5       218.740          35.187    24098740.480    98680312.191 6       218.740          39.187
G27  23585415.520   123942198.924 6      5569.181          40.750    23585414.200   123942198.932 5      5569.181          30.875    23585419.920    96578343.818 5      4339.622          30.812    23585420.440    96578358.826 7      4339.622          45.875
R19  19451590.140   104052905.474 6      3405.166          37.562    19451590.580   104052905.473 6      3405.166          37.062    19451597.600    80930057.081 8      2648.462          48.062    19451597.780    80930059.076 8      2648.462          48.312
R07  23538229.520   126001967.416 6       779.527          37.687    23538226.780   126001967.420 6       779.527          37.312    23538240.940    98001589.669 6       606.298          41.062    23538239.320    98001588.695 6       606.298          41.250
G29  22720899.580   119399131.923 7      -288.319          44.500    22720899.240   119399131.930 7      -288.319          42.625    22720901.280    93038288.395 7      -224.664          42.500    22720902.100    93038292.400 7      -224.664          46.500
G26  21344445.300   112165813.735 8      3845.746          48.375    21344444.980   112165813.742 6      3845.746          40.125    21344449.100    87401956.620 6      2996.685          39.250    21344449.140    87401952.622 8      2996.685          50.125
R18  20706907.580   110534883.348 7      -125.075          47.875    20706909.900   110534883.354 8      -125.075          48.437    20706915.840    85971606.807 8       -97.281          49.187    20706916.120    85971606.813 8       -97.281          49.125
R09  21237259.760   113405773.689 7      5127.862          46.125    21237260.000   113405773.701 7      5127.862          46.187    21237265.400    88204518.876 8      3988.337          48.750    21237265.860    88204520.877 8      3988.337          48.625
R16  20314849.260   108518281.283 8      2510.465          48.750    20314849.180   108518281.281 8      2510.465          48.625    20314855.880    84403130.073 8      1952.584          50.687    20314856.000    84403129.076 8      1952.584          51.500
G31  20641824.160   108473517.464 7      3581.527          47.062    20641823.560   108473517.466 6      3581.527          41.937    20641824.160    84524818.295 6      2790.801          41.187    20641824.460    84524820.308 8      2790.801          50.500
G32  24336672.840   127890048.582 7      -515.399          44.000    24336674.460   127890048.584 4      -515.399          28.750    24336678.100    99654571.343 4      -401.610          28.625    24336678.300    99654628.352 6      -401.610          41.437
G04  24896964.940   130834428.627 6      4173.296          37.000    24896963.180   130834428.674 2      4173.296          17.437    24896969.640   101948914.046 2      3251.919          17.125    24896970.700   101948933.027 6      3251.919          39.062
G16  23448531.660   123222865.015 6      4712.238          41.562    23448530.880   123222865.031 4      4712.238          27.062    23448534.140    96017829.906 4      3671.873          27.250
G18  21734469.980   114215411.445 7      3852.183          45.437    21734469.520   114215411.450 5      3852.183          33.187    21734471.440    88999028.975 5      3001.701          33.250    21734471.900    88999029.978 7      3001.701          45.687
G28  20414882.680   107280930.384 8      1705.341          48.437    20414881.640   107280930.397 7      1705.341          42.500    20414883.140    83595533.054 7      1328.837          42.125    20414883.620    83595533.052 8      1328.837          52.937
> 2024 05 08 08 42 21.0000000  0 15
G25  24098679.020   126639408.973 6       280.552          41.687    24098678.260   126639408.983 5       280.552          35.125    24098686.100    98680089.549 5       218.612          35.187    24098686.980    98680093.564 6       218.612          39.312
G27  23584355.960   123936629.808 6      5569.109          40.937    23584354.440   123936629.816 5      5569.109          30.875    23584360.160    96574004.247 5      4339.566          30.750    23584360.680    96574019.255 7      4339.566          45.750
R19  19450953.540   104049500.829 6      3404.136          37.562    19450953.740   104049500.839 6      3404.136          37.062    19450961.000    80927409.034 8      2647.662          48.250    19450961.340    80927411.032 7      2647.662          47.187
R07  23538083.440   126001188.077 6       779.186          37.687    23538080.760   126001188.108 6       779.186          37.062    23538095.020    98000983.527 6       606.034          40.750    23538093.820    98000982.551 6       606.034          41.687
G29  22720954.500   119399420.316 7      -288.353          42.687    22720954.120   119399420.329 7      -288.353          42.500    22720956.240    93038513.119 7      -224.691          42.187    22720956.860    93038517.116 7      -224.691          45.812
G26  21343713.420   112161968.003 7      3845.784          47.500    21343713.140   112161968.013 6      3845.784          39.625    21343717.420    87398959.952 6      2996.715          39.375    21343717.320    87398955.956 8      2996.715          49.812
R18  20706931.260   110535008.726 8      -125.533          48.125    20706933.300   110535008.732 8      -125.533          48.250    20706939.300    85971704.322 8       -97.637          49.437    20706939.820    85971704.324 8       -97.637          49.187
R09  21236299.800   113400645.840 7      5127.911          45.750    21236299.640   113400645.854 7      5127.911          46.312    21236305.120    88200530.553 8      3988.375          48.750    21236305.320    88200532.558 8      3988.375          49.437
R16  20314379.180   108515770.956 8      2510.200          49.062    20314379.380   108515770.954 8      2510.200          48.062    20314385.860    84401177.598 8      1952.378          50.562    20314386.160    84401176.599 8      1952.378          51.250
G31  20641142.680   108469936.128 7      3581.263          47.062    20641142.140   108469936.125 7      3581.263          42.062    20641142.640    84522027.644 6      2790.595          41.625    20641143.240    84522029.657 8      2790.595          50.500
G32  24336771.100   127890563.938 7      -515.234          43.812    24336772.500   127890563.943 4      -515.234          28.750    24336776.060    99654972.913 4      -401.481          28.625    24336776.200    99655029.930 6      -401.481          41.437
G04  24896170.560   130830255.528 6      4172.795          37.000    24896170.160   130830255.577 2      4172.795          17.500    24896177.180   101945662.290 2      3251.528          17.375    24896176.380   101945681.270 6      3251.528          39.062
G16  23447635.120   123218152.814 6      4712.321          41.250    23447633.980   123218152.830 4      4712.321          27.062    23447637.300    96014158.064 4      3671.939          27.375
G18  21733737.040   114211559.517 7      3851.701          45.187    21733736.440   114211559.524 5      3851.701          33.437    21733738.480    88996027.477 5      3001.325          33.250    21733738.960    88996028.484 7      3001.325          46.437
G28  20414558.240   107279225.283 8      1704.969          48.000    20414557.220   107279225.290 6      1704.969          41.875    20414558.660    83594204.398 6      1328.548          41.687    20414559.220    83594204.398 8      1328.548          53.000
> 2024 05 08 08 42 22.0000000  0 15
G25  24098626.180   126639128.302 6       280.897          41.500    24098624.880   126639128.312 5       280.897          35.187    24098632.780    98679870.838 5       218.881          35.125    24098633.080    98679874.841 6       218.881          39.312
G27  23583295.900   123931060.853 6      5568.901          41.812    23583294.920   123931060.860 5      5568.901          30.937    23583300.400    96569664.808 5      4339.403          30.750    23583300.980    96569679.822 7      4339.403          45.875
R19  19450317.200   104046096.914 6      3403.725          37.562    19450317.220   104046096.924 6      3403.725          37.000    19450324.700    80924761.547 8      2647.342          48.000    19450325.040    80924763.548 8      2647.342          48.500
R07  23537937.240   126000409.081 6       778.975          37.687    23537935.760   126000409.110 6       778.975          37.062    23537949.900    98000377.637 6       605.869          40.750    23537948.540    98000376.657 6       605.869          41.687
G29  22721009.500   119399708.715 7      -288.257          43.562    22721008.920   119399708.731 7      -288.257          42.937    22721011.160    93038737.848 6      -224.615          41.937    22721011.900    93038741.842 7      -224.615          46.062
G26  21342981.760   112158122.273 7      3845.890          47.562    21342981.320   112158122.283 6      3845.890          39.625    21342985.680    87395963.282 6      2996.798          39.437    21342985.720    87395959.283 8      2996.798          49.687
R18  20706954.560   110535134.662 8      -126.039          48.812    20706956.720   110535134.665 8      -126.039          48.000    20706963.080    85971802.272 8       -98.030          49.125    20706963.520    85971802.274 8       -98.030          49.312
R09  21235339.260   113395517.897 7      5128.099          46.687    21235339.100   113395517.908 7      5128.099          46.187    21235344.760    88196542.157 8      3988.522          49.125    21235345.120    88196544.158 8      3988.522          49.250
R16  20313909.180   108513260.837 8      2510.148          48.875    20313909.280   108513260.838 8      2510.148          48.500    20313915.980    84399225.285 8      1952.337          51.000    20313916.240    84399224.287 8      1952.337          51.062
G31  20640461.240   108466355.197 7      3580.911          46.562    20640460.680   108466355.197 7      3580.911          42.312    20640461.200    84519237.310 6      2790.320          41.500    20640461.760    84519239.319 8      2790.320          50.875
G32  24336869.120   127891079.076 7      -514.871          43.875    24336870.520   127891079.081 4      -514.871          28.750    24336873.920    99655374.318 4      -401.198          28.625    24336874.600    99655431.318 6      -401.198          41.312
G04  24895377.380   130826082.782 6      4172.522          37.250    24895377.120   130826082.806 2      4172.522          17.812    24895380.980   101942410.784 2      3251.316          17.625    24895383.240   101942429.770 6      3251.316          39.062
G16  23446738.560   123213440.537 6      4712.547          41.750    23446737.300   123213440.550 4      4712.547          27.062    23446740.620    96010486.164 4      3672.114          27.375
G18  21733003.940   114207707.991 7      3851.507          45.312    21733003.580   114207707.996 5      3851.507          33.750    21733005.480    88993026.284 5      3001.175          33.250    21733006.040    88993027.287 7      3001.175          46.250
G28  20414233.660   107277520.644 8      1704.560          48.625    20414232.840   107277520.651 6      1704.560          41.562    20414234.220    83592876.110 6      1328.229          41.187    20414234.760    83592876.108 8      1328.229          52.875
> 2024 05 08 08 42 23.0000000  0 15
G25  24098572.760   126638847.767 6       280.544          41.312    24098571.300   126638847.777 5       280.544          35.187    24098579.300    98679652.237 5       218.606          35.125    24098579.660    98679656.240 6       218.606          38.937
G27  23582236.400   123925492.221 6      5568.415          40.062    23582235.200   123925492.233 5      5568.415          30.937    23582240.820    96565325.620 5      4339.025          30.750    23582241.080    96565340.630 7      4339.025          46.000
R19  19449681.160   104042694.040 6      3402.152          36.875    19449681.440   104042694.062 6      3402.152          37.000    19449688.380    80922114.877 7      2646.118          47.500    19449688.680    80922116.874 7      2646.118          47.812
R07  23537791.460   125999630.655 6       778.059          37.687    23537790.540   125999630.676 6       778.059          37.062    23537804.800    97999772.178 6       605.157          40.812    23537803.120    97999771.190 6       605.157          41.687
G29  22721064.560   119399997.346 7      -288.808          43.250    22721063.860   119399997.364 6      -288.808          41.937    22721066.060    93038962.754 6      -225.045          41.812    22721066.860    93038966.755 7      -225.045          46.062
G26  21342250.160   112154276.754 7      3845.432          47.500    21342249.600   112154276.759 6      3845.432          40.062    21342253.800    87392966.773 6      2996.441          40.000    21342254.100    87392962.775 8      2996.441          49.375
R18  20706978.740   110535261.358 7      -127.136          47.187    20706980.780   110535261.362 8      -127.136          48.000    20706986.900    85971900.811 8       -98.884          49.437    20706987.080    85971900.816 8       -98.884          49.875
R09  21234378.940   113390390.074 7      5127.650          46.062    21234378.840   113390390.091 7      5127.650          46.250    21234384.600    88192553.856 8      3988.172          49.062    21234384.640    88192555.859 8      3988.172          49.125
R16  20313439.460   108510751.196 8      2509.308          49.000    20313439.560   108510751.198 8      2509.308          48.625    20313446.300    84397273.347 8      1951.684          51.312    20313446.420    84397272.348 8      1951.684          51.000
G31  20639779.960   108462774.873 7      3579.971          46.500    20639779.440   108462774.870 7      3579.971          42.187    20639779.860    84516447.445 6      2789.588          41.812    20639780.440    84516449.458 8      2789.588          50.625
G32  24336966.960   127891594.235 7      -515.178          42.750    24336968.580   127891594.242 4      -515.178          28.750    24336971.900    99655775.734 4      -401.437          28.687    24336973.000    99655832.743 6      -401.437          41.187
G04  24894583.780   130821910.594 6      4171.866          37.500    24894584.040   130821910.586 2      4171.866          17.875    24894588.340   101939159.710 2      3250.804          17.750    24894588.840   101939178.716 6      3250.804          38.875
G16  23445842.360   123208728.384 6      4712.050          41.000    23445840.600   123208728.391 4      4712.050          27.500    23445843.880    96006814.356 4      3671.727          27.375
G18  21732271.340   114203857.104 7      3850.547          44.562    21732270.800   114203857.114 5      3850.547          33.750    21732272.640    88990025.594 5      3000.426          33.250    21732273.100    88990026.606 7      3000.426          46.312
G28  20413909.420   107275816.672 8      1703.591          48.875    20413908.620   107275816.682 6      1703.591          41.625    20413910.140    83591548.342 6      1327.473          41.500    20413910.520    83591548.346 8      1327.473          52.812
> 2024 05 08 08 42 24.0000000  0 15
G25  24098519.320   126638567.266 6       280.446          41.125    24098517.680   126638567.271 5       280.446          34.812    24098526.120    98679433.661 5       218.529          34.875    24098526.480    98679437.672 6       218.529          38.937
G27  23581176.660   123919923.825 6      5568.159          41.312    23581175.560   123919923.837 5      5568.159          30.937    23581181.120    96560986.612 5      4338.825          31.187    23581181.240    96561001.622 7      4338.825          45.625
R19  19449044.720   104039291.949 6      3401.804          36.875    19449045.440   104039291.958 6      3401.804          37.000    19449052.760    80919468.794 7      2645.848          47.812    19449053.140    80919470.795 8      2645.848          48.000
R07  23537646.620   125998852.559 6       778.034          37.687    23537646.340   125998852.579 6       778.034          37.062    23537658.640    97999166.990 6       605.137          40.812    23537657.920    97999166.008 6       605.137          41.562
G29  22721119.480   119400286.047 7      -288.772          42.937    22721118.660   119400286.059 7      -288.772          42.312    22721120.960    93039187.712 6      -225.017          41.750    22721121.660    93039191.711 7      -225.017          46.125
G26  21341518.460   112150431.276 7      3845.469          47.062    21341517.740   112150431.284 6      3845.469          39.562    21341522.160    87389970.308 6      2996.470          39.312    21341522.140    87389966.315 8      2996.470          49.812
R18  20707002.300   110535388.602 8      -127.595          49.062    20707004.620   110535388.608 7      -127.595          47.812    20707010.780    85971999.782 8       -99.241          49.625    20707011.180    85971999.787 8       -99.241          49.812
R09  21233418.520   113385262.259 7      5127.791          46.062    21233418.880   113385262.270 7      5127.791          46.312    21233424.500    88188565.554 8      3988.282          49.312    21233424.480    88188567.557 8      3988.282          49.375
R16  20312970.160   108508241.826 8      2509.161          48.125    20312969.780   108508241.829 8      2509.161          48.375    20312976.500    84395321.612 8      1951.569          51.250    20312976.720    84395320.617 8      1951.569          50.875
G31  20639098.620   108459194.975 7      3579.609          46.562    20639098.080   108459194.974 7      3579.609          42.125    20639098.580    84513657.916 6      2789.306          41.625    20639099.200    84513659.931 8      2789.306          49.937
G32  24337065.160   127892109.242 7      -515.087          43.625    24337066.720   127892109.246 4      -515.087          28.750    24337070.020    99656177.034 4      -401.366          28.687    24337070.520    99656234.036 6      -401.366          41.187
G04  24893788.580   130817738.848 6      4171.340          37.500    24893786.620   130817738.868 3      4171.340          18.000    24893793.460   101935909.016 2      3250.395          17.875    24893794.520   101935928.031 6      3250.395          38.875
G16  23444945.480   123204016.236 6      4712.024          41.812    23444943.880   123204016.241 4      4712.024          27.500    23444947.280    96003142.552 4      3671.707          27.375
G18  21731538.560   114200006.700 7      3850.095          45.062    21731538.120   114200006.707 5      3850.095          33.312    21731539.900    88987025.277 5      3000.074          33.375    21731540.420    88987026.283 7      3000.074          46.375
G28  20413585.140   107274113.213 8      1703.173          48.500    20413584.400   107274113.223 6      1703.173          41.750    20413585.800    83590220.973 6      1327.147          41.187    20413586.440    83590220.971 8      1327.147          52.812
> 2024 05 08 08 42 25.0000000  0 15
G25  24098465.880   126638286.639 6       280.471          40.500    24098464.300   126638286.636 5       280.471          34.562    24098472.700    98679214.985 5       218.549          34.625    24098473.080    98679218.990 6       218.549          39.687
G27  23580116.980   123914355.489 6      5568.171          40.875    23580115.900   123914355.502 5      5568.171          31.437    23580121.380    96556647.655 5      4338.835          31.187    23580121.540    96556662.663 7      4338.835          45.687
R19  19448409.160   104035890.644 6      3400.753          36.875    19448409.540   104035890.646 6      3400.753          37.000    19448416.860    80916823.330 7      2645.030          47.625    19448417.180    80916825.330 8      2645.030          48.187
R07  23537501.020   125998074.821 6       777.499          37.250    23537500.540   125998074.857 6       777.499          37.062    23537513.860    97998562.087 6       604.721          40.625    23537512.960    97998561.100 6       604.721          41.375
G29  22721174.460   119400574.735 7      -288.852          43.062    22721173.640   119400574.753 7      -288.852          42.125    22721175.880    93039412.668 6      -225.080          41.500    22721176.820    93039416.665 7      -225.080          45.875
G26  21340786.540   112146585.773 7      3845.423          47.062    21340786.040   112146585.780 6      3845.423          39.500    21340790.320    87386973.820 6      2996.434          39.562    21340790.600    87386969.819 8      2996.434          49.312
R18  20707026.620   110535516.326 8      -128.106          48.500    20707028.520   110535516.326 8      -128.106          48.250    20707034.600    85972099.117 8       -99.638          49.375    20707034.920    85972099.122 8       -99.638          49.375
R09  21232458.340   113380134.284 7      5127.982          45.562    21232458.360   113380134.301 7      5127.982          46.625    21232464.160    88184577.141 8      3988.430          49.812    21232464.240    88184579.144 8      3988.430          49.500
R16  20312500.020   108505732.639 8      2508.958          48.937    20312500.100   108505732.637 8      2508.958          48.687    20312506.660    84393370.020 8      1951.412          50.937    20312507.020    84393369.022 8      1951.412          51.187
G31  20638417.580   108455615.423 7      3579.288          47.437    20638416.920   108455615.426 6      3579.288          41.312    20638417.400    84510868.659 6      2789.056          41.062    20638417.940    84510870.672 8      2789.056          50.312
G32  24337163.280   127892623.988 7      -514.819          43.062    24337164.740   127892623.996 4      -514.819          28.562    24337168.020    99656578.127 4      -401.157          28.687    24337168.500    99656635.133 6      -401.157          41.000
G04  24892995.120   130813567.419 6      4171.269          38.062    24892993.780   130813567.445 3      4171.269          18.000    24893000.200   101932658.542 2      3250.339          17.875    24893001.180   101932677.555 6      3250.339          38.875
G16  23444048.360   123199303.922 6      4712.093          41.375    23444047.160   123199303.929 4      4712.093          27.500    23444050.440    95999470.623 4      3671.761          27.375
G18  21730806.000   114196156.661 7      3849.749          45.625    21730805.440   114196156.666 5      3849.749          33.312    21730807.420    88984025.247 5      2999.805          33.375    21730807.900    88984026.253 7      2999.805          46.312
G28  20413261.340   107272410.174 7      1702.655          47.937    20413260.420   107272410.182 7      1702.655          42.000    20413261.820    83588893.928 6      1326.744          41.500    20413262.320    83588893.930 8      1326.744          52.875
> 2024 05 08 08 42 26.0000000  0 15
G25  24098412.760   126638006.115 6       280.178          41.312    24098410.980   126638006.112 5       280.178          34.562    24098419.320    98678996.392 5       218.320          34.625    24098419.660    98679000.401 6       218.320          39.687
G27  23579057.380   123908787.509 6      5567.476          41.875    23579056.360   123908787.521 5      5567.476          31.437    23579061.720    96552308.977 5      4338.293          31.187    23579061.880    96552323.983 7      4338.293          45.437
R19  19447775.300   104032490.289 6      3399.549          36.875    19447773.140   104032490.285 6      3399.549          37.000    19447781.020    80914178.606 7      2644.093          47.625    19447781.400    80914180.605 7      2644.093          47.875
R07  23537355.480   125997297.637 6       776.661          37.250    23537356.680   125997297.678 6       776.661          37.437    23537368.260    97997957.621 6       604.069          40.625    23537367.540    97997956.632 6       604.069          41.375
G29  22721229.640   119400863.596 7      -289.179          43.312    22721228.680   119400863.606 7      -289.179          42.750    22721230.780    93039637.748 7      -225.335          42.437    22721231.840    93039641.743 7      -225.335          46.375
G26  21340055.020   112142740.437 7      3845.064          46.937    21340054.240   112142740.445 6      3845.064          39.250    21340058.720    87383977.452 6      2996.154          38.750    21340058.900    87383973.450 8      2996.154          49.937
R18  20707050.640   110535644.757 8      -129.058          48.250    20707052.500   110535644.752 8      -129.058          48.250    20707058.840    85972199.004 8      -100.378          49.687    20707058.880    85972199.007 8      -100.378          49.437
R09  21231498.280   113375006.490 7      5127.545          46.312    21231498.400   113375006.496 7      5127.545          46.687    21231503.900    88180588.847 8      3988.091          49.625    21231504.020    88180590.852 8      3988.091          49.312
R16  20312030.500   108503223.864 8      2508.351          48.937    20312030.480   108503223.862 8      2508.351          48.562    20312037.120    84391418.750 8      1950.940          50.562    20312037.220    84391417.754 8      1950.940          51.062
G31  20637736.520   108452036.442 7      3578.528          47.812    20637735.880   108452036.449 6      3578.528          41.687    20637736.280    84508079.843 6      2788.464          41.187    20637736.860    84508081.858 8      2788.464          50.875
G32  24337261.120   127893138.700 7      -514.959          43.375    24337262.580   127893138.708 4      -514.959          28.562    24337265.900    99656979.193 4      -401.267          28.687    24337266.320    99657036.198 6      -401.267          41.000
G04  24892201.400   130809396.600 6      4170.044          38.062    24892201.080   130809396.610 3      4170.044          18.000    24892207.260   101929408.600 2      3249.385          17.875    24892207.440   101929427.584 6      3249.385          38.812
G16  23443152.160   123194591.729 6      4711.883          41.250    23443150.500   123194591.734 4      4711.883          27.500    23443153.640    95995798.786 4      3671.597          27.375
G18  21730073.640   114192307.243 7      3848.816          45.125    21730072.800   114192307.253 5      3848.816          33.187    21730074.960    88981025.711 5      2999.077          33.312    21730075.460    88981026.712 7      2999.077          46.187
G28  20412937.340   107270707.769 7      1701.902          47.937    20412936.460   107270707.776 6      1701.902          41.500    20412937.780    83587567.378 6      1326.157          41.500    20412938.300    83587567.382 8      1326.157          52.562
> 2024 05 08 08 42 27.0000000  0 15
G25  24098359.480   126637725.793 6       280.211          41.000    24098357.580   126637725.801 5       280.211          35.375    24098366.020    98678777.960 5       218.346          35.187    24098366.880    98678781.973 6       218.346          39.687
G27  23577997.920   123903219.880 6      5567.666          40.750    23577996.700   123903219.895 5      5567.666          31.437    23578002.120    96547970.572 5      4338.441          31.000    23578002.520    96547985.583 7      4338.441          45.312
R19  19447139.240   104029090.916 6      3398.971          37.062    19447138.280   104029090.930 6      3398.971          36.937    19447145.660    80911534.661 7      2643.644          47.500    19447146.040    80911536.661 7      2643.644          47.875
R07  23537211.080   125996521.068 6       776.347          37.250    23537211.740   125996521.110 6       776.347          37.437    23537223.220    97997353.619 6       603.825          40.500    23537222.900    97997352.630 6       603.825          41.750
G29  22721284.460   119401152.741 7      -289.138          42.687    22721283.560   119401152.746 7      -289.138          42.125    22721285.940    93039863.054 6      -225.302          41.937    22721286.580    93039867.053 7      -225.302          46.125
G26  21339323.380   112138895.359 7      3844.975          47.437    21339322.520   112138895.367 6      3844.975          40.000    21339326.900    87380981.292 6      2996.084          39.937    21339327.460    87380977.295 8      2996.084          49.937
R18  20707074.960   110535773.975 7      -129.567          47.125    20707076.580   110535773.976 8      -129.567          48.375    20707082.880    85972299.513 8      -100.775          48.875    20707083.080    85972299.518 8      -100.775          49.187
R09  21230537.720   113369878.859 7      5127.578          44.562    21230538.160   113369878.858 7      5127.578          46.375    21230543.800    88176600.696 8      3988.116          49.375    21230543.900    88176602.694 8      3988.116          49.125
R16  20311561.040   108500715.585 8      2508.114          48.750    20311560.900   108500715.581 8      2508.114          48.875    20311567.500    84389467.863 8      1950.755          50.187    20311567.660    84389466.864 8      1950.755          50.125
G31  20637055.560   108448458.128 7      3578.068          47.062    20637054.920   108448458.128 7      3578.068          42.000    20637055.420    84505291.548 6      2788.105          41.437    20637056.000    84505293.561 8      2788.105          50.312
G32  24337358.860   127893653.468 7      -514.698          43.562    24337360.560   127893653.473 4      -514.698          28.562    24337363.660    99657380.305 4      -401.063          28.687    24337364.760    99657437.295 6      -401.063          40.875
G04  24891408.380   130805226.332 6      4169.973          37.250    24891406.980   130805226.342 3      4169.973          18.000    24891411.920   101926159.010 2      3249.330          17.875    24891414.480   101926178.013 6      3249.330          38.812
G16  23442255.620   123189879.717 6      4711.926          41.812    23442253.820   123189879.722 4      4711.926          27.500    23442256.840    95992127.089 4      3671.630          27.687
G18  21729341.020   114188458.494 7      3848.377          45.562    21729340.500   114188458.499 5      3848.377          33.187    21729342.760    88978026.684 5      2998.735          33.312    21729343.060    88978027.679 7      2998.735          46.562
G28  20412613.680   107269006.081 8      1701.443          48.062    20412612.500   107269006.091 6      1701.443          41.750    20412613.880    83586241.389 6      1325.800          41.375    20412614.500    83586241.389 8      1325.800          52.750
> 2024 05 08 08 42 28.0000000  0 15
G25  24098305.800   126637445.492 6       280.493          40.375    24098304.180   126637445.497 5       280.493          34.687    24098312.680    98678559.539 5       218.566          34.562    24098313.640    98678563.542 6       218.566          39.562
G27  23576938.700   123897652.535 6      5567.479          41.750    23576937.300   123897652.553 5      5567.479          31.062    23576942.640    96543632.385 5      4338.296          31.000    23576942.600    96543647.405 7      4338.296          45.062
R19  19446503.500   104025692.444 6      3398.152          37.062    19446502.440   104025692.461 6      3398.152          36.937    19446510.380    80908891.415 7      2643.007          47.250    19446510.700    80908893.417 7      2643.007          47.562
R07  23537066.080   125995744.933 6       776.206          37.250    23537067.580   125995744.975 6       776.206          37.437    23537078.040    97996749.973 6       603.716          40.500    23537077.940    97996748.987 6       603.716          41.687
G29  22721339.300   119401441.999 7      -289.196          42.500    22721338.460   119401442.012 7      -289.196          42.500    22721340.920    93040088.448 7      -225.347          42.625    22721341.360    93040092.445 7      -225.347          46.062
G26  21338591.420   112135050.368 7      3845.106          47.500    21338590.780   112135050.376 6      3845.106          39.875    21338595.280    87377985.195 6      2996.186          39.562    21338595.440    87377981.192 8      2996.186          49.312
R18  20707099.480   110535903.851 8      -130.027          48.250    20707100.920   110535903.851 8      -130.027          48.125    20707107.260    85972400.525 8      -101.132          48.562    20707107.640    85972400.530 8      -101.132          49.312
R09  21229577.720   113364751.255 7      5127.726          46.250    21229577.680   113364751.262 7      5127.726          46.250    21229583.360    88172612.560 8      3988.231          48.750    21229583.720    88172614.562 7      3988.231          47.937
R16  20311091.380   108498207.627 8      2507.881          48.437    20311091.420   108498207.623 8      2507.881          48.500    20311098.060    84387517.235 8      1950.574          49.625    20311098.560    84387516.237 8      1950.574          49.750
G31  20636374.800   108444880.284 7      3577.758          47.500    20636374.000   108444880.287 6      3577.758          41.687    20636374.520    84502503.620 6      2787.863          41.187    20636375.120    84502505.629 8      2787.863          49.500
G32  24337456.760   127894168.109 7      -514.437          43.187    24337458.500   127894168.117 4      -514.437          28.562    24337461.600    99657781.316 4      -400.860          28.187    24337462.340    99657838.322 6      -400.860          40.875
G04  24890614.480   130801056.551 6      4169.743          37.250    24890615.460   130801056.577 3      4169.743          18.000    24890617.740   101922909.840 2      3249.150          17.875    24890620.920   101922928.847 6      3249.150          38.812
G16  23441358.760   123185167.708 6      4712.065          41.687    23441357.000   123185167.713 4      4712.065          28.000    23441360.220    95988455.394 4      3671.739          27.687
G18  21728608.760   114184610.231 7      3848.167          45.750    21728608.100   114184610.236 5      3848.167          33.062    21728610.380    88975028.040 5      2998.572          33.312    21728610.920    88975029.045 7      2998.572          46.125
G28  20412289.860   107267304.955 8      1701.008          48.000    20412288.960   107267304.965 6      1701.008          41.250    20412290.200    83584915.834 6      1325.461          41.000    20412291.000    83584915.835 8      1325.461          51.562
> 2024 05 08 08 42 29.0000000  0 15
G25  24098252.320   126637165.136 6       280.366          41.125    24098250.740   126637165.138 5       280.366          34.687    24098259.200    98678341.080 5       218.467          34.562    24098260.240    98678345.085 6       218.467          39.562
G27  23575878.680   123892085.314 6      5567.209          41.687    23575877.940   123892085.326 5      5567.209          31.062    23575883.240    96539294.296 5      4338.085          31.000    23575883.460    96539309.302 7      4338.085          44.937
R19  19445868.640   104022294.763 6      3397.283          37.062    19445866.800   104022294.770 6      3397.283          36.937    19445875.360    80906248.767 8      2642.331          48.250    19445875.480    80906250.768 8      2642.331          48.062
R07  23536921.460   125994969.131 6       775.834          37.937    23536922.720   125994969.164 6       775.834          37.437    23536932.880    97996146.567 6       603.426          40.250    23536932.920    97996145.572 6       603.426          41.687
G29  22721394.260   119401731.255 7      -289.282          42.812    22721393.660   119401731.263 7      -289.282          42.312    22721396.080    93040313.840 6      -225.414          41.812    22721396.640    93040317.837 7      -225.414          46.062
G26  21337859.620   112131205.351 7      3845.051          47.250    21337859.080   112131205.358 6      3845.051          39.750    21337863.600    87374989.083 6      2996.144          39.125    21337863.680    87374985.085 8      2996.144          49.750
R18  20707123.700   110536034.217 8      -130.557          48.125    20707125.240   110536034.226 8      -130.557          48.937    20707131.900    85972501.930 8      -101.544          49.437    20707132.080    85972501.935 8      -101.544          49.562
R09  21228617.600   113359623.491 7      5127.934          46.937    21228617.520   113359623.500 7      5127.934          45.937    21228623.220    88168624.309 8      3988.393          49.375    21228623.340    88168626.309 8      3988.393          49.312
R16  20310622.200   108495699.856 8      2507.641          49.312    20310622.060   108495699.854 8      2507.641          48.937    20310628.540    84385566.745 8      1950.387          51.562    20310628.840    84385565.748 8      1950.387          51.187
G31  20635694.180   108441302.817 7      3577.261          47.437    20635693.260   108441302.816 7      3577.261          42.062    20635693.840    84499715.985 6      2787.476          41.312    20635694.360    84499717.998 8      2787.476          50.625
G32  24337554.780   127894682.540 7      -514.372          43.437    24337556.480   127894682.551 4      -514.372          28.562    24337559.480    99658182.163 4      -400.810          28.187    24337560.240    99658239.151 6      -400.810          41.062
G04  24889821.300   130796887.140 6      4169.279          37.875    24889822.080   130796887.174 3      4169.279          18.000    24889825.160   101919660.955 2      3248.789          17.875    24889827.700   101919679.945 6      3248.789          38.812
G16  23440462.060   123180455.589 6      4712.211          40.750    23440460.520   123180455.596 4      4712.211          28.000    23440463.420    95984783.617 4      3671.853          27.687
G18  21727876.420   114180762.395 7      3847.630          45.875    21727875.800   114180762.402 5      3847.630          33.062    21727878.140    88972029.723 5      2998.153          33.312    21727878.800    88972030.729 7      2998.153          46.312
G28  20411966.180   107265604.257 7      1700.543          47.750    20411965.260   107265604.262 6      1700.543          41.437    20411966.660    83583590.613 6      1325.098          41.062    20411967.260    83583590.618 8      1325.098          52.562
> 2024 05 08 08 42 30.0000000  0 15
G25  24098198.540   126636884.669 6       280.461          40.062    24098197.380   126636884.672 5       280.461          34.750    24098205.980    98678122.530 5       218.541          34.875    24098207.040    98678126.542 6       218.541          39.687
G27  23574819.520   123886518.208 6      5567.005          40.625    23574818.400   123886518.223 5      5567.005          31.062    23574823.760    96534956.302 5      4337.926          31.000    23574824.240    96534971.306 7      4337.926          45.437
R19  19445233.540   104018897.818 6      3396.451          37.062    19445232.940   104018897.828 6      3396.451          36.937    19445240.400    80903606.696 7      2641.684          47.750    19445240.500    80903608.696 8      2641.684          48.187
R07  23536775.760   125994193.614 6       775.423          37.937    23536776.720   125994193.664 6       775.423          37.437    23536788.720    97995543.398 6       603.106          40.250    23536787.720    97995542.403 6       603.106          41.812
G29  22721449.120   119402020.474 7      -289.126          42.312    22721448.600   119402020.481 7      -289.126          42.875    22721451.040    93040539.203 7      -225.293          42.437    22721451.720    93040543.200 7      -225.293          46.437
G26  21337127.740   112127360.325 7      3845.012          47.625    21337127.320   112127360.333 6      3845.012          39.500    21337131.980    87371992.960 6      2996.113          39.500    21337132.100    87371988.959 8      2996.113          50.250
R18  20707147.940   110536165.101 7      -131.105          47.812    20707149.940   110536165.102 8      -131.105          48.062    20707156.380    85972603.720 8      -101.970          49.250    20707156.760    85972603.727 8      -101.970          49.562
R09  21227657.140   113354495.692 7      5127.876          46.750    21227657.340   113354495.706 7      5127.876          45.750    21227662.820    88164636.025 8      3988.348          49.562    21227663.100    88164638.026 8      3988.348          49.437
R16  20310152.660   108493192.312 8      2507.438          49.312    20310152.580   108493192.316 8      2507.438          48.062    20310159.140    84383616.437 8      1950.229          51.062    20310159.600    84383615.438 8      1950.229          51.312
G31  20635013.360   108437725.714 7      3576.938          47.812    20635012.720   108437725.716 7      3576.938          42.125    20635013.020    84496928.632 6      2787.225          41.875    20635013.800    84496930.641 8      2787.225          50.062
G32  24337652.660   127895196.738 7      -514.103          43.312    24337654.360   127895196.745 4      -514.103          28.125    24337657.420    99658582.826 4      -400.600          28.187    24337658.380    99658639.818 6      -400.600          41.125
G04  24889026.940   130792718.063 6      4168.875          37.625    24889028.300   130792718.094 3      4168.875          18.000    24889031.520   101916412.342 2      3248.474          17.875    24889033.900   101916431.332 6      3248.474          38.812
G16  23439565.560   123175743.388 6      4712.255          40.750    23439563.860   123175743.396 4      4712.255          28.000    23439566.680    95981111.778 4      3671.887          27.687
G18  21727144.500   114176914.949 7      3847.310          45.187    21727143.640   114176914.954 5      3847.310          33.500    21727146.000    88969031.718 5      2997.904          33.500    21727146.540    88969032.715 7      2997.904          46.375
G28  20411642.820   107263904.011 8      1700.014          48.375    20411641.600   107263904.019 6      1700.014          41.375    20411643.100    83582265.747 6      1324.687          40.812    20411643.480    83582265.751 8      1324.687          53.125
> 2024 05 08 08 42 31.0000000  0 15
G25  24098145.140   126636603.990 6       280.615          40.687    24098143.940   126636603.995 5       280.615          35.375    24098152.700    98677903.821 5       218.661          34.937    24098153.180    98677907.832 6       218.661          39.687
G27  23573760.360   123880951.060 6      5567.202          39.812    23573759.000   123880951.078 5      5567.202          31.062    23573764.240    96530618.267 5      4338.080          30.250    23573764.900    96530633.271 7      4338.080          45.562
R19  19444597.920   104015501.467 6      3395.920          37.062    19444598.820   104015501.466 6      3395.920          36.937    19444605.400    80900965.088 7      2641.271          47.937    19444605.520    80900967.092 8      2641.271          48.125
R07  23536630.360   125993418.314 6       774.966          37.937    23536632.400   125993418.359 6       774.966          38.187    23536644.260    97994940.401 6       602.751          40.250    23536642.980    97994939.398 6       602.751          41.875
G29  22721504.480   119402309.582 7      -289.110          42.750    22721503.700   119402309.590 7      -289.110          42.812    22721506.100    93040764.483 7      -225.280          42.375    22721506.800    93040768.479 7      -225.280          46.562
G26  21336396.100   112123515.121 7      3845.114          47.250    21336395.580   112123515.129 6      3845.114          40.187    21336400.400    87368996.705 6      2996.193          39.562    21336400.500    87368992.707 8      2996.193          49.750
R18  20707172.840   110536296.319 7      -131.550          47.437    20707174.380   110536296.322 7      -131.550          47.812    20707180.920    85972705.778 8      -102.316          49.250    20707181.120    85972705.788 8      -102.316          49.812
R09  21226696.900   113349367.653 7      5128.008          47.000    21226697.040   113349367.667 7      5128.008          45.812    21226702.500    88160647.552 8      3988.451          49.250    21226702.660    88160649.549 8      3988.451          49.625
R16  20309683.640   108490684.883 8      2507.217          49.250    20309683.120   108490684.884 8      2507.217          48.562    20309689.880    84381666.216 8      1950.058          50.812    20309689.940    84381665.218 8      1950.058          51.062
G31  20634332.840   108434148.845 7      3576.640          47.687    20634332.060   108434148.847 6      3576.640          41.750    20634332.420    84494141.466 6      2786.993          41.187    20634333.020    84494143.481 8      2786.993          49.875
G32  24337750.640   127895710.541 7      -513.776          43.375    24337752.000   127895710.548 4      -513.776          28.125    24337755.240    99658983.184 4      -400.345          28.187    24337756.320    99659040.190 6      -400.345          41.125
G04  24888234.560   130788549.188 6      4168.827          37.625    24888234.240   130788549.190 3      4168.827          18.000    24888239.140   101913163.854 2      3248.437          17.875    24888241.040   101913182.844 6      3248.437          39.125
G16  23438668.880   123171030.969 7      4712.384          42.000    23438667.040   123171030.979 4      4712.384          28.000    23438669.880    95977439.761 4      3671.988          27.687
G18  21726412.580   114173067.767 7      3846.938          44.937    21726411.480   114173067.780 5      3846.938          33.500    21726414.000    88966033.917 5      2997.614          33.500    21726414.480    88966034.921 7      2997.614          46.750
G28  20411319.300   107262204.052 8      1699.620          48.750    20411318.100   107262204.062 6      1699.620          41.812    20411319.600    83580941.107 6      1324.379          41.437    20411320.040    83580941.111 8      1324.379          52.625
> 2024 05 08 08 42 32.0000000  0 15
G25  24098091.980   126636323.363 6       280.542          40.000    24098090.620   126636323.374 5       280.542          35.375    24098099.240    98677685.149 5       218.604          34.937    24098100.000    98677689.162 6       218.604          40.000
G27  23572700.920   123875384.207 6      5566.852          39.375    23572699.620   123875384.214 5      5566.852          30.312    23572704.980    96526280.457 5      4337.807          30.250    23572705.180    96526295.459 7      4337.807          45.750
R19  19443963.640   104012106.017 6      3395.139          37.062    19443963.460   104012106.014 6      3395.139          36.937    19443970.720    80898324.183 7      2640.664          47.437    19443970.940    80898326.182 7      2640.664          47.937
R07  23536485.780   125992643.464 6       774.725          37.937    23536487.220   125992643.490 6       774.725          38.187    23536499.800    97994337.707 6       602.564          40.375    23536498.580    97994336.701 7       602.564          42.375
G29  22721559.380   119402598.804 7      -289.139          43.562    22721558.860   119402598.806 7      -289.139          42.812    22721561.160    93040989.846 7      -225.303          42.125    22721562.120    93040993.841 7      -225.303          46.125
G26  21335664.440   112119670.025 7      3845.124          47.562    21335663.920   112119670.033 6      3845.124          39.750    21335668.660    87366000.524 6      2996.200          39.750    21335668.500    87365996.528 8      2996.200          49.625
R18  20707197.380   110536428.169 8      -132.043          49.125    20707198.940   110536428.170 8      -132.043          48.125    20707205.700    85972808.329 8      -102.700          49.312    20707205.980    85972808.336 8      -102.700          50.125
R09  21225736.580   113344239.608 7      5128.122          46.062    21225736.600   113344239.617 7      5128.122          46.625    21225742.240    88156659.073 8      3988.539          49.500    21225742.460    88156661.076 8      3988.539          49.937
R16  20309213.920   108488177.774 8      2507.089          49.062    20309213.760   108488177.773 8      2507.089          48.437    20309220.440    84379716.236 8      1949.958          50.937    20309220.700    84379715.238 8      1949.958          51.437
G31  20633652.300   108430572.457 7      3576.269          47.500    20633651.620   108430572.462 7      3576.269          42.000    20633651.800    84491354.674 6      2786.703          41.875    20633652.420    84491356.685 8      2786.703          50.562
G32  24337848.120   127896224.271 7      -513.615          42.812    24337849.580   127896224.275 4      -513.615          28.125    24337852.940    99659383.487 4      -400.220          28.187    24337853.960    99659440.483 6      -400.220          41.375
G04  24887441.540   130784380.810 6      4168.273          36.812    24887440.280   130784380.836 3      4168.273          18.000    24887445.660   101909915.767 2      3248.005          17.875    24887447.740   101909934.773 6      3248.005          39.125
G16  23437772.160   123166318.550 7      4712.496          42.375    23437770.300   123166318.560 4      4712.496          28.000    23437773.260    95973767.748 4      3672.075          28.000
G18  21725680.580   114169221.120 7      3846.459          45.687    21725679.520   114169221.128 5      3846.459          33.687    21725682.060    88963036.535 5      2997.240          33.500    21725682.600    88963037.530 7      2997.240          46.750
G28  20410995.580   107260504.665 7      1699.125          47.875    20410994.620   107260504.676 6      1699.125          41.375    20410996.260    83579616.908 6      1323.994          41.437    20410996.820    83579616.910 8      1323.994          52.875
> 2024 05 08 08 42 33.0000000  0 15
G25  24098038.460   126636042.571 6       280.997          40.187    24098037.120   126636042.579 5       280.997          35.187    24098045.880    98677466.346 5       218.958          35.125    24098046.580    98677470.349 6       218.958          40.000
G27  23571642.100   123869817.369 6      5566.887          41.250    23571640.360   123869817.376 5      5566.887          30.312    23571645.620    96521942.668 5      4337.834          30.250    23571645.980    96521957.686 7      4337.834          45.500
R19  19443328.500   104008711.244 6      3394.580          37.062    19443328.540   104008711.243 6      3394.580          36.812    19443336.160    80895683.816 8      2640.229          48.187    19443336.320    80895685.818 7      2640.229          47.937
R07  23536341.180   125991868.901 6       774.671          39.437    23536342.540   125991868.916 6       774.671          38.187    23536354.900    97993735.260 6       602.522          40.375    23536354.020    97993734.257 7       602.522          42.062
G29  22721614.620   119402887.983 7      -289.198          43.437    22721613.740   119402887.996 7      -289.198          42.687    22721616.160    93041215.191 7      -225.349          42.062    22721617.060    93041219.185 7      -225.349          46.312
G26  21334932.800   112115824.850 7      3845.371          47.312    21334932.180   112115824.855 6      3845.371          39.312    21334936.920    87363004.288 6      2996.393          39.312    21334936.640    87363000.287 8      2996.393          49.937
R18  20707221.820   110536560.494 8      -132.437          48.250    20707223.840   110536560.495 8      -132.437          48.562    20707230.600    85972911.250 8      -103.006          49.562    20707230.780    85972911.257 8      -103.006          50.125
R09  21224776.520   113339111.404 7      5128.494          46.187    21224776.140   113339111.415 7      5128.494          45.812    21224782.000    88152670.476 8      3988.829          49.187    21224782.100    88152672.476 8      3988.829          49.812
R16  20308744.780   108485670.802 8      2507.076          48.500    20308744.500   108485670.805 8      2507.076          48.750    20308751.320    84377766.377 8      1949.948          50.625    20308751.480    84377765.379 8      1949.948          50.750
G31  20632971.740   108426996.403 7      3576.047          47.687    20632971.040   108426996.405 6      3576.047          41.750    20632971.320    84488568.136 6      2786.530          41.625    20632971.920    84488570.147 8      2786.530          50.437
G32  24337945.720   127896737.688 7      -513.082          42.687    24337947.220   127896737.692 4      -513.082          28.125    24337950.600    99659783.543 4      -399.804          28.625    24337951.140    99659840.542 6      -399.804          41.375
G04  24886648.500   130780212.747 6      4168.092          37.437    24886647.380   130780212.765 3      4168.092          18.000    24886652.700   101906667.930 2      3247.864          17.875    24886654.520   101906686.926 6      3247.864          39.312
G16  23436874.820   123161605.984 6      4712.779          41.125    23436873.380   123161605.992 4      4712.779          28.062    23436876.520    95970095.623 4      3672.295          28.000
G18  21724948.300   114165374.815 7      3846.292          44.750    21724947.640   114165374.823 5      3846.292          33.687    21724950.200    88960039.412 5      2997.111          33.500    21724950.400    88960040.407 7      2997.111          46.250
G28  20410672.340   107258805.642 7      1698.993          47.562    20410671.400   107258805.649 6      1698.993          41.750    20410673.000    83578292.999 6      1323.890          41.312    20410673.540    83578293.008 8      1323.890          52.375
> 2024 05 08 08 42 34.0000000  0 15
G25  24097985.180   126635761.716 6       280.782          40.687    24097983.680   126635761.721 5       280.782          35.312    24097992.500    98677247.491 5       218.791          35.375    24097993.460    98677251.504 6       218.791          40.375
G27  23570582.660   123864250.710 6      5566.603          40.875    23570581.100   123864250.723 5      5566.603          30.312    23570586.300    96517605.013 5      4337.613          30.625    23570586.640    96517620.005 7      4337.613          45.187
R19  19442694.180   104005317.228 6      3393.719          37.062    19442693.720   104005317.219 6      3393.719          36.812    19442701.820    80893044.013 7      2639.559          47.500    19442701.560    80893046.013 8      2639.559          48.125
R07  23536196.260   125991094.634 6       774.022          39.437    23536197.300   125991094.660 6       774.022          38.187    23536209.120    97993133.074 6       602.017          40.125    23536209.800    97993132.054 7       602.017          42.062
G29  22721669.640   119403177.131 7      -289.272          43.750    22721668.600   119403177.141 7      -289.272          42.687    22721671.260    93041440.497 7      -225.407          42.250    22721672.140    93041444.489 7      -225.407          46.375
G26  21334201.360   112111979.662 7      3845.225          47.187    21334200.440   112111979.666 6      3845.225          39.500    21334205.160    87360008.033 6      2996.280          39.312    21334205.260    87360004.033 8      2996.280          49.875
R18  20707247.140   110536693.316 7      -133.110          47.875    20707248.620   110536693.314 8      -133.110          48.125    20707255.520    85973014.544 8      -103.530          49.687    20707255.500    85973014.553 8      -103.530          49.875
R09  21223816.400   113333983.167 7      5128.187          46.125    21223815.920   113333983.176 7      5128.187          46.687    21223821.500    88148681.847 8      3988.590          49.562    21223821.660    88148683.848 8      3988.590          49.437
R16  20308275.300   108483164.054 8      2506.594          49.062    20308275.220   108483164.049 8      2506.594          48.375    20308282.040    84375816.676 8      1949.573          50.875    20308282.540    84375815.673 8      1949.573          51.125
G31  20632291.120   108423420.709 7      3575.463          47.812    20632290.600   108423420.706 7      3575.463          42.062    20632290.900    84485781.879 6      2786.075          41.562    20632291.480    84485783.884 8      2786.075          50.875
G32  24338043.460   127897250.900 7      -513.253          42.500    24338045.000   127897250.910 4      -513.253          28.625    24338048.220    99660183.445 4      -399.937          28.625    24338048.740    99660240.459 6      -399.937          41.375
G04  24885855.060   130776045.026 6      4167.425          37.437    24885855.880   130776045.039 3      4167.425          18.000    24885859.860   101903420.340 2      3247.344          17.875    24885861.580   101903439.343 6      3247.344          39.312
G16  23435977.720   123156893.311 7      4712.791          42.062    23435976.620   123156893.321 4      4712.791          28.062    23435979.580    95966423.410 4      3672.305          28.000
G18  21724216.100   114161528.899 7      3845.620          45.125    21724215.820   114161528.909 5      3845.620          33.500    21724218.380    88957042.594 5      2996.587          33.562    21724218.320    88957043.595 7      2996.587          46.312
G28  20410349.180   107257107.080 7      1698.302          47.875    20410348.080   107257107.085 6      1698.302          41.250    20410349.600    83576969.443 6      1323.352          41.187    20410350.080    83576969.451 8      1323.352          52.875
> 2024 05 08 08 42 35.0000000  0 15
G25  24097931.800   126635480.779 6       281.115          40.687    24097930.280   126635480.792 5       281.115          35.312    24097938.980    98677028.584 5       219.051          35.187    24097940.340    98677032.597 6       219.051          40.375
G27  23569523.420   123858684.198 7      5566.520          42.062    23569521.780   123858684.205 5      5566.520          31.062    23569526.860    96513267.471 5      4337.548          30.625    23569527.380    96513282.465 7      4337.548          45.562
R19  19442060.540   104001924.001 6      3393.132          37.062    19442059.820   104001923.997 6      3393.132          36.812    19442067.380    80890404.837 8      2639.102          48.312    19442067.640    80890406.836 8      2639.102          48.250
R07  23536052.140   125990320.753 6       773.836          39.437    23536052.960   125990320.765 6       773.836          38.437    23536065.600    97992531.156 6       601.873          40.125    23536064.800    97992530.134 6       601.873          41.500
G29  22721724.560   119403466.289 7      -288.877          43.500    22721723.720   119403466.297 7      -288.877          43.312    22721726.400    93041665.809 7      -225.099          42.625    22721726.940    93041669.805 7      -225.099          46.500
G26  21333469.460   112108134.463 7      3845.479          47.750    21333468.880   112108134.470 6      3845.479          39.937    21333473.520    87357011.776 6      2996.477          39.625    21333473.540    87357007.776 8      2996.477          50.125
R18  20707271.600   110536826.656 8      -133.350          48.250    20707273.520   110536826.657 8      -133.350          48.625    20707280.720    85973118.261 8      -103.717          49.875    20707280.780    85973118.272 8      -103.717          50.187
R09  21222855.900   113328854.842 7      5128.492          45.562    21222855.540   113328854.856 7      5128.492          46.250    21222861.440    88144693.160 8      3988.827          49.437    21222861.560    88144695.163 8      3988.827          49.875
R16  20307806.340   108480657.519 8      2506.650          49.625    20307805.640   108480657.518 8      2506.650          48.312    20307812.800    84373867.153 8      1949.617          51.062    20307812.860    84373866.151 8      1949.617          51.125
G31  20631610.880   108419845.406 7      3575.313          47.437    20631610.080   108419845.408 7      3575.313          42.250    20631610.500    84482995.933 6      2785.958          41.562    20631610.940    84482997.944 8      2785.958          50.375
G32  24338141.120   127897763.894 7      -512.646          42.437    24338142.440   127897763.901 4      -512.646          28.625    24338145.880    99660583.172 4      -399.464          28.625    24338146.700    99660640.175 6      -399.464          41.375
G04  24885061.960   130771877.657 6      4167.253          38.187    24885061.400   130771877.669 3      4167.253          18.125    24885066.600   101900173.054 2      3247.210          17.875    24885068.540   101900192.046 6      3247.210          39.125
G16  23435080.980   123152180.597 6      4713.034          41.625    23435079.780   123152180.607 4      4713.034          28.062    23435082.920    95962751.166 4      3672.494          28.000
G18  21723484.620   114157683.398 7      3845.593          45.562    21723483.900   114157683.408 5      3845.593          33.500    21723486.480    88954046.098 5      2996.566          33.562    21723486.980    88954047.111 7      2996.566          46.375
G28  20410025.920   107255408.981 8      1698.045          48.437    20410025.000   107255408.991 6      1698.045          41.437    20410026.560    83575646.251 6      1323.152          41.375    20410026.860    83575646.253 8      1323.152          52.937
> 2024 05 08 08 42 36.0000000  0 15
G25  24097878.160   126635199.729 6       280.751          40.687    24097876.880   126635199.747 5       280.751          35.375    24097885.540    98676809.588 5       218.767          35.187    24097887.300    98676813.591 6       218.767          40.312
G27  23568464.240   123853117.670 6      5566.310          40.250    23568462.420   123853117.675 5      5566.310          31.062    23568467.840    96508929.915 5      4337.385          30.625    23568468.040    96508944.909 7      4337.385          45.437
R19  19441426.920   103998531.438 6      3392.106          37.062    19441425.580   103998531.431 6      3392.106          36.812    19441433.040    80887766.178 8      2638.304          48.312    19441433.220    80887768.180 8      2638.304          48.187
R07  23535908.100   125989547.086 6       773.299          39.437    23535908.020   125989547.112 6       773.299          38.437    23535919.760    97991929.410 6       601.455          40.562    23535920.440    97991928.393 7       601.455          42.625
G29  22721779.820   119403755.387 7      -289.185          43.250    22721778.780   119403755.394 7      -289.185          42.625    22721781.260    93041891.080 7      -225.339          42.125    22721781.940    93041895.076 7      -225.339          46.125
G26  21332737.700   112104289.198 7      3845.004          47.625    21332737.120   112104289.203 6      3845.004          39.812    21332742.060    87354015.468 6      2996.107          39.687    21332741.800    87354011.468 8      2996.107          49.937
R18  20707296.900   110536960.428 8      -134.269          48.187    20707298.720   110536960.434 8      -134.269          48.312    20707305.480    85973222.306 8      -104.432          49.375    20707305.740    85973222.313 8      -104.432          49.437
R09  21221895.220   113323726.336 7      5128.343          45.812    21221895.260   113323726.347 7      5128.343          46.062    21221901.060    88140704.328 8      3988.712          49.125    21221901.040    88140706.331 8      3988.712          50.062
R16  20307336.960   108478151.145 8      2505.993          49.250    20307336.400   108478151.149 8      2505.993          48.250    20307343.660    84371917.753 8      1949.106          51.062    20307343.780    84371916.751 8      1949.106          51.375
G31  20630930.620   108416270.410 7      3574.575          47.250    20630929.800   108416270.407 7      3574.575          42.000    20630930.160    84480210.220 6      2785.383          41.625    20630930.860    84480212.231 8      2785.383          50.062
G32  24338238.460   127898276.596 7      -512.711          42.875    24338239.940   127898276.603 4      -512.711          28.625    24338243.540    99660982.674 4      -399.515          28.625    24338244.420    99661039.675 7      -399.515          42.000
G04  24884268.840   130767710.589 6      4166.553          38.312    24884268.020   130767710.602 3      4166.553          18.125    24884274.220   101896925.985 3      3246.664          18.312    24884275.040   101896944.979 6      3246.664          39.125
G16  23434184.380   123147467.677 6      4712.787          40.937    23434182.840   123147467.687 4      4712.787          28.062    23434186.060    95959078.764 4      3672.302          28.000
G18  21722753.140   114153838.249 7      3844.702          45.562    21722752.140   114153838.262 5      3844.702          33.500    21722754.620    88951049.882 5      2995.872          33.437    21722755.100    88951050.902 7      2995.872          46.125
G28  20409702.900   107253711.234 8      1697.320          48.125    20409701.840   107253711.242 6      1697.320          41.625    20409703.480    83574323.333 6      1322.587          41.125    20409703.920    83574323.337 8      1322.587          52.437
> 2024 05 08 08 42 37.0000000  0 15
G25  24097825.080   126634918.640 6       281.016          40.500    24097823.260   126634918.658 5       281.016          35.312    24097831.860    98676590.553 5       218.974          35.000    24097832.900    98676594.562 6       218.974          40.312
G27  23567404.920   123847551.439 6      5565.956          41.000    23567403.100   123847551.444 5      5565.956          31.062    23567408.800    96504592.593 5      4337.109          30.250    23567409.240    96504607.592 7      4337.109          45.812
R19  19440792.740   103995139.762 6      3391.201          37.562    19440791.720   103995139.763 6      3391.201          36.812    19440799.240    80885128.212 8      2637.601          48.125    19440799.100    80885130.212 8      2637.601          48.375
R07  23535764.120   125988773.922 6       772.728          39.000    23535763.860   125988773.945 6       772.728          38.437    23535775.440    97991328.067 6       601.011          40.562    23535775.820    97991327.047 6       601.011          41.875
G29  22721834.620   119404044.587 7      -289.277          43.250    22721833.880   119404044.600 7      -289.277          42.437    22721836.240    93042116.433 7      -225.410          42.312    22721837.100    93042120.429 7      -225.410          46.250
G26  21332005.980   112100443.984 7      3845.051          47.937    21332005.400   112100443.989 6      3845.051          40.000    21332010.320    87351019.197 6      2996.143          39.500    21332010.120    87351015.199 8      2996.143          50.250
R18  20707322.100   110537094.798 7      -134.782          47.312    20707323.920   110537094.801 8      -134.782          48.187    20707330.800    85973326.809 8      -104.830          49.437    20707330.820    85973326.816 8      -104.830          49.562
R09  21220934.920   113318597.848 7      5128.393          46.625    21220934.780   113318597.857 7      5128.393          46.125    21220940.660    88136715.506 8      3988.750          49.000    21220940.620    88136717.507 8      3988.750          50.000
R16  20306868.040   108475645.075 8      2505.818          48.437    20306867.080   108475645.074 7      2505.818          47.875    20306874.420    84369968.584 8      1948.970          50.687    20306874.560    84369967.579 8      1948.970          51.125
G31  20630250.400   108412695.875 7      3574.247          47.437    20630249.520   108412695.877 7      3574.247          42.562    20630249.940    84477424.870 6      2785.127          41.750    20630250.500    84477426.881 8      2785.127          50.375
G32  24338335.980   127898789.159 7      -512.516          43.375    24338337.460   127898789.164 4      -512.516          28.625    24338341.100    99661382.070 4      -399.363          28.562    24338341.860    99661439.081 7      -399.363          42.000
G04  24883476.060   130763543.945 6      4166.296          38.312    24883475.060   130763543.969 3      4166.296          18.125    24883480.660   101893679.259 3      3246.464          18.312    24883482.120   101893698.237 6      3246.464          39.125
G16  23433287.740   123142754.787 6      4712.748          41.687    23433286.080   123142754.795 4      4712.748          28.062    23433289.260    95955406.385 4      3672.271          28.187
G18  21722021.580   114149993.602 7      3844.260          45.562    21722020.640   114149993.620 5      3844.260          33.500    21722022.900    88948054.059 5      2995.528          33.437    21722023.620    88948055.073 7      2995.528          46.937
G28  20409379.980   107252014.049 8      1696.752          48.375    20409378.920   107252014.060 6      1696.752          40.875    20409380.620    83573000.858 6      1322.144          40.562    20409380.940    83573000.858 8      1322.144          53.000
> 2024 05 08 08 42 38.0000000  0 15
G25  24097771.300   126634637.614 6       281.122          40.375    24097769.740   126634637.629 5       281.122          35.312    24097778.440    98676371.570 5       219.056          35.250    24097780.240    98676375.577 6       219.056          40.375
G27  23566345.680   123841985.382 6      5566.061          41.000    23566343.960   123841985.387 5      5566.061          31.062    23566349.500    96500255.405 5      4337.190          30.250    23566350.260    96500270.413 7      4337.190          45.875
R19  19440158.800   103991748.912 6      3390.599          37.562    19440157.860   103991748.922 6      3390.599          36.687    19440165.160    80882490.895 7      2637.132          47.875    19440165.320    80882492.893 8      2637.132          48.125
R07  23535619.140   125988001.130 6       772.671          39.000    23535619.240   125988001.164 6       772.671          38.437    23535629.880    97990727.015 6       600.966          40.437    23535631.000    97990725.991 6       600.966          41.875
G29  22721889.720   119404333.867 7      -289.147          43.500    22721888.760   119404333.874 7      -289.147          42.375    22721891.400    93042341.841 7      -225.310          42.125    22721891.860    93042345.840 7      -225.310          46.000
G26  21331274.360   112096598.843 7      3845.289          47.500    21331273.600   112096598.845 6      3845.289          39.875    21331278.500    87348022.979 6      2996.329          39.437    21331278.480    87348018.981 8      2996.329          50.187
R18  20707347.440   110537229.760 7      -135.140          46.687    20707349.280   110537229.758 7      -135.140          47.750    20707356.200    85973431.772 8      -105.109          49.250    20707356.280    85973431.781 8      -105.109          50.062
R09  21219974.440   113313469.328 7      5128.696          46.812    21219974.320   113313469.340 7      5128.696          45.812    21219980.200    88132726.660 8      3988.986          49.187    21219980.220    88132728.660 8      3988.986          49.937
R16  20306398.760   108473139.323 8      2505.748          49.562    20306397.960   108473139.325 7      2505.748          47.812    20306405.420    84368019.670 8      1948.915          50.812    20306405.680    84368018.665 8      1948.915          51.625
G31  20629570.340   108409121.786 7      3574.044          47.437    20629569.400   108409121.786 6      3574.044          41.937    20629569.820    84474639.874 6      2784.969          41.687    20629570.460    84474641.886 8      2784.969          50.187
G32  24338433.640   127899301.606 7      -512.245          42.437    24338434.940   127899301.611 4      -512.245          28.625    24338438.580    99661781.374 4      -399.152          28.562    24338439.620    99661838.382 6      -399.152          41.812
G04  24882683.560   130759377.774 6      4165.848          38.500    24882682.560   130759377.790 3      4165.848          18.125    24882687.580   101890432.892 3      3246.116          18.312    24882689.000   101890451.886 6      3246.116          39.062
G16  23432390.600   123138041.867 6      4713.074          41.250    23432389.160   123138041.882 4      4713.074          28.062    23432392.240    95951733.989 4      3672.525          28.187
G18  21721289.940   114146149.444 7      3844.037          45.312    21721289.100   114146149.462 5      3844.037          33.125    21721291.520    88945058.609 5      2995.354          33.125    21721291.940    88945059.619 7      2995.354          46.562
G28  20409057.200   107250317.375 8      1696.520          48.500    20409056.160   107250317.385 6      1696.520          41.187    20409057.700    83571678.771 6      1321.963          41.312    20409058.100    83571678.772 8      1321.963          52.687
> 2024 05 08 08 42 39.0000000  0 15
G25  24097717.580   126634356.467 6       281.248          40.062    24097716.000   126634356.477 5       281.248          34.875    24097724.860    98676152.488 5       219.154          35.250    24097726.840    98676156.489 6       219.154          40.375
G27  23565286.240   123836419.440 6      5565.803          41.187    23565284.760   123836419.445 5      5565.803          30.312    23565290.320    96495918.310 5      4336.989          30.250    23565291.000    96495933.315 7      4336.989          45.500
R19  19439524.420   103988358.839 6      3389.569          37.562    19439523.920   103988358.838 6      3389.569          36.687    19439531.400    80879854.171 7      2636.332          47.750    19439531.700    80879856.171 7      2636.332          47.812
R07  23535474.980   125987228.652 6       772.154          39.000    23535475.400   125987228.696 6       772.154          38.437    23535485.140    97990126.207 6       600.564          40.437    23535486.060    97990125.185 6       600.564          41.187
G29  22721944.880   119404623.133 7      -289.323          43.750    22721943.820   119404623.137 7      -289.323          42.687    22721946.360    93042567.247 7      -225.446          42.125    22721946.980    93042571.244 7      -225.446          46.187
G26  21330542.600   112092753.657 7      3845.163          47.000    21330541.900   112092753.662 6      3845.163          40.687    21330546.820    87345026.735 6      2996.231          40.125    21330546.660    87345022.743 8      2996.231          50.312
R18  20707372.880   110537365.224 7      -135.889          47.562    20707374.400   110537365.225 8      -135.889          48.250    20707381.560    85973537.133 8      -105.692          49.750    20707381.600    85973537.138 8      -105.692          49.812
R09  21219014.080   113308340.728 7      5128.601          46.875    21219014.140   113308340.734 7      5128.601          46.250    21219019.840    88128737.740 8      3988.912          49.625    21219019.780    88128739.743 8      3988.912          49.625
R16  20305929.600   108470633.793 8      2505.350          48.750    20305928.520   108470633.789 8      2505.350          48.500    20305936.480    84366070.922 8      1948.605          51.000    20305936.400    84366069.913 8      1948.605          51.437
G31  20628890.360   108405548.089 7      3573.405          47.375    20628889.320   108405548.091 7      3573.405          42.062    20628889.760    84471855.181 6      2784.472          41.812    20628890.440    84471857.189 8      2784.472          50.500
G32  24338531.280   127899813.796 7      -512.221          43.562    24338532.380   127899813.804 4      -512.221          28.500    24338535.960    99662180.480 4      -399.133          28.562    24338537.020    99662237.487 6      -399.133          41.562
G04  24881890.560   130755211.911 6      4165.581          37.750    24881889.240   130755211.937 3      4165.581          18.125    24881895.040   101887186.752 3      3245.908          18.312    24881897.080   101887205.746 6      3245.908          39.062
G16  23431493.820   123133328.859 6      4712.802          41.250    23431492.280   123133328.875 4      4712.802          27.937    23431495.300    95948061.522 4      3672.313          28.187
G18  21720558.480   114142305.667 7      3843.553          44.625    21720557.680   114142305.680 5      3843.553          33.125    21720560.100    88942063.468 5      2994.976          33.125    21720560.520    88942064.472 7      2994.976          46.187
G28  20408734.520   107248621.131 7      1695.978          47.687    20408733.340   107248621.143 6      1695.978          41.687    20408734.880    83570357.027 6      1321.541          41.062    20408735.320    83570357.031 8      1321.541          52.500
> 2024 05 08 08 42 40.0000000  0 15
G25  24097664.340   126634075.430 6       281.074          40.375    24097662.600   126634075.440 5       281.074          34.687    24097671.540    98675933.494 5       219.019          34.875    24097673.720    98675937.505 6       219.019          40.437
G27  23564227.140   123830853.790 6      5565.520          40.187    23564225.840   123830853.795 5      5565.520          30.312    23564231.120    96491581.448 5      4336.769          30.250    23564231.920    96491596.462 7      4336.769          45.562
R19  19438890.860   103984969.675 6      3388.650          37.562    19438891.260   103984969.668 6      3388.650          36.687    19438897.600    80877218.140 7      2635.617          47.562    19438898.100    80877220.144 7      2635.617          47.312
R07  23535330.200   125986456.687 6       771.719          39.000    23535330.960   125986456.702 6       771.719          37.562    23535340.880    97989525.771 6       600.226          40.187    23535341.880    97989524.743 6       600.226          41.187
G29  22721999.700   119404912.551 7      -289.449          44.312    22721998.980   119404912.559 7      -289.449          42.562    22722001.360    93042792.762 7      -225.544          42.062    22722002.000    93042796.759 7      -225.544          45.875
G26  21329810.600   112088908.632 7      3844.991          47.437    21329810.180   112088908.639 6      3844.991          39.687    21329815.260    87342030.617 6      2996.097          39.312    21329814.740    87342026.625 8      2996.097          50.750
R18  20707398.000   110537501.372 8      -136.447          48.250    20707400.000   110537501.367 8      -136.447          48.062    20707407.000    85973643.021 8      -106.126          48.687    20707407.160    85973643.028 8      -106.126          48.937
R09  21218053.640   113303212.139 7      5128.617          46.875    21218053.580   113303212.148 7      5128.617          46.500    21218059.520    88124748.852 8      3988.925          48.062    21218059.400    88124750.853 8      3988.925          48.187
R16  20305460.540   108468128.637 8      2504.997          48.625    20305459.740   108468128.627 7      2504.997          47.625    20305467.360    84364122.461 8      1948.331          50.000    20305467.540    84364121.456 8      1948.331          50.062
G31  20628210.340   108401974.917 8      3572.928          48.437    20628209.480   108401974.919 6      3572.928          41.750    20628209.820    84469070.889 6      2784.100          41.437    20628210.500    84469072.897 8      2784.100          50.125
G32  24338628.860   127900325.915 7      -511.972          43.750    24338629.860   127900325.923 4      -511.972          28.500    24338633.500    99662579.528 4      -398.939          28.562    24338634.520    99662636.524 6      -398.939          41.562
G04  24881098.040   130751046.567 6      4165.118          37.750    24881097.020   130751046.588 3      4165.118          18.125    24881102.760   101883941.024 3      3245.546          18.312    24881104.100   101883960.034 6      3245.546          39.625
G16  23430596.900   123128615.899 6      4712.968          40.937    23430595.220   123128615.912 4      4712.968          27.937    23430598.560    95944389.090 4      3672.442          28.187
G18  21719827.260   114138462.473 7      3842.925          45.875    21719826.260   114138462.491 5      3842.925          33.312    21719828.720    88939068.776 5      2994.487          33.187    21719829.240    88939069.777 7      2994.487          46.312
G28  20408411.680   107246925.507 8      1695.364          48.250    20408410.660   107246925.514 6      1695.364          41.250    20408412.320    83569035.757 6      1321.063          41.062    20408412.680    83569035.758 8      1321.063          50.500
> 2024 05 08 08 42 41.0000000  0 15
G25  24097610.800   126633794.425 6       280.862          39.250    24097609.100   126633794.435 5       280.862          34.687    24097618.200    98675714.525 5       218.854          35.000    24097619.160    98675718.532 6       218.854          40.437
G27  23563167.940   123825288.398 6      5565.281          40.562    23563166.820   123825288.400 5      5565.281          30.312    23563172.220    96487244.780 5      4336.583          30.500    23563172.660    96487259.780 7      4336.583          45.875
R19  19438257.560   103981581.361 6      3387.781          36.937    19438257.180   103981581.346 6      3387.781          36.687    19438264.100    80874582.787 7      2634.941          47.687    19438264.660    80874584.789 7      2634.941          47.875
R07  23535186.620   125985685.129 6       771.333          38.375    23535187.020   125985685.155 6       771.333          37.562    23535197.120    97988925.662 6       599.926          40.187    23535197.440    97988924.630 6       599.926          40.375
G29  22722054.800   119405202.090 7      -289.716          44.375    22722054.220   119405202.103 7      -289.716          42.187    22722056.640    93043018.383 6      -225.753          41.875    22722057.100    93043022.380 7      -225.753          46.125
G26  21329079.000   112085063.706 7      3844.790          47.687    21329078.660   112085063.708 6      3844.790          39.750    21329083.560    87339034.571 6      2995.940          39.750    21329083.400    87339030.575 8      2995.940          50.000
R18  20707423.640   110537638.160 7      -137.184          46.750    20707425.580   110537638.163 8      -137.184          48.250    20707432.780    85973749.414 8      -106.699          49.687    20707432.780    85973749.421 8      -106.699          49.562
R09  21217093.160   113298083.635 7      5128.353          46.437    21217093.320   113298083.657 7      5128.353          46.187    21217099.220    88120760.022 8      3988.719          49.750    21217099.220    88120762.025 8      3988.719          49.375
R16  20304991.720   108465623.801 8      2504.597          48.062    20304990.560   108465623.792 7      2504.597          47.812    20304998.700    84362174.258 8      1948.020          50.875    20304998.600    84362173.251 8      1948.020          51.250
G31  20627530.480   108398402.234 7      3572.354          47.937    20627529.660   108398402.233 7      3572.354          42.000    20627529.920    84466286.982 6      2783.653          41.562    20627530.500    84466288.993 8      2783.653          49.687
G32  24338726.240   127900837.950 7      -512.033          43.437    24338727.320   127900837.960 4      -512.033          28.500    24338730.960    99662978.514 4      -398.986          28.562    24338731.920    99663035.508 6      -398.986          41.500
G04  24880305.520   130746881.731 6      4164.565          37.875    24880303.980   130746881.749 3      4164.565          18.125    24880309.860   101880695.701 3      3245.115          18.312    24880311.740   101880714.693 6      3245.115          39.625
G16  23429700.160   123123902.978 6      4712.857          41.125    23429698.580   123123902.988 4      4712.857          27.937    23429701.860    95940716.684 4      3672.356          28.187
G18  21719096.280   114134619.804 7      3842.219          45.625    21719095.060   114134619.817 5      3842.219          33.312    21719097.600    88936074.487 5      2993.937          33.187    21719098.280    88936075.490 7      2993.937          46.500
G28  20408089.080   107245230.429 7      1694.730          47.500    20408088.140   107245230.439 6      1694.730          41.375    20408089.700    83567714.920 6      1320.569          41.437    20408090.180    83567714.924 8      1320.569          52.750
> 2024 05 08 08 42 42.0000000  0 15
G25  24097557.340   126633513.357 6       280.922          40.312    24097555.680   126633513.367 5       280.922          34.937    24097564.680    98675495.511 5       218.900          35.000    24097565.820    98675499.510 6       218.900          40.250
G27  23562108.820   123819723.144 6      5564.992          41.562    23562107.840   123819723.147 5      5564.992          31.312    23562113.280    96482908.221 5      4336.357          30.500    23562113.500    96482923.229 7      4336.357          45.875
R19  19437624.680   103978193.812 6      3386.999          36.937    19437624.280   103978193.819 6      3386.999          36.687    19437630.860    80871948.042 7      2634.332          47.812    19437631.180    80871950.045 8      2634.332          48.187
R07  23535042.660   125984913.973 6       770.775          38.375    23535043.220   125984913.988 6       770.775          37.562    23535052.740    97988325.863 6       599.492          40.250    23535053.320    97988324.833 6       599.492          40.375
G29  22722109.900   119405491.640 7      -289.650          44.187    22722109.340   119405491.645 7      -289.650          42.937    22722111.640    93043243.998 7      -225.701          42.750    22722112.480    93043247.993 7      -225.701          46.062
G26  21328347.380   112081218.773 7      3844.767          47.625    21328347.040   112081218.778 6      3844.767          39.812    21328351.900    87336038.526 6      2995.923          39.812    21328351.800    87336034.529 8      2995.923          49.812
R18  20707449.680   110537775.463 7      -137.690          47.750    20707451.400   110537775.466 8      -137.690          48.062    20707458.400    85973856.205 8      -107.092          49.562    20707458.340    85973856.210 8      -107.092          49.000
R09  21216132.660   113292955.110 7      5128.271          46.937    21216133.100   113292955.122 7      5128.271          46.562    21216138.860    88116771.169 8      3988.655          49.750    21216138.860    88116773.174 8      3988.655          50.500
R16  20304523.160   108463119.195 7      2504.323          47.437    20304521.640   108463119.186 7      2504.323          47.562    20304529.780    84360226.227 8      1947.806          50.812    20304529.680    84360225.218 8      1947.806          51.437
G31  20626850.600   108394829.963 7      3571.945          47.375    20626849.900   108394829.960 7      3571.945          42.062    20626850.080    84463503.390 6      2783.334          41.625    20626850.780    84463505.399 8      2783.334          50.062
G32  24338823.780   127901349.769 7      -511.872          43.125    24338824.880   127901349.774 4      -511.872          28.500    24338828.300    99663377.320 4      -398.861          28.562    24338828.440    99663434.314 6      -398.861          41.500
G04  24879512.920   130742717.244 6      4164.151          37.875    24879511.780   130742717.262 3      4164.151          18.125    24879517.680   101877450.644 3      3244.793          18.312    24879519.240   101877469.645 6      3244.793          39.625
G16  23428803.040   123119189.966 6      4712.917          41.312    23428801.700   123119189.970 4      4712.917          27.937    23428805.040    95937044.207 4      3672.403          27.937
G18  21718365.000   114130777.535 7      3841.882          45.125    21718363.740   114130777.548 5      3841.882          33.500    21718366.420    88933080.513 5      2993.674          33.187    21718366.980    88933081.514 7      2993.674          46.562
G28  20407766.580   107243535.825 7      1694.244          47.312    20407765.580   107243535.832 6      1694.244          41.187    20407767.380    83566394.451 6      1320.190          40.875    20407767.720    83566394.449 8      1320.190          52.625
> 2024 05 08 08 42 43.0000000  0 15
G25  24097503.780   126633232.144 6       281.296          39.875    24097502.080   126633232.144 5       281.296          35.062    24097511.260    98675276.374 5       219.192          35.000    24097512.900    98675280.383 6       219.192          40.250
G27  23561050.160   123814157.938 6      5565.189          40.812    23561048.940   123814157.946 5      5565.189          31.312    23561054.320    96478571.705 5      4336.511          30.500    23561054.920    96478586.717 7      4336.511          46.750
R19  19436991.800   103974806.964 6      3386.575          36.937    19436990.100   103974806.979 6      3386.575          37.000    19436997.780    80869313.835 7      2634.003          47.562    19436998.260    80869315.836 7      2634.003          47.812
R07  23534898.400   125984143.012 6       770.911          38.375    23534899.460   125984143.040 6       770.911          37.562    23534908.660    97987726.239 6       599.597          40.250    23534909.320    97987725.217 6       599.597          40.625
G29  22722165.000   119405781.116 7      -289.393          44.125    22722164.220   119405781.129 7      -289.393          43.062    22722166.900    93043469.566 7      -225.501          42.500    22722167.800    93043473.571 7      -225.501          46.062
G26  21327615.800   112077373.732 8      3845.166          48.062    21327615.180   112077373.739 6      3845.166          40.125    21327620.220    87333042.392 6      2996.233          40.000    21327620.180    87333038.399 8      2996.233          50.437
R18  20707475.460   110537913.195 7      -137.830          47.875    20707477.280   110537913.196 8      -137.830          48.187    20707484.180    85973963.326 8      -107.201          49.250    20707484.160    85973963.331 8      -107.201          49.312
R09  21215171.980   113287826.374 7      5128.843          45.000    21215172.580   113287826.388 7      5128.843          46.437    21215178.440    88112782.163 8      3989.100          49.687    21215178.420    88112784.167 8      3989.100          50.312
R16  20304053.920   108460614.699 8      2504.510          48.000    20304053.060   108460614.695 7      2504.510          47.500    20304061.020    84358278.289 8      1947.952          50.875    20304061.160    84358277.282 8      1947.952          51.687
G31  20626170.800   108391257.979 7      3571.888          47.812    20626169.940   108391257.984 6      3571.888          41.750    20626170.520    84460720.032 6      2783.290          41.250    20626171.300    84460722.043 8      2783.290          49.937
G32  24338920.580   127901861.266 7      -511.275          43.437    24338922.260   127901861.271 4      -511.275          28.500    24338925.480    99663775.881 4      -398.396          28.562    24338926.160    99663832.883 6      -398.396          41.500
G04  24878720.320   130738553.044 6      4164.180          37.687    24878719.260   130738553.051 3      4164.180          18.125    24878725.320   101874205.823 3      3244.816          18.312    24878726.700   101874224.817 6      3244.816          39.812
G16  23427906.360   123114476.772 6      4713.342          40.875    23427904.860   123114476.782 4      4713.342          27.937    23427908.320    95933371.590 4      3672.734          27.937
G18  21717633.660   114126935.608 7      3841.815          45.250    21717632.740   114126935.620 5      3841.815          33.500    21717635.360    88930086.813 5      2993.622          33.437    21717636.180    88930087.806 7      2993.622          47.125
G28  20407444.100   107241841.583 8      1694.164          48.750    20407443.060   107241841.588 6      1694.164          41.125    20407444.940    83565074.261 6      1320.128          40.687    20407445.300    83565074.263 8      1320.128          52.625
