     3.05           OBSERVATION DATA    MIXED               RINEX VERSION / TYPE
TPS2RIN 1.0.29.3920 TPS-USER            20240511 184411 UTC PGM / RUN BY / DATE
Win64 build Feb 23, 2024 (c) Topcon Positioning Systems     COMMENT
SRC: 20240506_GUI04.tps                                     COMMENT
OPT: -S -v 3.05                                             COMMENT
Observer            Agency                                  OBSERVER / AGENCY
O0M3X53SBGM         TPS HIPER_SR        4.8 HSR Jul,08,2022 REC # / TYPE / VERS
FW: 4.8 HSR Jul,08,2022 p3                                  COMMENT
SN: HiPer SR 1212-12575                                     COMMENT
000                 TPSHIPER_SR     NONE                    ANT # / TYPE
        1.8000        0.0000        0.0000                  ANTENNA: DELTA H/E/N
DELTA H stands for **SLANT** height here!                   COMMENT
GUI04                                                       MARKER NAME
  5388884.9200 -1592070.8536  3010643.5215                  APPROX POSITION XYZ
  2024     5     6    15    34    2.0000000     GPS         TIME OF FIRST OBS
  2024     5     6    15    49    3.0000000     GPS         TIME OF LAST OBS
     1.000                                                  INTERVAL
   902 EPOCHS                                               COMMENT
G   16 C1C L1C D1C S1C C1W L1W D1W S1W C2W L2W D2W S2W C2X  SYS / # / OBS TYPES
       L2X D2X S2X                                          SYS / # / OBS TYPES
R   16 C1C L1C D1C S1C C1P L1P D1P S1P C2P L2P D2P S2P C2C  SYS / # / OBS TYPES
       L2C D2C S2C                                          SYS / # / OBS TYPES
    14                                                      # OF SATELLITES
   G02   902   902   902   902   902   902   902   902   902PRN / # OF OBS
         902   902   902     0     0     0     0            PRN / # OF OBS
   G03   902   902   902   902   902   902   902   902   902PRN / # OF OBS
         902   902   902   902   902   902   902            PRN / # OF OBS
   G04   397   397   397   397   392   392   392   392   391PRN / # OF OBS
         391   391   391   388   388   388   388            PRN / # OF OBS
   G08   902   902   902   902   902   902   902   902   902PRN / # OF OBS
         902   902   902   902   902   902   902            PRN / # OF OBS
   G14   902   902   902   902   902   902   902   902   902PRN / # OF OBS
         902   902   902   902   902   902   902            PRN / # OF OBS
   G17   174   174   174   174   170   170   170   170   170PRN / # OF OBS
         170   170   170   166   166   166   166            PRN / # OF OBS
   G21   902   902   902   902   902   902   902   902   902PRN / # OF OBS
         902   902   902     0     0     0     0            PRN / # OF OBS
   G22   832   832   832   832   830   830   830   830   830PRN / # OF OBS
         830   830   830     0     0     0     0            PRN / # OF OBS
   G27   902   902   902   902   902   902   902   902   902PRN / # OF OBS
         902   902   902   902   902   902   902            PRN / # OF OBS
   R04   902   902   902   902   902   902   902   902   902PRN / # OF OBS
         902   902   902   902   902   902   902            PRN / # OF OBS
   R05   902   902   902   902   902   902   902   902   902PRN / # OF OBS
         902   902   902   902   902   902   902            PRN / # OF OBS
   R10   768   768   768   768   763   763   763   763     0PRN / # OF OBS
           0     0     0     0     0     0     0            PRN / # OF OBS
   R11   789   789   789   789   784   784   784   784   784PRN / # OF OBS
         784   784   784   783   783   783   783            PRN / # OF OBS
   R20   902   902   902   902   902   902   902   902   902PRN / # OF OBS
         902   902   902   902   902   902   902            PRN / # OF OBS
G L1C                                                       SYS / PHASE SHIFT
G L1W -0.25000                                              SYS / PHASE SHIFT
G L2W  0.00000                                              SYS / PHASE SHIFT
G L2X  0.25000                                              SYS / PHASE SHIFT
R L1C                                                       SYS / PHASE SHIFT
R L1P -0.25000                                              SYS / PHASE SHIFT
R L2P -0.25000                                              SYS / PHASE SHIFT
R L2C                                                       SYS / PHASE SHIFT
  5 R04  6 R05  1 R10 -7 R11  0 R20  2                      GLONASS SLOT / FRQ #
                                                            GLONASS COD/PHS/BIS
    18    18  1929     7GPS                                 LEAP SECONDS
                                                            END OF HEADER
> 2024 05 06 15 34  2.0000000  0 11
G27  24348949.520   127954578.247 6      -496.931          41.562    24348948.280   127954578.252 6      -496.931          38.062    24348970.200    99704947.729 6      -387.219          38.000    24348970.620    99704947.724 7      -387.219          43.187
G02  21615309.620   113589217.180 7      2011.647          46.562    21615307.520   113589217.188 6      2011.647          40.312    21615310.120    88511080.468 6      1567.517          40.187
G03  20295125.160   106651600.230 8      3820.846          48.312    20295124.280   106651600.234 7      3820.846          43.187    20295131.680    83105169.141 7      2977.282          42.562    20295131.900    83105173.150 8      2977.282          52.687
G14  22316571.500   117274374.123 7      3680.536          45.125    22316570.340   117274374.136 5      3680.536          34.625    22316576.560    91382650.795 5      2867.951          34.687    22316576.580    91382653.803 8      2867.951          48.062
R05  19939055.640   106585677.454 8      3558.647          49.500    19939055.420   106585677.460 8      3558.647          49.687    19939064.920    82900012.925 8      2767.837          51.062    19939064.580    82900010.924 8      2767.837          50.000
G08  21494155.900   112952546.406 7       614.030          47.000    21494154.040   112952546.400 7       614.030          47.562    21494163.500    88015005.362 7       478.465          47.312    21494164.980    88015011.369 8       478.465          49.437
G21  21907580.300   115125109.444 7      1192.817          47.500    21907578.640   115125109.452 6      1192.817          38.812    21907582.640    89707889.626 6       929.467          38.625
R20  20810574.460   111283453.130 6      3049.973          37.625    20810575.720   111283453.131 6      3049.973          36.875    20810586.000    86553869.748 7      2372.201          44.187    20810586.040    86553874.750 7      2372.201          43.750
R04  21861748.580   117068667.238 7       -97.047          47.312    21861749.240   117068667.280 7       -97.047          45.937    21861759.420    91053460.676 7       -75.481          47.000    21861759.920    91053460.682 7       -75.481          47.437
R10  22004160.040   117294548.732 7       -53.039          43.750    22004160.280   117294548.754 7       -53.039          42.937
R11  22722479.180   121422041.364 7      3104.591          43.312    22722480.620   121422041.373 7      3104.591          42.500    22722491.540    94439401.398 7      2414.682          44.562    22722490.280    94439410.390 7      2414.682          44.500
> 2024 05 06 15 34  3.0000000  0 11
G27  24349043.660   127955074.974 6      -496.466          41.875    24349042.800   127955074.976 6      -496.466          38.062    24349064.760    99705334.775 6      -386.857          37.812    24349065.320    99705334.767 7      -386.857          43.437
G02  21614926.540   113587205.221 7      2012.291          45.437    21614924.760   113587205.232 6      2012.291          39.937    21614927.240    88509512.720 6      1568.019          39.437
G03  20294398.140   106647779.362 8      3820.895          48.437    20294397.060   106647779.364 7      3820.895          42.500    20294404.620    83102191.851 7      2977.321          42.312    20294404.800    83102195.862 8      2977.321          52.500
G14  22315871.100   117270693.520 7      3680.592          45.187    22315870.020   117270693.533 5      3680.592          34.437    22315876.140    91379782.807 5      2867.994          34.375    22315876.420    91379785.813 8      2867.994          48.625
R05  19938389.860   106582118.852 8      3558.539          50.687    19938389.480   106582118.862 8      3558.539          49.000    19938399.180    82897245.136 8      2767.752          50.375    19938399.040    82897243.137 8      2767.752          49.750
G08  21494038.920   112951932.182 7       614.425          47.312    21494037.160   112951932.173 7       614.425          47.187    21494046.640    88014526.750 7       478.773          47.187    21494048.100    88014532.755 8       478.773          49.375
G21  21907353.280   115123916.360 7      1193.452          47.625    21907351.640   115123916.370 6      1193.452          38.500    21907355.560    89706959.960 6       929.963          38.812
R20  20810003.840   111280402.849 6      3050.615          37.625    20810004.300   111280402.863 6      3050.615          36.875    20810015.680    86551497.332 7      2372.700          44.312    20810016.060    86551502.330 7      2372.700          43.625
R04  21861766.860   117068764.248 7       -97.001          46.312    21861767.700   117068764.285 7       -97.001          45.812    21861777.300    91053536.137 7       -75.446          46.875    21861778.140    91053536.137 7       -75.446          47.312
R10  22004169.980   117294601.574 7       -52.740          43.687    22004170.480   117294601.595 7       -52.740          42.812
R11  22721897.820   121418936.812 7      3104.311          43.312    22721899.900   121418936.816 7      3104.311          42.500    22721910.660    94436986.751 7      2414.464          44.937    22721909.460    94436995.745 7      2414.464          45.375
> 2024 05 06 15 34  4.0000000  0 11
G27  24349137.900   127955570.879 6      -495.565          41.562    24349137.120   127955570.876 6      -495.565          37.812    24349159.160    99705721.178 6      -386.155          37.500    24349159.820    99705721.170 7      -386.155          43.312
G02  21614543.520   113585192.317 7      2013.405          46.500    21614541.620   113585192.324 6      2013.405          39.750    21614544.200    88507944.233 6      1568.887          39.812
G03  20293670.860   106643958.055 8      3821.567          48.500    20293669.880   106643958.060 7      3821.567          42.125    20293677.420    83099214.226 6      2977.844          41.812    20293677.660    83099218.235 8      2977.844          51.687
G14  22315170.880   117267012.494 7      3681.197          45.500    22315169.720   117267012.506 5      3681.197          34.375    22315175.540    91376914.483 5      2868.465          34.375    22315175.940    91376917.493 7      2868.465          47.375
R05  19937724.020   106578560.085 8      3558.867          50.937    19937723.900   106578560.092 8      3558.867          49.312    19937733.340    82894477.221 8      2768.007          49.250    19937733.180    82894475.224 8      2768.007          49.250
G08  21493921.860   112951317.356 7       615.104          46.687    21493920.240   112951317.355 7       615.104          46.875    21493929.580    88014047.679 7       479.302          46.625    21493931.320    88014053.682 8       479.302          49.000
G21  21907126.100   115122722.268 8      1194.571          48.062    21907124.360   115122722.279 6      1194.571          38.312    21907128.380    89706029.512 6       930.835          38.062
R20  20809433.300   111277351.631 6      3051.753          37.312    20809433.320   111277351.635 6      3051.753          36.875    20809445.120    86549124.167 7      2373.586          43.562    20809445.320    86549129.167 7      2373.586          43.875
R04  21861785.000   117068860.921 7       -96.501          46.500    21861785.520   117068860.958 7       -96.501          46.437    21861795.440    91053611.335 7       -75.056          46.125    21861795.840    91053611.339 7       -75.056          46.500
R10  22004179.660   117294653.861 7       -52.014          43.625    22004180.040   117294653.883 7       -52.014          42.687
R11  22721316.520   121415831.962 7      3104.936          43.312    22721318.180   121415831.963 7      3104.936          42.750    22721329.180    94434571.877 7      2414.950          45.187    22721328.460    94434580.874 7      2414.950          44.625
> 2024 05 06 15 34  5.0000000  0 11
G27  24349232.360   127956066.092 6      -495.010          41.812    24349231.500   127956066.089 6      -495.010          38.125    24349253.400    99706107.044 6      -385.722          37.812    24349254.620    99706107.034 7      -385.722          43.312
G02  21614160.200   113583178.577 7      2014.064          46.187    21614158.300   113583178.582 6      2014.064          39.812    21614161.060    88506375.095 6      1569.401          39.375
G03  20292943.700   106640136.483 8      3821.551          48.812    20292942.700   106640136.490 6      3821.551          41.937    20292950.220    83096236.394 6      2977.832          41.875    20292950.620    83096240.405 8      2977.832          51.375
G14  22314470.020   117263331.189 7      3681.312          45.125    22314469.060   117263331.202 5      3681.312          34.375    22314475.060    91374045.942 5      2868.555          34.500    22314475.460    91374048.954 7      2868.555          47.437
R05  19937058.380   106575001.291 8      3558.639          50.062    19937058.300   106575001.301 8      3558.639          49.437    19937067.600    82891709.285 8      2767.830          49.375    19937067.520    82891707.291 8      2767.830          49.250
G08  21493804.840   112950702.030 7       615.391          47.312    21493803.060   112950702.030 7       615.391          46.750    21493812.440    88013568.213 7       479.526          46.375    21493814.300    88013574.216 8       479.526          49.625
G21  21906898.680   115121527.315 7      1195.280          47.812    21906897.100   115121527.323 6      1195.280          38.500    21906900.920    89705098.388 6       931.387          38.000
R20  20808862.840   111274299.577 6      3052.352          37.312    20808862.300   111274299.581 6      3052.352          36.875    20808874.240    86546750.358 7      2374.051          44.000    20808874.680    86546755.356 7      2374.051          43.750
R04  21861802.600   117068957.439 7       -96.643          47.000    21861803.860   117068957.478 7       -96.643          46.437    21861813.080    91053686.423 7       -75.167          46.687    21861814.060    91053686.430 7       -75.167          46.375
R10  22004189.800   117294705.749 7       -51.841          43.687    22004189.720   117294705.771 7       -51.841          42.687
R11  22720735.620   121412727.017 7      3105.000          42.687    22720736.640   121412727.008 7      3105.000          42.687    22720747.520    94432156.922 7      2415.000          44.125    22720747.260    94432165.921 7      2415.000          43.750
> 2024 05 06 15 34  6.0000000  0 11
G27  24349326.520   127956560.707 6      -494.406          41.437    24349325.660   127956560.701 6      -494.406          38.437    24349347.480    99706492.444 6      -385.252          38.250    24349348.940    99706492.438 7      -385.252          43.687
G02  21613777.140   113581164.114 7      2014.614          46.062    21613774.960   113581164.119 6      2014.614          39.875    21613777.720    88504805.395 6      1569.829          39.687
G03  20292216.300   106636314.703 8      3821.716          48.687    20292215.420   106636314.710 7      3821.716          42.250    20292222.940    83093258.396 7      2977.960          42.312    20292223.260    83093262.407 8      2977.960          52.812
G14  22313769.520   117259649.698 7      3681.431          45.000    22313768.480   117259649.710 5      3681.431          34.562    22313774.640    91371177.260 5      2868.648          34.375    22313774.440    91371180.272 7      2868.648          47.750
R05  19936392.620   106571442.537 8      3558.551          50.375    19936392.380   106571442.544 8      3558.551          49.437    19936401.880    82888941.375 8      2767.762          49.750    19936402.040    82888939.380 8      2767.762          50.500
G08  21493687.580   112950086.300 7       615.804          47.375    21493685.940   112950086.300 7       615.804          47.875    21493695.280    88013088.429 7       479.847          47.625    21493697.040    88013094.431 8       479.847          49.562
G21  21906671.060   115120331.574 8      1195.986          48.625    21906669.520   115120331.584 6      1195.986          38.312    21906673.360    89704166.653 6       931.937          38.437
R20  20808292.120   111271246.748 6      3053.099          37.312    20808290.520   111271246.754 6      3053.099          36.875    20808303.280    86544375.952 7      2374.633          43.500    20808303.880    86544380.954 7      2374.633          43.875
R04  21861820.840   117069053.855 7       -96.601          46.812    21861821.920   117069053.897 7       -96.601          45.687    21861830.920    91053761.424 7       -75.134          46.687    21861832.000    91053761.428 7       -75.134          46.625
R10  22004199.460   117294757.290 7       -51.442          43.687    22004199.040   117294757.304 7       -51.442          42.875
R11  22720154.700   121409622.041 7      3104.943          43.312    22720155.560   121409622.039 7      3104.943          42.687    22720166.460    94429741.947 7      2414.955          44.250    22720166.280    94429750.944 7      2414.955          43.937
> 2024 05 06 15 34  7.0000000  0 11
G27  24349420.580   127957054.727 6      -493.368          41.875    24349419.620   127957054.727 6      -493.368          38.375    24349441.700    99706877.387 6      -384.442          38.000    24349442.860    99706877.393 7      -384.442          43.750
G02  21613393.660   113579148.900 7      2015.759          46.500    21613391.620   113579148.905 6      2015.759          39.875    21613394.220    88503235.108 6      1570.721          39.687
G03  20291489.240   106632492.739 8      3822.249          49.125    20291488.000   106632492.744 7      3822.249          42.562    20291495.520    83090280.257 7      2978.376          42.000    20291495.980    83090284.268 8      2978.376          52.687
G14  22313068.680   117255968.035 7      3681.889          44.500    22313067.880   117255968.048 5      3681.889          34.562    22313073.980    91368308.445 5      2869.004          34.375    22313073.780    91368311.457 7      2869.004          47.812
R05  19935727.300   106567883.869 8      3558.853          50.562    19935726.560   106567883.870 8      3558.853          48.875    19935736.020    82886173.535 8      2767.996          50.875    19935736.340    82886171.535 8      2767.996          49.875
G08  21493570.460   112949470.200 7       616.436          47.312    21493568.680   112949470.197 7       616.436          47.125    21493578.120    88012608.361 7       480.340          47.062    21493579.740    88012614.359 8       480.340          50.125
G21  21906443.600   115119135.073 7      1197.075          47.062    21906441.920   115119135.081 6      1197.075          39.062    21906445.920    89703234.325 6       932.786          38.875
R20  20807721.300   111268193.226 6      3053.968          37.312    20807720.180   111268193.225 6      3053.968          36.562    20807732.240    86542000.996 7      2375.309          43.500    20807733.120    86542006.000 7      2375.309          43.937
R04  21861838.480   117069150.145 7       -96.027          46.937    21861839.760   117069150.190 7       -96.027          45.812    21861848.880    91053836.329 7       -74.688          45.812    21861849.740    91053836.335 7       -74.688          46.500
R10  22004208.940   117294808.527 7       -50.861          44.687    22004208.920   117294808.544 7       -50.861          42.937
R11  22719573.720   121406517.056 7      3105.111          44.000    22719575.160   121406517.071 7      3105.111          43.062    22719585.400    94427326.986 7      2415.086          44.500    22719585.160    94427335.983 7      2415.086          44.812
> 2024 05 06 15 34  8.0000000  0 11
G27  24349514.160   127957547.897 7      -492.744          42.312    24349513.600   127957547.896 6      -492.744          38.437    24349535.740    99707261.662 6      -383.956          38.437    24349536.460    99707261.656 7      -383.956          43.875
G02  21613009.820   113577132.630 7      2016.850          46.625    21613007.900   113577132.635 6      2016.850          40.125    21613010.600    88501663.996 6      1571.571          39.375
G03  20290761.800   106628670.253 8      3822.832          48.187    20290760.540   106628670.258 7      3822.832          42.312    20290768.280    83087301.708 6      2978.830          41.875    20290768.500    83087305.719 8      2978.830          52.500
G14  22312367.980   117252285.816 7      3682.560          45.125    22312367.160   117252285.826 5      3682.560          34.312    22312373.340    91365439.195 5      2869.528          33.875    22312372.980    91365442.201 7      2869.528          47.562
R05  19935061.500   106564324.952 8      3559.073          49.062    19935060.480   106564324.951 8      3559.073          50.187    19935070.340    82883405.501 8      2768.168          50.187    19935070.500    82883403.499 8      2768.168          50.625
G08  21493452.880   112948853.348 7       617.220          46.812    21493451.340   112948853.348 7       617.220          47.625    21493460.740    88012127.704 7       480.951          47.500    21493462.620    88012133.701 8       480.951          49.812
G21  21906215.540   115117937.454 7      1198.252          47.812    21906214.040   115117937.458 6      1198.252          38.562    21906218.100    89702301.123 6       933.703          38.750
R20  20807149.940   111265138.600 6      3055.082          37.312    20807147.200   111265138.604 6      3055.082          36.562    20807161.300    86539625.197 7      2376.175          44.125    20807161.720    86539630.205 7      2376.175          44.250
R04  21861856.760   117069245.988 7       -95.601          47.000    21861857.820   117069246.027 7       -95.601          45.187    21861866.940    91053910.882 7       -74.356          46.562    21861867.720    91053910.886 7       -74.356          46.312
R10  22004218.400   117294859.085 7       -50.121          44.562    22004218.440   117294859.107 7       -50.121          42.937
R11  22718992.860   121403411.698 7      3105.637          44.250    22718994.620   121403411.707 7      3105.637          43.125    22719004.460    94424911.714 7      2415.496          44.750    22719004.120    94424920.712 7      2415.496          44.625
> 2024 05 06 15 34  9.0000000  0 11
G27  24349608.120   127958040.314 7      -492.287          42.375    24349607.440   127958040.314 6      -492.287          38.250    24349629.380    99707645.354 6      -383.600          38.687    24349630.360    99707645.358 7      -383.600          44.062
G02  21612625.820   113575115.532 7      2017.330          46.625    21612623.920   113575115.536 6      2017.330          39.625    21612626.880    88500092.244 6      1571.945          39.812
G03  20290034.420   106624847.464 7      3822.799          47.937    20290033.120   106624847.466 7      3822.799          42.500    20290040.620    83084322.926 6      2978.804          41.937    20290041.160    83084326.935 8      2978.804          52.312
G14  22311667.560   117248603.348 7      3682.423          44.437    22311666.320   117248603.360 5      3682.423          34.312    22311672.560    91362569.749 5      2869.421          33.875    22311672.060    91362572.745 7      2869.421          47.500
R05  19934395.500   106560765.987 8      3558.761          49.500    19934394.640   106560765.991 8      3558.761          49.375    19934404.480    82880637.436 8      2767.925          50.000    19934404.620    82880635.432 8      2767.925          50.375
G08  21493335.560   112948236.021 7       617.355          47.187    21493333.800   112948236.023 7       617.355          47.500    21493343.260    88011646.680 7       481.056          47.187    21493345.320    88011652.677 8       481.056          50.187
G21  21905987.640   115116738.961 8      1198.836          48.062    21905985.920   115116738.974 6      1198.836          38.562    21905989.940    89701367.248 6       934.158          38.312
R20  20806578.720   111262083.115 6      3055.851          37.312    20806576.280   111262083.108 6      3055.851          36.562    20806589.600    86537248.707 7      2376.773          43.875    20806590.320    86537253.719 7      2376.773          44.187
R04  21861874.520   117069341.593 7       -95.692          47.062    21861875.640   117069341.621 7       -95.692          46.187    21861884.840    91053985.245 7       -74.427          46.562    21861885.720    91053985.251 7       -74.427          46.500
R10  22004227.440   117294909.224 7       -50.112          44.062    22004227.660   117294909.254 7       -50.112          42.937
R11  22718411.580   121400306.286 7      3105.248          44.312    22718414.260   121400306.287 7      3105.248          43.625    22718422.740    94422496.406 7      2415.193          44.750    22718422.840    94422505.400 7      2415.193          44.562
> 2024 05 06 15 34 10.0000000  0 11
G27  24349701.680   127958532.070 6      -491.461          41.687    24349700.980   127958532.064 6      -491.461          38.812    24349722.900    99708028.524 6      -382.956          38.437    24349723.860    99708028.522 7      -382.956          43.875
G02  21612241.940   113573097.611 7      2018.181          46.562    21612239.900   113573097.621 6      2018.181          39.687    21612242.800    88498519.849 6      1572.609          39.437
G03  20289306.840   106621024.405 8      3823.122          48.437    20289305.720   106621024.410 7      3823.122          42.125    20289313.040    83081343.931 6      2979.056          41.937    20289313.820    83081347.942 8      2979.056          52.375
G14  22310966.580   117244920.582 7      3682.845          43.875    22310965.420   117244920.595 5      3682.845          34.187    22310971.560    91359700.074 5      2869.750          34.187    22310971.500    91359703.064 7      2869.750          47.312
R05  19933729.660   106557206.969 8      3559.018          49.375    19933728.860   106557206.970 8      3559.018          48.937    19933738.740    82877869.327 8      2768.125          51.000    19933738.880    82877867.319 8      2768.125          50.562
G08  21493218.040   112947618.194 7       618.038          47.250    21493216.260   112947618.191 7       618.038          47.500    21493225.680    88011165.258 7       481.588          47.500    21493227.940    88011171.253 8       481.588          49.937
G21  21905759.560   115115539.625 8      1199.733          48.250    21905757.700   115115539.636 6      1199.733          38.687    21905761.700    89700432.708 6       934.857          39.187
R20  20806007.340   111259026.797 5      3056.726          35.812    20806004.340   111259026.803 6      3056.726          36.562    20806017.640    86534871.597 7      2377.454          43.750    20806018.760    86534876.605 7      2377.454          44.187
R04  21861892.380   117069436.943 7       -95.298          46.875    21861893.380   117069436.982 7       -95.298          45.812    21861902.660    91054059.425 7       -74.120          46.750    21861903.620    91054059.429 7       -74.120          46.437
R10  22004236.940   117294958.937 7       -49.566          44.312    22004237.320   117294958.967 7       -49.566          43.125
R11  22717830.480   121397200.733 7      3105.406          44.687    22717832.420   121397200.736 7      3105.406          43.687    22717841.800    94420080.990 7      2415.315          45.000    22717841.400    94420089.989 7      2415.315          45.062
> 2024 05 06 15 34 11.0000000  0 11
G27  24349794.880   127959023.156 7      -490.686          42.000    24349794.640   127959023.150 6      -490.686          38.750    24349816.500    99708411.176 6      -382.353          38.937    24349817.580    99708411.180 7      -382.353          43.812
G02  21611857.840   113571078.863 7      2019.164          46.750    21611855.860   113571078.873 6      2019.164          39.875    21611858.660    88496946.810 6      1573.374          39.500
G03  20288579.140   106617201.059 8      3823.543          48.187    20288578.060   106617201.064 6      3823.543          41.937    20288585.580    83078364.717 6      2979.384          41.937    20288586.220    83078368.726 8      2979.384          52.812
G14  22310266.200   117241237.543 7      3683.283          44.437    22310264.500   117241237.553 5      3683.283          34.312    22310270.560    91356830.186 5      2870.091          34.187    22310270.660    91356833.173 8      2870.091          48.000
R05  19933063.840   106553647.950 8      3559.080          50.375    19933063.180   106553647.962 8      3559.080          49.875    19933072.980    82875101.222 8      2768.173          50.687    19933073.020    82875099.217 8      2768.173          50.500
G08  21493100.200   112946999.900 7       618.602          47.375    21493098.580   112946999.894 8       618.602          48.062    21493108.000    88010683.477 7       482.028          47.500    21493110.500    88010689.476 8       482.028          50.312
G21  21905530.980   115114339.423 8      1200.697          48.000    21905529.360   115114339.433 6      1200.697          38.625    21905533.340    89699497.496 6       935.608          38.687
R20  20805435.580   111255969.660 5      3057.813          35.812    20805432.720   111255969.664 6      3057.813          36.562    20805446.100    86532493.830 7      2378.299          44.250    20805446.940    86532498.834 7      2378.299          43.812
R04  21861910.220   117069532.125 7       -94.931          47.562    21861911.380   117069532.161 7       -94.931          46.000    21861920.440    91054133.468 7       -73.835          46.562    21861921.320    91054133.468 7       -73.835          46.500
R10  22004245.940   117295008.250 7       -48.957          43.875    22004246.520   117295008.272 7       -48.957          42.625
R11  22717249.300   121394095.056 7      3105.811          44.625    22717250.700   121394095.060 7      3105.811          43.750    22717260.640    94417665.482 7      2415.631          44.812    22717260.440    94417674.475 7      2415.631          45.250
> 2024 05 06 15 34 12.0000000  0 11
G27  24349888.340   127959513.401 7      -489.903          42.250    24349887.980   127959513.398 6      -489.903          38.812    24349909.820    99708793.175 6      -381.743          38.687    24349910.820    99708793.179 7      -381.743          44.000
G02  21611473.520   113569059.132 7      2020.127          47.500    21611471.360   113569059.142 6      2020.127          39.625    21611474.400    88495373.006 6      1574.125          39.687
G03  20287851.520   106613377.269 8      3823.956          48.500    20287850.260   106613377.271 6      3823.956          41.937    20287857.800    83075385.155 6      2979.706          41.687    20287858.380    83075389.166 8      2979.706          52.687
G14  22309565.320   117237554.073 7      3683.640          44.187    22309563.620   117237554.081 5      3683.640          34.312    22309569.720    91353959.960 5      2870.369          34.125    22309569.820    91353962.945 8      2870.369          48.250
R05  19932398.000   106550088.756 8      3559.213          49.375    19932397.460   106550088.760 8      3559.213          49.125    19932407.280    82872332.966 8      2768.277          50.687    19932407.200    82872330.964 8      2768.277          50.062
G08  21492982.500   112946380.949 7       619.217          47.437    21492980.900   112946380.940 7       619.217          47.562    21492990.200    88010201.185 7       482.507          47.125    21492992.580    88010207.184 8       482.507          49.937
G21  21905302.480   115113138.190 7      1201.650          47.000    21905300.780   115113138.200 6      1201.650          38.937    21905304.900    89698561.484 6       936.351          38.937
R20  20804863.160   111252911.584 5      3058.282          35.812    20804861.380   111252911.586 6      3058.282          36.187    20804873.960    86530115.338 7      2378.664          43.812    20804875.140    86530120.335 7      2378.664          43.687
R04  21861927.880   117069626.985 7       -94.780          47.187    21861929.600   117069627.027 7       -94.780          46.062    21861937.860    91054207.256 7       -73.718          46.687    21861938.960    91054207.256 7       -73.718          46.250
R10  22004255.120   117295056.990 7       -48.483          43.875    22004255.520   117295057.017 7       -48.483          42.625
R11  22716668.380   121390989.131 7      3105.910          44.437    22716669.580   121390989.132 7      3105.910          43.437    22716679.400    94415249.771 7      2415.708          44.625    22716679.520    94415258.768 7      2415.708          45.187
> 2024 05 06 15 34 13.0000000  0 11
G27  24349981.460   127960002.891 7      -489.481          42.187    24349981.100   127960002.888 6      -489.481          39.062    24350002.920    99709174.580 6      -381.414          38.812    24350004.100    99709174.580 7      -381.414          44.000
G02  21611089.040   113567038.482 7      2020.885          47.437    21611086.840   113567038.489 6      2020.885          39.687    21611089.760    88493798.482 6      1574.716          39.625
G03  20287123.840   106609553.112 8      3824.040          48.625    20287122.520   106609553.114 7      3824.040          42.000    20287130.160    83072405.302 6      2979.771          41.437    20287130.780    83072409.307 8      2979.771          51.625
G14  22308864.100   117233870.228 7      3683.784          44.312    22308862.740   117233870.233 5      3683.784          34.250    22308868.840    91351089.437 5      2870.481          34.125    22308869.260    91351092.427 8      2870.481          48.375
R05  19931732.120   106546529.454 8      3559.072          49.687    19931731.520   106546529.461 8      3559.072          49.875    19931741.460    82869564.634 8      2768.167          50.062    19931741.020    82869562.633 8      2768.167          50.062
G08  21492864.620   112945761.427 7       619.520          47.125    21492863.000   112945761.419 7       619.520          47.500    21492872.460    88009718.443 7       482.743          47.250    21492874.380    88009724.441 8       482.743          50.125
G21  21905073.580   115111935.995 7      1202.422          47.312    21905072.000   115111936.006 6      1202.422          39.000    21905076.240    89697624.718 6       936.952          39.187
R20  20804291.100   111249852.490 5      3059.084          35.812    20804288.760   111249852.524 6      3059.084          36.187    20804301.720    86527736.078 7      2379.288          43.437    20804303.060    86527741.082 7      2379.288          43.312
R04  21861945.640   117069721.583 7       -94.834          47.375    21861947.440   117069721.630 7       -94.834          46.062    21861955.420    91054280.843 7       -73.760          45.812    21861956.360    91054280.845 7       -73.760          46.250
R10  22004264.320   117295105.250 7       -48.337          44.000    22004264.620   117295105.267 7       -48.337          42.625
R11  22716087.500   121387883.014 7      3105.912          45.000    22716088.780   121387883.004 7      3105.912          43.812    22716098.220    94412833.917 7      2415.709          44.125    22716098.040    94412842.914 7      2415.709          44.812
> 2024 05 06 15 34 14.0000000  0 11
G27  24350074.240   127960491.830 7      -488.877          42.125    24350074.080   127960491.827 6      -488.877          38.375    24350096.040    99709555.557 6      -380.943          38.375    24350097.200    99709555.563 7      -380.943          43.812
G02  21610704.440   113565017.174 7      2021.595          47.375    21610702.280   113565017.177 6      2021.595          39.500    21610705.160    88492223.441 6      1575.269          39.500
G03  20286396.040   106605728.807 8      3824.313          48.375    20286394.720   106605728.804 6      3824.313          41.562    20286402.380    83069425.332 6      2979.984          41.312    20286402.980    83069429.342 8      2979.984          51.375
G14  22308162.980   117230186.248 7      3684.053          45.750    22308161.860   117230186.250 5      3684.053          34.250    22308167.720    91348218.812 5      2870.691          34.187    22308168.240    91348221.814 7      2870.691          47.062
R05  19931066.520   106542970.297 8      3559.001          49.687    19931065.800   106542970.300 8      3559.001          49.562    19931075.640    82866796.413 8      2768.112          49.875    19931075.280    82866794.416 8      2768.112          49.312
G08  21492746.780   112945141.546 7       619.996          47.000    21492745.180   112945141.548 7       619.996          47.125    21492754.480    88009235.437 7       483.114          47.000    21492756.520    88009241.441 8       483.114          49.750
G21  21904844.740   115110733.094 7      1203.196          47.500    21904843.180   115110733.102 6      1203.196          38.437    21904847.280    89696687.402 6       937.555          38.312
R20  20803719.040   111246792.792 5      3059.837          35.812    20803717.780   111246792.791 6      3059.837          36.187    20803729.780    86525356.298 7      2379.873          43.062    20803730.680    86525361.296 7      2379.873          43.000
R04  21861963.220   117069816.141 7       -94.674          47.750    21861965.340   117069816.175 7       -94.674          46.250    21861972.960    91054354.392 7       -73.635          45.250    21861973.900    91054354.390 7       -73.635          45.562
R10  22004273.400   117295153.215 7       -47.876          43.375    22004273.460   117295153.223 7       -47.876          42.750
R11  22715506.020   121384776.939 7      3105.951          45.062    22715507.920   121384776.935 7      3105.951          44.062    22715516.720    94410418.087 7      2415.740          43.375    22715516.860    94410427.084 7      2415.740          43.812
> 2024 05 06 15 34 15.0000000  0 11
G27  24350167.360   127960980.131 6      -487.705          41.625    24350167.100   127960980.128 6      -487.705          38.625    24350189.140    99709936.038 6      -380.030          38.500    24350190.040    99709936.049 7      -380.030          43.812
G02  21610319.640   113562995.087 7      2022.771          46.312    21610317.560   113562995.091 6      2022.771          39.750    21610320.360    88490647.801 6      1576.185          39.437
G03  20285668.100   106601904.268 7      3824.909          47.687    20285666.940   106601904.270 7      3824.909          42.062    20285674.600    83066445.191 6      2980.449          41.437    20285674.980    83066449.198 8      2980.449          51.562
G14  22307461.860   117226502.066 7      3684.566          45.312    22307460.780   117226502.069 5      3684.566          34.312    22307466.620    91345348.031 5      2871.090          34.125    22307466.800    91345351.035 8      2871.090          48.062
R05  19930400.460   106539411.168 8      3559.420          49.750    19930400.100   106539411.172 8      3559.420          49.312    19930409.740    82864028.219 8      2768.438          48.750    19930409.680    82864026.224 8      2768.438          49.625
G08  21492628.660   112944521.268 7       620.791          47.062    21492626.960   112944521.265 7       620.791          47.375    21492636.420    88008752.110 7       483.733          47.187    21492638.180    88008758.109 8       483.733          49.750
G21  21904615.540   115109529.376 7      1204.432          47.312    21904614.180   115109529.383 6      1204.432          38.250    21904618.200    89695749.450 6       938.518          38.062
R20  20803146.440   111243732.262 5      3061.180          35.812    20803145.980   111243732.261 6      3061.180          36.187    20803156.900    86522975.896 7      2380.917          43.437    20803157.900    86522980.892 7      2380.917          42.500
R04  21861980.860   117069910.487 7       -94.009          47.125    21861982.720   117069910.529 7       -94.009          45.562    21861990.780    91054427.791 7       -73.118          45.500    21861991.500    91054427.789 7       -73.118          45.625
R10  22004282.120   117295200.833 7       -47.116          43.312    22004282.520   117295200.849 7       -47.116          42.750
R11  22714924.760   121381670.817 7      3106.399          45.750    22714927.100   121381670.818 7      3106.399          44.500    22714935.320    94408002.231 7      2416.088          43.000    22714935.460    94408011.219 7      2416.088          43.500
> 2024 05 06 15 34 16.0000000  0 11
G27  24350260.300   127961467.683 7      -487.084          42.062    24350259.920   127961467.682 6      -487.084          39.250    24350281.920    99710315.941 6      -379.546          39.000    24350282.920    99710315.945 7      -379.546          43.625
G02  21609934.600   113560972.077 7      2023.612          47.125    21609932.540   113560972.081 6      2023.612          39.812    21609935.340    88489071.442 6      1576.840          39.062
G03  20284940.460   106598079.362 8      3825.195          48.937    20284939.100   106598079.361 7      3825.195          42.062    20284946.620    83063464.761 6      2980.671          41.562    20284947.100    83063468.766 8      2980.671          52.500
G14  22306760.560   117222817.480 7      3684.903          45.062    22306759.760   117222817.482 5      3684.903          34.312    22306765.620    91342476.939 5      2871.353          34.125    22306765.680    91342479.939 8      2871.353          48.062
R05  19929734.680   106535851.915 8      3559.444          49.500    19929734.340   106535851.916 8      3559.444          50.375    19929743.920    82861259.925 8      2768.456          50.062    19929744.020    82861257.926 8      2768.456          50.000
G08  21492510.640   112943900.377 7       621.363          47.750    21492508.860   112943900.374 7       621.363          47.312    21492518.260    88008268.303 7       484.179          46.812    21492520.120    88008274.305 8       484.179          49.750
G21  21904386.460   115108324.698 7      1205.320          47.187    21904384.900   115108324.703 6      1205.320          38.625    21904388.880    89694810.747 6       939.210          38.812
R20  20802574.260   111240670.832 6      3062.093          36.000    20802572.800   111240670.809 6      3062.093          36.187    20802584.340    86520594.773 7      2381.628          43.250    20802585.500    86520599.762 7      2381.628          42.687
R04  21861998.240   117070004.488 7       -93.709          47.062    21862000.480   117070004.524 7       -93.709          46.000    21862008.200    91054500.913 7       -72.884          45.875    21862009.180    91054500.911 7       -72.884          46.125
R10  22004291.280   117295247.944 7       -46.679          43.312    22004290.920   117295247.955 7       -46.679          42.250
R11  22714343.580   121378564.486 7      3106.508          45.687    22714345.520   121378564.484 7      3106.508          44.125    22714353.740    94405586.210 7      2416.173          43.250    22714353.660    94405595.207 7      2416.173          43.500
> 2024 05 06 15 34 17.0000000  0 11
G27  24350353.300   127961954.338 6      -486.271          41.312    24350352.540   127961954.335 6      -486.271          39.312    24350374.600    99710695.137 6      -378.912          39.250    24350375.220    99710695.141 7      -378.912          43.937
G02  21609549.640   113558948.050 7      2024.428          47.312    21609547.580   113558948.057 6      2024.428          39.687    21609550.380    88487494.290 6      1577.476          39.500
G03  20284212.380   106594253.953 8      3825.591          48.125    20284211.180   106594253.958 6      3825.591          41.687    20284218.700    83060483.937 6      2980.980          41.437    20284219.260    83060487.942 8      2980.980          52.250
G14  22306059.500   117219132.420 7      3685.163          44.750    22306058.340   117219132.425 5      3685.163          34.250    22306064.200    91339605.478 5      2871.555          34.000    22306064.700    91339608.486 8      2871.555          48.375
R05  19929068.920   106532292.397 8      3559.598          50.875    19929068.420   106532292.393 8      3559.598          50.062    19929078.180    82858491.418 8      2768.576          50.937    19929078.060    82858489.418 8      2768.576          50.875
G08  21492392.380   112943278.804 7       621.881          47.312    21492390.580   112943278.804 7       621.881          47.375    21492400.060    88007783.973 7       484.583          47.500    21492401.760    88007789.972 8       484.583          49.812
G21  21904156.980   115107118.946 7      1206.211          47.250    21904155.320   115107118.956 6      1206.211          38.750    21904159.520    89693871.212 6       939.904          38.437
R20  20802001.760   111237608.313 6      3063.038          36.000    20802000.380   111237608.287 6      3063.038          36.187    20802011.720    86518212.822 7      2382.363          43.875    20802012.740    86518217.811 7      2382.363          43.062
R04  21862015.620   117070098.020 7       -93.461          47.812    21862017.420   117070098.065 7       -93.461          46.250    21862025.680    91054573.682 7       -72.692          46.312    21862026.680    91054573.677 7       -72.692          45.562
R10  22004300.040   117295294.445 7       -46.339          42.875    22004299.540   117295294.465 6       -46.339          41.812
R11  22713762.140   121375457.829 7      3106.675          45.312    22713764.220   121375457.822 7      3106.675          44.812    22713771.340    94403169.921 7      2416.303          43.250    22713772.200    94403178.920 7      2416.303          42.562
> 2024 05 06 15 34 18.0000000  0 11
G27  24350445.660   127962440.145 7      -485.441          42.625    24350445.080   127962440.140 6      -485.441          39.125    24350467.040    99711073.671 6      -378.266          38.687    24350467.760    99711073.669 7      -378.266          43.812
G02  21609163.940   113556923.003 7      2025.504          47.000    21609162.140   113556923.011 6      2025.504          39.562    21609165.000    88485916.342 6      1578.315          39.375
G03  20283484.420   106590428.098 8      3825.948          48.375    20283483.080   106590428.103 7      3825.948          42.062    20283490.620    83057502.768 7      2981.258          42.125    20283491.240    83057506.771 8      2981.258          52.125
G14  22305358.300   117215446.909 7      3685.658          44.187    22305357.040   117215446.916 5      3685.658          34.437    22305362.780    91336733.660 5      2871.941          34.000    22305363.460    91336736.665 7      2871.941          47.625
R05  19928402.880   106528732.654 8      3559.808          49.125    19928402.560   106528732.658 8      3559.808          49.812    19928412.340    82855722.752 8      2768.739          51.187    19928412.320    82855720.748 8      2768.739          50.750
G08  21492274.000   112942656.589 7       622.459          47.625    21492272.180   112942656.586 7       622.459          47.750    21492281.580    88007299.132 7       485.033          47.750    21492283.320    88007305.133 8       485.033          49.750
G21  21903927.520   115105912.159 7      1207.217          47.812    21903925.740   115105912.166 6      1207.217          38.875    21903929.840    89692930.868 6       940.689          39.250
R20  20801428.000   111234544.788 6      3063.946          36.000    20801426.840   111234544.790 6      3063.946          36.187    20801439.140    86515830.116 7      2383.069          43.937    20801440.020    86515835.108 7      2383.069          43.437
R04  21862032.920   117070191.197 7       -93.068          47.000    21862034.900   117070191.238 7       -93.068          46.187    21862043.200    91054646.158 7       -72.386          46.312    21862044.000    91054646.167 7       -72.386          45.750
R10  22004308.480   117295340.342 7       -45.763          42.312    22004307.760   117295340.363 6       -45.763          41.812
R11  22713180.780   121372350.872 7      3107.033          45.687    22713182.980   121372350.871 7      3107.033          44.500    22713189.440    94400753.391 7      2416.581          42.375    22713190.540    94400762.394 7      2416.581          42.000
> 2024 05 06 15 34 19.0000000  0 11
G27  24350538.460   127962925.277 7      -484.548          42.375    24350537.380   127962925.271 6      -484.548          39.437    24350559.460    99711451.677 6      -377.570          39.312    24350560.200    99711451.682 7      -377.570          43.875
G02  21608778.440   113554897.150 7      2026.488          47.000    21608776.660   113554897.158 6      2026.488          39.750    21608779.420    88484337.768 6      1579.081          39.875
G03  20282756.340   106586601.962 7      3826.430          47.562    20282755.020   106586601.967 7      3826.430          42.000    20282762.620    83054521.378 6      2981.634          41.437    20282763.200    83054525.381 8      2981.634          52.062
G14  22304656.600   117211761.114 7      3686.201          44.812    22304655.640   117211761.119 5      3686.201          34.437    22304661.260    91333861.624 5      2872.365          34.312    22304661.780    91333864.619 7      2872.365          47.500
R05  19927737.100   106525172.922 8      3559.938          50.750    19927736.860   106525172.926 8      3559.938          49.125    19927746.440    82852954.084 8      2768.841          48.875    19927746.240    82852952.082 8      2768.841          49.312
G08  21492155.620   112942033.873 7       623.131          46.875    21492153.680   112942033.867 7       623.131          46.875    21492163.080    88006813.907 7       485.556          46.562    21492164.780    88006819.906 8       485.556          49.937
G21  21903697.740   115104704.491 7      1208.360          47.000    21903695.960   115104704.499 6      1208.360          38.562    21903700.020    89691989.839 6       941.579          38.750
R20  20800855.260   111231480.438 6      3064.780          36.000    20800854.160   111231480.458 6      3064.780          36.187    20800866.340    86513446.753 7      2383.718          43.812    20800866.760    86513451.741 7      2383.718          43.312
R04  21862050.560   117070284.228 7       -92.750          47.312    21862052.120   117070284.267 7       -92.750          45.375    21862060.660    91054718.529 7       -72.139          46.000    21862061.400    91054718.539 7       -72.139          45.937
R10  22004317.440   117295385.819 7       -45.125          42.312    22004316.720   117295385.844 6       -45.125          41.562
R11  22712599.220   121369243.807 7      3107.385          44.687    22712600.820   121369243.813 7      3107.385          44.250    22712607.940    94398336.789 6      2416.855          41.812    22712608.580    94398345.781 6      2416.855          41.062
> 2024 05 06 15 34 20.0000000  0 11
G27  24350630.280   127963409.526 7      -483.689          43.000    24350629.560   127963409.523 6      -483.689          39.187    24350651.780    99711829.004 6      -376.900          39.375    24350652.200    99711829.010 7      -376.900          43.937
G02  21608392.900   113552870.283 7      2027.405          46.750    21608391.060   113552870.293 6      2027.405          40.062    21608393.700    88482758.403 6      1579.796          39.875
G03  20282028.120   106582775.340 7      3826.970          47.625    20282026.740   106582775.342 7      3826.970          42.062    20282034.460    83051539.604 6      2982.055          41.687    20282034.720    83051543.605 8      2982.055          52.500
G14  22303955.120   117208074.864 7      3686.568          44.562    22303954.180   117208074.869 5      3686.568          33.750    22303959.860    91330989.229 5      2872.651          34.312    22303960.540    91330992.223 8      2872.651          48.187
R05  19927071.060   106521612.981 8      3560.143          49.937    19927070.720   106521612.988 8      3560.143          49.562    19927080.420    82850185.255 8      2769.000          50.937    19927080.280    82850183.258 8      2769.000          50.750
G08  21492036.840   112941410.479 7       623.831          46.875    21492035.100   112941410.476 7       623.831          47.687    21492044.440    88006328.151 7       486.102          47.312    21492046.180    88006334.154 8       486.102          49.687
G21  21903467.700   115103495.783 7      1209.335          47.250    21903465.980   115103495.796 6      1209.335          38.812    21903469.880    89691047.999 6       942.339          39.125
R20  20800281.740   111228415.026 6      3066.158          36.000    20800281.760   111228415.027 6      3066.158          36.187    20800293.560    86511062.542 7      2384.789          43.937    20800293.320    86511067.531 7      2384.789          43.437
R04  21862068.060   117070376.882 7       -92.398          47.437    21862069.220   117070376.921 7       -92.398          45.937    21862078.220    91054790.599 7       -71.865          45.562    21862078.760    91054790.612 7       -71.865          45.687
R10  22004325.520   117295430.687 6       -44.436          41.937    22004325.160   117295430.700 6       -44.436          41.562
R11  22712017.780   121366136.420 7      3107.685          44.687    22712019.140   121366136.429 7      3107.685          43.875    22712026.820    94395919.931 6      2417.089          41.750    22712027.440    94395928.921 6      2417.089          41.062
> 2024 05 06 15 34 21.0000000  0 11
G27  24350722.280   127963893.068 7      -483.286          42.250    24350721.540   127963893.065 6      -483.286          39.125    24350743.720    99712205.776 6      -376.586          39.437    24350744.360    99712205.778 7      -376.586          43.500
G02  21608006.880   113550842.536 7      2028.037          47.437    21608005.260   113550842.551 6      2028.037          39.687    21608007.860    88481178.350 6      1580.288          39.687
G03  20281299.780   106578948.403 7      3826.940          47.562    20281298.560   106578948.405 7      3826.940          42.187    20281306.180    83048557.585 6      2982.031          41.687    20281306.520    83048561.588 8      2982.031          52.750
G14  22303253.860   117204388.296 7      3686.530          44.375    22303252.780   117204388.304 5      3686.530          33.750    22303258.440    91328116.585 5      2872.621          33.750    22303258.980    91328119.591 8      2872.621          48.437
R05  19926405.160   106518053.011 8      3559.827          50.437    19926404.780   106518053.018 8      3559.827          50.250    19926414.500    82847416.402 8      2768.755          50.875    19926414.520    82847414.407 8      2768.755          50.750
G08  21491918.060   112940786.556 7       624.082          45.875    21491916.360   112940786.550 7       624.082          47.750    21491925.820    88005841.982 7       486.298          47.437    21491927.280    88005847.981 8       486.298          49.625
G21  21903237.540   115102286.179 7      1209.874          46.625    21903236.000   115102286.187 6      1209.874          38.812    21903239.900    89690105.456 6       942.759          38.875
R20  20799708.500   111225348.787 6      3066.366          36.000    20799707.120   111225348.799 6      3066.366          36.187    20799720.140    86508677.711 7      2384.951          43.625    20799720.140    86508682.710 7      2384.951          43.250
R04  21862085.360   117070469.293 7       -92.448          47.625    21862086.540   117070469.329 7       -92.448          46.000    21862095.580    91054862.478 7       -71.904          45.937    21862096.320    91054862.495 7       -71.904          46.437
R10  22004334.200   117295475.093 6       -44.311          41.937    22004332.960   117295475.099 6       -44.311          40.937
R11  22711436.260   121363028.903 7      3107.359          44.562    22711437.040   121363028.907 7      3107.359          43.875    22711446.180    94393502.973 6      2416.835          41.750    22711446.240    94393511.961 6      2416.835          41.875
> 2024 05 06 15 34 22.0000000  0 11
G27  24350814.260   127964375.801 7      -482.379          43.187    24350813.440   127964375.798 6      -482.379          39.312    24350835.540    99712581.919 6      -375.880          39.125    24350836.220    99712581.917 7      -375.880          43.500
G02  21607620.760   113548813.835 7      2029.238          47.312    21607619.080   113548813.842 6      2029.238          40.125    21607621.840    88479597.552 6      1581.224          39.750
G03  20280571.360   106575121.031 7      3827.611          47.750    20280570.160   106575121.034 7      3827.611          42.062    20280577.900    83045575.230 6      2982.554          41.625    20280578.340    83045579.235 8      2982.554          52.312
G14  22302552.200   117200701.290 7      3687.110          44.875    22302551.140   117200701.297 5      3687.110          34.312    22302556.680    91325243.608 5      2873.073          33.750    22302557.600    91325246.620 8      2873.073          48.312
R05  19925738.980   106514492.870 8      3560.228          50.625    19925738.680   106514492.877 8      3560.228          50.312    19925748.640    82844647.418 8      2769.066          51.125    19925748.540    82844645.421 8      2769.066          51.437
G08  21491799.260   112940162.011 7       624.889          46.687    21491797.600   112940162.003 7       624.889          47.750    21491806.920    88005355.329 7       486.927          47.500    21491808.220    88005361.331 8       486.927          49.500
G21  21903007.020   115101075.540 7      1211.166          47.812    21903005.520   115101075.550 6      1211.166          38.875    21903009.600    89689162.113 6       943.766          38.937
R20  20799136.140   111222281.517 6      3067.943          36.875    20799134.180   111222281.494 6      3067.943          36.187    20799146.640    86506292.050 7      2386.178          43.937    20799147.020    86506297.050 7      2386.178          43.875
R04  21862102.660   117070561.326 7       -91.841          47.000    21862103.620   117070561.362 7       -91.841          46.062    21862113.080    91054934.074 7       -71.432          46.062    21862113.460    91054934.086 7       -71.432          46.625
R10  22004342.440   117295518.918 6       -43.544          41.125    22004341.340   117295518.937 6       -43.544          40.937
R11  22710854.560   121359921.124 7      3107.965          44.562    22710855.060   121359921.125 7      3107.965          43.687    22710865.500    94391085.815 6      2417.306          41.750    22710864.720    94391094.802 7      2417.306          42.437
> 2024 05 06 15 34 23.0000000  0 11
G27  24350905.960   127964857.714 7      -481.446          42.437    24350905.120   127964857.708 6      -481.446          39.750    24350927.380    99712957.415 6      -375.152          39.125    24350927.880    99712957.405 7      -375.152          43.750
G02  21607234.840   113546784.190 7      2030.126          47.625    21607232.920   113546784.200 6      2030.126          40.187    21607235.540    88478016.022 6      1581.916          40.000
G03  20279842.920   106571293.266 7      3827.970          47.750    20279841.880   106571293.268 6      3827.970          41.750    20279849.460    83042592.575 6      2982.833          41.312    20279850.080    83042596.576 8      2982.833          52.125
G14  22301850.900   117197013.895 7      3687.551          45.375    22301849.260   117197013.905 5      3687.551          34.187    22301855.160    91322370.323 5      2873.417          34.250    22301855.720    91322373.329 7      2873.417          47.875
R05  19925072.640   106510932.606 8      3560.326          50.562    19925072.800   106510932.613 8      3560.326          49.875    19925082.640    82841878.335 8      2769.143          50.687    19925082.400    82841876.340 8      2769.143          50.625
G08  21491680.160   112939536.872 7       625.329          46.437    21491678.540   112939536.869 7       625.329          47.500    21491687.980    88004868.216 7       487.269          47.125    21491689.460    88004874.215 8       487.269          49.562
G21  21902776.520   115099863.944 7      1212.088          47.500    21902774.820   115099863.949 6      1212.088          38.750    21902779.020    89688218.019 6       944.484          38.937
R20  20798562.460   111219213.343 6      3068.514          36.875    20798559.780   111219213.350 6      3068.514          36.437    20798572.600    86503905.717 7      2386.622          43.875    20798573.020    86503910.725 7      2386.622          43.500
R04  21862119.800   117070653.040 7       -91.566          47.187    21862120.780   117070653.074 7       -91.566          45.812    21862130.420    91055005.413 7       -71.218          46.062    21862130.960    91055005.426 7       -71.218          46.500
R10  22004350.520   117295562.200 6       -42.982          41.125    22004349.500   117295562.224 6       -42.982          40.937
R11  22710272.920   121356813.142 7      3108.032          44.000    22710273.720   121356813.137 7      3108.032          43.812    22710285.260    94388668.512 7      2417.358          42.312    22710283.340    94388677.505 7      2417.358          43.125
> 2024 05 06 15 34 24.0000000  0 11
G27  24350997.260   127965338.839 6      -480.601          41.875    24350996.680   127965338.833 6      -480.601          39.000    24351018.860    99713332.303 6      -374.494          38.750    24351018.940    99713332.301 7      -374.494          43.437
G02  21606848.360   113544753.623 7      2031.037          46.625    21606846.500   113544753.634 6      2031.037          39.937    21606849.300    88476433.772 6      1582.626          39.750
G03  20279114.420   106567465.112 8      3828.377          48.812    20279113.460   106567465.114 6      3828.377          41.500    20279121.000    83039609.612 6      2983.151          41.375    20279121.480    83039613.613 8      2983.151          51.812
G14  22301149.280   117193326.121 7      3687.959          45.125    22301147.340   117193326.128 5      3687.959          34.187    22301153.220    91319496.741 5      2873.734          34.250    22301153.740    91319499.739 7      2873.734          46.750
R05  19924406.880   106507372.220 8      3560.506          49.875    19924406.640   106507372.218 8      3560.506          49.375    19924416.700    82839109.153 8      2769.282          50.000    19924416.480    82839107.160 8      2769.282          49.812
G08  21491561.140   112938911.118 7       626.078          46.687    21491559.660   112938911.112 7       626.078          47.187    21491569.040    88004380.624 7       487.853          46.812    21491570.380    88004386.623 8       487.853          49.187
G21  21902545.920   115098651.366 7      1213.093          47.625    21902544.220   115098651.373 6      1213.093          39.000    21902548.300    89687273.165 6       945.268          39.250
R20  20797988.240   111216144.193 6      3069.714          36.875    20797986.440   111216144.173 6      3069.714          36.437    20797998.820    86501518.588 7      2387.556          43.375    20797999.040    86501523.590 7      2387.556          43.750
R04  21862136.840   117070744.433 7       -91.137          46.875    21862137.600   117070744.456 7       -91.137          45.625    21862147.620    91055076.499 7       -70.884          46.062    21862148.180    91055076.512 7       -70.884          46.125
R10  22004358.660   117295605.001 6       -42.468          41.125    22004357.500   117295605.007 6       -42.468          40.687
R11  22709691.240   121353704.924 7      3108.453          44.687    22709692.460   121353704.917 7      3108.453          43.625    22709704.820    94386251.025 7      2417.686          43.687    22709701.920    94386260.023 7      2417.686          43.875
> 2024 05 06 15 34 25.0000000  0 11
G27  24351088.640   127965819.286 7      -480.077          42.625    24351088.120   127965819.288 6      -480.077          39.062    24351110.400    99713706.667 6      -374.086          38.687    24351110.400    99713706.673 7      -374.086          43.312
G02  21606461.740   113542722.187 7      2031.847          46.812    21606459.920   113542722.200 6      2031.847          39.750    21606462.580    88474850.849 6      1583.257          39.187
G03  20278386.220   106563636.651 8      3828.592          48.250    20278385.100   106563636.650 6      3828.592          41.812    20278392.440    83036626.407 6      2983.318          41.500    20278392.800    83036630.408 8      2983.318          52.687
G14  22300447.300   117189638.019 7      3688.339          44.500    22300445.500   117189638.026 5      3688.339          34.187    22300451.320    91316622.904 5      2874.030          34.250    22300451.640    91316625.897 7      2874.030          46.625
R05  19923740.960   106503811.793 8      3560.430          49.875    19923740.540   106503811.791 8      3560.430          48.875    19923750.640    82836339.947 8      2769.223          49.625    19923750.440    82836337.952 8      2769.223          49.625
G08  21491442.000   112938284.865 7       626.538          46.625    21491440.380   112938284.859 7       626.538          46.437    21491449.820    88003892.641 7       488.211          46.437    21491451.260    88003898.640 8       488.211          49.375
G21  21902315.100   115097437.910 7      1213.892          47.250    21902313.180   115097437.922 6      1213.892          38.437    21902317.440    89686327.625 6       945.890          38.812
R20  20797414.960   111213074.169 6      3070.418          36.875    20797412.040   111213074.171 6      3070.418          36.437    20797424.380    86499130.827 7      2388.103          42.812    20797425.120    86499135.833 7      2388.103          43.437
R04  21862154.120   117070835.601 7       -91.063          47.250    21862154.920   117070835.624 7       -91.063          45.562    21862164.680    91055147.414 7       -70.827          45.687    21862165.240    91055147.422 7       -70.827          45.812
R10  22004366.400   117295647.337 6       -42.197          40.750    22004364.940   117295647.356 6       -42.197          40.687
R11  22709109.440   121350596.603 7      3108.381          44.687    22709110.380   121350596.601 7      3108.381          44.062    22709123.040    94383833.466 7      2417.629          43.937    22709120.500    94383842.465 7      2417.629          44.750
> 2024 05 06 15 34 26.0000000  0 11
G27  24351179.880   127966299.007 7      -479.410          42.687    24351179.440   127966299.002 6      -479.410          39.687    24351201.600    99714080.458 6      -373.566          39.375    24351202.380    99714080.454 7      -373.566          43.375
G02  21606075.220   113540689.889 7      2032.652          46.625    21606073.140   113540689.899 6      2032.652          40.062    21606075.820    88473267.248 6      1583.885          39.687
G03  20277657.560   106559807.845 8      3828.890          48.500    20277656.480   106559807.847 7      3828.890          42.000    20277663.940    83033642.939 6      2983.550          41.437    20277664.300    83033646.944 8      2983.550          52.812
G14  22299745.380   117185949.622 7      3688.520          43.750    22299743.600   117185949.632 5      3688.520          34.187    22299749.440    91313748.843 5      2874.171          34.062    22299749.900    91313751.824 7      2874.171          47.187
R05  19923074.940   106500251.277 8      3560.475          50.500    19923074.520   106500251.279 8      3560.475          49.375    19923084.580    82833570.672 8      2769.259          50.187    19923084.480    82833568.677 8      2769.259          50.500
G08  21491322.480   112937658.089 7       626.913          47.312    21491321.100   112937658.089 7       626.913          47.312    21491330.500    88003404.256 7       488.504          47.062    21491331.740    88003410.253 8       488.504          49.750
G21  21902084.120   115096223.529 7      1214.798          47.312    21902082.140   115096223.536 6      1214.798          38.562    21902086.220    89685381.362 6       946.596          38.937
R20  20796840.340   111210003.247 6      3071.611          36.875    20796838.400   111210003.245 6      3071.611          36.437    20796850.240    86496742.338 7      2389.031          43.562    20796851.060    86496747.342 7      2389.031          43.500
R04  21862171.280   117070926.485 7       -90.795          47.625    21862172.120   117070926.514 7       -90.795          46.312    21862181.700    91055218.118 7       -70.618          46.312    21862182.560    91055218.125 7       -70.618          46.625
R10  22004374.100   117295689.230 6       -41.857          40.750    22004372.700   117295689.238 6       -41.857          39.562
R11  22708527.780   121347488.113 7      3108.523          45.000    22708528.200   121347488.122 7      3108.523          43.625    22708540.700    94381415.783 7      2417.740          44.375    22708539.100    94381424.782 7      2417.740          44.875
> 2024 05 06 15 34 27.0000000  0 11
G27  24351271.340   127966778.077 7      -478.618          42.250    24351270.660   127966778.074 6      -478.618          39.312    24351292.780    99714453.747 6      -372.949          39.125    24351293.240    99714453.751 7      -372.949          43.375
G02  21605688.240   113538656.842 7      2033.396          46.312    21605686.320   113538656.854 6      2033.396          40.000    21605689.140    88471683.066 6      1584.464          39.750
G03  20276928.920   106555978.840 8      3829.132          48.750    20276927.840   106555978.844 6      3829.132          41.687    20276935.200    83030659.313 6      2983.740          41.187    20276935.820    83030663.315 8      2983.740          52.625
G14  22299043.680   117182261.013 7      3688.692          43.812    22299041.680   117182261.023 5      3688.692          34.062    22299047.720    91310874.612 5      2874.305          34.062    22299048.360    91310877.597 8      2874.305          48.437
R05  19922408.880   106496690.805 8      3560.439          50.625    19922408.460   106496690.806 8      3560.439          50.250    19922418.660    82830801.428 8      2769.230          51.187    19922418.520    82830799.433 8      2769.230          51.312
G08  21491203.300   112937030.885 7       627.440          46.875    21491201.760   112937030.879 7       627.440          47.562    21491211.220    88002915.528 7       488.914          47.000    21491212.560    88002921.527 8       488.914          49.500
G21  21901852.620   115095008.367 7      1215.564          47.687    21901850.940   115095008.378 6      1215.564          39.062    21901855.260    89684434.498 6       947.192          38.750
R20  20796265.460   111206931.645 6      3071.911          36.750    20796264.540   111206931.668 6      3071.911          36.437    20796276.060    86494353.339 7      2389.264          43.687    20796276.460    86494358.343 7      2389.264          43.750
R04  21862187.860   117071017.238 7       -90.676          47.812    21862189.420   117071017.283 7       -90.676          47.062    21862198.380    91055288.725 7       -70.526          46.062    21862199.200    91055288.731 7       -70.526          46.937
R10  22004382.460   117295730.757 6       -41.357          40.750    22004379.880   117295730.768 6       -41.357          39.562
R11  22707945.980   121344379.631 7      3108.488          44.000    22707946.420   121344379.635 7      3108.488          43.562    22707957.660    94378998.079 7      2417.713          44.187    22707957.440    94379007.084 7      2417.713          44.562
> 2024 05 06 15 34 28.0000000  0 11
G27  24351362.440   127967256.548 7      -478.125          43.750    24351361.860   127967256.545 6      -478.125          39.875    24351383.920    99714826.565 6      -372.565          39.437    24351384.380    99714826.563 7      -372.565          43.375
G02  21605301.160   113536622.975 7      2034.407          46.625    21605299.300   113536622.982 6      2034.407          39.875    21605302.100    88470098.243 6      1585.253          39.375
G03  20276200.460   106552149.569 8      3829.518          49.250    20276199.260   106552149.571 7      3829.518          42.437    20276206.540    83027675.473 6      2984.040          41.937    20276207.260    83027679.478 8      2984.040          52.250
G14  22298341.380   117178572.128 7      3689.138          43.937    22298339.780   117178572.141 5      3689.138          34.062    22298345.780    91308000.166 5      2874.653          33.937    22298346.980    91308003.156 8      2874.653          48.937
R05  19921742.920   106493130.290 8      3560.666          51.000    19921742.400   106493130.288 8      3560.666          49.937    19921752.580    82828032.151 8      2769.407          51.187    19921752.540    82828030.151 8      2769.407          51.625
G08  21491083.760   112936403.208 7       628.007          46.937    21491082.280   112936403.205 7       628.007          47.312    21491091.740    88002426.435 7       489.356          47.250    21491093.240    88002432.436 8       489.356          49.812
G21  21901621.360   115093792.355 7      1216.479          47.187    21901619.420   115093792.362 6      1216.479          38.937    21901623.800    89683486.959 6       947.905          38.937
R20  20795689.960   111203859.166 6      3072.955          36.750    20795689.820   111203859.186 6      3072.955          36.437    20795701.100    86491963.640 7      2390.076          43.875    20795701.920    86491968.648 7      2390.076          43.562
R04  21862204.920   117071107.809 7       -90.390          47.500    21862206.840   117071107.854 7       -90.390          46.375    21862215.560    91055359.177 7       -70.303          46.375    21862216.080    91055359.188 7       -70.303          46.625
R10  22004389.640   117295771.915 6       -40.947          40.062    22004387.980   117295771.915 6       -40.947          39.562
R11  22707364.440   121341271.015 7      3108.825          44.437    22707365.320   121341271.014 7      3108.825          44.187    22707374.780    94376580.252 7      2417.975          43.000    22707375.420    94376589.249 7      2417.975          43.812
> 2024 05 06 15 34 29.0000000  0 11
G27  24351453.200   127967734.339 7      -477.448          42.500    24351452.760   127967734.341 6      -477.448          39.250    24351474.820    99715198.857 6      -372.037          39.375    24351475.240    99715198.853 7      -372.037          43.375
G02  21604913.920   113534588.359 7      2034.978          46.812    21604912.120   113534588.364 6      2034.978          40.000    21604914.920    88468512.836 6      1585.697          39.875
G03  20275471.560   106548320.072 8      3829.592          48.437    20275470.620   106548320.074 7      3829.592          42.000    20275477.940    83024691.464 6      2984.098          41.687    20275478.480    83024695.467 8      2984.098          52.437
G14  22297639.140   117174883.046 7      3689.148          44.562    22297637.660   117174883.056 5      3689.148          33.937    22297643.820    91305125.561 5      2874.661          33.937    22297645.000    91305128.555 8      2874.661          49.000
R05  19921076.860   106489569.825 8      3560.425          49.937    19921076.460   106489569.821 8      3560.425          50.125    19921086.500    82825262.911 8      2769.220          51.187    19921086.400    82825260.910 8      2769.220          50.875
G08  21490964.400   112935775.107 7       628.254          46.750    21490962.800   112935775.104 7       628.254          47.500    21490972.260    88001937.014 7       489.548          46.687    21490973.780    88001943.013 8       489.548          49.875
G21  21901389.840   115092575.530 8      1217.160          48.187    21901387.900   115092575.538 6      1217.160          39.000    21901392.040    89682538.795 6       948.436          39.187
R20  20795115.440   111200785.976 6      3073.370          36.750    20795115.980   111200785.980 6      3073.370          36.750    20795126.900    86489573.375 7      2390.399          43.500    20795127.340    86489578.377 7      2390.399          43.437
R04  21862221.520   117071198.244 7       -90.411          47.562    21862223.620   117071198.288 7       -90.411          46.625    21862232.560    91055429.526 7       -70.320          46.562    21862232.880    91055429.536 7       -70.320          46.937
R10  22004396.880   117295812.683 6       -40.667          40.062    22004395.360   117295812.694 6       -40.667          39.562
R11  22706782.900   121338162.389 7      3108.629          44.375    22706783.740   121338162.388 7      3108.629          43.812    22706793.100    94374162.420 7      2417.823          42.812    22706793.320    94374171.410 7      2417.823          43.187
> 2024 05 06 15 34 30.0000000  0 11
G27  24351544.360   127968211.714 7      -477.104          42.375    24351543.560   127968211.716 6      -477.104          39.625    24351565.800    99715570.825 6      -371.769          39.250    24351565.840    99715570.819 7      -371.769          43.687
G02  21604526.500   113532553.129 7      2035.579          47.000    21604524.900   113532553.139 6      2035.579          40.250    21604527.780    88466926.956 6      1586.165          40.062
G03  20274742.800   106544490.520 8      3829.634          48.562    20274741.960   106544490.522 7      3829.634          42.187    20274749.180    83021707.410 6      2984.130          41.625    20274749.800    83021711.415 8      2984.130          53.062
G14  22296937.240   117171193.882 7      3689.312          44.187    22296935.580   117171193.890 5      3689.312          34.250    22296942.000    91302250.898 5      2874.789          34.000    22296942.680    91302253.898 8      2874.789          48.875
R05  19920410.800   106486009.569 8      3560.155          50.187    19920410.260   106486009.573 8      3560.155          49.500    19920420.460    82822493.842 8      2769.009          51.125    19920420.340    82822491.845 8      2769.009          51.312
G08  21490844.740   112935146.742 7       628.521          46.750    21490843.240   112935146.741 7       628.521          47.437    21490852.720    88001447.385 7       489.757          47.000    21490854.240    88001453.386 8       489.757          50.250
G21  21901158.000   115091358.067 7      1217.774          47.750    21901156.260   115091358.072 6      1217.774          39.062    21901160.480    89681590.132 6       948.915          39.250
R20  20794541.340   111197712.113 6      3074.130          36.750    20794540.640   111197712.117 6      3074.130          36.750    20794552.000    86487182.607 7      2390.990          43.625    20794552.360    86487187.613 7      2390.990          43.750
R04  21862238.020   117071288.721 7       -90.489          47.437    21862240.800   117071288.766 7       -90.489          46.062    21862249.660    91055499.911 7       -70.381          45.750    21862250.100    91055499.920 7       -70.381          46.687
R10  22004404.460   117295853.291 6       -40.494          40.062    22004403.320   117295853.291 6       -40.494          38.500
R11  22706201.120   121335053.849 7      3108.562          44.625    22706201.460   121335053.858 7      3108.562          43.375    22706212.240    94371744.680 7      2417.770          42.875    22706211.740    94371753.675 7      2417.770          42.875
> 2024 05 06 15 34 31.0000000  0 11
G27  24351635.000   127968688.551 7      -476.459          43.125    24351634.420   127968688.553 6      -476.459          39.875    24351656.580    99715942.370 6      -371.267          39.562    24351656.840    99715942.366 7      -371.267          43.500
G02  21604139.100   113530517.252 7      2036.229          46.625    21604137.440   113530517.259 6      2036.229          39.937    21604140.380    88465340.567 6      1586.672          39.562
G03  20274013.880   106540660.842 8      3829.728          48.250    20274013.180   106540660.844 7      3829.728          42.375    20274020.540    83018723.260 7      2984.204          42.125    20274020.920    83018727.269 8      2984.204          52.562
G14  22296235.120   117167504.627 7      3689.345          43.812    22296233.480   117167504.639 5      3689.345          34.250    22296239.820    91299376.168 5      2874.815          34.000    22296240.760    91299379.176 8      2874.815          48.375
R05  19919744.920   106482449.490 8      3560.001          48.812    19919744.520   106482449.491 8      3560.001          49.937    19919754.600    82819724.901 8      2768.890          50.500    19919754.360    82819722.900 8      2768.890          51.125
G08  21490725.040   112934518.074 7       628.818          47.125    21490723.700   112934518.068 7       628.818          47.062    21490733.140    88000957.520 7       489.988          46.875    21490734.700    88000963.521 8       489.988          49.625
G21  21900926.440   115090139.895 7      1218.544          47.625    21900924.420   115090139.900 6      1218.544          39.062    21900928.540    89680640.917 6       949.515          39.312
R20  20793967.040   111194637.557 6      3075.136          36.750    20793964.760   111194637.571 6      3075.136          36.750    20793976.800    86484791.310 7      2391.773          43.312    20793977.460    86484796.316 7      2391.773          43.750
R04  21862254.900   117071379.145 7       -90.352          47.937    21862257.540   117071379.190 7       -90.352          46.187    21862266.300    91055570.251 7       -70.274          46.312    21862266.680    91055570.256 7       -70.274          46.562
R10  22004412.180   117295893.633 6       -40.203          39.437    22004410.580   117295893.646 6       -40.203          38.500
R11  22705619.140   121331945.388 7      3108.449          43.875    22705619.460   121331945.397 7      3108.449          43.375    22705630.940    94369327.008 7      2417.682          42.750    22705629.800    94369336.006 7      2417.682          43.562
> 2024 05 06 15 34 32.0000000  0 11
G27  24351725.860   127969164.917 7      -475.837          43.312    24351724.940   127969164.919 6      -475.837          39.750    24351747.120    99716313.552 6      -370.782          39.875    24351747.820    99716313.557 7      -370.782          43.437
G02  21603751.560   113528480.752 7      2037.004          47.000    21603750.020   113528480.757 6      2037.004          39.937    21603752.700    88463753.690 6      1587.276          39.687
G03  20273285.160   106536831.085 8      3829.981          48.875    20273284.440   106536831.087 7      3829.981          42.437    20273291.680    83015739.050 6      2984.401          41.937    20273292.240    83015743.057 8      2984.401          52.000
G14  22295533.460   117163815.300 7      3689.480          43.562    22295531.560   117163815.313 5      3689.480          34.312    22295537.800    91296501.380 5      2874.920          34.375    22295538.420    91296504.390 8      2874.920          48.250
R05  19919079.040   106478889.595 8      3559.980          50.250    19919078.440   106478889.593 8      3559.980          50.000    19919088.660    82816956.109 8      2768.873          50.937    19919088.340    82816954.105 8      2768.873          51.875
G08  21490605.540   112933889.101 7       629.327          47.125    21490604.060   112933889.098 7       629.327          47.312    21490613.480    88000467.420 7       490.385          46.937    21490615.160    88000473.421 8       490.385          50.000
G21  21900694.380   115088921.068 8      1219.384          48.000    21900692.480   115088921.073 6      1219.384          39.000    21900696.700    89679691.189 6       950.169          39.000
R20  20793391.600   111191562.442 6      3075.765          36.312    20793389.560   111191562.440 6      3075.765          36.750    20793401.760    86482399.560 7      2392.262          43.562    20793402.480    86482404.564 7      2392.262          43.875
R04  21862271.940   117071469.569 8       -90.158          48.187    21862274.260   117071469.605 7       -90.158          46.625    21862283.360    91055640.585 7       -70.123          46.000    21862283.540    91055640.589 7       -70.123          46.375
R10  22004419.720   117295933.777 6       -39.795          39.437    22004418.180   117295933.807 6       -39.795          38.500
R11  22705037.740   121328837.024 7      3108.509          43.812    22705038.100   121328837.028 7      3108.509          43.500    22705049.200    94366909.403 7      2417.729          43.187    22705048.440    94366918.402 7      2417.729          43.750
> 2024 05 06 15 34 33.0000000  0 11
G27  24351816.160   127969640.713 7      -475.426          43.187    24351815.500   127969640.721 6      -475.426          39.875    24351837.700    99716684.292 6      -370.462          39.687    24351838.540    99716684.288 7      -370.462          43.500
G02  21603364.020   113526443.522 7      2037.578          46.875    21603362.400   113526443.532 6      2037.578          40.187    21603365.100    88462166.257 6      1587.723          39.875
G03  20272556.300   106533001.147 8      3830.034          48.625    20272555.680   106533001.149 7      3830.034          42.250    20272562.920    83012754.697 7      2984.442          42.000    20272563.460    83012758.706 8      2984.442          52.500
G14  22294831.420   117160125.782 7      3689.672          44.250    22294829.360   117160125.789 5      3689.672          34.312    22294835.860    91293626.441 5      2875.069          34.312    22294835.740    91293629.441 8      2875.069          48.000
R05  19918412.940   106475329.785 8      3559.720          50.875    19918412.520   106475329.789 8      3559.720          49.562    19918422.580    82814187.387 8      2768.671          50.687    19918422.540    82814185.383 8      2768.671          51.187
G08  21490485.920   112933259.758 7       629.480          47.062    21490484.380   112933259.753 7       629.480          47.500    21490493.680    87999977.031 7       490.504          47.312    21490495.420    87999983.034 8       490.504          49.812
G21  21900462.200   115087701.485 7      1219.928          47.562    21900460.380   115087701.492 6      1219.928          39.312    21900464.600    89678740.876 6       950.593          39.437
R20  20792815.760   111188486.559 6      3076.434          36.312    20792814.720   111188486.571 6      3076.434          36.750    20792826.380    86480007.222 7      2392.782          43.500    20792827.280    86480012.228 7      2392.782          43.750
R04  21862288.720   117071559.872 7       -90.209          47.875    21862291.040   117071559.906 7       -90.209          46.125    21862300.080    91055710.833 7       -70.163          46.187    21862300.180    91055710.840 7       -70.163          46.125
R10  22004427.220   117295973.663 6       -39.751          39.437    22004425.480   117295973.672 6       -39.751          38.500
R11  22704456.140   121325728.670 7      3108.358          44.250    22704457.060   121325728.663 7      3108.358          43.937    22704466.820    94364491.793 7      2417.611          43.000    22704466.700    94364500.788 7      2417.611          43.562
> 2024 05 06 15 34 34.0000000  0 11
G27  24351906.600   127970115.732 7      -474.645          42.937    24351906.080   127970115.739 6      -474.645          39.750    24351928.160    99717054.420 6      -369.854          39.312    24351928.420    99717054.424 7      -369.854          43.500
G02  21602976.420   113524405.396 7      2038.392          46.875    21602974.580   113524405.408 6      2038.392          39.687    21602977.240    88460578.117 6      1588.358          39.312
G03  20271827.540   106529170.825 8      3830.379          48.937    20271826.860   106529170.827 6      3830.379          41.937    20271833.980    83009770.047 6      2984.711          41.687    20271834.620    83009774.056 8      2984.711          52.062
G14  22294129.120   117156435.885 7      3690.040          44.875    22294127.240   117156435.898 5      3690.040          34.375    22294133.680    91290751.207 5      2875.356          34.312    22294133.660    91290754.201 7      2875.356          47.125
R05  19917747.160   106471769.853 8      3559.818          50.500    19917746.560   106471769.854 8      3559.818          49.937    19917756.720    82811418.561 8      2768.747          49.875    19917756.580    82811416.557 8      2768.747          50.437
G08  21490366.020   112932629.827 7       630.093          47.062    21490364.480   112932629.821 7       630.093          47.125    21490373.840    87999486.181 7       490.981          46.687    21490375.440    87999492.190 8       490.981          49.687
G21  21900230.080   115086480.948 7      1220.846          47.187    21900228.220   115086480.953 6      1220.846          39.062    21900232.300    89677789.818 6       951.309          39.187
R20  20792240.300   111185409.781 6      3077.062          36.312    20792239.060   111185409.807 6      3077.062          37.000    20792250.980    86477614.197 7      2393.271          43.000    20792251.720    86477619.195 7      2393.271          43.562
R04  21862305.720   117071649.873 8       -89.954          48.312    21862307.440   117071649.912 7       -89.954          46.375    21862316.660    91055780.851 7       -69.964          45.562    21862316.900    91055780.855 7       -69.964          46.000
R10  22004434.720   117296012.920 6       -38.974          39.437    22004432.300   117296012.947 6       -38.974          37.437
R11  22703874.100   121322620.100 7      3108.498          45.062    22703875.940   121322620.093 7      3108.498          43.875    22703885.060    94362074.031 7      2417.721          43.500    22703884.920    94362083.023 7      2417.721          43.562
> 2024 05 06 15 34 35.0000000  0 11
G27  24351997.040   127970590.298 6      -474.371          41.812    24351996.480   127970590.300 6      -474.371          39.375    24352018.480    99717424.200 6      -369.640          39.437    24352018.920    99717424.194 7      -369.640          43.375
G02  21602588.240   113522366.644 7      2038.912          47.062    21602586.680   113522366.654 6      2038.912          39.875    21602589.360    88458989.489 6      1588.763          39.437
G03  20271098.600   106525340.446 7      3830.297          47.687    20271097.980   106525340.451 6      3830.297          41.437    20271105.080    83006785.352 6      2984.647          41.375    20271105.640    83006789.359 8      2984.647          51.625
G14  22293426.980   117152745.951 7      3689.932          44.500    22293425.180   117152745.967 5      3689.932          34.375    22293431.560    91287875.951 5      2875.272          34.312    22293431.740    91287878.942 8      2875.272          48.562
R05  19917081.140   106468210.097 8      3559.519          50.062    19917080.740   106468210.101 8      3559.519          49.312    19917090.780    82808649.880 8      2768.514          49.312    19917090.540    82808647.875 8      2768.514          50.125
G08  21490246.000   112931999.630 7       630.219          47.312    21490244.780   112931999.627 7       630.219          46.687    21490253.960    87998995.131 7       491.079          46.625    21490255.640    87999001.138 8       491.079          49.312
G21  21899997.680   115085259.754 7      1221.361          47.437    21899995.860   115085259.756 6      1221.361          38.812    21900000.120    89676838.251 6       951.710          38.562
R20  20791665.200   111182332.391 6      3077.561          36.312    20791663.820   111182332.392 6      3077.561          37.000    20791675.440    86475220.668 7      2393.658          42.875    20791676.340    86475225.671 7      2393.658          42.875
R04  21862322.580   117071739.887 7       -90.135          47.875    21862324.420   117071739.929 7       -90.135          46.187    21862333.420    91055850.876 7       -70.105          45.750    21862333.720    91055850.878 7       -70.105          46.000
R10  22004441.800   117296052.089 6       -39.159          39.437    22004440.060   117296052.119 6       -39.159          37.437
R11  22703292.620   121319511.626 7      3108.321          44.875    22703294.240   121319511.622 7      3108.321          44.187    22703303.920    94359656.337 7      2417.583          43.062    22703303.120    94359665.330 7      2417.583          44.312
> 2024 05 06 15 34 36.0000000  0 11
G27  24352087.460   127971064.129 7      -473.567          43.500    24352086.640   127971064.134 6      -473.567          39.937    24352108.660    99717793.400 6      -369.014          39.625    24352108.560    99717793.396 7      -369.014          43.437
G02  21602200.240   113520326.997 7      2040.058          46.875    21602198.420   113520327.007 6      2040.058          40.437    21602201.220    88457400.170 6      1589.656          40.250
G03  20270369.520   106521509.706 8      3830.875          48.562    20270369.100   106521509.708 7      3830.875          42.312    20270376.140    83003800.374 7      2985.098          42.000    20270376.780    83003804.381 8      2985.098          52.062
G14  22292724.680   117149055.676 7      3690.342          44.750    22292722.960   117149055.689 5      3690.342          34.312    22292729.260    91285000.424 5      2875.591          34.312    22292729.980    91285003.420 8      2875.591          48.500
R05  19916415.120   106464650.239 8      3559.861          50.125    19916414.960   106464650.240 8      3559.861          49.500    19916424.740    82805881.117 8      2768.781          51.125    19916424.820    82805879.109 8      2768.781          50.312
G08  21490126.060   112931368.863 7       631.051          47.375    21490124.800   112931368.862 7       631.051          47.250    21490133.960    87998503.634 7       491.728          46.937    21490135.320    87998509.637 8       491.728          50.000
G21  21899765.240   115084037.619 7      1222.550          47.937    21899763.180   115084037.627 6      1222.550          38.500    21899767.520    89675885.955 6       952.637          39.062
R20  20791088.440   111179254.049 6      3078.640          36.312    20791087.840   111179254.069 6      3078.640          37.000    20791099.360    86472826.431 7      2394.498          43.187    20791100.420    86472831.434 7      2394.498          43.250
R04  21862339.480   117071829.609 7       -89.612          47.375    21862341.080   117071829.648 7       -89.612          46.437    21862350.120    91055920.671 7       -69.698          45.562    21862350.280    91055920.675 7       -69.698          45.750
R10  22004448.960   117296090.733 6       -38.681          37.000    22004446.900   117296090.779 6       -38.681          37.437
R11  22702711.040   121316402.965 7      3108.792          45.250    22702712.300   121316402.964 7      3108.792          44.312    22702722.300    94357238.513 7      2417.949          43.437    22702721.660    94357247.511 7      2417.949          44.125
> 2024 05 06 15 34 37.0000000  0 11
G27  24352177.660   127971537.248 7      -472.814          42.875    24352176.600   127971537.252 6      -472.814          39.687    24352198.860    99718162.056 6      -368.427          39.750    24352199.020    99718162.060 7      -368.427          43.625
G02  21601811.940   113518286.532 7      2040.863          47.000    21601810.160   113518286.540 6      2040.863          40.062    21601812.940    88455810.208 6      1590.283          40.125
G03  20269640.520   106517678.699 8      3831.103          48.000    20269639.940   106517678.701 7      3831.103          42.750    20269647.020    83000815.188 7      2985.275          42.562    20269647.680    83000819.193 8      2985.275          52.437
G14  22292022.500   117145365.099 7      3690.721          44.875    22292020.800   117145365.107 5      3690.721          34.687    22292026.900    91282124.660 5      2875.886          34.125    22292028.000    91282127.670 8      2875.886          48.375
R05  19915749.340   106461090.373 8      3559.857          50.062    19915748.880   106461090.374 8      3559.857          49.750    19915758.900    82803112.347 8      2768.778          51.187    19915758.600    82803110.339 8      2768.778          51.125
G08  21490005.960   112930737.638 7       631.456          46.500    21490004.620   112930737.635 7       631.456          47.000    21490013.840    87998011.777 7       492.044          46.812    21490015.520    87998017.782 8       492.044          50.000
G21  21899532.420   115082814.628 7      1223.438          47.625    21899530.420   115082814.633 6      1223.438          38.562    21899534.640    89674932.985 6       953.328          38.937
R20  20790512.940   111176174.865 6      3079.635          36.750    20790512.440   111176174.898 6      3079.635          37.000    20790523.680    86470431.530 7      2395.272          43.125    20790524.540    86470436.532 7      2395.272          43.312
R04  21862355.980   117071919.152 7       -89.413          47.750    21862357.380   117071919.186 7       -89.413          46.187    21862367.060    91055990.323 7       -69.543          45.812    21862367.240    91055990.336 7       -69.543          45.875
R10  22004456.080   117296128.961 6       -38.005          37.000    22004454.060   117296128.975 6       -38.005          37.437
R11  22702129.180   121313294.243 7      3108.675          44.875    22702130.280   121313294.231 7      3108.675          43.750    22702140.740    94354820.647 7      2417.859          44.000    22702139.800    94354829.647 7      2417.859          44.187
> 2024 05 06 15 34 38.0000000  0 11
G27  24352267.580   127972009.691 7      -472.296          42.000    24352266.480   127972009.693 6      -472.296          39.625    24352288.700    99718530.177 6      -368.023          39.437    24352288.660    99718530.176 7      -368.023          43.687
G02  21601423.480   113516245.227 7      2041.452          46.875    21601421.680   113516245.240 6      2041.452          39.812    21601424.420    88454219.593 6      1590.742          39.375
G03  20268911.340   106513847.384 8      3831.242          49.062    20268910.880   106513847.388 7      3831.242          42.000    20268917.980    82997829.764 6      2985.384          41.812    20268918.620    82997833.765 8      2985.384          52.562
G14  22291320.220   117141674.233 7      3690.748          45.062    22291318.520   117141674.246 5      3690.748          34.687    22291324.660    91279248.676 5      2875.907          34.812    22291325.340    91279251.695 8      2875.907          48.500
R05  19915083.260   106457530.465 8      3559.700          51.000    19915082.900   106457530.466 8      3559.700          49.875    19915092.860    82800343.539 8      2768.656          51.125    19915092.320    82800341.536 8      2768.656          50.812
G08  21489885.700   112930105.899 7       631.756          47.062    21489884.420   112930105.896 7       631.756          47.750    21489893.720    87997519.519 7       492.277          47.250    21489895.240    87997525.526 8       492.277          50.312
G21  21899299.680   115081590.762 7      1224.046          47.125    21899297.620   115081590.769 6      1224.046          38.937    21899301.820    89673979.333 6       953.802          39.187
R20  20789936.680   111173094.846 6      3080.379          36.750    20789936.440   111173094.863 6      3080.379          37.000    20789947.560    86468035.960 7      2395.850          43.062    20789948.620    86468040.962 7      2395.850          42.937
R04  21862372.960   117072008.502 7       -89.478          47.312    21862373.960   117072008.536 7       -89.478          46.000    21862383.800    91056059.828 7       -69.594          46.250    21862383.880    91056059.841 7       -69.594          45.875
R10  22004463.080   117296166.755 6       -37.839          37.000    22004462.460   117296166.766 6       -37.839          37.437
R11  22701547.240   121310185.363 7      3108.726          44.125    22701547.820   121310185.343 7      3108.726          43.625    22701558.900    94352402.639 7      2417.898          43.937    22701557.860    94352411.644 7      2417.898          44.625
> 2024 05 06 15 34 39.0000000  0 11
G27  24352357.460   127972481.641 7      -471.652          43.375    24352356.420   127972481.640 6      -471.652          39.937    24352378.480    99718897.912 6      -367.521          39.812    24352378.820    99718897.904 7      -367.521          43.437
G02  21601035.080   113514203.299 7      2042.213          47.500    21601033.180   113514203.309 6      2042.213          40.062    21601035.820    88452628.490 6      1591.335          40.062
G03  20268182.380   106510015.987 8      3831.452          48.625    20268181.740   106510015.987 7      3831.452          42.562    20268188.800    82994844.269 7      2985.547          42.000    20268189.500    82994848.272 8      2985.547          52.375
G14  22290617.820   117137983.298 7      3690.946          45.125    22290616.260   117137983.314 5      3690.946          34.750    22290622.420    91276372.638 5      2876.062          34.812    22290622.620    91276375.654 8      2876.062          48.125
R05  19914417.020   106453970.743 8      3559.681          50.875    19914417.020   106453970.750 8      3559.681          49.750    19914426.960    82797574.884 8      2768.641          50.687    19914426.560    82797572.880 8      2768.641          50.937
G08  21489765.380   112929473.865 7       632.219          47.187    21489764.340   112929473.862 7       632.219          47.437    21489773.380    87997027.033 7       492.638          47.187    21489774.960    87997033.038 8       492.638          50.625
G21  21899066.760   115080366.220 7      1224.881          46.937    21899064.500   115080366.230 6      1224.881          39.000    21899068.800    89673025.157 6       954.453          39.187
R20  20789360.880   111170014.229 6      3080.950          36.750    20789360.220   111170014.246 6      3080.950          36.937    20789371.580    86465639.931 7      2396.295          43.562    20789372.720    86465644.932 7      2396.295          43.187
R04  21862389.540   117072097.844 7       -89.343          47.187    21862390.560   117072097.878 7       -89.343          46.125    21862400.620    91056129.321 7       -69.489          45.750    21862400.680    91056129.333 7       -69.489          46.312
R10  22004469.940   117296204.311 6       -37.589          37.000    22004468.440   117296204.322 6       -37.589          37.437
R11  22700965.480   121307076.595 7      3108.721          44.687    22700965.460   121307076.583 7      3108.721          43.562    22700976.220    94349984.734 7      2417.894          43.625    22700976.200    94349993.739 7      2417.894          44.250
> 2024 05 06 15 34 40.0000000  0 11
G27  24352447.100   127972953.104 7      -471.103          42.062    24352446.300   127972953.106 6      -471.103          39.937    24352468.280    99719265.272 6      -367.093          40.000    24352468.300    99719265.270 7      -367.093          43.437
G02  21600646.320   113512160.719 7      2043.061          47.437    21600644.560   113512160.732 6      2043.061          40.250    21600647.260    88451036.882 6      1591.996          40.187
G03  20267453.260   106506184.488 8      3831.658          48.500    20267452.540   106506184.490 7      3831.658          42.000    20267459.700    82991858.704 7      2985.707          42.125    20267460.280    82991862.706 8      2985.707          52.250
G14  22289915.540   117134292.258 7      3691.291          46.500    22289913.900   117134292.271 5      3691.291          34.750    22289920.040    91273496.507 5      2876.330          34.437    22289920.100    91273499.521 7      2876.330          47.937
R05  19913751.360   106450411.217 8      3559.594          50.750    19913751.340   106450411.218 8      3559.594          49.625    19913761.100    82794806.372 8      2768.573          50.875    19913760.620    82794804.370 8      2768.573          51.187
G08  21489645.020   112928841.532 7       632.677          47.562    21489643.900   112928841.529 7       632.677          47.125    21489653.100    87996534.312 7       492.995          47.125    21489654.760    87996540.317 8       492.995          50.687
G21  21898833.480   115079140.995 7      1225.685          47.625    21898831.240   115079141.006 6      1225.685          38.937    21898835.640    89672070.447 6       955.079          39.187
R20  20788784.700   111166932.948 6      3081.791          36.750    20788784.580   111166932.936 6      3081.791          36.937    20788795.660    86463243.373 7      2396.949          43.062    20788796.740    86463248.373 7      2396.949          42.812
R04  21862406.040   117072187.114 7       -89.145          47.312    21862407.440   117072187.153 7       -89.145          45.750    21862417.540    91056198.770 7       -69.335          46.250    21862417.600    91056198.776 7       -69.335          46.187
R10  22004476.980   117296241.585 6       -36.927          37.000    22004476.340   117296241.599 6       -36.927          36.312
R11  22700383.540   121303967.884 7      3108.836          44.250    22700383.580   121303967.890 7      3108.836          43.562    22700394.060    94347566.872 7      2417.983          43.500    22700394.400    94347575.887 7      2417.983          43.812
> 2024 05 06 15 34 41.0000000  0 11
G27  24352536.800   127973423.939 7      -470.560          42.250    24352535.940   127973423.942 6      -470.560          40.062    24352557.800    99719632.142 6      -366.670          39.750    24352558.060    99719632.140 7      -366.670          43.625
G02  21600257.600   113510117.380 7      2043.702          46.625    21600255.740   113510117.387 6      2043.702          40.000    21600258.360    88449444.674 6      1592.495          40.062
G03  20266724.260   106502352.750 7      3831.861          47.812    20266723.500   106502352.752 6      3831.861          41.937    20266730.600    82988872.946 6      2985.866          41.750    20266730.980    82988876.947 8      2985.866          52.437
G14  22289213.060   117130601.009 7      3691.300          46.062    22289211.580   117130601.021 5      3691.300          34.750    22289217.560    91270620.217 5      2876.338          34.437    22289217.600    91270623.239 8      2876.338          48.125
R05  19913085.820   106446851.712 8      3559.479          50.000    19913085.500   106446851.716 8      3559.479          49.562    19913095.120    82792037.878 8      2768.484          51.250    19913094.740    82792035.879 8      2768.484          50.875
G08  21489524.780   112928208.778 7       632.919          46.437    21489523.580   112928208.781 7       632.919          47.375    21489532.800    87996041.264 7       493.183          47.125    21489534.540    87996047.269 8       493.183          50.312
G21  21898600.100   115077914.956 7      1226.463          47.875    21898597.980   115077914.964 6      1226.463          39.312    21898602.360    89671115.100 6       955.685          39.125
R20  20788208.680   111163850.836 6      3082.434          36.750    20788206.680   111163850.851 6      3082.434          36.937    20788219.080    86460846.206 7      2397.449          43.250    20788220.380    86460851.205 7      2397.449          43.312
R04  21862422.780   117072276.199 7       -88.996          46.875    21862424.180   117072276.241 7       -88.996          45.875    21862434.320    91056268.066 7       -69.219          46.250    21862434.200    91056268.077 7       -69.219          46.687
R10  22004484.500   117296278.510 6       -36.686          37.312    22004483.400   117296278.526 6       -36.686          36.312
R11  22699801.920   121300859.140 7      3108.733          44.500    22699802.120   121300859.147 7      3108.733          43.437    22699811.980    94345148.979 7      2417.904          42.937    22699812.640    94345157.986 7      2417.904          43.875
> 2024 05 06 15 34 42.0000000  0 11
G27  24352625.940   127973893.973 7      -469.741          42.500    24352625.360   127973893.978 6      -469.741          40.250    24352647.300    99719998.386 6      -366.032          40.062    24352647.620    99719998.380 7      -366.032          43.187
G02  21599868.440   113508073.105 7      2044.591          47.312    21599866.700   113508073.116 6      2044.591          40.062    21599869.440    88447851.743 6      1593.187          39.750
G03  20265995.020   106498520.629 7      3832.183          47.687    20265994.140   106498520.633 7      3832.183          42.062    20266001.320    82985886.891 6      2986.117          41.937    20266001.920    82985890.892 8      2986.117          52.250
G14  22288510.540   117126909.359 7      3691.730          46.125    22288509.080   117126909.372 5      3691.730          34.875    22288515.240    91267743.621 5      2876.673          34.625    22288514.680    91267746.637 7      2876.673          47.812
R05  19912419.820   106443292.092 8      3559.576          49.187    19912419.680   106443292.099 8      3559.576          49.937    19912429.380    82789269.300 8      2768.559          51.437    19912429.060    82789267.300 8      2768.559          51.562
G08  21489404.080   112927575.421 7       633.474          47.250    21489403.020   112927575.420 7       633.474          47.562    21489412.340    87995547.744 7       493.616          47.187    21489414.040    87995553.753 8       493.616          50.750
G21  21898366.620   115076687.953 7      1227.410          47.562    21898364.520   115076687.960 6      1227.410          38.687    21898368.720    89670159.003 6       956.424          39.125
R20  20787631.880   111160767.775 6      3083.506          36.750    20787630.660   111160767.797 6      3083.506          36.937    20787642.580    86458448.292 7      2398.283          43.250    20787643.400    86458453.290 7      2398.283          43.562
R04  21862438.980   117072365.008 7       -88.786          47.375    21862440.720   117072365.050 7       -88.786          45.750    21862450.880    91056337.148 7       -69.056          45.875    21862451.160    91056337.151 7       -69.056          46.312
R10  22004491.160   117296314.870 6       -36.085          37.312    22004490.540   117296314.900 6       -36.085          36.312
R11  22699220.180   121297750.188 7      3109.000          44.312    22699221.400   121297750.186 7      3109.000          44.187    22699230.140    94342730.907 7      2418.111          42.937    22699230.280    94342739.910 7      2418.111          43.687
> 2024 05 06 15 34 43.0000000  0 11
G27  24352715.380   127974363.605 7      -469.157          42.875    24352714.620   127974363.608 6      -469.157          39.937    24352736.720    99720364.316 6      -365.577          39.375    24352736.780    99720364.302 7      -365.577          43.312
G02  21599479.420   113506028.269 7      2045.274          47.562    21599477.720   113506028.281 6      2045.274          39.625    21599480.300    88446258.376 6      1593.720          39.562
G03  20265266.000   106494688.486 8      3832.369          48.000    20265264.960   106494688.491 7      3832.369          42.312    20265272.280    82982900.823 6      2986.262          41.625    20265272.920    82982904.824 8      2986.262          52.375
G14  22287807.980   117123217.702 7      3691.870          45.312    22287806.580   117123217.715 5      3691.870          35.000    22287812.860    91264867.015 5      2876.782          34.812    22287812.260    91264870.025 7      2876.782          47.562
R05  19911753.900   106439732.703 8      3559.515          49.687    19911753.700   106439732.706 8      3559.515          50.312    19911763.440    82786500.898 8      2768.512          51.000    19911763.020    82786498.894 8      2768.512          51.187
G08  21489283.380   112926941.829 7       633.972          47.125    21489282.400   112926941.826 7       633.972          47.812    21489291.740    87995054.040 7       494.004          47.062    21489293.640    87995060.046 8       494.004          50.875
G21  21898132.860   115075460.348 7      1228.137          47.875    21898130.980   115075460.352 6      1228.137          38.812    21898135.220    89669202.436 6       956.990          39.187
R20  20787055.580   111157684.195 6      3084.103          36.812    20787054.120   111157684.215 6      3084.103          36.937    20787066.360    86456049.958 7      2398.747          42.750    20787066.840    86456054.958 7      2398.747          43.312
R04  21862455.580   117072453.892 7       -88.706          47.312    21862457.120   117072453.937 7       -88.706          45.875    21862467.460    91056406.289 7       -68.994          46.000    21862467.700    91056406.291 7       -68.994          46.875
R10  22004498.220   117296351.128 6       -35.957          37.312    22004497.440   117296351.139 6       -35.957          36.312
R11  22698638.340   121294641.399 7      3108.933          45.625    22698640.500   121294641.395 7      3108.933          44.312    22698648.160    94340312.966 7      2418.059          42.312    22698648.440    94340321.967 7      2418.059          43.250
> 2024 05 06 15 34 44.0000000  0 11
G27  24352804.780   127974832.654 7      -468.723          43.500    24352803.980   127974832.656 6      -468.723          39.687    24352825.800    99720729.791 6      -365.239          39.812    24352825.980    99720729.785 7      -365.239          43.500
G02  21599090.160   113503982.688 7      2046.041          47.187    21599088.500   113503982.696 6      2046.041          39.687    21599090.920    88444664.423 6      1594.318          39.375
G03  20264536.720   106490856.151 8      3832.460          48.375    20264535.580   106490856.154 7      3832.460          42.062    20264542.880    82979914.600 6      2986.333          41.750    20264543.680    82979918.599 8      2986.333          51.937
G14  22287105.420   117119525.856 7      3691.923          44.437    22287104.060   117119525.874 5      3691.923          35.000    22287110.280    91261990.260 5      2876.823          34.812    22287110.280    91261993.274 8      2876.823          48.125
R05  19911087.840   106436173.377 8      3559.333          50.437    19911087.980   106436173.381 8      3559.333          49.750    19911097.680    82783732.546 8      2768.370          50.500    19911097.300    82783730.542 8      2768.370          50.625
G08  21489162.980   112926307.856 7       634.235          46.250    21489161.940   112926307.856 7       634.235          47.562    21489171.080    87994560.044 7       494.209          47.312    21489173.160    87994566.049 8       494.209          50.000
G21  21897899.220   115074231.954 7      1228.840          47.437    21897897.220   115074231.959 6      1228.840          38.812    21897901.360    89668245.252 6       957.538          39.000
R20  20786478.860   111154599.863 6      3084.673          36.812    20786477.760   111154599.881 6      3084.673          36.937    20786489.060    86453651.042 7      2399.190          42.812    20786489.740    86453656.044 7      2399.190          43.250
R04  21862472.460   117072542.678 7       -88.629          46.937    21862473.920   117072542.714 7       -88.629          45.750    21862484.060    91056475.350 7       -68.934          45.875    21862484.240    91056475.348 7       -68.934          46.500
R10  22004503.960   117296387.030 6       -35.847          37.312    22004504.940   117296387.070 6       -35.847          36.312
R11  22698056.620   121291532.596 7      3108.863          46.312    22698058.820   121291532.589 7      3108.863          45.187    22698066.880    94337895.011 7      2418.005          43.000    22698066.720    94337904.005 7      2418.005          42.937
> 2024 05 06 15 34 45.0000000  0 11
G27  24352893.860   127975301.022 7      -468.290          43.125    24352893.060   127975301.024 6      -468.290          39.500    24352914.980    99721094.736 6      -364.901          39.562    24352915.200    99721094.724 7      -364.901          42.937
G02  21598700.620   113501936.314 7      2046.575          46.875    21598698.980   113501936.319 6      2046.575          39.437    21598701.500    88443069.852 6      1594.734          39.250
G03  20263807.320   106487023.541 8      3832.547          48.062    20263806.400   106487023.543 7      3832.547          42.062    20263813.600    82976928.161 6      2986.400          41.937    20263814.400    82976932.162 8      2986.400          51.750
G14  22286402.840   117115833.755 7      3691.941          44.812    22286401.580   117115833.770 5      3691.941          35.000    22286407.700    91259113.308 5      2876.837          34.812    22286407.900    91259116.314 7      2876.837          47.312
R05  19910422.100   106432614.051 8      3559.101          50.750    19910422.240   106432614.063 8      3559.101          49.500    19910431.820    82780964.196 8      2768.190          49.562    19910431.400    82780962.196 8      2768.190          49.562
G08  21489042.460   112925673.410 7       634.457          47.125    21489041.180   112925673.410 7       634.457          47.187    21489050.440    87994065.679 7       494.382          46.875    21489052.580    87994071.682 8       494.382          50.312
G21  21897665.320   115073002.717 8      1229.437          48.125    21897663.360   115073002.722 6      1229.437          38.500    21897667.580    89667287.414 6       958.003          39.000
R20  20785901.380   111151514.709 6      3085.401          36.812    20785900.460   111151514.699 6      3085.401          36.937    20785912.020    86451251.467 7      2399.757          43.000    20785913.100    86451256.471 7      2399.757          43.000
R04  21862488.960   117072631.275 7       -88.744          46.562    21862490.180   117072631.304 7       -88.744          45.625    21862500.820    91056544.260 7       -69.023          45.625    21862500.760    91056544.256 7       -69.023          45.562
R10  22004511.400   117296422.528 6       -35.471          37.312    22004511.400   117296422.548 6       -35.471          36.812
R11  22697474.780   121288423.676 7      3108.773          46.062    22697477.180   121288423.669 7      3108.773          44.875    22697486.040    94335476.953 7      2417.935          42.562    22697484.920    94335485.950 7      2417.935          43.562
> 2024 05 06 15 34 46.0000000  0 11
G27  24352982.820   127975769.030 7      -467.756          42.937    24352982.220   127975769.027 6      -467.756          40.062    24353004.180    99721459.402 6      -364.485          39.750    24353004.760    99721459.390 7      -364.485          42.937
G02  21598311.120   113499889.410 7      2047.270          47.937    21598309.460   113499889.417 6      2047.270          40.625    21598312.280    88441474.876 6      1595.276          40.062
G03  20263077.900   106483190.970 8      3832.599          49.125    20263077.120   106483190.975 7      3832.599          42.000    20263084.160    82973941.756 6      2986.441          41.750    20263085.140    82973945.759 8      2986.441          52.187
G14  22285700.500   117112141.669 7      3692.085          45.875    22285699.140   117112141.687 5      3692.085          35.187    22285705.100    91256236.369 5      2876.950          35.000    22285705.320    91256239.377 8      2876.950          48.500
R05  19909756.400   106429055.046 8      3558.902          52.250    19909756.400   106429055.058 8      3558.902          50.562    19909766.100    82778196.095 8      2768.035          50.812    19909765.700    82778194.092 8      2768.035          50.625
G08  21488921.520   112925038.786 7       634.843          47.625    21488920.400   112925038.780 7       634.843          47.625    21488929.580    87993571.164 7       494.683          47.125    21488931.860    87993577.169 8       494.683          50.500
G21  21897431.360   115071772.918 8      1230.131          48.250    21897429.280   115071772.923 6      1230.131          39.125    21897433.540    89666329.139 6       958.544          39.125
R20  20785324.100   111148429.022 6      3086.020          36.812    20785323.640   111148429.018 6      3086.020          36.937    20785334.580    86448851.503 7      2400.238          43.187    20785335.760    86448856.509 7      2400.238          42.750
R04  21862505.780   117072719.940 7       -88.657          47.375    21862506.560   117072719.982 7       -88.657          46.125    21862517.200    91056613.238 7       -68.956          45.562    21862517.140    91056613.238 7       -68.956          46.062
R10  22004518.920   117296457.953 6       -35.359          37.375    22004518.100   117296457.980 6       -35.359          36.812
R11  22696893.120   121285314.978 7      3108.652          46.687    22696895.300   121285314.968 7      3108.652          45.187    22696904.260    94333059.085 7      2417.840          43.187    22696903.540    94333068.086 7      2417.840          43.875
> 2024 05 06 15 34 47.0000000  0 11
G27  24353072.000   127976236.445 7      -467.649          43.312    24353071.280   127976236.447 6      -467.649          39.937    24353093.020    99721823.606 6      -364.402          40.000    24353093.820    99721823.600 7      -364.402          43.312
G02  21597921.460   113497841.785 7      2047.605          47.562    21597919.940   113497841.790 6      2047.605          40.000    21597922.560    88439879.332 6      1595.537          39.750
G03  20262348.520   106479358.205 8      3832.413          49.875    20262347.720   106479358.204 7      3832.413          42.562    20262354.840    82970955.198 7      2986.296          42.375    20262355.460    82970959.197 8      2986.296          53.125
G14  22284997.760   117108449.408 7      3691.882          45.875    22284996.580   117108449.423 5      3691.882          35.187    22285002.720    91253359.290 5      2876.791          35.000    22285003.020    91253362.298 8      2876.791          49.000
R05  19909090.620   106425496.145 8      3558.353          52.375    19909090.680   106425496.154 8      3558.353          51.125    19909100.340    82775428.072 8      2767.608          51.062    19909099.740    82775426.070 8      2767.608          51.250
G08  21488800.660   112924403.773 8       634.747          48.312    21488799.640   112924403.767 8       634.747          48.312    21488808.820    87993076.355 7       494.608          47.687    21488810.980    87993082.360 8       494.608          50.875
G21  21897197.220   115070542.336 8      1230.532          48.187    21897195.120   115070542.341 6      1230.532          39.062    21897199.340    89665370.252 6       958.856          39.000
R20  20784747.580   111145342.602 6      3086.373          36.812    20784746.760   111145342.593 6      3086.373          36.937    20784757.500    86446450.963 7      2400.512          42.875    20784758.560    86446455.963 7      2400.512          42.500
R04  21862522.040   117072808.495 7       -88.921          47.750    21862523.320   117072808.537 7       -88.921          46.750    21862533.960    91056682.122 7       -69.161          46.062    21862533.760    91056682.124 7       -69.161          46.187
R10  22004525.520   117296493.033 6       -35.474          37.375    22004524.860   117296493.060 6       -35.474          36.812
R11  22696311.520   121282206.242 7      3108.296          46.562    22696313.420   121282206.235 7      3108.296          45.750    22696322.000    94330641.184 7      2417.563          43.437    22696321.940    94330650.189 7      2417.563          44.000
> 2024 05 06 15 34 48.0000000  0 11
G27  24353160.880   127976703.418 7      -466.779          43.000    24353160.240   127976703.415 6      -466.779          39.625    24353181.860    99722187.461 6      -363.724          39.437    24353182.360    99722187.455 7      -363.724          43.437
G02  21597531.840   113495793.572 7      2048.519          47.875    21597530.180   113495793.574 6      2048.519          40.250    21597532.760    88438283.330 6      1596.249          40.312
G03  20261619.240   106475525.400 8      3832.768          48.750    20261618.540   106475525.400 7      3832.768          42.687    20261625.440    82967968.609 7      2986.573          42.375    20261625.940    82967972.612 8      2986.573          52.250
G14  22284295.060   117104757.107 7      3692.258          45.437    22284293.960   117104757.122 5      3692.258          35.500    22284300.040    91250482.185 5      2877.084          35.312    22284300.340    91250485.195 8      2877.084          48.625
R05  19908424.760   106421937.458 8      3558.505          51.875    19908425.060   106421937.467 8      3558.505          51.375    19908434.660    82772660.219 8      2767.726          51.500    19908434.220    82772658.215 8      2767.726          51.125
G08  21488679.780   112923768.497 7       635.376          47.937    21488678.780   112923768.494 7       635.376          47.687    21488688.100    87992581.343 7       495.098          47.312    21488690.260    87992587.352 8       495.098          50.750
G21  21896962.800   115069311.136 7      1231.503          47.437    21896960.740   115069311.146 6      1231.503          39.125    21896965.080    89664410.888 6       959.613          39.062
R20  20784169.400   111142255.555 6      3087.307          37.812    20784169.360   111142255.575 6      3087.307          36.937    20784179.800    86444049.959 7      2401.239          43.000    20784180.920    86444054.961 7      2401.239          42.125
R04  21862538.560   117072897.090 7       -88.701          47.812    21862539.640   117072897.129 7       -88.701          46.812    21862550.540    91056751.036 7       -68.990          45.750    21862550.240    91056751.038 7       -68.990          46.750
R10  22004532.380   117296527.916 6       -34.736          37.375    22004532.400   117296527.943 6       -34.736          38.875
R11  22695729.740   121279097.632 7      3108.474          45.812    22695731.040   121279097.644 7      3108.474          45.625    22695740.520    94328223.403 7      2417.702          43.375    22695740.040    94328232.412 7      2417.702          44.500
> 2024 05 06 15 34 49.0000000  0 11
G27  24353249.380   127977169.603 7      -465.779          43.437    24353248.980   127977169.597 6      -465.779          39.500    24353270.640    99722550.703 6      -362.944          39.625    24353271.220    99722550.697 7      -362.944          43.500
G02  21597141.780   113493744.431 7      2049.596          46.875    21597140.220   113493744.434 6      2049.596          40.000    21597142.920    88436686.608 6      1597.088          39.812
G03  20260889.640   106471692.188 8      3833.370          49.250    20260889.060   106471692.188 7      3833.370          42.187    20260896.120    82964981.703 7      2987.042          42.250    20260896.480    82964985.708 8      2987.042          52.375
G14  22283592.280   117101064.404 7      3692.942          46.937    22283591.380   117101064.419 5      3692.942          35.625    22283597.500    91247604.762 5      2877.617          35.437    22283597.640    91247607.768 8      2877.617          49.000
R05  19907758.860   106418378.645 8      3558.794          50.812    19907759.420   106418378.652 8      3558.794          49.687    19907768.820    82769892.264 8      2767.951          51.375    19907768.520    82769890.262 8      2767.951          51.625
G08  21488558.840   112923132.632 7       636.135          47.375    21488557.800   112923132.627 7       636.135          47.750    21488567.080    87992085.870 7       495.689          47.687    21488568.940    87992091.873 8       495.689          50.562
G21  21896728.360   115068078.964 8      1232.677          48.000    21896726.140   115068078.972 6      1232.677          38.812    21896730.600    89663450.762 6       960.528          38.875
R20  20783592.180   111139167.603 6      3088.535          37.812    20783592.860   111139167.610 6      3088.535          37.625    20783602.400    86441648.219 7      2402.194          43.000    20783603.540    86441653.212 7      2402.194          42.125
R04  21862554.860   117072985.348 7       -88.132          46.687    21862556.320   117072985.384 7       -88.132          45.312    21862567.140    91056819.691 7       -68.547          46.062    21862566.700    91056819.693 7       -68.547          46.250
R10  22004538.780   117296562.298 6       -34.098          39.687    22004538.740   117296562.315 6       -34.098          38.875
R11  22695147.700   121275988.824 7      3108.822          44.812    22695148.680   121275988.825 7      3108.822          45.125    22695158.740    94325805.452 7      2417.973          43.750    22695158.120    94325814.459 7      2417.973          44.312
> 2024 05 06 15 34 50.0000000  0 11
G27  24353337.800   127977635.186 7      -465.160          43.187    24353337.480   127977635.185 6      -465.160          39.625    24353359.380    99722913.485 6      -362.463          39.312    24353359.020    99722913.485 7      -362.463          43.187
G02  21596751.600   113491694.558 7      2050.300          45.937    21596750.180   113491694.565 6      2050.300          39.687    21596752.740    88435089.316 6      1597.636          39.812
G03  20260160.360   106467858.802 8      3833.555          48.000    20260159.700   106467858.799 7      3833.555          42.000    20260166.660    82961994.662 6      2987.186          41.875    20260167.160    82961998.667 8      2987.186          52.312
G14  22282889.440   117097371.549 7      3692.980          46.125    22282888.740   117097371.559 5      3692.980          35.375    22282894.860    91244727.221 5      2877.647          35.437    22282894.800    91244730.221 8      2877.647          48.875
R05  19907093.200   106414819.889 8      3558.766          49.875    19907093.600   106414819.896 8      3558.766          50.000    19907103.080    82767124.356 8      2767.929          51.312    19907102.780    82767122.353 8      2767.929          50.687
G08  21488437.760   112922496.371 7       636.519          47.500    21488436.760   112922496.368 8       636.519          48.000    21488446.100    87991590.088 7       495.988          47.500    21488447.740    87991596.096 8       495.988          50.812
G21  21896493.860   115066846.023 7      1233.408          47.500    21896491.520   115066846.038 6      1233.408          38.750    21896495.940    89662490.043 6       961.097          38.500
R20  20783014.640   111136078.916 6      3089.138          37.812    20783015.020   111136078.918 6      3089.138          37.625    20783025.040    86439245.911 7      2402.663          43.000    20783025.880    86439250.909 7      2402.663          42.312
R04  21862571.660   117073073.520 7       -88.054          46.375    21862572.620   117073073.553 7       -88.054          45.312    21862583.620    91056888.273 7       -68.486          46.062    21862583.140    91056888.277 7       -68.486          46.812
R10  22004545.260   117296596.369 6       -33.897          39.687    22004544.840   117296596.377 6       -33.897          38.875
R11  22694566.400   121272879.995 7      3108.948          43.750    22694567.020   121272879.986 7      3108.948          43.312    22694577.460    94323387.478 7      2418.071          43.687    22694576.760    94323396.483 7      2418.071          44.500
> 2024 05 06 15 34 51.0000000  0 11
G27  24353426.400   127978100.101 7      -464.525          43.437    24353425.940   127978100.106 6      -464.525          39.687    24353447.840    99723275.747 6      -361.967          39.625    24353447.940    99723275.735 7      -361.967          43.187
G02  21596361.500   113489643.835 7      2051.169          46.437    21596359.960   113489643.843 6      2051.169          40.625    21596362.560    88433491.358 6      1598.314          40.312
G03  20259431.000   106464025.094 8      3833.890          48.375    20259430.260   106464025.093 7      3833.890          42.437    20259437.100    82959007.369 7      2987.447          42.062    20259437.700    82959011.372 8      2987.447          52.625
G14  22282186.660   117093678.362 7      3693.347          45.125    22282185.980   117093678.375 5      3693.347          35.375    22282192.100    91241849.422 5      2877.933          35.250    22282192.280    91241852.423 8      2877.933          49.125
R05  19906427.560   106411261.068 8      3558.884          50.437    19906428.060   106411261.078 8      3558.884          49.625    19906437.480    82764356.397 8      2768.021          51.375    19906436.980    82764354.394 8      2768.021          51.125
G08  21488316.420   112921859.597 7       637.072          47.250    21488315.600   112921859.597 7       637.072          47.875    21488324.900    87991093.909 7       496.420          47.562    21488326.480    87991099.912 8       496.420          50.500
G21  21896259.100   115065612.190 7      1234.320          47.125    21896256.820   115065612.195 6      1234.320          39.000    21896261.160    89661528.617 6       961.808          39.125
R20  20782437.020   111132989.366 6      3089.978          37.812    20782436.980   111132989.365 6      3089.978          37.625    20782447.000    86436842.942 7      2403.316          42.875    20782448.100    86436847.946 7      2403.316          42.312
R04  21862587.840   117073161.461 7       -87.825          46.062    21862588.760   117073161.492 7       -87.825          45.250    21862599.860    91056956.681 7       -68.308          45.750    21862599.600    91056956.687 7       -68.308          46.375
R10  22004551.340   117296629.946 6       -33.382          41.125    22004551.260   117296629.970 6       -33.382          39.750
R11  22693984.760   121269771.059 7      3108.911          45.000    22693985.760   121269771.055 7      3108.911          43.625    22693995.560    94320969.429 7      2418.042          43.812    22693995.120    94320978.440 7      2418.042          44.437
> 2024 05 06 15 34 52.0000000  0 11
G27  24353515.160   127978564.481 7      -464.246          42.312    24353514.280   127978564.486 6      -464.246          39.687    24353536.220    99723637.580 6      -361.750          39.500    24353536.480    99723637.570 7      -361.750          43.250
G02  21595971.040   113487592.453 7      2051.624          47.687    21595969.640   113487592.458 6      2051.624          40.562    21595972.100    88431892.887 6      1598.668          40.062
G03  20258701.340   106460191.277 8      3833.732          48.125    20258700.720   106460191.277 7      3833.732          42.375    20258707.500    82956019.996 7      2987.324          42.375    20258708.220    82956023.995 8      2987.324          52.437
G14  22281484.080   117089985.073 7      3693.274          46.000    22281483.220   117089985.086 5      3693.274          35.500    22281489.380    91238971.544 5      2877.876          35.562    22281489.540    91238974.540 8      2877.876          48.812
R05  19905761.680   106407702.387 8      3558.458          50.687    19905762.120   106407702.399 8      3558.458          49.812    19905771.780    82761588.546 8      2767.689          51.562    19905771.240    82761586.545 8      2767.689          51.500
G08  21488195.280   112921222.516 7       637.094          46.750    21488194.260   112921222.518 7       637.094          47.625    21488203.680    87990597.488 7       496.437          47.625    21488205.460    87990603.492 8       496.437          50.750
G21  21896023.920   115064377.664 7      1234.789          46.937    21896021.940   115064377.672 6      1234.789          39.000    21896026.220    89660566.655 6       962.174          38.937
R20  20781858.960   111129899.126 6      3090.462          37.812    20781859.720   111129899.135 6      3090.462          37.625    20781869.600    86434439.434 7      2403.693          42.625    20781870.520    86434444.438 7      2403.693          42.312
R04  21862604.400   117073249.360 7       -88.003          46.375    21862605.300   117073249.397 7       -88.003          45.500    21862616.540    91057025.055 7       -68.446          45.625    21862616.180    91057025.065 7       -68.446          46.375
R10  22004557.340   117296663.291 6       -33.335          41.125    22004557.800   117296663.321 6       -33.335          39.750
R11  22693402.940   121266662.174 7      3108.689          45.437    22693404.180   121266662.175 7      3108.689          44.125    22693412.820    94318551.407 7      2417.869          43.375    22693413.300    94318560.410 7      2417.869          44.312
> 2024 05 06 15 34 53.0000000  0 11
G27  24353603.560   127979028.358 7      -463.445          42.312    24353602.480   127979028.363 6      -463.445          39.062    24353624.500    99723999.029 6      -361.126          39.000    24353624.560    99723999.021 7      -361.126          43.250
G02  21595580.440   113485540.433 8      2052.576          48.125    21595579.240   113485540.438 6      2052.576          40.312    21595581.660    88430293.920 6      1599.410          40.250
G03  20257971.780   106456357.353 8      3834.147          48.562    20257971.120   106456357.353 7      3834.147          42.312    20257977.980    82953032.533 6      2987.647          41.937    20257978.620    82953036.538 8      2987.647          52.500
G14  22280781.400   117086291.690 7      3693.638          47.062    22280780.480   117086291.705 5      3693.638          35.625    22280786.560    91236093.596 5      2878.159          35.687    22280786.880    91236096.591 8      2878.159          48.562
R05  19905096.360   106404143.868 8      3558.620          50.000    19905096.640   106404143.869 8      3558.620          50.187    19905106.020    82758820.816 8      2767.816          51.062    19905105.560    82758818.814 8      2767.816          51.312
G08  21488073.980   112920585.125 7       637.687          47.937    21488073.060   112920585.125 7       637.687          47.875    21488082.320    87990100.822 7       496.899          47.687    21488084.260    87990106.827 8       496.899          50.687
G21  21895789.120   115063142.447 7      1235.758          47.062    21895786.820   115063142.452 6      1235.758          38.875    21895791.100    89659604.156 6       962.928          38.937
R20  20781280.760   111126808.222 6      3091.766          37.250    20781281.760   111126808.229 6      3091.766          37.625    20781291.420    86432035.401 7      2404.707          42.687    20781292.300    86432040.404 7      2404.707          42.562
R04  21862620.800   117073337.243 7       -87.600          46.312    21862621.720   117073337.271 7       -87.600          45.187    21862632.840    91057093.412 7       -68.133          45.812    21862632.260    91057093.421 7       -68.133          46.187
R10  22004563.600   117296696.445 6       -32.852          41.125    22004564.220   117296696.459 6       -32.852          40.812
R11  22692821.480   121263553.382 7      3108.824          45.125    22692822.560   121263553.388 7      3108.824          44.812    22692830.620    94316133.466 7      2417.974          43.250    22692831.360    94316142.475 7      2417.974          43.437
> 2024 05 06 15 34 54.0000000  0 11
G27  24353691.420   127979491.508 7      -462.831          42.625    24353690.480   127979491.519 6      -462.831          39.437    24353712.400    99724359.913 6      -360.648          39.250    24353712.780    99724359.907 7      -360.648          43.125
G02  21595189.960   113483487.535 8      2053.342          48.125    21595188.580   113483487.545 6      2053.342          40.562    21595190.920    88428694.272 6      1600.007          39.937
G03  20257242.020   106452523.090 8      3834.451          48.812    20257241.560   106452523.093 7      3834.451          42.000    20257248.300    82950044.807 6      2987.884          41.875    20257248.900    82950048.812 8      2987.884          51.875
G14  22280078.380   117082597.981 7      3693.874          45.687    22280077.840   117082597.993 5      3693.874          35.687    22280083.720    91233215.389 5      2878.344          35.687    22280084.000    91233218.390 8      2878.344          49.000
R05  19904430.640   106400585.272 8      3558.630          50.937    19904430.800   106400585.281 8      3558.630          50.312    19904440.220    82756053.035 8      2767.823          50.812    19904439.840    82756051.032 8      2767.823          50.312
G08  21487952.640   112919947.190 7       638.162          47.437    21487951.680   112919947.192 7       638.162          47.500    21487960.980    87989603.738 7       497.269          47.187    21487962.800    87989609.743 8       497.269          50.125
G21  21895553.960   115061906.318 7      1236.627          46.687    21895551.580   115061906.321 6      1236.627          38.500    21895555.920    89658640.947 6       963.605          38.937
R20  20780703.320   111123716.488 6      3092.218          37.250    20780702.640   111123716.502 6      3092.218          37.250    20780713.620    86429630.739 7      2405.059          42.687    20780714.340    86429635.738 7      2405.059          42.437
R04  21862637.160   117073424.855 7       -87.509          46.000    21862637.900   117073424.892 7       -87.509          45.500    21862649.100    91057161.568 7       -68.062          45.875    21862648.780    91057161.574 7       -68.062          45.750
R10  22004570.000   117296729.108 6       -32.468          41.125    22004570.600   117296729.114 6       -32.468          40.812
R11  22692239.540   121260444.387 7      3109.184          44.437    22692239.680   121260444.380 7      3109.184          44.500    22692249.820    94313715.359 7      2418.254          43.375    22692249.360    94313724.362 7      2418.254          43.937
> 2024 05 06 15 34 55.0000000  0 11
G27  24353779.460   127979954.143 7      -462.544          42.062    24353778.600   127979954.153 6      -462.544          39.250    24353800.520    99724720.387 6      -360.424          38.375    24353800.860    99724720.371 7      -360.424          43.125
G02  21594799.260   113481433.949 8      2053.882          48.812    21594797.840   113481433.959 6      2053.882          40.000    21594800.120    88427094.085 6      1600.428          40.125
G03  20256512.420   106448688.698 8      3834.419          48.687    20256511.920   106448688.695 6      3834.419          41.500    20256518.620    82947056.982 6      2987.859          41.062    20256519.100    82947060.981 8      2987.859          51.187
G14  22279375.500   117078904.137 7      3693.835          46.187    22279374.800   117078904.150 5      3693.835          35.687    22279380.560    91230337.080 5      2878.313          35.500    22279381.300    91230340.083 8      2878.313          48.937
R05  19903764.900   106397026.823 8      3558.364          51.187    19903765.120   106397026.835 8      3558.364          49.437    19903774.520    82753285.367 8      2767.616          49.562    19903774.380    82753283.362 8      2767.616          49.187
G08  21487831.160   112919308.906 7       638.451          46.937    21487830.200   112919308.905 7       638.451          46.125    21487839.520    87989106.373 7       497.495          46.062    21487841.380    87989112.379 8       497.495          49.750
G21  21895318.460   115060669.454 7      1237.199          46.625    21895316.240   115060669.461 6      1237.199          38.687    21895320.600    89657677.173 6       964.051          38.687
R20  20780124.800   111120624.034 6      3092.760          37.250    20780124.580   111120624.054 6      3092.760          37.250    20780135.520    86427225.511 7      2405.480          42.375    20780136.200    86427230.505 6      2405.480          41.812
R04  21862653.700   117073512.371 7       -87.553          46.312    21862654.360   117073512.403 7       -87.553          45.125    21862665.200    91057229.642 7       -68.097          44.562    21862665.260    91057229.644 7       -68.097          45.500
R10  22004576.060   117296761.454 7       -32.167          42.312    22004576.040   117296761.459 6       -32.167          41.250
R11  22691657.740   121257335.454 7      3108.832          44.750    22691658.160   121257335.460 7      3108.832          44.000    22691668.700    94311297.331 7      2417.980          43.625    22691667.820    94311306.332 7      2417.980          43.937
> 2024 05 06 15 34 56.0000000  0 11
G27  24353867.420   127980416.071 6      -461.658          41.250    24353866.400   127980416.079 6      -461.658          39.250    24353888.600    99725080.315 6      -359.734          39.187    24353888.980    99725080.307 7      -359.734          43.000
G02  21594408.400   113479379.574 8      2054.639          48.500    21594406.780   113479379.581 6      2054.639          40.750    21594409.320    88425493.280 6      1601.018          40.437
G03  20255782.760   106444854.036 8      3834.629          49.000    20255782.260   106444854.036 7      3834.629          42.187    20255788.920    82944068.946 6      2988.022          41.937    20255789.460    82944072.944 8      2988.022          52.625
G14  22278672.740   117075210.029 7      3694.126          46.312    22278671.900   117075210.039 5      3694.126          35.375    22278677.560    91227458.560 5      2878.539          35.312    22278678.080    91227461.567 8      2878.539          48.875
R05  19903099.000   106393468.395 8      3558.318          51.437    19903099.320   106393468.407 8      3558.318          49.812    19903108.880    82750517.714 8      2767.581          50.375    19903108.580    82750515.708 8      2767.581          50.250
G08  21487709.560   112918670.164 7       638.836          46.312    21487708.660   112918670.166 7       638.836          47.375    21487717.900    87988608.663 7       497.794          47.062    21487720.000    87988614.670 8       497.794          50.812
G21  21895083.000   115059431.754 7      1238.008          46.875    21895080.700   115059431.764 6      1238.008          38.562    21895084.980    89656712.737 6       964.682          38.875
R20  20779545.860   111117530.764 6      3093.624          37.250    20779545.960   111117530.797 6      3093.624          37.250    20779557.420    86424819.654 7      2406.152          42.562    20779557.760    86424824.653 7      2406.152          42.500
R04  21862670.060   117073599.695 7       -87.360          46.750    21862670.620   117073599.737 7       -87.360          45.312    21862681.480    91057297.575 7       -67.946          45.500    21862681.300    91057297.575 7       -67.946          46.000
R10  22004582.560   117296793.426 7       -31.921          42.625    22004582.220   117296793.443 6       -31.921          41.250
R11  22691076.000   121254226.464 7      3108.926          45.125    22691077.000   121254226.457 7      3108.926          45.250    22691087.200    94308879.238 7      2418.053          44.375    22691086.280    94308888.245 7      2418.053          45.125
> 2024 05 06 15 34 57.0000000  0 11
G27  24353954.960   127980877.440 7      -461.035          42.687    24353954.420   127980877.442 6      -461.035          39.375    24353976.360    99725439.800 6      -359.248          39.312    24353976.840    99725439.794 7      -359.248          43.062
G02  21594017.320   113477324.456 8      2055.407          48.937    21594015.780   113477324.466 6      2055.407          40.312    21594018.220    88423891.895 6      1601.616          39.875
G03  20255053.100   106441019.195 7      3834.785          47.937    20255052.420   106441019.195 7      3834.785          42.750    20255059.360    82941080.770 6      2988.145          41.875    20255059.740    82941084.771 8      2988.145          52.375
G14  22277969.180   117071515.757 7      3694.276          45.937    22277968.880   117071515.767 5      3694.276          35.500    22277974.620    91224579.917 5      2878.656          35.500    22277974.940    91224582.918 8      2878.656          48.812
R05  19902433.620   106389910.064 8      3558.190          50.312    19902433.760   106389910.073 8      3558.190          49.625    19902443.240    82747750.133 8      2767.481          51.000    19902442.840    82747748.130 8      2767.481          51.437
G08  21487587.880   112918031.036 7       639.125          46.187    21487586.980   112918031.043 7       639.125          47.937    21487596.360    87988110.649 7       498.020          47.375    21487598.560    87988116.659 8       498.020          50.750
G21  21894847.200   115058193.286 7      1238.791          47.437    21894845.020   115058193.296 6      1238.791          39.250    21894849.320    89655747.704 6       965.292          38.875
R20  20778967.280   111114436.781 6      3094.343          37.500    20778968.000   111114436.790 6      3094.343          37.250    20778978.880    86422413.212 7      2406.712          42.875    20778979.500    86422418.201 7      2406.712          43.187
R04  21862686.460   117073686.948 7       -87.333          46.000    21862687.120   117073686.990 7       -87.333          44.875    21862697.640    91057365.443 7       -67.925          45.687    21862697.820    91057365.443 7       -67.925          46.375
R10  22004588.740   117296825.074 7       -31.626          43.125    22004588.500   117296825.082 6       -31.626          41.812
R11  22690494.160   121251117.426 7      3108.945          46.312    22690495.620   121251117.430 7      3108.945          44.937    22690504.940    94306461.116 7      2418.069          44.125    22690504.440    94306470.126 7      2418.069          44.562
> 2024 05 06 15 34 58.0000000  0 11
G27  24354042.640   127981338.278 7      -460.625          42.187    24354042.080   127981338.285 6      -460.625          39.000    24354063.940    99725798.882 6      -358.929          39.312    24354064.500    99725798.874 7      -358.929          43.250
G02  21593626.040   113475268.681 7      2055.891          47.625    21593624.640   113475268.688 6      2055.891          40.562    21593627.040    88422290.005 6      1601.993          40.312
G03  20254323.160   106437184.199 8      3834.885          48.250    20254322.640   106437184.204 7      3834.885          42.312    20254329.500    82938092.478 7      2988.222          42.062    20254330.100    82938096.474 8      2988.222          52.312
G14  22277266.380   117067821.346 7      3694.288          46.312    22277265.860   117067821.354 5      3694.288          35.375    22277271.660    91221701.165 5      2878.666          35.500    22277271.800    91221704.163 8      2878.666          48.125
R05  19901767.920   106386351.847 8      3558.040          50.937    19901768.060   106386351.856 8      3558.040          49.500    19901777.580    82744982.640 8      2767.364          51.562    19901777.260    82744980.638 8      2767.364          51.250
G08  21487466.140   112917391.559 7       639.474          46.187    21487465.340   112917391.566 7       639.474          47.312    21487474.640    87987612.361 7       498.291          47.375    21487476.760    87987618.369 8       498.291          50.562
G21  21894611.540   115056954.099 7      1239.365          46.937    21894609.100   115056954.109 6      1239.365          38.625    21894613.560    89654782.116 6       965.739          38.812
R20  20778388.720   111111342.126 6      3094.803          37.500    20778389.200   111111342.125 6      3094.803          37.375    20778400.180    86420006.266 7      2407.069          43.312    20778400.580    86420011.254 7      2407.069          43.125
R04  21862702.840   117073774.156 7       -87.398          46.437    21862703.280   117073774.196 7       -87.398          45.187    21862714.100    91057433.284 7       -67.977          46.187    21862713.840    91057433.284 7       -67.977          45.875
R10  22004594.400   117296856.428 7       -31.407          43.125    22004594.280   117296856.447 6       -31.407          41.812
R11  22689912.280   121248008.464 7      3108.678          46.312    22689913.380   121248008.467 7      3108.678          44.687    22689922.400    94304043.026 7      2417.860          43.750    22689922.660    94304052.039 7      2417.860          44.187
> 2024 05 06 15 34 59.0000000  0 11
G27  24354130.520   127981798.742 6      -460.313          41.687    24354129.640   127981798.750 6      -460.313          39.187    24354151.760    99726157.674 6      -358.686          39.000    24354152.540    99726157.668 7      -358.686          43.500
G02  21593234.880   113473212.354 7      2056.491          47.937    21593233.300   113473212.356 6      2056.491          40.375    21593235.580    88420687.674 6      1602.461          40.375
G03  20253593.460   106433349.229 8      3834.925          48.125    20253592.900   106433349.234 7      3834.925          42.562    20253599.920    82935104.202 7      2988.254          42.562    20253600.400    82935108.199 8      2988.254          52.750
G14  22276563.560   117064126.951 7      3694.244          45.625    22276562.940   117064126.959 5      3694.244          35.375    22276568.440    91218822.424 5      2878.632          35.375    22276568.200    91218825.420 8      2878.632          48.062
R05  19901102.460   106382793.919 8      3557.679          50.500    19901102.400   106382793.928 8      3557.679          50.250    19901111.940    82742215.377 8      2767.084          51.062    19901111.520    82742213.375 8      2767.084          51.000
G08  21487344.540   112916751.884 7       639.802          46.937    21487343.560   112916751.884 8       639.802          48.250    21487352.960    87987113.912 8       498.547          48.000    21487354.760    87987119.923 8       498.547          50.250
G21  21894375.520   115055714.331 7      1240.037          47.375    21894373.240   115055714.333 6      1240.037          39.125    21894377.600    89653816.067 6       966.263          38.875
R20  20777809.940   111108246.905 6      3095.328          37.500    20777810.400   111108246.911 6      3095.328          37.375    20777821.220    86417598.889 7      2407.477          43.312    20777821.640    86417603.876 7      2407.477          43.562
R04  21862718.960   117073861.437 7       -87.410          46.250    21862719.820   117073861.481 7       -87.410          45.312    21862730.100    91057501.179 7       -67.985          45.250    21862730.260    91057501.179 7       -67.985          46.500
R10  22004600.460   117296887.671 7       -31.405          43.375    22004599.940   117296887.690 7       -31.405          42.187
R11  22689330.660   121244899.645 7      3108.655          46.250    22689331.620   121244899.646 7      3108.655          44.625    22689340.200    94301625.048 7      2417.843          43.750    22689340.820    94301634.049 7      2417.843          43.687
> 2024 05 06 15 35  0.0000000  0 11
G27  24354217.860   127982258.671 7      -459.547          42.000    24354217.220   127982258.670 6      -459.547          39.375    24354239.300    99726516.039 6      -358.089          39.250    24354239.840    99726516.031 7      -358.089          43.937
G02  21592843.340   113471155.349 8      2057.386          48.937    21592841.980   113471155.354 6      2057.386          40.500    21592844.220    88419084.825 6      1603.158          40.250
G03  20252863.640   106429514.117 8      3835.352          48.625    20252863.020   106429514.122 7      3835.352          42.625    20252869.940    82932115.817 7      2988.586          42.375    20252870.680    82932119.814 8      2988.586          52.562
G14  22275860.640   117060432.420 7      3694.680          46.000    22275859.880   117060432.425 5      3694.680          35.375    22275865.280    91215943.572 5      2878.972          35.375    22275865.460    91215946.570 8      2878.972          48.062
R05  19900436.560   106379236.103 8      3557.837          50.437    19900436.840   106379236.115 8      3557.837          49.812    19900446.480    82739448.201 8      2767.207          50.937    19900445.860    82739446.202 8      2767.207          50.937
G08  21487222.840   112916111.894 7       640.251          47.062    21487221.780   112916111.897 7       640.251          47.750    21487231.220    87986615.227 7       498.897          47.375    21487233.040    87986621.236 8       498.897          49.937
G21  21894139.420   115054473.862 7      1240.908          47.937    21894137.160   115054473.866 6      1240.908          38.875    21894141.460    89652849.479 6       966.941          38.750
R20  20777231.260   111105150.980 6      3096.500          37.500    20777231.880   111105150.974 6      3096.500          37.375    20777242.840    86415190.947 7      2408.389          42.687    20777243.140    86415195.937 7      2408.389          43.375
R04  21862735.300   117073948.634 7       -87.116          46.625    21862736.260   117073948.681 7       -87.116          45.375    21862746.460    91057569.014 7       -67.757          45.250    21862746.540    91057569.010 7       -67.757          45.812
R10  22004606.460   117296918.620 7       -30.680          43.687    22004605.680   117296918.626 7       -30.680          43.062
R11  22688748.820   121241790.917 7      3108.794          45.812    22688750.580   121241790.911 7      3108.794          45.062    22688759.180    94299207.148 7      2417.951          43.625    22688758.720    94299216.149 7      2417.951          44.437
> 2024 05 06 15 35  1.0000000  0 11
G27  24354305.360   127982718.113 6      -459.252          41.750    24354304.580   127982718.116 6      -459.252          39.250    24354326.660    99726874.036 6      -357.859          38.875    24354327.240    99726874.030 7      -357.859          43.937
G02  21592451.880   113469097.727 8      2057.801          48.250    21592450.420   113469097.731 6      2057.801          40.500    21592452.740    88417481.496 6      1603.481          40.187
G03  20252133.800   106425678.945 7      3835.220          47.875    20252133.080   106425678.947 7      3835.220          42.312    20252140.160    82929127.382 6      2988.483          41.812    20252140.920    82929131.374 8      2988.483          53.000
G14  22275157.680   117056737.812 7      3694.678          46.125    22275156.720   117056737.819 5      3694.678          35.500    22275162.080    91213064.665 5      2878.970          35.500    22275162.100    91213067.661 7      2878.970          47.875
R05  19899771.140   106375678.472 8      3557.580          50.500    19899771.320   106375678.479 8      3557.580          49.812    19899780.860    82736681.163 8      2767.007          51.375    19899780.440    82736679.168 8      2767.007          51.125
G08  21487101.140   112915471.608 7       640.375          47.312    21487100.020   112915471.607 8       640.375          48.187    21487109.260    87986116.306 7       498.993          47.750    21487111.120    87986122.317 8       498.993          50.312
G21  21893903.240   115053232.717 8      1241.465          48.062    21893900.940   115053232.724 6      1241.465          39.000    21893905.340    89651882.362 6       967.375          39.125
R20  20776653.020   111102054.449 6      3096.898          38.312    20776653.140   111102054.463 6      3096.898          37.375    20776663.760    86412782.559 7      2408.699          43.312    20776664.080    86412787.548 7      2408.699          43.937
R04  21862751.520   117074035.802 7       -87.214          46.312    21862752.860   117074035.849 7       -87.214          46.125    21862763.020    91057636.826 7       -67.833          46.000    21862762.980    91057636.817 7       -67.833          46.312
R10  22004612.520   117296949.337 7       -30.617          44.125    22004611.660   117296949.359 7       -30.617          43.000
R11  22688167.840   121238682.286 7      3108.474          46.812    22688168.840   121238682.282 7      3108.474          45.625    22688177.400    94296789.322 7      2417.702          43.812    22688177.580    94296798.325 7      2417.702          44.312
> 2024 05 06 15 35  2.0000000  0 11
G27  24354392.940   127983177.243 7      -458.991          42.125    24354391.840   127983177.245 6      -458.991          39.500    24354414.180    99727231.783 6      -357.655          39.062    24354414.660    99727231.769 7      -357.655          43.437
G02  21592060.220   113467039.626 8      2058.393          48.375    21592058.820   113467039.631 6      2058.393          40.687    21592061.220    88415877.791 6      1603.943          40.312
G03  20251403.940   106421843.836 8      3835.093          48.562    20251403.280   106421843.841 6      3835.093          41.812    20251410.420    82926139.003 6      2988.384          41.625    20251411.200    82926143.000 8      2988.384          53.500
G14  22274454.740   117053043.301 7      3694.525          46.500    22274453.900   117053043.311 5      3694.525          35.625    22274459.020    91210185.838 5      2878.851          35.500    22274459.180    91210188.834 8      2878.851          48.000
R05  19899105.680   106372121.207 8      3557.110          50.562    19899105.800   106372121.211 8      3557.110          50.125    19899115.520    82733914.410 8      2766.641          51.250    19899114.980    82733912.410 8      2766.641          50.875
G08  21486979.440   112914831.182 7       640.639          47.187    21486978.140   112914831.181 7       640.639          47.625    21486987.500    87985617.281 7       499.199          47.312    21486989.020    87985623.288 8       499.199          50.437
G21  21893667.060   115051991.065 7      1241.998          47.125    21893664.780   115051991.075 6      1241.998          38.875    21893669.000    89650914.853 6       967.790          39.000
R20  20776073.240   111098957.431 6      3097.397          38.312    20776073.700   111098957.445 6      3097.397          37.812    20776084.800    86410373.780 7      2409.086          43.375    20776084.900    86410378.771 7      2409.086          44.062
R04  21862767.960   117074123.136 7       -87.281          46.562    21862769.260   117074123.178 7       -87.281          45.937    21862779.520    91057704.754 7       -67.885          45.250    21862778.740    91057704.748 7       -67.885          46.500
R10  22004618.220   117296980.007 7       -30.585          44.062    22004617.380   117296980.039 7       -30.585          43.000
R11  22687585.420   121235573.898 7      3108.299          46.250    22687586.940   121235573.888 7      3108.299          45.187    22687595.140    94294371.688 7      2417.566          44.250    22687595.780    94294380.691 7      2417.566          44.812
> 2024 05 06 15 35  3.0000000  0 11
G27  24354480.000   127983635.913 6      -458.415          41.562    24354479.180   127983635.923 6      -458.415          39.375    24354501.400    99727589.172 6      -357.207          39.375    24354501.800    99727589.168 7      -357.207          43.687
G02  21591668.380   113464980.955 7      2058.973          47.562    21591667.120   113464980.960 6      2058.973          40.437    21591669.440    88414273.642 6      1604.394          40.250
G03  20250674.140   106418008.685 8      3835.207          49.000    20250673.440   106418008.684 7      3835.207          42.250    20250680.560    82923150.586 6      2988.473          41.625    20250681.400    82923154.581 8      2988.473          53.125
G14  22273751.600   117049348.759 7      3694.542          46.375    22273750.980   117049348.769 5      3694.542          35.625    22273756.100    91207306.984 5      2878.864          35.750    22273756.440    91207309.982 8      2878.864          48.062
R05  19898440.500   106368564.153 8      3556.980          50.625    19898440.340   106368564.160 8      3556.980          50.000    19898450.120    82731147.829 8      2766.540          50.625    19898449.540    82731145.830 8      2766.540          51.062
G08  21486857.460   112914190.530 7       640.812          47.312    21486856.240   112914190.535 7       640.812          47.687    21486865.560    87985118.078 7       499.334          47.437    21486866.840    87985124.091 8       499.334          50.187
G21  21893430.660   115050748.801 7      1242.604          47.625    21893428.380   115050748.811 6      1242.604          38.312    21893432.500    89649946.865 6       968.263          38.312
R20  20775493.800   111095859.843 6      3097.848          38.312    20775494.880   111095859.874 6      3097.848          37.812    20775505.680    86407964.561 7      2409.437          43.500    20775505.480    86407969.555 7      2409.437          43.875
R04  21862784.220   117074210.542 7       -87.444          46.625    21862785.320   117074210.587 7       -87.444          45.437    21862795.820    91057772.745 7       -68.012          45.375    21862795.300    91057772.737 7       -68.012          45.875
R10  22004623.760   117297010.511 7       -30.369          44.125    22004622.620   117297010.546 7       -30.369          43.562
R11  22687003.560   121232465.640 7      3108.302          45.687    22687004.200   121232465.641 7      3108.302          44.937    22687012.860    94291954.165 7      2417.568          44.062    22687013.840    94291963.158 7      2417.568          44.687
> 2024 05 06 15 35  4.0000000  0 11
G27  24354567.200   127984094.071 6      -458.105          41.687    24354566.380   127984094.076 6      -458.105          39.375    24354588.580    99727946.155 6      -356.965          39.000    24354589.660    99727946.139 7      -356.965          43.687
G02  21591276.460   113462921.591 7      2059.508          46.812    21591275.300   113462921.599 6      2059.508          40.312    21591277.380    88412668.951 6      1604.811          39.937
G03  20249944.400   106414173.381 7      3835.240          47.750    20249943.680   106414173.383 7      3835.240          42.500    20249950.780    82920162.044 6      2988.499          41.687    20249951.420    82920166.045 8      2988.499          51.562
G14  22273048.580   117045654.057 7      3694.619          46.562    22273048.020   117045654.064 5      3694.619          35.250    22273053.000    91204427.999 5      2878.924          35.437    22273053.260    91204430.997 8      2878.924          48.125
R05  19897774.920   106365007.238 8      3556.656          50.000    19897774.980   106365007.242 8      3556.656          49.562    19897784.680    82728381.344 8      2766.288          50.062    19897784.120    82728379.346 8      2766.288          50.500
G08  21486735.480   112913549.523 7       640.999          46.812    21486734.320   112913549.526 7       640.999          47.625    21486743.560    87984618.592 7       499.480          47.000    21486745.080    87984624.602 8       499.480          49.375
G21  21893194.160   115049505.806 7      1243.173          46.125    21893191.840   115049505.814 6      1243.173          38.750    21893195.980    89648978.300 6       968.706          38.562
R20  20774913.800   111092761.507 6      3098.658          38.312    20774914.560   111092761.543 6      3098.658          37.812    20774926.260    86405554.761 7      2410.067          43.500    20774926.140    86405559.748 7      2410.067          43.500
R04  21862800.340   117074297.884 7       -87.511          46.312    21862801.340   117074297.921 7       -87.511          45.062    21862812.140    91057840.680 7       -68.064          45.312    21862811.900    91057840.674 7       -68.064          45.437
R10  22004628.880   117297040.708 7       -30.200          44.125    22004628.420   117297040.738 7       -30.200          43.312
R11  22686421.800   121229357.426 7      3108.056          45.250    22686422.180   121229357.421 7      3108.056          44.500    22686431.560    94289536.671 7      2417.377          43.937    22686432.060    94289545.664 7      2417.377          45.000
> 2024 05 06 15 35  5.0000000  0 11
G27  24354654.380   127984551.811 6      -457.614          41.875    24354653.500   127984551.813 6      -457.614          38.625    24354675.780    99728302.817 6      -356.582          38.687    24354676.500    99728302.805 7      -356.582          43.000
G02  21590884.540   113460861.699 7      2060.013          47.500    21590883.360   113460861.706 6      2060.013          40.312    21590885.460    88411063.848 6      1605.205          40.062
G03  20249214.320   106410338.104 7      3835.114          47.062    20249213.760   106410338.101 7      3835.114          42.062    20249221.040    82917173.531 6      2988.401          41.187    20249221.680    82917177.530 8      2988.401          51.687
G14  22272345.380   117041959.388 7      3694.533          46.500    22272345.020   117041959.390 5      3694.533          35.250    22272349.760    91201549.045 5      2878.857          35.437    22272350.300    91201552.043 7      2878.857          47.875
R05  19897109.600   106361450.596 8      3556.333          50.187    19897109.460   106361450.597 8      3556.333          48.875    19897119.440    82725615.079 8      2766.036          49.250    19897118.860    82725613.079 8      2766.036          49.687
G08  21486613.360   112912908.330 7       641.120          45.875    21486612.140   112912908.332 7       641.120          47.375    21486621.600    87984118.965 7       499.574          46.875    21486622.980    87984124.973 8       499.574          49.437
G21  21892957.460   115048262.244 7      1243.673          46.625    21892955.280   115048262.252 6      1243.673          38.625    21892959.400    89648009.299 6       969.096          39.000
R20  20774334.180   111089662.703 6      3099.027          38.312    20774335.480   111089662.723 6      3099.027          37.812    20774346.680    86403144.582 7      2410.355          42.750    20774346.820    86403149.569 7      2410.355          42.875
R04  21862816.960   117074385.347 7       -87.643          46.000    21862817.620   117074385.381 7       -87.643          44.812    21862828.300    91057908.712 7       -68.167          45.062    21862827.920    91057908.704 7       -68.167          45.812
R10  22004634.380   117297070.813 7       -30.207          44.437    22004633.940   117297070.837 7       -30.207          44.062
R11  22685839.960   121226249.419 7      3107.748          45.062    22685840.800   121226249.418 7      3107.748          44.250    22685850.620    94287119.343 7      2417.137          44.125    22685850.360    94287128.336 7      2417.137          44.250
> 2024 05 06 15 35  6.0000000  0 11
G27  24354741.140   127985009.177 6      -457.064          41.250    24354740.620   127985009.188 6      -457.064          38.875    24354762.880    99728659.193 6      -356.153          38.875    24354763.620    99728659.187 7      -356.153          43.187
G02  21590492.300   113458801.281 7      2060.832          47.750    21590491.160   113458801.286 6      2060.832          40.437    21590493.500    88409458.336 6      1605.843          40.312
G03  20248484.720   106406502.824 8      3835.339          48.687    20248483.700   106406502.826 7      3835.339          42.500    20248491.120    82914185.015 6      2988.576          41.750    20248491.900    82914189.018 8      2988.576          52.437
G14  22271642.040   117038264.723 7      3694.781          46.562    22271641.880   117038264.730 5      3694.781          35.125    22271646.600    91198670.091 5      2879.050          35.125    22271646.960    91198673.099 8      2879.050          48.000
R05  19896444.380   106357894.223 8      3556.288          50.500    19896444.180   106357894.227 8      3556.288          50.000    19896454.040    82722849.024 8      2766.002          50.625    19896453.400    82722847.025 8      2766.002          50.625
G08  21486491.000   112912266.927 7       641.662          46.875    21486490.080   112912266.926 7       641.662          47.500    21486499.600    87983619.175 7       499.996          47.062    21486500.960    87983625.182 8       499.996          50.312
G21  21892720.660   115047018.117 7      1244.485          47.187    21892718.440   115047018.127 6      1244.485          38.187    21892722.660    89647039.858 6       969.729          38.500
R20  20773754.920   111086563.356 6      3099.658          37.687    20773755.980   111086563.378 6      3099.658          37.875    20773767.120    86400733.989 7      2410.845          43.500    20773767.280    86400738.979 7      2410.845          43.500
R04  21862833.080   117074472.882 7       -87.546          46.000    21862834.100   117074472.915 7       -87.546          44.937    21862844.560    91057976.795 7       -68.091          45.375    21862844.340    91057976.795 7       -68.091          45.875
R10  22004640.160   117297100.771 7       -29.742          44.500    22004639.600   117297100.787 7       -29.742          43.437
R11  22685258.600   121223141.573 7      3107.804          45.062    22685259.420   121223141.582 7      3107.804          44.187    22685269.580    94284702.157 7      2417.181          44.750    22685269.020    94284711.154 7      2417.181          45.187
> 2024 05 06 15 35  7.0000000  0 11
G27  24354828.120   127985465.932 7      -456.496          42.312    24354827.500   127985465.937 6      -456.496          39.250    24354849.720    99729015.087 6      -355.711          39.062    24354850.560    99729015.081 7      -355.711          43.187
G02  21590100.240   113456740.114 7      2061.377          47.812    21590098.980   113456740.121 6      2061.377          40.125    21590101.200    88407852.242 6      1606.268          40.062
G03  20247754.720   106402667.339 8      3835.444          48.000    20247753.800   106402667.339 7      3835.444          42.000    20247761.280    82911196.338 6      2988.657          41.500    20247762.000    82911200.339 8      2988.657          52.812
G14  22270938.940   117034569.865 7      3694.852          45.625    22270938.740   117034569.870 5      3694.852          35.625    22270943.220    91195790.990 5      2879.106          35.437    22270943.920    91195793.993 8      2879.106          48.062
R05  19895779.360   106354337.897 8      3556.143          49.750    19895778.780   106354337.900 8      3556.143          49.562    19895788.880    82720083.004 8      2765.889          49.562    19895788.220    82720081.013 8      2765.889          49.625
G08  21486368.880   112911625.124 7       641.875          47.750    21486368.100   112911625.126 7       641.875          47.250    21486377.520    87983119.075 7       500.162          46.812    21486379.040    87983125.084 8       500.162          50.125
G21  21892483.760   115045773.186 7      1245.215          47.937    21892481.520   115045773.194 6      1245.215          38.375    21892485.740    89646069.788 6       970.298          38.250
R20  20773175.740   111083463.225 6      3100.278          37.687    20773176.320   111083463.253 6      3100.278          37.875    20773187.060    86398322.793 7      2411.328          43.250    20773187.280    86398327.793 7      2411.328          43.500
R04  21862849.680   117074560.194 7       -87.339          46.437    21862850.460   117074560.231 7       -87.339          45.312    21862860.860    91058044.728 7       -67.930          45.250    21862860.520    91058044.726 7       -67.930          45.375
R10  22004645.760   117297130.382 7       -29.528          44.625    22004645.160   117297130.396 7       -29.528          43.937
R11  22684677.040   121220033.690 7      3107.790          44.750    22684677.580   121220033.696 7      3107.790          44.187    22684688.320    94282284.929 7      2417.170          44.437    22684687.480    94282293.928 7      2417.170          45.375
> 2024 05 06 15 35  8.0000000  0 11
G27  24354915.360   127985922.521 7      -456.182          42.000    24354914.360   127985922.528 6      -456.182          39.187    24354936.600    99729370.856 6      -355.466          39.125    24354937.420    99729370.856 7      -355.466          43.312
G02  21589708.120   113454678.637 7      2061.881          47.375    21589706.660   113454678.647 6      2061.881          39.937    21589708.860    88406245.905 6      1606.660          40.000
G03  20247025.060   106398832.070 7      3835.489          47.750    20247023.980   106398832.072 6      3835.489          41.687    20247031.400    82908207.829 6      2988.693          41.500    20247031.960    82908211.832 8      2988.693          52.312
G14  22270236.020   117030875.239 7      3694.828          46.000    22270235.760   117030875.244 5      3694.828          35.187    22270240.180    91192912.068 5      2879.087          35.437    22270240.720    91192915.070 8      2879.087          48.062
R05  19895114.220   106350782.069 8      3555.818          50.000    19895113.660   106350782.071 8      3555.818          49.562    19895123.720    82717317.371 8      2765.636          51.062    19895123.160    82717315.380 8      2765.636          51.250
G08  21486246.760   112910983.340 7       642.063          47.312    21486245.960   112910983.342 7       642.063          47.500    21486255.320    87982618.985 7       500.309          47.375    21486256.920    87982624.997 8       500.309          50.187
G21  21892246.820   115044527.913 7      1245.768          47.500    21892244.600   115044527.921 6      1245.768          38.812    21892248.880    89645099.453 6       970.728          38.937
R20  20772595.660   111080362.772 6      3101.061          37.687    20772596.460   111080362.786 6      3101.061          37.875    20772607.120    86395911.327 7      2411.936          43.062    20772607.480    86395916.329 7      2411.936          42.625
R04  21862866.140   117074647.839 7       -87.481          46.687    21862867.340   117074647.878 7       -87.481          45.125    21862877.320    91058112.900 7       -68.040          46.125    21862877.040    91058112.900 7       -68.040          46.062
R10  22004651.300   117297160.089 7       -29.491          45.125    22004650.880   117297160.108 7       -29.491          43.937
R11  22684095.800   121216926.253 7      3107.598          44.937    22684096.680   121216926.249 7      3107.598          44.437    22684106.860    94279868.021 7      2417.021          45.250    22684105.900    94279877.020 7      2417.021          45.312
> 2024 05 06 15 35  9.0000000  0 11
G27  24355002.200   127986378.364 6      -455.664          41.562    24355001.100   127986378.369 6      -455.664          38.687    24355023.500    99729726.042 6      -355.063          39.000    24355023.740    99729726.034 7      -355.063          43.500
G02  21589315.560   113452616.267 7      2062.597          46.562    21589314.200   113452616.272 6      2062.597          40.187    21589316.540    88404638.869 6      1607.219          39.875
G03  20246295.100   106394996.472 7      3835.608          47.062    20246294.180   106394996.471 6      3835.608          41.437    20246301.400    82905219.066 6      2988.785          41.187    20246302.040    82905223.070 8      2988.785          52.500
G14  22269532.700   117027180.271 7      3694.971          45.687    22269532.660   117027180.278 5      3694.971          35.187    22269537.040    91190032.881 5      2879.198          35.312    22269537.700    91190035.880 8      2879.198          48.500
R05  19894448.580   106347226.143 8      3555.759          50.062    19894448.440   106347226.153 8      3555.759          49.250    19894458.480    82714551.670 8      2765.591          51.125    19894458.040    82714549.677 8      2765.591          51.250
G08  21486124.560   112910341.001 7       642.385          46.562    21486123.820   112910341.006 8       642.385          48.125    21486133.080    87982118.470 8       500.559          48.125    21486134.660    87982124.479 8       500.559          50.312
G21  21892009.480   115043281.711 7      1246.510          47.125    21892007.420   115043281.713 6      1246.510          38.937    21892011.780    89644128.393 6       971.307          38.812
R20  20772016.120   111077261.425 6      3101.685          37.687    20772016.880   111077261.442 6      3101.685          37.875    20772026.760    86393499.183 7      2412.422          43.500    20772027.340    86393504.183 7      2412.422          42.812
R04  21862882.600   117074735.202 7       -87.357          46.437    21862883.300   117074735.233 7       -87.357          44.500    21862893.280    91058180.855 7       -67.945          45.875    21862893.300    91058180.855 7       -67.945          46.250
R10  22004656.740   117297189.317 7       -29.146          45.125    22004656.460   117297189.325 7       -29.146          43.875
R11  22683514.120   121213818.604 7      3107.472          45.750    22683515.100   121213818.608 7      3107.472          45.000    22683525.060    94277450.982 7      2416.922          44.125    22683524.560    94277459.974 7      2416.922          44.937
> 2024 05 06 15 35 10.0000000  0 11
G27  24355088.980   127986833.628 6      -455.085          41.125    24355087.760   127986833.636 6      -455.085          38.937    24355110.140    99730080.775 6      -354.612          38.500    24355110.140    99730080.767 7      -354.612          43.250
G02  21588922.840   113450553.161 8      2063.408          48.125    21588921.600   113450553.168 6      2063.408          40.062    21588923.920    88403031.263 6      1607.850          40.312
G03  20245565.260   106391160.682 7      3835.835          46.937    20245564.160   106391160.682 7      3835.835          42.187    20245571.520    82902230.147 6      2988.963          41.625    20245572.040    82902234.156 8      2988.963          52.437
G14  22268829.600   117023485.143 7      3695.026          45.875    22268829.680   117023485.148 5      3695.026          35.562    22268834.000    91187153.564 5      2879.241          35.562    22268834.960    91187156.564 8      2879.241          48.250
R05  19893783.380   106343670.330 8      3555.708          51.000    19893783.320   106343670.339 8      3555.708          49.250    19893793.180    82711786.047 8      2765.550          51.187    19893792.940    82711784.054 8      2765.550          51.125
G08  21486002.360   112909698.266 7       642.938          46.937    21486001.580   112909698.265 7       642.938          47.812    21486010.720    87981617.641 7       500.990          47.625    21486012.440    87981623.650 8       500.990          50.375
G21  21891772.280   115042034.751 7      1247.334          46.500    21891770.040   115042034.756 6      1247.334          38.625    21891774.520    89643156.744 6       971.949          38.875
R20  20771435.600   111074159.351 6      3102.512          37.875    20771436.340   111074159.349 6      3102.512          37.812    20771446.300    86391086.455 7      2413.065          43.250    20771447.480    86391091.457 7      2413.065          42.625
R04  21862898.880   117074822.488 7       -87.315          46.625    21862899.320   117074822.519 7       -87.315          45.250    21862909.720    91058248.755 7       -67.911          45.562    21862909.820    91058248.759 7       -67.911          46.000
R10  22004662.300   117297218.229 7       -28.903          45.625    22004661.400   117297218.235 7       -28.903          43.937
R11  22682932.440   121210710.951 7      3107.572          45.687    22682933.680   121210710.960 7      3107.572          44.125    22682943.340    94275033.922 7      2417.000          44.937    22682942.960    94275042.917 7      2417.000          45.312
> 2024 05 06 15 35 11.0000000  0 11
G27  24355175.520   127987288.475 7      -454.264          42.250    24355174.460   127987288.483 6      -454.264          39.062    24355196.720    99730435.185 6      -353.972          39.125    24355196.780    99730435.177 7      -353.972          43.250
G02  21588530.240   113448489.540 8      2064.078          48.250    21588528.900   113448489.548 6      2064.078          40.187    21588531.320    88401423.254 6      1608.372          40.000
G03  20244835.240   106387324.916 7      3835.933          46.437    20244834.180   106387324.918 6      3835.933          41.937    20244841.520    82899241.257 6      2989.039          41.500    20244842.160    82899245.264 8      2989.039          52.187
G14  22268126.700   117019790.009 7      3695.235          45.875    22268126.600   117019790.012 5      3695.235          35.750    22268130.640    91184274.248 5      2879.404          35.625    22268131.400    91184277.254 8      2879.404          48.187
R05  19893118.440   106340114.813 8      3555.590          50.500    19893118.140   106340114.822 8      3555.590          49.937    19893128.200    82709020.658 8      2765.459          51.250    19893127.780    82709018.660 8      2765.459          51.437
G08  21485880.000   112909055.357 7       643.208          46.375    21485879.240   112909055.361 8       643.208          48.250    21485888.460    87981116.679 8       501.201          48.062    21485890.320    87981122.688 8       501.201          49.937
G21  21891535.180   115040787.248 7      1248.001          47.625    21891532.720   115040787.255 6      1248.001          38.562    21891537.020    89642184.678 6       972.468          38.687
R20  20770855.560   111071056.734 6      3103.211          37.875    20770856.660   111071056.740 6      3103.211          37.812    20770865.960    86388673.325 7      2413.609          43.062    20770867.220    86388678.318 7      2413.609          42.625
R04  21862915.060   117074909.878 7       -87.323          46.375    21862915.380   117074909.917 7       -87.323          44.562    21862926.420    91058316.742 7       -67.918          46.125    21862926.040    91058316.746 7       -67.918          46.625
R10  22004668.160   117297247.007 7       -28.569          45.437    22004667.000   117297247.018 7       -28.569          44.375
R11  22682350.880   121207603.514 7      3107.454          45.625    22682352.460   121207603.507 7      3107.454          44.562    22682361.860    94272617.035 7      2416.909          44.500    22682361.160    94272626.040 7      2416.909          44.875
> 2024 05 06 15 35 12.0000000  0 12
G27  24355261.800   127987743.123 7      -454.717          42.375    24355260.840   127987743.125 6      -454.717          39.062    24355283.120    99730789.437 6      -354.325          39.187    24355283.520    99730789.429 7      -354.325          43.125
G02  21588137.660   113446425.491 8      2064.081          48.062    21588136.060   113446425.501 6      2064.081          40.000    21588138.500    88399814.913 6      1608.375          39.937
G03  20244105.340   106383489.268 7      3835.383          47.812    20244104.300   106383489.271 6      3835.383          41.937    20244111.620    82896252.448 6      2988.610          41.875    20244112.080    82896256.459 8      2988.610          52.687
G14  22267423.760   117016095.015 7      3694.662          46.875    22267423.580   117016095.020 5      3694.662          35.125    22267427.560    91181395.036 5      2878.957          35.625    22267428.180    91181398.033 7      2878.957          47.750
R05  19892453.120   106336559.718 8      3554.594          50.312    19892453.040   106336559.727 8      3554.594          49.500    19892462.880    82706255.592 8      2764.684          51.375    19892462.860    82706253.595 8      2764.684          51.312
G08  21485757.760   112908412.371 7       642.821          47.000    21485756.900   112908412.374 7       642.821          47.750    21485766.120    87980615.654 7       500.899          47.750    21485767.800    87980621.661 8       500.899          50.437
G21  21891297.520   115039539.269 7      1248.036          46.687    21891295.280   115039539.276 6      1248.036          38.562    21891299.520    89641212.229 6       972.496          38.625
R20  20770275.420   111067953.710 6      3103.028          37.875    20770276.500   111067953.725 6      3103.028          37.812    20770285.400    86386259.873 7      2413.466          43.250    20770286.860    86386264.864 7      2413.466          42.437
R04  21862931.160   117074997.453 7       -87.835          46.000    21862931.880   117074997.481 7       -87.835          44.687    21862943.020    91058384.849 7       -68.316          45.875    21862942.800    91058384.851 7       -68.316          46.937
R10  22004673.420   117297275.800 7       -29.118          45.312    22004672.520   117297275.816 7       -29.118          44.187
R11  22681769.660   121204496.336 7      3106.764          46.000    22681770.880   121204496.345 7      3106.764          44.687    22681779.660    94270200.362 7      2416.372          44.437    22681779.660    94270209.369 7      2416.372          44.000
G22  24130209.720   126805106.603 6      4721.834          41.062
> 2024 05 06 15 35 13.0000000  0 12
G27  24355347.940   127988197.321 7      -454.066          42.000    24355347.200   127988197.328 6      -454.066          39.062    24355369.580    99731143.346 6      -353.818          38.625    24355369.860    99731143.331 7      -353.818          43.250
G02  21587744.600   113444360.906 7      2064.824          47.812    21587743.100   113444360.908 6      2064.824          40.687    21587745.680    88398206.153 6      1608.954          40.375
G03  20243375.600   106379653.605 7      3835.704          47.562    20243374.380   106379653.607 6      3835.704          41.625    20243381.440    82893263.632 6      2988.860          41.500    20243382.080    82893267.645 8      2988.860          52.312
G14  22266720.560   117012400.011 7      3694.989          46.312    22266720.520   117012400.013 5      3694.989          35.125    22266724.420    91178515.815 5      2879.212          35.062    22266725.100    91178518.815 7      2879.212          47.500
R05  19891788.200   106333004.861 8      3554.708          50.375    19891787.960   106333004.857 8      3554.708          49.312    19891798.040    82703490.706 8      2764.773          51.187    19891797.620    82703488.706 8      2764.773          51.000
G08  21485635.520   112907769.176 7       643.266          47.375    21485634.540   112907769.181 7       643.266          47.750    21485643.720    87980114.469 7       501.246          47.625    21485645.440    87980120.476 8       501.246          50.250
G21  21891060.040   115038290.712 7      1248.870          47.375    21891057.800   115038290.717 6      1248.870          38.125    21891061.980    89640239.335 6       973.146          38.250
R20  20769695.280   111064850.131 6      3103.980          37.875    20769695.780   111064850.132 6      3103.980          37.812    20769705.000    86383845.976 7      2414.206          43.125    20769706.040    86383850.965 7      2414.206          42.687
R04  21862947.540   117075085.098 7       -87.759          45.687    21862948.560   117075085.131 7       -87.759          45.000    21862959.380    91058453.023 7       -68.257          45.750    21862959.240    91058453.023 7       -68.257          46.750
R10  22004678.740   117297304.417 7       -28.554          45.375    22004677.520   117297304.431 7       -28.554          44.375
R11  22681188.080   121201389.374 7      3106.813          45.562    22681188.560   121201389.375 7      3106.813          44.875    22681197.100    94267783.834 7      2416.410          44.125    22681197.960    94267792.847 7      2416.410          43.687
G22  24129311.080   126800385.008 6      4722.169          40.937
> 2024 05 06 15 35 14.0000000  0 12
G27  24355434.740   127988650.904 7      -453.284          42.250    24355433.520   127988650.914 6      -453.284          38.875    24355455.920    99731496.775 6      -353.208          38.687    24355456.640    99731496.769 7      -353.208          43.062
G02  21587351.540   113442295.551 7      2065.685          47.562    21587350.280   113442295.553 6      2065.685          40.062    21587352.620    88396596.796 6      1609.625          40.062
G03  20242645.540   106375817.765 7      3835.871          47.437    20242644.520   106375817.765 6      3835.871          41.687    20242651.480    82890274.676 6      2988.990          41.250    20242651.960    82890278.687 8      2988.990          51.250
G14  22266017.240   117008704.822 7      3695.272          46.500    22266017.300   117008704.830 5      3695.272          35.625    22266021.340    91175636.460 5      2879.433          35.500    22266021.900    91175639.449 7      2879.433          47.375
R05  19891123.180   106329450.057 8      3554.714          49.750    19891122.820   106329450.061 8      3554.714          49.062    19891132.960    82700725.877 8      2764.777          50.687    19891132.620    82700723.880 8      2764.777          50.625
G08  21485513.080   112907125.563 7       643.744          46.750    21485512.020   112907125.568 7       643.744          47.437    21485521.200    87979612.958 7       501.619          47.250    21485523.120    87979618.965 8       501.619          49.562
G21  21890822.280   115037041.353 7      1249.721          47.062    21890820.100   115037041.361 6      1249.721          38.187    21890824.080    89639265.817 6       973.809          38.125
R20  20769115.540   111061745.811 6      3104.530          38.375    20769114.900   111061745.823 6      3104.530          38.062    20769124.960    86381431.517 7      2414.635          43.187    20769125.400    86381436.512 7      2414.635          42.937
R04  21862963.760   117075172.581 7       -87.448          46.562    21862964.960   117075172.615 7       -87.448          44.250    21862975.780    91058521.071 7       -68.015          46.062    21862975.500    91058521.069 7       -68.015          47.125
R10  22004683.920   117297332.698 7       -28.220          44.687    22004682.860   117297332.717 7       -28.220          44.312
R11  22680606.360   121198282.338 7      3106.975          45.625    22680606.140   121198282.339 7      3106.975          44.437    22680615.280    94265367.264 7      2416.536          43.437    22680616.360    94265376.272 7      2416.536          43.125
G22  24128412.380   126795662.489 6      4722.655          41.375    24128412.320   126795662.526 3      4722.655          22.250    24128417.120    98801834.015 3      3679.991          21.625
> 2024 05 06 15 35 15.0000000  0 12
G27  24355520.700   127989104.114 6      -453.072          41.625    24355519.900   127989104.124 6      -453.072          38.750    24355542.160    99731849.909 6      -353.043          38.812    24355543.060    99731849.895 7      -353.043          43.000
G02  21586958.500   113440229.667 7      2066.056          47.250    21586957.240   113440229.678 6      2066.056          39.937    21586959.580    88394987.025 6      1609.914          39.562
G03  20241915.420   106371981.900 7      3835.822          47.312    20241914.520   106371981.899 6      3835.822          41.750    20241921.540    82887285.700 6      2988.952          41.375    20241921.980    82887289.709 8      2988.952          51.062
G14  22265314.260   117005009.642 7      3695.150          46.562    22265314.160   117005009.646 5      3695.150          35.437    22265318.340    91172757.102 5      2879.338          35.500    22265318.440    91172760.086 7      2879.338          47.187
R05  19890458.160   106325895.548 8      3554.332          49.062    19890457.860   106325895.549 8      3554.332          49.625    19890467.920    82697961.265 8      2764.480          50.000    19890467.680    82697959.264 8      2764.480          50.000
G08  21485390.660   112906481.748 7       643.907          46.562    21485389.540   112906481.750 7       643.907          47.187    21485398.640    87979111.284 7       501.746          46.937    21485400.280    87979117.291 8       501.746          49.562
G21  21890584.460   115035791.417 7      1250.206          46.750    21890582.380   115035791.422 6      1250.206          38.625    21890586.200    89638291.847 6       974.186          38.750
R20  20768534.220   111058640.919 6      3105.038          38.375    20768534.100   111058640.933 6      3105.038          38.062    20768544.440    86379016.615 7      2415.030          42.625    20768545.040    86379021.605 7      2415.030          42.750
R04  21862979.980   117075260.178 7       -87.710          45.750    21862981.360   117075260.209 7       -87.710          44.875    21862991.960    91058589.211 7       -68.219          45.562    21862992.040    91058589.209 7       -68.219          45.937
R10  22004688.980   117297360.790 7       -27.990          45.187    22004688.220   117297360.812 7       -27.990          44.625
R11  22680025.220   121195175.504 7      3106.712          45.187    22680025.180   121195175.497 7      3106.712          44.125    22680033.920    94262950.836 7      2416.332          43.500    22680034.980    94262959.844 7      2416.332          42.937
G22  24127513.980   126790939.805 6      4722.635          41.062    24127513.860   126790939.828 3      4722.635          22.937    24127519.960    98798154.005 3      3679.975          22.625
> 2024 05 06 15 35 16.0000000  0 12
G27  24355607.160   127989557.003 7      -452.699          42.437    24355606.080   127989557.016 6      -452.699          39.125    24355628.360    99732202.796 6      -352.752          38.562    24355628.960    99732202.792 7      -352.752          43.000
G02  21586565.360   113438163.324 7      2066.588          47.937    21586564.000   113438163.332 6      2066.588          40.437    21586566.220    88393376.896 6      1610.328          40.125
G03  20241185.580   106368146.126 7      3835.701          47.625    20241184.560   106368146.125 7      3835.701          42.000    20241191.620    82884296.800 6      2988.858          41.500    20241192.020    82884300.807 8      2988.858          51.687
G14  22264611.040   117001314.545 7      3695.092          46.250    22264611.060   117001314.552 5      3695.092          35.437    22264615.340    91169877.817 5      2879.292          35.312    22264615.560    91169880.802 7      2879.292          47.500
R05  19889793.300   106322341.386 8      3553.983          50.312    19889792.940   106322341.393 8      3553.983          49.625    19889802.940    82695196.935 8      2764.209          49.875    19889802.740    82695194.934 8      2764.209          50.250
G08  21485268.060   112905837.811 7       644.084          47.500    21485267.100   112905837.816 7       644.084          47.812    21485276.200    87978609.523 7       501.884          47.312    21485277.840    87978615.529 8       501.884          50.312
G21  21890346.420   115034540.989 7      1250.661          47.500    21890344.400   115034540.999 6      1250.661          38.750    21890348.120    89637317.498 6       974.541          38.250
R20  20767953.960   111055535.540 6      3105.810          38.375    20767953.620   111055535.565 6      3105.810          38.062    20767963.560    86376601.339 7      2415.630          42.500    20767964.280    86376606.333 7      2415.630          43.000
R04  21862996.620   117075347.954 7       -87.900          46.500    21862997.480   117075347.977 7       -87.900          44.875    21863008.280    91058657.484 7       -68.367          45.375    21863008.020    91058657.484 7       -68.367          46.312
R10  22004694.200   117297388.858 7       -27.971          45.250    22004693.380   117297388.883 7       -27.971          44.250
R11  22679444.060   121192068.970 7      3106.485          45.812    22679444.160   121192068.961 7      3106.485          44.375    22679453.420    94260534.643 7      2416.155          43.687    22679453.740    94260543.644 7      2416.155          44.687
G22  24126615.600   126786216.981 6      4722.866          40.812    24126614.120   126786217.004 3      4722.866          23.062    24126620.820    98794473.903 3      3680.155          22.937
> 2024 05 06 15 35 17.0000000  0 12
G27  24355693.360   127990009.470 6      -452.091          40.562    24355692.200   127990009.477 6      -452.091          38.500    24355714.520    99732555.348 6      -352.279          38.625    24355714.920    99732555.340 7      -352.279          43.500
G02  21586171.960   113436096.411 7      2067.252          46.937    21586170.760   113436096.419 6      2067.252          40.187    21586172.960    88391766.324 6      1610.846          40.062
G03  20240455.800   106364310.341 7      3835.783          47.187    20240454.700   106364310.336 7      3835.783          42.437    20240461.620    82881307.887 6      2988.922          41.875    20240462.200    82881311.892 8      2988.922          52.312
G14  22263907.640   116997619.441 7      3695.165          46.875    22263907.920   116997619.451 5      3695.165          35.437    22263912.240    91166998.525 5      2879.349          35.437    22263912.540    91167001.504 8      2879.349          48.375
R05  19889128.420   106318787.459 8      3553.822          50.250    19889128.180   106318787.466 8      3553.822          49.625    19889138.260    82692432.783 8      2764.084          50.875    19889137.820    82692430.777 8      2764.084          50.875
G08  21485145.320   112905193.660 7       644.286          47.437    21485144.460   112905193.664 7       644.286          47.875    21485153.680    87978107.591 7       502.041          47.437    21485155.260    87978113.594 8       502.041          51.250
G21  21890108.500   115033289.941 7      1251.384          46.687    21890106.500   115033289.946 6      1251.384          38.062    21890110.060    89636342.662 6       975.104          38.562
R20  20767372.940   111052429.650 6      3106.023          38.375    20767373.060   111052429.694 6      3106.023          38.062    20767383.140    86374185.677 7      2415.796          43.250    20767383.580    86374190.664 7      2415.796          43.375
R04  21863012.640   117075435.775 7       -87.791          46.375    21863013.540   117075435.801 7       -87.791          45.000    21863024.720    91058725.795 7       -68.282          46.312    21863024.720    91058725.804 7       -68.282          47.062
R10  22004699.440   117297416.764 7       -27.819          45.000    22004698.320   117297416.785 7       -27.819          43.937
R11  22678862.560   121188962.580 7      3106.416          45.812    22678862.980   121188962.574 7      3106.416          45.062    22678872.840    94258118.569 7      2416.101          44.937    22678872.460    94258127.569 7      2416.101          44.937
G22  24125716.820   126781493.944 6      4723.243          40.875    24125716.780   126781493.962 3      4723.243          23.375    24125723.720    98790793.600 3      3680.449          23.250
> 2024 05 06 15 35 18.0000000  0 12
G27  24355779.040   127990461.387 6      -451.622          40.437    24355778.120   127990461.397 6      -451.622          38.875    24355800.620    99732907.479 6      -351.913          38.312    24355801.180    99732907.469 7      -351.913          43.250
G02  21585778.400   113434028.796 7      2067.982          47.562    21585777.260   113434028.801 6      2067.982          40.250    21585779.500    88390155.202 6      1611.415          39.750
G03  20239725.860   106360474.383 7      3835.917          47.500    20239724.800   106360474.383 7      3835.917          42.625    20239731.660    82878318.839 7      2989.026          42.312    20239732.080    82878322.842 8      2989.026          51.875
G14  22263204.340   116993924.171 7      3695.272          46.562    22263204.920   116993924.183 5      3695.272          35.562    22263209.100    91164119.104 5      2879.433          35.562    22263209.540    91164122.099 8      2879.433          48.562
R05  19888463.740   106315233.623 8      3553.739          49.687    19888463.260   106315233.630 8      3553.739          49.312    19888473.380    82689668.698 8      2764.019          51.000    19888472.920    82689666.693 8      2764.019          51.250
G08  21485022.800   112904549.135 7       644.638          47.812    21485021.800   112904549.142 7       644.638          47.812    21485031.040    87977605.370 7       502.315          47.875    21485032.880    87977611.377 8       502.315          50.187
G21  21889870.240   115032038.155 8      1252.101          48.062    21889868.260   115032038.160 6      1252.101          38.937    21889871.980    89635367.252 6       975.663          38.687
R20  20766792.160   111049323.026 6      3106.981          37.562    20766792.280   111049323.043 6      3106.981          38.062    20766802.240    86371769.407 7      2416.541          43.375    20766802.520    86371774.398 7      2416.541          42.750
R04  21863029.340   117075523.518 7       -87.685          46.187    21863029.680   117075523.541 7       -87.685          44.500    21863040.840    91058794.046 7       -68.199          45.812    21863040.920    91058794.049 7       -68.199          46.812
R10  22004704.380   117297444.352 7       -27.455          44.937    22004703.620   117297444.374 7       -27.455          44.125
R11  22678281.100   121185856.207 7      3106.294          45.125    22678281.600   121185856.205 7      3106.294          44.500    22678291.420    94255702.510 7      2416.006          44.875    22678291.120    94255711.516 7      2416.006          45.187
G22  24124817.960   126776770.571 6      4723.431          39.687    24124816.740   126776770.589 3      4723.431          23.437    24124822.460    98787113.058 3      3680.596          23.375
> 2024 05 06 15 35 19.0000000  0 12
G27  24355865.000   127990912.873 7      -451.323          42.625    24355864.180   127990912.881 6      -451.323          38.750    24355886.540    99733259.269 6      -351.680          38.687    24355887.140    99733259.261 7      -351.680          43.375
G02  21585384.680   113431960.619 8      2068.395          48.125    21585383.560   113431960.622 6      2068.395          40.250    21585385.920    88388543.648 6      1611.736          40.187
G03  20238995.680   106356638.386 8      3835.956          48.187    20238994.740   106356638.381 6      3835.956          41.437    20239001.660    82875329.761 6      2989.057          41.375    20239002.200    82875333.762 8      2989.057          51.625
G14  22262501.040   116990228.890 7      3695.243          47.250    22262501.640   116990228.900 5      3695.243          35.562    22262506.040    91161239.673 5      2879.410          35.562    22262506.680    91161242.662 8      2879.410          48.562
R05  19887798.980   106311680.031 8      3553.459          50.500    19887798.600   106311680.029 8      3553.459          49.437    19887808.500    82686904.797 8      2763.801          48.562    19887808.220    82686902.794 8      2763.801          48.812
G08  21484900.080   112903904.381 7       644.802          47.375    21484899.100   112903904.386 7       644.802          47.750    21484908.300    87977102.965 7       502.443          47.187    21484910.120    87977108.968 8       502.443          51.062
G21  21889631.980   115030785.738 7      1252.688          47.500    21889629.840   115030785.748 6      1252.688          38.187    21889633.720    89634391.355 6       976.121          38.437
R20  20766210.860   111046215.845 6      3107.414          37.562    20766211.400   111046215.851 6      3107.414          37.937    20766220.980    86369352.708 7      2416.878          43.187    20766221.240    86369357.698 7      2416.878          42.500
R04  21863045.800   117075611.294 7       -87.826          46.187    21863046.040   117075611.320 7       -87.826          44.625    21863057.340    91058862.325 7       -68.309          45.875    21863057.540    91058862.329 7       -68.309          46.187
R10  22004709.880   117297471.788 7       -27.426          45.062    22004708.860   117297471.802 7       -27.426          44.375
R11  22677700.280   121182749.980 7      3106.053          45.062    22677700.140   121182749.976 7      3106.053          44.625    22677709.820    94253286.562 7      2415.819          43.875    22677710.040    94253295.559 7      2415.819          44.000
G22  24123919.360   126772046.938 6      4723.683          39.812    24123918.080   126772046.930 3      4723.683          23.312    24123924.700    98783432.342 3      3680.792          23.312
> 2024 05 06 15 35 20.0000000  0 12
G27  24355951.100   127991363.984 7      -450.919          42.250    24355950.080   127991363.994 6      -450.919          38.875    24355972.480    99733610.769 6      -351.365          39.187    24355972.420    99733610.767 7      -351.365          43.375
G02  21584991.060   113429891.933 8      2068.915          48.437    21584989.980   113429891.938 6      2068.915          40.562    21584992.320    88386931.688 6      1612.142          40.250
G03  20238265.620   106352802.434 8      3835.943          48.812    20238264.840   106352802.431 7      3835.943          42.062    20238271.680    82872340.717 6      2989.047          41.875    20238272.180    82872344.714 8      2989.047          51.687
G14  22261798.100   116986533.644 7      3695.257          47.000    22261798.380   116986533.651 5      3695.257          35.625    22261802.820    91158360.264 5      2879.421          35.562    22261803.620    91158363.255 7      2879.421          47.750
R05  19887134.300   106308126.748 8      3553.124          50.562    19887134.000   106308126.749 8      3553.124          49.562    19887143.900    82684141.150 8      2763.541          50.937    19887143.120    82684139.142 8      2763.541          50.937
G08  21484777.400   112903259.449 7       645.055          47.625    21484776.440   112903259.451 7       645.055          47.812    21484785.520    87976600.422 7       502.640          47.625    21484787.540    87976606.426 8       502.640          50.562
G21  21889393.540   115029532.793 7      1253.228          47.625    21889391.460   115029532.798 6      1253.228          38.250    21889395.300    89633415.034 6       976.542          38.500
R20  20765629.400   111043108.116 6      3107.973          37.562    20765630.160   111043108.128 6      3107.973          37.937    20765639.640    86366935.598 7      2417.312          43.312    20765640.080    86366940.594 7      2417.312          42.937
R04  21863062.360   117075699.180 7       -87.930          45.812    21863062.620   117075699.213 7       -87.930          44.312    21863073.560    91058930.691 7       -68.390          46.250    21863073.980    91058930.697 7       -68.390          46.250
R10  22004714.960   117297499.118 7       -27.347          44.750    22004713.760   117297499.121 7       -27.347          44.625
R11  22677118.820   121179643.945 7      3105.893          44.937    22677118.980   121179643.955 7      3105.893          44.750    22677128.760    94250870.766 7      2415.694          44.750    22677128.640    94250879.765 7      2415.694          43.812
G22  24123020.260   126767323.184 6      4723.785          40.312    24123018.800   126767323.184 3      4723.785          23.250    24123024.760    98779751.497 3      3680.871          23.187
> 2024 05 06 15 35 21.0000000  0 12
G27  24356036.400   127991814.703 6      -450.567          41.687    24356035.920   127991814.711 6      -450.567          38.812    24356058.400    99733961.962 6      -351.091          38.750    24356058.380    99733961.952 7      -351.091          43.187
G02  21584597.440   113427822.678 8      2069.559          48.062    21584596.160   113427822.683 6      2069.559          40.250    21584598.580    88385319.288 6      1612.643          40.437
G03  20237535.620   106348966.457 8      3835.957          48.500    20237535.200   106348966.457 6      3835.957          41.937    20237541.640    82869351.661 6      2989.058          41.937    20237542.500    82869355.660 8      2989.058          51.625
G14  22261094.960   116982838.368 7      3695.294          46.750    22261095.080   116982838.381 5      3695.294          35.125    22261099.560    91155480.839 5      2879.450          35.437    22261100.180    91155483.843 8      2879.450          48.312
R05  19886469.780   106304573.727 8      3552.816          50.500    19886469.280   106304573.729 8      3552.816          50.000    19886479.100    82681377.697 8      2763.302          51.125    19886478.640    82681375.694 8      2763.302          51.062
G08  21484654.560   112902614.302 7       645.200          47.250    21484653.580   112902614.307 8       645.200          48.187    21484662.740    87976097.724 7       502.754          47.562    21484664.600    87976103.723 8       502.754          50.750
G21  21889154.900   115028279.247 7      1253.828          47.750    21889152.880   115028279.254 6      1253.828          38.437    21889156.660    89632438.255 6       977.009          38.437
R20  20765048.220   111039999.844 6      3108.536          37.562    20765047.700   111039999.848 6      3108.536          37.937    20765058.000    86364518.060 7      2417.750          43.437    20765058.940    86364523.055 7      2417.750          42.625
R04  21863078.440   117075787.119 7       -87.986          45.812    21863079.400   117075787.150 7       -87.986          44.875    21863090.000    91058999.092 7       -68.434          45.937    21863090.180    91058999.100 7       -68.434          46.375
R10  22004720.240   117297526.283 7       -27.175          44.875    22004718.960   117297526.286 7       -27.175          44.687
R11  22676537.500   121176538.119 7      3105.657          45.312    22676538.000   121176538.123 7      3105.657          45.000    22676548.040    94248455.132 7      2415.511          45.187    22676547.820    94248464.131 7      2415.511          45.375
G22  24122121.700   126762599.167 6      4724.247          39.437    24122119.920   126762599.190 3      4724.247          23.375    24122126.380    98776070.424 3      3681.231          23.250
> 2024 05 06 15 35 22.0000000  0 12
G27  24356122.080   127992264.997 7      -450.109          43.062    24356121.580   127992265.004 6      -450.109          38.875    24356144.140    99734312.820 6      -350.735          38.500    24356144.000    99734312.810 7      -350.735          43.500
G02  21584203.760   113425752.896 7      2070.048          47.500    21584202.360   113425752.898 6      2070.048          40.187    21584204.620    88383706.477 6      1613.024          40.187
G03  20236805.840   106345130.484 7      3836.011          47.750    20236805.220   106345130.481 6      3836.011          41.875    20236811.780    82866362.599 6      2989.100          41.625    20236812.500    82866366.594 8      2989.100          51.937
G14  22260391.820   116979143.135 7      3695.146          46.312    22260391.760   116979143.145 5      3695.146          35.125    22260396.400    91152601.445 5      2879.335          35.437    22260396.860    91152604.440 8      2879.335          48.250
R05  19885805.040   106301020.969 8      3552.580          51.250    19885804.660   106301020.967 8      3552.580          49.750    19885814.360    82678614.447 8      2763.117          51.250    19885814.040    82678612.445 8      2763.117          51.187
G08  21484531.700   112901968.933 7       645.504          47.812    21484530.840   112901968.941 8       645.504          48.000    21484539.840    87975594.840 7       502.991          47.812    21484542.000    87975600.841 8       502.991          50.625
G21  21888915.980   115027025.109 7      1254.414          47.250    21888914.300   115027025.119 6      1254.414          38.437    21888917.980    89631461.015 6       977.466          38.375
R20  20764465.940   111036890.986 6      3109.142          38.062    20764467.180   111036891.025 6      3109.142          37.937    20764476.740    86362100.091 7      2418.221          43.625    20764477.460    86362105.084 7      2418.221          42.625
R04  21863095.080   117075875.135 7       -88.140          45.812    21863096.220   117075875.172 7       -88.140          44.875    21863106.400    91059067.558 7       -68.553          45.687    21863106.620    91059067.564 7       -68.553          45.812
R10  22004725.120   117297553.298 7       -26.971          44.562    22004723.820   117297553.307 7       -26.971          44.250
R11  22675956.420   121173432.467 7      3105.513          45.125    22675956.780   121173432.468 7      3105.513          44.687    22675967.280    94246039.631 7      2415.399          45.375    22675966.920    94246048.628 7      2415.399          45.250
G22  24121222.320   126757874.990 6      4724.287          39.812    24121220.240   126757875.008 3      4724.287          23.375    24121227.100    98772389.286 3      3681.263          23.250
> 2024 05 06 15 35 23.0000000  0 12
G27  24356207.860   127992714.872 7      -449.507          42.062    24356207.240   127992714.877 6      -449.507          38.812    24356229.720    99734663.352 6      -350.265          38.375    24356230.380    99734663.350 7      -350.265          43.625
G02  21583809.720   113423682.533 8      2070.770          48.500    21583808.340   113423682.540 6      2070.770          40.500    21583810.740    88382093.217 6      1613.587          40.125
G03  20236076.020   106341294.487 8      3836.169          48.625    20236075.280   106341294.486 6      3836.169          41.687    20236081.820    82863373.522 6      2989.222          41.875    20236082.620    82863377.521 8      2989.222          51.875
G14  22259688.600   116975447.849 7      3695.341          46.937    22259688.540   116975447.865 5      3695.341          35.750    22259693.360    91149722.009 5      2879.487          35.500    22259693.560    91149725.013 8      2879.487          48.187
R05  19885140.540   106297468.469 8      3552.471          49.500    19885140.200   106297468.465 8      3552.471          49.375    19885149.800    82675851.404 8      2763.033          50.812    19885149.460    82675849.401 8      2763.033          50.937
G08  21484408.900   112901323.344 8       645.852          48.000    21484407.980   112901323.349 8       645.852          48.000    21484417.000    87975091.790 7       503.261          47.875    21484419.040    87975097.789 8       503.261          50.375
G21  21888677.420   115025770.364 7      1255.160          47.687    21888675.500   115025770.371 6      1255.160          38.875    21888679.200    89630483.294 6       978.046          39.062
R20  20763884.940   111033781.629 6      3109.613          38.062    20763885.840   111033781.671 6      3109.613          37.937    20763895.880    86359681.716 7      2418.588          43.125    20763896.300    86359686.712 7      2418.588          42.812
R04  21863111.580   117075963.203 7       -87.910          46.125    21863112.720   117075963.231 7       -87.910          44.875    21863122.220    91059136.055 7       -68.374          46.062    21863122.580    91059136.059 7       -68.374          46.062
R10  22004730.040   117297580.172 7       -26.671          44.750    22004728.720   117297580.181 7       -26.671          43.812
R11  22675375.160   121170326.956 7      3105.531          44.937    22675375.380   121170326.960 7      3105.531          44.750    22675385.980    94243624.246 7      2415.413          45.062    22675385.560    94243633.259 7      2415.413          45.625
G22  24120323.640   126753150.579 6      4724.763          39.812    24120321.560   126753150.592 3      4724.763          23.375    24120328.280    98768707.933 3      3681.633          23.250
> 2024 05 06 15 35 24.0000000  0 12
G27  24356293.160   127993164.230 7      -448.998          42.250    24356292.720   127993164.235 6      -448.998          39.000    24356315.160    99735013.485 6      -349.869          39.000    24356316.120    99735013.475 7      -349.869          43.187
G02  21583415.640   113421611.505 7      2071.484          47.562    21583414.280   113421611.510 6      2071.484          40.812    21583416.700    88380479.435 6      1614.144          40.687
G03  20235345.940   106337458.376 8      3836.237          48.437    20235345.300   106337458.373 6      3836.237          41.812    20235352.060    82860384.354 6      2989.276          41.750    20235352.380    82860388.353 8      2989.276          50.937
G14  22258985.480   116971752.451 7      3695.529          47.375    22258985.360   116971752.466 5      3695.529          35.437    22258990.000    91146842.486 5      2879.633          35.500    22258990.040    91146845.488 8      2879.633          48.187
R05  19884475.800   106293916.117 8      3552.329          49.437    19884475.700   106293916.115 8      3552.329          48.875    19884485.420    82673088.472 8      2762.923          51.125    19884485.200    82673086.468 8      2762.923          50.937
G08  21484286.080   112900677.435 8       646.111          48.125    21484285.100   112900677.445 7       646.111          47.812    21484294.120    87974588.488 7       503.463          47.875    21484296.180    87974594.487 8       503.463          49.937
G21  21888438.440   115024514.904 7      1255.888          47.750    21888436.640   115024514.912 6      1255.888          38.312    21888440.260    89629505.022 6       978.614          38.437
R20  20763302.640   111030671.579 6      3110.376          38.062    20763303.660   111030671.602 6      3110.376          37.937    20763314.560    86357262.780 7      2419.181          43.000    20763314.440    86357267.770 7      2419.181          42.750
R04  21863127.700   117076051.209 7       -87.885          46.062    21863129.420   117076051.245 7       -87.885          44.625    21863138.660    91059204.516 7       -68.355          45.562    21863139.000    91059204.527 7       -68.355          45.187
R10  22004734.960   117297606.793 7       -26.584          44.750    22004733.800   117297606.799 7       -26.584          43.625
R11  22674793.880   121167221.499 7      3105.476          45.500    22674794.480   121167221.503 7      3105.476          44.375    22674804.220    94241208.903 7      2415.370          45.000    22674804.360    94241217.908 7      2415.370          45.187
G22  24119424.300   126748425.898 6      4724.746          39.437    24119423.500   126748425.924 3      4724.746          23.375    24119430.000    98765026.351 3      3681.620          23.250
> 2024 05 06 15 35 25.0000000  0 12
G27  24356378.720   127993613.147 6      -448.739          41.562    24356378.200   127993613.152 6      -448.739          38.625    24356400.560    99735363.274 6      -349.666          38.125    24356401.360    99735363.270 7      -349.666          43.187
G02  21583021.520   113419539.915 7      2071.849          47.250    21583020.060   113419539.914 6      2071.849          40.312    21583022.580    88378865.213 6      1614.428          39.750
G03  20234615.940   106333622.216 7      3836.104          47.937    20234615.340   106333622.213 6      3836.104          41.937    20234621.980    82857395.148 6      2989.172          41.687    20234622.520    82857399.147 8      2989.172          50.812
G14  22258282.360   116968057.041 7      3695.359          46.562    22258282.080   116968057.052 5      3695.359          35.437    22258286.620    91143962.948 5      2879.501          35.375    22258286.920    91143965.944 7      2879.501          47.562
R05  19883811.360   106290364.013 8      3551.899          49.375    19883811.140   106290364.011 8      3551.899          49.187    19883820.860    82670325.734 8      2762.588          49.062    19883820.580    82670323.731 8      2762.588          49.187
G08  21484163.200   112900031.294 7       646.132          47.375    21484162.180   112900031.296 7       646.132          47.062    21484171.040    87974084.999 7       503.480          46.812    21484173.440    87974090.998 8       503.480          49.125
G21  21888199.300   115023258.833 7      1256.266          47.062    21888197.620   115023258.843 6      1256.266          38.625    21888201.260    89628526.275 6       978.909          38.562
R20  20762721.560   111027560.941 6      3110.809          38.062    20762722.920   111027560.953 6      3110.809          37.937    20762733.120    86354843.395 7      2419.518          43.125    20762733.000    86354848.384 7      2419.518          43.437
R04  21863144.220   117076139.242 7       -88.090          46.437    21863146.640   117076139.278 7       -88.090          44.750    21863155.100    91059272.992 7       -68.515          44.812    21863155.140    91059273.001 7       -68.515          44.750
R10  22004740.240   117297633.206 7       -26.440          44.562    22004738.920   117297633.220 7       -26.440          43.625
R11  22674212.700   121164116.196 7      3105.100          45.125    22674212.860   121164116.195 7      3105.100          44.562    22674223.040    94238793.674 7      2415.078          44.562    22674223.080    94238802.677 7      2415.078          44.875
G22  24118524.780   126743700.938 6      4725.056          39.875    24118523.780   126743700.958 3      4725.056          23.375    24118530.300    98761344.574 3      3681.861          23.250
> 2024 05 06 15 35 26.0000000  0 12
G27  24356464.400   127994061.919 6      -448.827          40.937    24356463.440   127994061.932 6      -448.827          38.500    24356485.980    99735712.958 6      -349.735          38.312    24356486.320    99735712.950 7      -349.735          43.187
G02  21582627.180   113417468.028 7      2071.932          47.312    21582625.780   113417468.033 6      2071.932          39.937    21582628.140    88377250.768 6      1614.493          40.000
G03  20233886.020   106329786.327 8      3835.547          48.250    20233885.360   106329786.324 7      3835.547          42.000    20233892.000    82854406.158 6      2988.738          41.750    20233892.620    82854410.159 8      2988.738          52.187
G14  22257579.140   116964361.879 7      3694.899          46.937    22257578.720   116964361.889 5      3694.899          35.375    22257583.440    91141083.611 5      2879.142          35.375    22257583.800    91141086.609 8      2879.142          48.062
R05  19883146.700   106286812.451 8      3551.141          49.437    19883146.940   106286812.447 8      3551.141          49.125    19883156.380    82667563.417 8      2761.998          49.937    19883156.240    82667561.418 8      2761.998          50.062
G08  21484039.960   112899385.182 8       645.947          48.250    21484039.240   112899385.184 7       645.947          47.625    21484048.100    87973581.542 7       503.336          47.437    21484050.380    87973587.541 8       503.336          50.375
G21  21887960.440   115022002.419 7      1256.548          47.000    21887958.620   115022002.424 6      1256.548          38.562    21887962.180    89627547.258 6       979.129          38.250
R20  20762139.920   111024450.014 6      3110.996          38.125    20762140.780   111024450.024 6      3110.996          37.937    20762151.560    86352423.798 7      2419.664          42.750    20762151.520    86352428.793 7      2419.664          43.250
R04  21863161.180   117076227.596 7       -88.522          46.125    21863163.180   117076227.627 7       -88.522          44.937    21863171.720    91059341.723 7       -68.850          45.375    21863171.640    91059341.731 7       -68.850          45.562
R10  22004745.520   117297659.765 7       -26.740          44.125    22004743.760   117297659.782 7       -26.740          43.750
R11  22673632.200   121161011.340 7      3104.423          44.812    22673631.480   121161011.328 7      3104.423          44.250    22673641.840    94236378.780 7      2414.551          44.375    22673642.160    94236387.783 7      2414.551          44.312
G22  24117625.840   126738976.038 6      4724.828          39.937    24117625.480   126738976.064 3      4724.828          23.375    24117631.000    98757662.865 3      3681.685          23.250
> 2024 05 06 15 35 27.0000000  0 12
G27  24356549.620   127994510.274 6      -448.185          41.312    24356548.800   127994510.294 6      -448.185          38.625    24356571.360    99736062.311 6      -349.235          38.375    24356572.020    99736062.307 7      -349.235          43.062
G02  21582232.880   113415395.568 7      2072.863          47.812    21582231.400   113415395.573 6      2072.863          40.937    21582233.820    88375635.877 6      1615.218          40.875
G03  20233156.060   106325950.382 8      3836.046          48.500    20233155.440   106325950.382 7      3836.046          42.187    20233162.160    82851417.120 7      2989.127          42.062    20233162.800    82851421.125 8      2989.127          52.187
G14  22256876.020   116960666.680 7      3695.369          46.812    22256875.480   116960666.693 5      3695.369          34.937    22256880.320    91138204.244 5      2879.508          35.062    22256880.700    91138207.252 8      2879.508          48.187
R05  19882482.420   106283261.107 8      3551.289          50.000    19882482.520   106283261.116 8      3551.289          49.500    19882492.080    82664801.285 8      2762.114          50.937    19882491.760    82664799.284 8      2762.114          50.750
G08  21483916.960   112898738.842 7       646.537          47.437    21483916.380   112898738.849 8       646.537          48.125    21483925.180    87973077.908 7       503.795          47.812    21483927.600    87973083.907 8       503.795          50.437
G21  21887721.240   115020745.415 7      1257.372          46.937    21887719.660   115020745.420 6      1257.372          38.437    21887722.860    89626567.782 6       979.770          38.937
R20  20761558.280   111021338.513 6      3111.928          38.125    20761558.620   111021338.517 6      3111.928          37.875    20761569.600    86350003.743 7      2420.389          43.125    20761569.660    86350008.741 7      2420.389          43.312
R04  21863177.380   117076316.003 7       -88.319          46.500    21863180.160   117076316.048 7       -88.319          45.437    21863188.520    91059410.505 7       -68.693          45.312    21863188.120    91059410.511 7       -68.693          45.562
R10  22004750.420   117297686.146 7       -26.131          44.000    22004748.760   117297686.165 7       -26.131          43.562
R11  22673051.460   121157906.615 7      3104.744          44.562    22673051.140   121157906.603 7      3104.744          44.062    22673060.480    94233963.987 7      2414.801          45.000    22673060.680    94233972.986 7      2414.801          43.875
G22  24116726.300   126734250.936 6      4725.284          39.812    24116725.980   126734250.957 3      4725.284          23.375    24116731.660    98753980.977 3      3682.039          23.250
> 2024 05 06 15 35 28.0000000  0 12
G27  24356635.020   127994958.305 6      -447.839          41.187    24356634.060   127994958.315 6      -447.839          38.750    24356656.740    99736411.399 6      -348.965          38.187    24356656.800    99736411.391 7      -348.965          42.937
G02  21581838.400   113413322.653 8      2073.155          48.000    21581836.820   113413322.656 6      2073.155          40.625    21581839.460    88374020.619 6      1615.445          40.562
G03  20232426.000   106322114.540 8      3835.757          48.500    20232425.540   106322114.537 7      3835.757          42.687    20232432.200    82848428.165 7      2988.902          42.125    20232432.880    82848432.162 8      2988.902          52.375
G14  22256172.720   116956971.599 7      3694.983          46.625    22256172.220   116956971.615 5      3694.983          35.375    22256177.060    91135324.972 5      2879.207          35.437    22256177.600    91135327.984 8      2879.207          48.250
R05  19881818.100   106279710.133 8      3550.747          50.187    19881818.180   106279710.137 8      3550.747          49.812    19881827.740    82662039.421 8      2761.692          51.062    19881827.380    82662037.418 8      2761.692          51.000
G08  21483794.240   112898092.378 7       646.516          47.812    21483793.380   112898092.383 7       646.516          47.937    21483802.060    87972574.170 7       503.779          47.812    21483804.240    87972580.173 8       503.779          50.187
G21  21887481.700   115019487.906 8      1257.696          48.125    21887480.300   115019487.913 6      1257.696          38.125    21887483.540    89625587.909 6       980.023          38.562
R20  20760976.240   111018226.532 6      3112.141          38.125    20760976.320   111018226.561 6      3112.141          37.875    20760987.280    86347583.339 7      2420.554          43.125    20760987.920    86347588.334 7      2420.554          42.937
R04  21863194.100   117076404.582 7       -88.706          47.000    21863196.660   117076404.622 7       -88.706          45.062    21863205.080    91059479.404 7       -68.994          44.812    21863205.120    91059479.412 7       -68.994          45.750
R10  22004755.320   117297712.509 7       -26.377          44.062    22004753.740   117297712.520 7       -26.377          43.562
R11  22672469.920   121154802.178 7      3104.282          44.687    22672470.720   121154802.163 7      3104.282          44.625    22672479.380    94231549.425 7      2414.442          44.625    22672479.660    94231558.420 7      2414.442          44.250
G22  24115827.360   126729525.727 6      4725.323          39.750    24115826.260   126729525.747 3      4725.323          23.375    24115832.120    98750299.000 3      3682.070          23.250
> 2024 05 06 15 35 29.0000000  0 12
G27  24356719.980   127995405.934 6      -447.480          41.000    24356719.160   127995405.942 6      -447.480          38.375    24356741.960    99736760.185 6      -348.686          38.437    24356742.220    99736760.177 7      -348.686          43.437
G02  21581443.900   113411249.185 7      2073.764          47.937    21581442.320   113411249.190 6      2073.764          40.625    21581444.900    88372404.941 6      1615.920          40.500
G03  20231696.140   106318278.658 8      3835.994          48.750    20231695.500   106318278.655 7      3835.994          42.187    20231702.340    82845439.176 6      2989.086          41.687    20231703.020    82845443.181 8      2989.086          52.562
G14  22255469.600   116953276.495 7      3695.142          46.375    22255469.040   116953276.508 5      3695.142          35.375    22255473.820    91132445.676 5      2879.331          35.437    22255474.380    91132448.690 7      2879.331          47.625
R05  19881154.080   106276159.382 8      3550.694          51.125    19881153.920   106276159.383 8      3550.694          49.937    19881163.380    82659277.734 8      2761.651          51.500    19881163.060    82659275.730 8      2761.651          50.687
G08  21483671.280   112897445.706 7       646.798          47.375    21483670.300   112897445.709 8       646.798          48.062    21483679.040    87972070.272 7       503.999          47.937    21483681.040    87972076.269 8       503.999          50.062
G21  21887242.200   115018229.777 8      1258.448          48.375    21887240.840   115018229.782 6      1258.448          38.625    21887244.160    89624607.555 6       980.609          38.687
R20  20760394.260   111015113.991 6      3112.986          38.125    20760394.020   111015114.008 6      3112.986          37.875    20760405.020    86345162.473 7      2421.212          42.937    20760405.800    86345167.462 7      2421.212          42.625
R04  21863210.700   117076493.204 7       -88.618          46.687    21863213.120   117076493.246 7       -88.618          45.187    21863221.540    91059548.342 7       -68.925          45.250    21863221.500    91059548.347 7       -68.925          46.062
R10  22004760.160   117297738.690 7       -26.117          43.562    22004758.380   117297738.698 7       -26.117          43.187
R11  22671889.060   121151697.878 7      3104.234          44.875    22671889.860   121151697.884 7      3104.234          44.375    22671898.580    94229134.984 7      2414.404          44.562    22671898.780    94229143.981 7      2414.404          44.312
G22  24114928.240   126724800.328 6      4725.546          40.687    24114927.780   126724800.333 3      4725.546          23.375    24114933.460    98746616.873 3      3682.243          23.250
> 2024 05 06 15 35 30.0000000  0 12
G27  24356805.440   127995853.114 6      -446.730          41.250    24356804.340   127995853.124 6      -446.730          38.187    24356827.120    99737108.618 6      -348.101          38.062    24356827.080    99737108.610 7      -348.101          43.437
G02  21581049.300   113409175.148 8      2074.492          48.062    21581047.680   113409175.153 6      2074.492          40.562    21581050.040    88370788.817 6      1616.487          40.437
G03  20230966.480   106314442.787 8      3836.042          48.625    20230965.500   106314442.787 7      3836.042          42.562    20230972.420    82842450.198 7      2989.124          42.125    20230973.040    82842454.203 8      2989.124          52.437
G14  22254766.560   116949581.375 7      3695.311          46.187    22254765.820   116949581.387 5      3695.311          35.375    22254770.660    91129566.368 5      2879.463          35.062    22254771.220    91129569.382 7      2879.463          47.625
R05  19880489.640   106272608.889 8      3550.540          50.562    19880489.900   106272608.896 8      3550.540          49.687    19880499.340    82656516.252 8      2761.531          50.562    19880499.000    82656514.251 8      2761.531          50.187
G08  21483548.060   112896798.790 8       647.219          48.312    21483547.220   112896798.795 8       647.219          48.062    21483555.900    87971566.188 7       504.327          47.937    21483557.800    87971572.191 8       504.327          50.250
G21  21887002.680   115016971.067 8      1259.150          48.687    21887001.340   115016971.075 6      1259.150          38.375    21887004.760    89623626.746 6       981.156          38.500
R20  20759813.040   111012000.930 6      3113.487          38.125    20759812.160   111012000.937 6      3113.487          37.875    20759823.280    86342741.198 7      2421.601          42.812    20759823.920    86342746.187 7      2421.601          43.500
R04  21863227.100   117076581.890 7       -88.540          46.562    21863229.160   117076581.932 7       -88.540          44.875    21863238.220    91059617.325 7       -68.865          45.437    21863237.880    91059617.327 7       -68.865          45.687
R10  22004764.600   117297764.687 7       -25.804          43.562    22004763.140   117297764.706 7       -25.804          43.187
R11  22671308.580   121148593.751 7      3104.161          45.312    22671308.380   121148593.768 7      3104.161          45.187    22671317.920    94226720.678 7      2414.348          44.812    22671318.180    94226729.668 7      2414.348          45.062
G22  24114028.860   126720074.695 6      4725.877          41.500    24114028.600   126720074.703 4      4725.877          24.500    24114034.240    98742934.566 4      3682.501          24.437
> 2024 05 06 15 35 31.0000000  0 12
G27  24356890.940   127996299.915 6      -446.646          40.437    24356889.420   127996299.923 6      -446.646          38.625    24356912.240    99737456.757 6      -348.036          38.437    24356912.200    99737456.749 7      -348.036          42.937
G02  21580654.340   113407100.576 7      2074.705          47.937    21580652.960   113407100.583 6      2074.705          40.250    21580655.280    88369172.271 6      1616.653          40.062
G03  20230236.500   106310606.911 7      3835.689          47.562    20230235.640   106310606.911 7      3835.689          42.312    20230242.560    82839461.216 7      2988.848          42.062    20230243.220    82839465.215 8      2988.848          52.375
G14  22254063.280   116945886.291 7      3694.860          45.375    22254062.620   116945886.296 5      3694.860          34.937    22254067.560    91126687.084 5      2879.111          35.000    22254067.640    91126690.090 7      2879.111          47.125
R05  19879825.540   106269058.689 8      3549.898          50.312    19879825.580   106269058.692 8      3549.898          48.875    19879835.120    82653754.995 8      2761.032          50.062    19879834.740    82653752.990 8      2761.032          50.562
G08  21483425.220   112896151.688 8       647.058          48.000    21483424.320   112896151.695 7       647.058          47.875    21483432.780    87971061.958 7       504.201          47.812    21483434.640    87971067.959 8       504.201          50.437
G21  21886763.240   115015711.769 7      1259.444          47.625    21886761.600   115015711.774 6      1259.444          38.312    21886765.180    89622645.483 6       981.385          38.750
R20  20759230.520   111008887.295 6      3113.540          37.687    20759229.200   111008887.320 6      3113.540          37.875    20759241.040    86340319.504 7      2421.642          42.625    20759241.720    86340324.500 7      2421.642          43.625
R04  21863243.560   117076670.665 7       -88.932          46.250    21863245.800   117076670.693 7       -88.932          44.375    21863254.640    91059686.374 7       -69.169          45.500    21863254.780    91059686.376 7       -69.169          45.437
R10  22004769.680   117297790.543 7       -25.963          43.250    22004767.880   117297790.565 7       -25.963          42.687
R11  22670727.980   121145489.809 7      3103.673          44.875    22670727.100   121145489.823 7      3103.673          44.312    22670737.160    94224306.515 7      2413.968          44.375    22670737.460    94224315.513 7      2413.968          44.750
G22  24113129.840   126715348.873 6      4725.872          40.000    24113129.000   126715348.883 4      4725.872          24.500    24113135.000    98739252.111 4      3682.498          24.437
> 2024 05 06 15 35 32.0000000  0 12
G27  24356975.880   127996746.367 6      -446.277          40.875    24356974.420   127996746.385 6      -446.277          38.375    24356997.120    99737804.631 6      -347.748          38.375    24356997.120    99737804.623 7      -347.748          43.125
G02  21580259.480   113405025.491 7      2075.385          47.687    21580258.220   113405025.496 6      2075.385          40.437    21580260.520    88367555.328 6      1617.183          40.562
G03  20229506.400   106306771.061 8      3835.895          48.000    20229505.560   106306771.060 7      3835.895          42.125    20229512.580    82836472.250 6      2989.009          41.875    20229513.300    82836476.249 8      2989.009          52.312
G14  22253360.160   116942191.216 7      3695.037          45.937    22253359.500   116942191.223 5      3695.037          35.500    22253364.420    91123807.811 5      2879.249          35.000    22253364.540    91123810.808 7      2879.249          46.750
R05  19879161.520   106265508.758 8      3549.874          50.687    19879161.620   106265508.756 8      3549.874          50.000    19879170.960    82650993.940 8      2761.013          50.500    19879170.700    82650991.935 8      2761.013          50.625
G08  21483302.000   112895504.407 8       647.406          48.250    21483301.140   112895504.420 8       647.406          48.000    21483309.640    87970557.589 7       504.472          47.875    21483311.480    87970563.591 8       504.472          49.875
G21  21886523.600   115014451.908 7      1260.206          47.875    21886521.900   115014451.916 6      1260.206          38.625    21886525.460    89621663.779 6       981.978          38.625
R20  20758647.580   111005773.114 6      3114.594          37.687    20758647.240   111005773.110 6      3114.594          37.625    20758658.500    86337897.355 7      2422.462          42.937    20758659.240    86337902.353 7      2422.462          43.500
R04  21863260.520   117076759.536 7       -88.785          45.625    21863262.220   117076759.564 7       -88.785          44.812    21863271.240    91059755.504 7       -69.055          45.437    21863271.300    91059755.510 7       -69.055          45.562
R10  22004774.860   117297816.308 7       -25.643          43.062    22004772.720   117297816.314 7       -25.643          42.375
R11  22670146.820   121142386.061 7      3103.687          44.500    22670145.880   121142386.073 7      3103.687          44.187    22670156.520    94221892.510 7      2413.978          45.500    22670156.560    94221901.511 7      2413.978          45.812
G22  24112230.540   126710622.883 6      4726.106          40.625    24112229.600   126710622.901 4      4726.106          24.500    24112235.140    98735569.534 4      3682.680          24.437
> 2024 05 06 15 35 33.0000000  0 12
G27  24357060.660   127997192.357 6      -445.881          41.750    24357059.320   127997192.365 6      -445.881          38.312    24357081.920    99738152.135 6      -347.440          38.000    24357082.260    99738152.127 7      -347.440          42.937
G02  21579864.440   113402949.799 8      2075.893          48.375    21579863.320   113402949.804 6      2075.893          40.437    21579865.520    88365937.918 6      1617.579          40.562
G03  20228776.280   106302935.161 7      3835.823          47.750    20228775.620   106302935.160 7      3835.823          42.687    20228782.660    82833483.247 7      2988.953          42.187    20228783.420    82833487.248 8      2988.953          52.500
G14  22252657.040   116938496.085 7      3695.008          45.125    22252656.240   116938496.095 5      3695.008          35.500    22252661.240    91120928.498 5      2879.227          35.062    22252661.080    91120931.498 7      2879.227          47.250
R05  19878497.420   106261959.043 8      3549.483          50.687    19878497.580   106261959.042 8      3549.483          49.750    19878506.720    82648233.068 8      2760.709          50.625    19878506.560    82648231.060 8      2760.709          50.625
G08  21483178.780   112894856.873 7       647.545          47.562    21483177.840   112894856.884 7       647.545          47.875    21483186.360    87970053.020 8       504.581          48.000    21483188.300    87970059.023 8       504.581          50.500
G21  21886283.740   115013191.430 7      1260.670          47.812    21886282.280   115013191.435 6      1260.670          38.437    21886285.480    89620681.595 6       982.341          38.312
R20  20758065.460   111002658.380 6      3114.714          37.687    20758064.260   111002658.397 6      3114.714          37.625    20758075.480    86335474.811 7      2422.556          43.125    20758076.540    86335479.817 7      2422.556          43.625
R04  21863276.700   117076848.425 7       -88.980          46.000    21863278.560   117076848.462 7       -88.980          44.750    21863287.840    91059824.652 7       -69.207          45.625    21863287.820    91059824.663 7       -69.207          46.062
R10  22004779.340   117297841.852 7       -25.566          43.062    22004777.260   117297841.858 7       -25.566          42.375
R11  22669565.940   121139282.466 7      3103.405          44.687    22669564.660   121139282.460 7      3103.405          43.312    22669575.760    94219478.609 7      2413.759          45.250    22669575.700    94219487.620 7      2413.759          45.437
G22  24111331.300   126705896.662 6      4726.211          41.125    24111330.400   126705896.685 4      4726.211          24.500    24111336.060    98731886.779 4      3682.762          24.437
> 2024 05 06 15 35 34.0000000  0 12
G27  24357145.500   127997638.060 6      -445.290          41.687    24357144.000   127997638.065 6      -445.290          38.000    24357166.700    99738499.418 6      -346.979          38.312    24357167.100    99738499.406 7      -346.979          42.937
G02  21579469.360   113400873.719 8      2076.426          48.750    21579468.200   113400873.724 6      2076.426          40.062    21579470.500    88364320.201 6      1617.994          39.687
G03  20228046.580   106299099.384 8      3835.951          48.687    20228045.540   106299099.387 6      3835.951          41.937    20228052.780    82830494.343 6      2989.053          41.750    20228053.180    82830498.344 8      2989.053          51.937
G14  22251954.000   116934801.112 7      3695.036          45.562    22251953.140   116934801.127 5      3695.036          35.125    22251958.160    91118049.307 5      2879.249          34.937    22251958.320    91118052.300 7      2879.249          47.125
R05  19877833.440   106258409.743 8      3549.234          49.875    19877833.440   106258409.739 8      3549.234          49.062    19877842.740    82645472.505 8      2760.515          49.687    19877842.520    82645470.499 8      2760.515          49.562
G08  21483055.340   112894209.269 8       647.791          48.000    21483054.620   112894209.279 8       647.791          48.125    21483063.100    87969548.397 7       504.772          47.875    21483065.000    87969554.399 8       504.772          49.250
G21  21886043.740   115011930.490 7      1261.316          47.125    21886042.180   115011930.497 6      1261.316          38.687    21886045.560    89619699.050 6       982.844          38.312
R20  20757482.800   110999543.210 6      3115.480          37.687    20757481.880   110999543.211 6      3115.480          37.625    20757492.560    86333051.897 7      2423.151          43.187    20757493.860    86333056.895 7      2423.151          42.250
R04  21863293.640   117076937.505 7       -89.085          46.312    21863295.640   117076937.544 7       -89.085          44.687    21863304.600    91059893.947 7       -69.288          45.250    21863304.400    91059893.953 7       -69.288          45.625
R10  22004784.520   117297867.396 7       -25.415          43.187    22004782.320   117297867.407 7       -25.415          42.125
R11  22668985.300   121136179.149 7      3103.366          44.062    22668983.800   121136179.142 7      3103.366          43.187    22668994.600    94217064.926 7      2413.729          45.062    22668994.920    94217073.939 7      2413.729          44.812
G22  24110431.920   126701170.393 6      4726.354          41.687    24110431.220   126701170.409 4      4726.354          24.500    24110437.260    98728203.968 4      3682.873          24.437
> 2024 05 06 15 35 35.0000000  0 12
G27  24357230.000   127998083.304 6      -445.101          41.312    24357228.720   127998083.314 6      -445.101          38.187    24357251.460    99738846.347 6      -346.832          37.812    24357251.600    99738846.330 7      -346.832          43.250
G02  21579074.080   113398796.979 7      2076.946          47.750    21579072.880   113398796.986 6      2076.946          40.125    21579075.320    88362701.969 6      1618.400          40.062
G03  20227316.560   106295263.516 7      3835.835          47.312    20227315.700   106295263.518 7      3835.835          42.375    20227322.840    82827505.367 6      2988.962          41.812    20227323.400    82827509.370 8      2988.962          51.125
G14  22251250.940   116931106.031 7      3695.037          45.812    22251249.980   116931106.046 5      3695.037          34.500    22251254.960    91115170.031 5      2879.250          34.937    22251255.620    91115173.027 7      2879.250          47.625
R05  19877169.520   106254860.598 8      3549.008          49.562    19877169.460   106254860.596 8      3549.008          48.875    19877178.860    82642712.069 8      2760.340          49.312    19877178.700    82642710.070 8      2760.340          49.500
G08  21482932.100   112893561.352 8       648.014          48.312    21482931.400   112893561.354 7       648.014          47.562    21482939.780    87969043.523 7       504.946          47.562    21482941.640    87969049.524 8       504.946          48.625
G21  21885803.720   115010668.855 7      1261.916          47.687    21885802.080   115010668.858 6      1261.916          37.625    21885805.480    89618715.962 6       983.311          37.750
R20  20756899.580   110996427.380 6      3116.199          37.687    20756899.920   110996427.368 6      3116.199          37.625    20756909.360    86330628.469 7      2423.710          43.000    20756910.760    86330633.463 6      2423.710          41.750
R04  21863309.720   117077026.520 7       -89.090          46.000    21863311.900   117077026.562 7       -89.090          44.687    21863321.280    91059963.192 7       -69.293          44.812    21863321.340    91059963.194 7       -69.293          45.812
R10  22004789.040   117297892.687 7       -25.270          42.687    22004787.180   117297892.695 7       -25.270          42.125
R11  22668404.460   121133075.923 7      3103.170          43.812    22668403.780   121133075.908 7      3103.170          43.187    22668413.560    94214651.310 7      2413.577          44.312    22668414.000    94214660.321 7      2413.577          44.937
G22  24109532.340   126696443.794 6      4726.511          41.625    24109531.560   126696443.809 4      4726.511          24.500    24109537.740    98724520.915 4      3682.995          24.437
> 2024 05 06 15 35 36.0000000  0 12
G27  24357314.560   127998528.229 6      -444.740          41.250    24357313.380   127998528.234 6      -444.740          38.000    24357336.260    99739193.019 6      -346.550          38.125    24357336.940    99739193.015 7      -346.550          42.875
G02  21578678.780   113396719.845 7      2077.233          47.312    21578677.640   113396719.849 6      2077.233          40.375    21578680.020    88361083.431 6      1618.623          40.250
G03  20226586.640   106291427.795 7      3835.527          47.250    20226585.660   106291427.794 6      3835.527          41.625    20226592.960    82824516.501 6      2988.723          41.187    20226593.340    82824520.500 8      2988.723          52.312
G14  22250548.040   116927411.116 7      3694.746          45.687    22250546.800   116927411.126 5      3694.746          34.500    22250551.860    91112290.880 5      2879.023          34.687    22250552.640    91112293.882 7      2879.023          47.937
R05  19876505.700   106251311.910 8      3548.348          49.687    19876505.680   106251311.906 8      3548.348          48.812    19876515.000    82639951.987 8      2759.827          50.250    19876514.620    82639949.985 8      2759.827          49.750
G08  21482808.740   112892913.377 8       647.922          48.062    21482808.040   112892913.385 7       647.922          47.875    21482816.480    87968538.616 7       504.874          47.687    21482818.200    87968544.617 8       504.874          49.500
G21  21885563.460   115009406.796 7      1262.155          47.187    21885561.920   115009406.798 6      1262.155          38.000    21885565.340    89617732.547 6       983.498          38.125
R20  20756316.980   110993311.169 6      3116.301          37.250    20756316.620   110993311.182 6      3116.301          37.062    20756326.600    86328204.773 7      2423.790          42.750    20756327.800    86328209.763 7      2423.790          42.000
R04  21863326.120   117077115.782 7       -89.440          46.875    21863328.620   117077115.816 7       -89.440          44.375    21863337.980    91060032.615 7       -69.564          45.125    21863338.120    91060032.622 7       -69.564          45.687
R10  22004793.560   117297918.004 7       -25.330          42.687    22004792.300   117297918.005 6       -25.330          41.562
R11  22667823.880   121129973.022 7      3102.668          44.437    22667823.740   121129973.013 7      3102.668          43.750    22667832.640    94212237.951 7      2413.186          44.812    22667833.460    94212246.962 7      2413.186          44.187
G22  24108632.880   126691717.149 6      4726.544          41.937    24108631.980   126691717.162 4      4726.544          24.500    24108637.920    98720837.820 4      3683.021          24.437
> 2024 05 06 15 35 37.0000000  0 12
G27  24357399.160   127998973.000 6      -444.524          40.937    24357397.940   127998973.010 6      -444.524          38.250    24357420.860    99739539.581 6      -346.382          38.250    24357421.680    99739539.573 7      -346.382          43.375
G02  21578283.520   113394642.358 8      2077.804          48.062    21578282.340   113394642.363 6      2077.804          40.500    21578284.560    88359464.616 6      1619.068          40.562
G03  20225856.660   106287592.241 7      3835.629          47.500    20225855.680   106287592.244 7      3835.629          42.375    20225863.040    82821527.773 6      2988.802          41.500    20225863.560    82821531.776 8      2988.802          52.812
G14  22249844.760   116923716.376 7      3694.790          45.625    22249843.760   116923716.389 5      3694.790          34.875    22249848.920    91109411.871 5      2879.057          34.687    22249849.240    91109414.885 8      2879.057          48.000
R05  19875841.980   106247763.665 8      3548.049          50.437    19875841.860   106247763.664 8      3548.049          49.750    19875851.200    82637192.256 8      2759.594          50.000    19875850.860    82637190.254 8      2759.594          50.750
G08  21482685.660   112892265.384 8       648.099          48.375    21482684.820   112892265.394 7       648.099          47.625    21482693.180    87968033.692 8       505.012          48.000    21482694.780    87968039.691 8       505.012          49.812
G21  21885323.140   115008144.321 7      1262.817          47.500    21885321.700   115008144.323 6      1262.817          37.812    21885325.100    89616748.807 6       984.013          38.000
R20  20755734.360   110990194.580 6      3117.091          37.250    20755734.320   110990194.589 6      3117.091          37.062    20755743.860    86325780.767 7      2424.404          43.125    20755744.980    86325785.754 7      2424.404          42.375
R04  21863343.020   117077205.317 7       -89.433          46.187    21863344.880   117077205.343 7       -89.433          44.312    21863354.600    91060102.260 7       -69.559          45.875    21863354.840    91060102.264 7       -69.559          46.062
R10  22004798.640   117297943.375 7       -25.216          42.812    22004797.300   117297943.378 6       -25.216          41.562
R11  22667243.500   121126870.512 7      3102.434          45.562    22667243.720   121126870.511 7      3102.434          44.375    22667252.160    94209824.889 7      2413.005          45.250    22667253.100    94209833.897 7      2413.005          44.875
G22  24107733.580   126686990.510 6      4726.763          41.250    24107732.380   126686990.528 4      4726.763          26.500    24107738.160    98717154.735 4      3683.192          26.500
> 2024 05 06 15 35 38.0000000  0 12
G27  24357483.800   127999417.434 6      -444.464          40.937    24357482.520   127999417.441 6      -444.464          38.062    24357505.500    99739885.875 6      -346.335          37.750    24357506.040    99739885.865 7      -346.335          43.375
G02  21577888.380   113392564.396 7      2078.106          47.625    21577887.140   113392564.401 6      2078.106          40.062    21577889.260    88357845.431 6      1619.304          40.000
G03  20225126.920   106283756.778 7      3835.386          47.375    20225125.860   106283756.777 7      3835.386          42.062    20225133.080    82818539.106 6      2988.613          41.562    20225133.800    82818543.107 8      2988.613          52.250
G14  22249141.460   116920021.726 7      3694.547          46.250    22249140.700   116920021.737 5      3694.547          35.125    22249145.880    91106532.929 5      2878.868          35.000    22249146.420    91106535.939 7      2878.868          47.937
R05  19875178.240   106244215.752 8      3547.608          49.625    19875178.160   106244215.754 8      3547.608          49.812    19875187.320    82634432.778 8      2759.251          51.000    19875187.000    82634430.777 8      2759.251          50.687
G08  21482562.260   112891617.268 7       647.989          47.875    21482561.380   112891617.275 7       647.989          47.937    21482569.780    87967528.664 8       504.926          48.000    21482571.820    87967534.665 8       504.926          49.937
G21  21885082.900   115006881.333 7      1263.185          46.875    21885081.520   115006881.336 6      1263.185          37.937    21885084.580    89615764.669 6       984.300          37.875
R20  20755152.040   110987077.554 6      3117.247          37.250    20755151.700   110987077.566 6      3117.247          37.062    20755161.400    86323356.416 7      2424.526          43.250    20755161.780    86323361.407 7      2424.526          42.625
R04  21863359.740   117077295.036 7       -89.863          45.625    21863361.080   117077295.065 7       -89.863          44.062    21863371.480    91060172.052 7       -69.893          45.875    21863371.660    91060172.056 7       -69.893          46.000
R10  22004803.260   117297968.666 7       -25.294          42.812    22004801.540   117297968.669 6       -25.294          41.375
R11  22666663.060   121123768.229 7      3102.004          46.250    22666663.140   121123768.233 7      3102.004          44.625    22666671.980    94207412.011 7      2412.669          45.500    22666672.720    94207421.010 7      2412.669          45.625
G22  24106834.100   126682263.745 6      4726.669          41.312    24106832.860   126682263.766 4      4726.669          26.500    24106838.820    98713471.543 4      3683.119          26.500
> 2024 05 06 15 35 39.0000000  0 12
G27  24357568.280   127999861.505 6      -444.053          40.562    24357567.120   127999861.515 6      -444.053          38.125    24357590.040    99740231.893 6      -346.015          38.125    24357590.120    99740231.880 7      -346.015          43.062
G02  21577492.780   113390485.951 7      2078.695          47.750    21577491.440   113390485.953 6      2078.695          40.500    21577493.840    88356225.872 6      1619.762          40.437
G03  20224397.060   106279921.358 7      3835.393          47.500    20224395.920   106279921.366 7      3835.393          42.000    20224403.360    82815550.484 7      2988.618          42.125    20224404.080    82815554.487 8      2988.618          52.875
G14  22248438.320   116916327.132 7      3694.612          45.812    22248437.840   116916327.139 5      3694.612          35.125    22248442.620    91103654.030 5      2878.918          35.375    22248443.280    91103657.042 8      2878.918          48.000
R05  19874514.480   106240668.181 8      3547.381          49.500    19874514.440   106240668.185 8      3547.381          49.250    19874523.860    82631673.569 8      2759.074          50.250    19874523.560    82631671.570 8      2759.074          50.312
G08  21482439.060   112890968.978 7       648.323          47.812    21482438.160   112890968.988 7       648.323          47.375    21482446.420    87967023.511 7       505.187          47.437    21482448.580    87967029.514 8       505.187          50.062
G21  21884842.460   115005617.834 7      1263.751          47.750    21884841.020   115005617.838 6      1263.751          38.375    21884844.140    89614780.130 6       984.741          38.375
R20  20754569.260   110983960.074 6      3117.609          37.250    20754567.880   110983960.070 6      3117.609          37.062    20754578.520    86320931.711 7      2424.807          43.062    20754579.120    86320936.707 7      2424.807          42.937
R04  21863376.500   117077384.882 7       -89.936          45.312    21863377.480   117077384.908 7       -89.936          44.062    21863388.260    91060241.934 7       -69.950          45.812    21863388.300    91060241.938 7       -69.950          46.062
R10  22004808.540   117297993.861 6       -25.100          41.250    22004806.180   117297993.870 6       -25.100          41.375
R11  22666082.480   121120666.173 7      3101.909          45.375    22666082.560   121120666.182 7      3101.909          44.812    22666091.680    94204999.303 7      2412.596          44.937    22666092.240    94205008.303 7      2412.596          45.375
G22  24105934.600   126677536.830 6      4726.964          41.000    24105933.440   126677536.854 4      4726.964          26.500    24105939.340    98709788.243 4      3683.349          26.500
> 2024 05 06 15 35 40.0000000  0 12
G27  24357652.580   128000305.211 6      -443.429          41.125    24357651.460   128000305.219 6      -443.429          37.937    24357674.660    99740577.619 6      -345.529          37.687    24357674.560    99740577.607 7      -345.529          43.062
G02  21577097.160   113388407.004 7      2079.270          47.375    21577095.880   113388407.011 6      2079.270          40.812    21577098.140    88354605.921 6      1620.210          40.937
G03  20223667.040   106276086.000 7      3835.369          47.875    20223665.960   106276086.002 6      3835.369          41.875    20223673.540    82812561.899 6      2988.599          41.375    20223674.320    82812565.899 8      2988.599          52.562
G14  22247735.520   116912632.600 7      3694.545          46.000    22247734.920   116912632.610 5      3694.545          35.312    22247739.620    91100775.183 5      2878.866          35.375    22247740.260    91100778.197 7      2878.866          47.875
R05  19873851.120   106237120.929 8      3547.188          50.000    19873850.880   106237120.930 8      3547.188          49.812    19873860.200    82628914.605 8      2758.924          50.500    19873859.840    82628912.603 8      2758.924          50.437
G08  21482315.560   112890320.543 8       648.558          49.312    21482314.820   112890320.550 7       648.558          47.625    21482323.080    87966518.238 7       505.370          47.750    21482325.260    87966524.237 8       505.370          50.250
G21  21884601.900   115004353.787 7      1264.359          47.375    21884600.480   115004353.790 6      1264.359          38.437    21884603.740    89613795.167 6       985.215          38.750
R20  20753985.960   110980842.035 6      3118.312          37.187    20753984.780   110980842.020 6      3118.312          37.062    20753995.460    86318506.570 7      2425.353          43.125    20753995.820    86318511.572 7      2425.353          42.937
R04  21863393.400   117077474.832 7       -90.014          45.312    21863394.360   117077474.860 7       -90.014          44.000    21863405.160    91060311.903 7       -70.011          46.062    21863405.100    91060311.910 7       -70.011          46.687
R10  22004812.980   117298018.963 6       -24.973          41.250    22004810.540   117298018.976 6       -24.973          40.687
R11  22665501.840   121117564.341 7      3101.721          45.312    22665501.780   121117564.356 7      3101.721          44.625    22665511.640    94202586.775 7      2412.450          45.812    22665511.520    94202595.776 7      2412.450          45.750
G22  24105035.100   126672809.787 6      4727.129          40.875    24105033.780   126672809.810 4      4727.129          26.500    24105040.040    98706104.837 4      3683.477          26.500
> 2024 05 06 15 35 41.0000000  0 12
G27  24357737.280   128000748.626 6      -443.227          41.250    24357735.840   128000748.639 6      -443.227          38.875    24357759.160    99740923.123 6      -345.372          37.812    24357759.100    99740923.113 7      -345.372          43.062
G02  21576701.460   113386327.628 7      2079.623          47.250    21576700.140   113386327.636 6      2079.623          40.625    21576702.440    88352985.635 6      1620.485          40.312
G03  20222937.400   106272250.720 8      3835.294          48.187    20222936.260   106272250.719 6      3835.294          41.812    20222943.580    82809573.377 6      2988.541          41.437    20222944.400    82809577.378 8      2988.541          52.437
G14  22247032.480   116908938.158 7      3694.413          45.687    22247031.840   116908938.173 5      3694.413          34.937    22247036.620    91097896.405 5      2878.763          34.875    22247037.160    91097899.421 8      2878.763          48.062
R05  19873187.760   106233574.069 8      3546.733          50.375    19873187.280   106233574.067 8      3546.733          49.687    19873196.720    82626155.944 8      2758.570          51.125    19873196.420    82626153.945 8      2758.570          50.375
G08  21482192.160   112889672.001 8       648.616          48.687    21482191.340   112889672.003 7       648.616          47.625    21482199.680    87966012.878 7       505.415          47.562    21482201.760    87966018.879 8       505.415          50.000
G21  21884361.200   115003089.255 7      1264.817          47.250    21884359.780   115003089.260 6      1264.817          37.875    21884363.200    89612809.821 6       985.572          38.062
R20  20753402.420   110977723.520 6      3118.874          37.187    20753401.000   110977723.508 6      3118.874          36.875    20753412.400    86316081.071 7      2425.791          43.062    20753413.020    86316086.073 7      2425.791          42.687
R04  21863410.300   117077564.945 7       -90.240          44.750    21863411.080   117077564.968 7       -90.240          44.062    21863421.820    91060381.993 7       -70.187          45.500    21863421.920    91060382.000 7       -70.187          46.625
R10  22004817.840   117298044.027 6       -25.060          40.812    22004814.760   117298044.035 6       -25.060          40.687
R11  22664921.900   121114462.822 7      3101.280          45.875    22664921.600   121114462.829 7      3101.280          44.437    22664931.400    94200174.485 7      2412.107          46.625    22664931.280    94200183.488 7      2412.107          45.937
G22  24104135.860   126668082.648 6      4727.136          41.187    24104134.460   126668082.669 4      4727.136          26.500    24104140.740    98702421.359 4      3683.482          26.500
> 2024 05 06 15 35 42.0000000  0 12
G27  24357821.720   128001191.799 6      -443.090          41.250    24357820.260   128001191.809 6      -443.090          37.875    24357843.400    99741268.430 6      -345.265          37.937    24357843.880    99741268.414 7      -345.265          43.312
G02  21576305.780   113384247.832 7      2080.067          47.312    21576304.540   113384247.835 6      2080.067          40.500    21576306.680    88351365.012 6      1620.832          40.687
G03  20222207.620   106268415.584 7      3835.098          47.875    20222206.300   106268415.584 7      3835.098          42.062    20222213.740    82806584.962 7      2988.388          42.000    20222214.820    82806588.965 8      2988.388          52.687
G14  22246329.780   116905243.873 7      3694.163          46.375    22246328.920   116905243.888 5      3694.163          35.125    22246333.640    91095017.747 5      2878.568          34.812    22246334.120    91095020.763 8      2878.568          48.062
R05  19872524.400   106230027.602 8      3546.239          50.187    19872523.900   106230027.598 8      3546.239          49.437    19872533.260    82623397.581 8      2758.186          50.937    19872532.840    82623395.580 8      2758.186          50.812
G08  21482068.880   112889023.377 8       648.664          48.312    21482067.920   112889023.384 7       648.664          47.625    21482076.160    87965507.457 7       505.453          47.437    21482078.340    87965513.460 8       505.453          49.812
G21  21884120.580   115001824.279 7      1265.225          47.687    21884119.240   115001824.276 6      1265.225          38.437    21884122.560    89611824.123 6       985.890          38.375
R20  20752819.360   110974604.634 6      3119.090          37.187    20752817.020   110974604.643 6      3119.090          36.875    20752829.180    86313655.285 7      2425.959          43.375    20752830.100    86313660.291 7      2425.959          42.937
R04  21863427.280   117077655.237 7       -90.402          45.687    21863428.060   117077655.271 7       -90.402          43.625    21863438.840    91060452.227 7       -70.312          46.500    21863439.200    91060452.229 7       -70.312          46.375
R10  22004822.640   117298069.059 6       -25.084          40.812    22004819.540   117298069.049 6       -25.084          40.687
R11  22664341.200   121111361.594 7      3101.014          45.937    22664341.760   121111361.601 7      3101.014          45.125    22664351.380    94197762.419 7      2411.900          46.062    22664350.840    94197771.417 7      2411.900          46.312
G22  24103235.840   126663355.431 6      4727.153          41.750    24103234.840   126663355.452 4      4727.153          26.500    24103241.300    98698737.817 4      3683.496          26.500
> 2024 05 06 15 35 43.0000000  0 12
G27  24357905.840   128001634.643 6      -442.447          41.062    24357904.540   128001634.648 6      -442.447          38.000    24357927.620    99741613.477 6      -344.764          38.125    24357928.360    99741613.461 7      -344.764          43.312
G02  21575910.000   113382167.624 7      2080.494          47.375    21575908.640   113382167.629 6      2080.494          40.750    21575910.860    88349744.071 6      1621.164          40.562
G03  20221477.960   106264580.554 7      3835.138          47.375    20221476.440   106264580.556 7      3835.138          42.187    20221483.960    82803596.631 6      2988.419          41.375    20221484.800    82803600.636 8      2988.419          52.062
G14  22245626.560   116901549.694 7      3694.279          46.125    22245626.080   116901549.709 5      3694.279          35.125    22245630.620    91092139.166 5      2878.659          35.437    22245631.420    91092142.176 8      2878.659          48.312
R05  19871860.860   106226481.520 8      3545.984          50.562    19871860.400   106226481.510 8      3545.984          49.125    19871869.920    82620639.515 8      2757.988          50.750    19871869.840    82620637.518 8      2757.988          50.250
G08  21481945.200   112888374.677 8       648.866          48.625    21481944.520   112888374.682 7       648.866          47.687    21481952.760    87965001.970 7       505.610          47.625    21481954.900    87965007.973 8       505.610          49.750
G21  21883879.780   115000558.827 8      1265.749          48.250    21883878.420   115000558.826 6      1265.749          38.125    21883881.620    89610838.053 6       986.298          38.187
R20  20752235.940   110971485.306 6      3119.738          37.187    20752233.200   110971485.313 6      3119.738          36.875    20752245.880    86311229.141 7      2426.463          43.187    20752246.500    86311234.145 7      2426.463          42.625
R04  21863444.000   117077745.739 7       -90.516          45.500    21863445.540   117077745.775 7       -90.516          43.625    21863456.120    91060522.619 7       -70.401          45.750    21863455.880    91060522.621 7       -70.401          46.062
R10  22004826.640   117298094.054 6       -24.937          40.812    22004824.160   117298094.047 6       -24.937          39.500
R11  22663760.780   121108260.661 7      3100.842          46.500    22663762.440   121108260.672 7      3100.842          45.500    22663771.540    94195350.575 7      2411.766          45.437    22663770.660    94195359.580 7      2411.766          46.000
G22  24102335.980   126658628.117 6      4727.568          41.125    24102335.300   126658628.138 4      4727.568          27.437    24102341.680    98695054.197 4      3683.819          27.437
> 2024 05 06 15 35 44.0000000  0 12
G27  24357989.740   128002077.215 6      -442.397          40.750    24357988.660   128002077.225 6      -442.397          38.000    24358011.920    99741958.317 6      -344.725          37.500    24358012.140    99741958.297 7      -344.725          43.000
G02  21575514.040   113380086.932 8      2080.876          48.312    21575512.580   113380086.942 6      2080.876          40.750    21575514.780    88348122.754 6      1621.462          40.750
G03  20220748.260   106260745.618 7      3834.918          47.625    20220746.760   106260745.618 6      3834.918          41.937    20220754.240    82800608.367 6      2988.247          41.312    20220754.780    82800612.370 8      2988.247          51.750
G14  22244923.600   116897855.614 7      3694.010          46.437    22244923.160   116897855.627 5      3694.010          35.750    22244927.680    91089260.660 5      2878.449          35.437    22244928.640    91089263.676 8      2878.449          48.625
R05  19871197.600   106222935.771 8      3545.556          50.250    19871197.040   106222935.770 8      3545.556          49.750    19871206.800    82617881.715 8      2757.655          50.500    19871206.500    82617879.716 8      2757.655          50.187
G08  21481821.720   112887725.848 8       648.892          48.500    21481820.980   112887725.850 8       648.892          48.125    21481829.300    87964496.381 7       505.630          47.812    21481831.440    87964502.380 8       505.630          49.062
G21  21883638.760   114999292.865 8      1266.200          48.250    21883637.340   114999292.870 6      1266.200          37.875    21883640.760    89609851.591 6       986.649          38.125
R20  20751652.920   110968365.519 6      3120.065          37.187    20751650.020   110968365.531 6      3120.065          36.875    20751662.420    86308802.640 7      2426.717          43.250    20751663.240    86308807.648 7      2426.717          42.750
R04  21863461.160   117077836.369 7       -90.635          45.937    21863462.860   117077836.392 7       -90.635          43.875    21863472.940    91060593.095 7       -70.494          46.125    21863472.860    91060593.097 7       -70.494          46.687
R10  22004831.180   117298118.967 6       -24.845          40.250    22004828.960   117298118.967 6       -24.845          39.500
R11  22663180.740   121105159.994 7      3100.577          46.125    22663182.240   121105160.006 7      3100.577          45.750    22663191.700    94192938.939 7      2411.560          46.625    22663190.620    94192947.940 7      2411.560          46.375
G22  24101436.520   126653900.703 6      4727.501          41.187    24101435.520   126653900.726 4      4727.501          27.437    24101442.060    98691370.508 4      3683.767          27.437
> 2024 05 06 15 35 45.0000000  0 12
G27  24358073.900   128002519.405 6      -442.042          40.937    24358072.960   128002519.412 6      -442.042          37.625    24358095.900    99742302.856 6      -344.448          37.500    24358096.460    99742302.840 7      -344.448          43.125
G02  21575118.000   113378005.730 7      2081.480          47.750    21575116.580   113378005.741 6      2081.480          40.062    21575118.620    88346501.041 6      1621.933          39.875
G03  20220018.200   106256910.712 8      3834.894          48.000    20220016.980   106256910.714 6      3834.894          41.750    20220024.500    82797620.136 6      2988.229          41.437    20220025.140    82797624.141 8      2988.229          51.062
G14  22244220.840   116894161.560 7      3694.086          46.000    22244220.040   116894161.573 5      3694.086          35.687    22244224.540    91086382.177 6      2878.509          36.062    22244225.640    91086385.195 7      2878.509          47.937
R05  19870534.520   106219390.328 8      3545.310          49.562    19870533.920   106219390.327 8      3545.310          49.750    19870543.500    82615124.154 8      2757.463          49.687    19870543.300    82615122.151 8      2757.463          49.062
G08  21481698.120   112887076.838 8       649.118          48.062    21481697.460   112887076.846 7       649.118          47.000    21481705.800    87963990.661 7       505.806          46.812    21481707.740    87963996.660 8       505.806          48.687
G21  21883397.720   114998026.349 7      1266.838          47.062    21883396.400   114998026.356 6      1266.838          37.812    21883399.800    89608864.693 6       987.146          38.750
R20  20751069.320   110965245.298 6      3120.184          37.187    20751066.820   110965245.275 6      3120.184          36.875    20751079.000    86306375.783 7      2426.810          43.312    20751080.140    86306380.782 7      2426.810          42.750
R04  21863478.320   117077927.114 7       -90.776          45.937    21863479.800   117077927.150 7       -90.776          44.125    21863490.060    91060663.678 7       -70.604          45.625    21863489.720    91060663.689 7       -70.604          46.625
R10  22004835.440   117298143.783 6       -24.705          40.250    22004833.100   117298143.800 6       -24.705          39.500
R11  22662600.580   121102059.541 7      3100.359          46.562    22662602.060   121102059.547 7      3100.359          45.562    22662611.400    94190527.476 7      2411.390          46.062    22662610.580    94190536.476 7      2411.390          46.312
G22  24100536.420   126649173.157 6      4727.692          41.312    24100535.680   126649173.186 4      4727.692          27.437    24100542.540    98687686.707 4      3683.916          27.437
> 2024 05 06 15 35 46.0000000  0 12
G27  24358157.980   128002961.356 6      -441.942          40.500    24358157.020   128002961.369 6      -441.942          37.937    24358179.980    99742647.215 6      -344.370          37.375    24358180.720    99742647.209 7      -344.370          43.062
G02  21574721.740   113375924.171 8      2081.662          48.812    21574720.340   113375924.182 6      2081.662          40.625    21574722.600    88344879.047 6      1622.074          40.250
G03  20219288.580   106253075.978 8      3834.543          48.625    20219287.260   106253075.978 7      3834.543          42.250    20219294.700    82794632.034 6      2987.955          41.500    20219295.520    82794636.037 8      2987.955          52.500
G14  22243517.520   116890467.701 7      3693.690          46.562    22243517.340   116890467.711 5      3693.690          35.562    22243521.800    91083503.843 5      2878.200          35.500    22243522.900    91083506.863 7      2878.200          47.562
R05  19869871.240   106215845.334 8      3544.638          51.500    19869870.680   106215845.332 8      3544.638          49.875    19869880.320    82612366.943 8      2756.941          49.937    19869880.080    82612364.939 8      2756.941          49.687
G08  21481574.680   112886427.799 8       649.069          48.812    21481574.020   112886427.804 7       649.069          47.812    21481582.320    87963484.912 7       505.768          47.812    21481584.080    87963490.911 8       505.768          49.500
G21  21883156.700   114996759.444 8      1267.015          48.312    21883155.100   114996759.449 6      1267.015          37.937    21883158.720    89607877.497 6       987.285          38.000
R20  20750485.420   110962124.577 6      3120.687          36.312    20750482.360   110962124.587 6      3120.687          36.875    20750495.840    86303948.578 7      2427.201          43.125    20750496.500    86303953.580 7      2427.201          43.437
R04  21863495.300   117078018.140 7       -91.247          45.312    21863496.820   117078018.171 7       -91.247          44.375    21863506.820    91060734.481 7       -70.970          45.625    21863506.760    91060734.479 7       -70.970          46.562
R10  22004840.280   117298168.677 6       -24.965          40.250    22004837.640   117298168.683 6       -24.965          39.500
R11  22662020.740   121098959.409 7      3099.830          46.375    22662021.080   121098959.423 7      3099.830          46.000    22662030.920    94188116.268 7      2410.979          46.312    22662030.280    94188125.267 7      2410.979          46.750
G22  24099636.820   126644445.583 7      4727.602          42.250    24099636.060   126644445.604 4      4727.602          27.437    24099642.680    98684002.884 4      3683.846          27.437
> 2024 05 06 15 35 47.0000000  0 12
G27  24358242.160   128003403.008 6      -441.415          39.937    24358241.100   128003403.020 6      -441.415          37.875    24358264.020    99742991.341 6      -343.960          38.000    24358264.440    99742991.323 7      -343.960          43.062
G02  21574325.580   113373842.137 8      2082.403          49.312    21574324.340   113373842.147 6      2082.403          40.750    21574326.460    88343256.684 6      1622.652          40.187
G03  20218558.820   106249241.300 7      3834.822          47.312    20218557.660   106249241.302 7      3834.822          42.187    20218565.040    82791643.984 6      2988.173          41.500    20218565.600    82791647.986 8      2988.173          52.875
G14  22242814.620   116886773.903 7      3693.979          46.312    22242814.500   116886773.913 5      3693.979          35.625    22242818.900    91080625.559 5      2878.425          35.500    22242819.460    91080628.579 7      2878.425          47.937
R05  19869208.100   106212300.666 8      3544.701          51.625    19869207.580   106212300.661 8      3544.701          51.000    19869217.280    82609609.979 8      2756.990          50.437    19869216.840    82609607.979 8      2756.990          49.937
G08  21481451.240   112885778.639 8       649.419          48.437    21481450.540   112885778.642 8       649.419          48.375    21481458.720    87962979.071 7       506.041          47.875    21481460.760    87962985.071 8       506.041          49.750
G21  21882915.620   114995492.008 8      1267.881          48.687    21882914.000   114995492.010 6      1267.881          37.750    21882917.500    89606889.884 6       987.959          37.937
R20  20749901.240   110959003.434 6      3121.476          36.312    20749898.700   110959003.425 6      3121.476          36.562    20749912.080    86301521.010 7      2427.814          43.437    20749912.980    86301526.012 7      2427.814          44.000
R04  21863511.920   117078109.319 7       -91.030          46.500    21863513.780   117078109.345 7       -91.030          44.375    21863523.660    91060805.391 7       -70.801          45.937    21863524.020    91060805.391 7       -70.801          47.375
R10  22004844.340   117298193.499 6       -24.707          39.250    22004842.860   117298193.510 6       -24.707          38.125
R11  22661440.660   121095859.535 7      3099.938          46.875    22661440.280   121095859.545 7      3099.938          46.250    22661450.460    94185705.251 7      2411.063          46.250    22661450.220    94185714.250 7      2411.063          46.750
G22  24098737.360   126639717.880 6      4727.892          40.875    24098736.320   126639717.900 4      4727.892          27.437    24098742.980    98680318.964 4      3684.072          27.437
> 2024 05 06 15 35 48.0000000  0 12
G27  24358326.580   128003844.310 6      -441.462          41.312    24358325.120   128003844.315 6      -441.462          38.125    24358348.160    99743335.188 6      -343.997          38.375    24358348.360    99743335.170 7      -343.997          43.250
G02  21573929.160   113371759.648 8      2082.340          48.875    21573928.000   113371759.655 6      2082.340          40.125    21573930.180    88341633.968 6      1622.603          40.125
G03  20217829.080   106245406.724 8      3834.199          48.312    20217827.820   106245406.724 7      3834.199          42.062    20217835.460    82788656.007 6      2987.688          41.437    20217835.940    82788660.009 8      2987.688          52.250
G14  22242112.060   116883080.220 7      3693.235          46.812    22242111.620   116883080.235 5      3693.235          35.625    22242115.860    91077747.370 5      2877.846          35.687    22242116.580    91077750.386 8      2877.846          48.312
R05  19868544.900   106208756.385 8      3543.748          51.062    19868544.620   106208756.383 8      3543.748          50.750    19868554.220    82606853.324 8      2756.249          50.750    19868553.920    82606851.323 8      2756.249          50.937
G08  21481327.860   112885129.351 8       648.973          48.875    21481326.980   112885129.358 8       648.973          48.125    21481335.140    87962473.134 7       505.693          47.812    21481337.240    87962479.136 8       505.693          49.687
G21  21882674.300   114994224.081 7      1267.845          47.250    21882672.820   114994224.083 6      1267.845          38.125    21882676.200    89605901.891 6       987.931          38.625
R20  20749318.780   110955881.794 6      3121.515          36.312    20749314.680   110955881.798 6      3121.515          36.562    20749328.840    86299093.088 7      2427.845          43.375    20749329.160    86299098.086 7      2427.845          44.062
R04  21863528.940   117078200.656 7       -91.697          46.687    21863530.560   117078200.684 7       -91.697          45.125    21863540.640    91060876.437 7       -71.320          46.125    21863541.040    91060876.433 7       -71.320          47.250
R10  22004849.040   117298218.283 6       -25.244          39.250    22004847.220   117298218.300 6       -25.244          38.125
R11  22660860.580   121092759.937 7      3099.102          46.437    22660859.920   121092759.949 7      3099.102          46.062    22660869.620    94183294.461 7      2410.412          46.562    22660870.280    94183303.464 7      2410.412          46.375
G22  24097837.680   126634990.077 6      4727.409          41.312    24097836.700   126634990.097 4      4727.409          27.812    24097843.420    98676634.968 4      3683.695          27.500
> 2024 05 06 15 35 49.0000000  0 12
G27  24358410.300   128004285.580 6      -441.154          40.625    24358409.160   128004285.588 6      -441.154          38.437    24358432.160    99743679.021 6      -343.757          38.312    24358432.200    99743679.009 7      -343.757          43.312
G02  21573533.000   113369676.972 8      2082.836          48.937    21573531.500   113369676.980 6      2082.836          39.812    21573533.720    88340011.108 6      1622.989          40.062
G03  20217099.320   106241572.519 7      3834.050          47.875    20217098.280   106241572.519 7      3834.050          42.187    20217105.900    82785668.322 6      2987.571          41.812    20217106.540    82785672.323 8      2987.571          52.250
G14  22241409.160   116879386.881 7      3693.256          47.125    22241408.840   116879386.899 5      3693.256          35.875    22241413.100    91074869.452 5      2877.862          35.250    22241413.700    91074872.462 8      2877.862          48.125
R05  19867881.880   106205212.756 8      3543.369          51.125    19867881.720   106205212.755 8      3543.369          49.875    19867891.340    82604097.179 8      2755.953          50.500    19867890.940    82604095.180 8      2755.953          50.437
G08  21481204.360   112884480.225 7       649.068          47.937    21481203.440   112884480.230 8       649.068          48.250    21481211.760    87961967.324 8       505.768          48.062    21481213.820    87961973.327 8       505.768          49.625
G21  21882432.920   114992955.941 7      1268.341          47.250    21882431.520   114992955.943 6      1268.341          38.062    21882434.740    89604913.737 6       988.318          38.437
R20  20748733.960   110952760.017 6      3122.064          36.312    20748732.140   110952760.013 6      3122.064          36.562    20748745.160    86296665.034 7      2428.272          44.000    20748745.700    86296670.027 7      2428.272          44.250
R04  21863546.040   117078292.426 7       -91.920          46.312    21863547.480   117078292.452 7       -91.920          44.375    21863557.600    91060947.821 7       -71.493          45.812    21863558.160    91060947.816 7       -71.493          46.687
R10  22004853.740   117298243.273 6       -25.109          39.250    22004852.060   117298243.287 6       -25.109          38.125
R11  22660280.340   121089660.933 7      3098.641          45.375    22660279.940   121089660.944 7      3098.641          45.062    22660289.920    94180884.124 7      2410.054          46.562    22660290.200    94180893.123 7      2410.054          46.250
G22  24096938.160   126630262.426 6      4727.676          40.937    24096937.020   126630262.444 4      4727.676          27.812    24096943.560    98672951.084 4      3683.903          27.500
> 2024 05 06 15 35 50.0000000  0 12
G27  24358494.420   128004726.578 6      -440.879          40.250    24358493.080   128004726.588 6      -440.879          38.062    24358516.100    99744022.639 6      -343.542          37.812    24358516.220    99744022.629 7      -343.542          43.062
G02  21573136.680   113367593.855 8      2083.339          48.062    21573135.320   113367593.863 6      2083.339          40.625    21573137.480    88338387.901 6      1623.381          40.437
G03  20216369.880   106237738.398 8      3834.054          48.187    20216368.480   106237738.397 6      3834.054          41.812    20216376.160    82782680.702 6      2987.574          41.375    20216377.000    82782684.702 8      2987.574          52.625
G14  22240706.440   116875693.674 7      3693.146          47.375    22240705.940   116875693.689 5      3693.146          35.562    22240710.360    91071991.628 5      2877.776          35.375    22240710.940    91071994.638 7      2877.776          47.937
R05  19867219.380   106201669.521 8      3543.059          49.937    19867218.960   106201669.517 8      3543.059          49.437    19867228.460    82601341.333 8      2755.713          50.437    19867228.140    82601339.330 8      2755.713          50.375
G08  21481080.700   112883830.995 8       649.231          48.000    21481079.960   112883830.999 8       649.231          48.000    21481088.180    87961461.426 7       505.895          47.875    21481090.380    87961467.431 8       505.895          49.750
G21  21882191.440   114991687.310 7      1268.908          47.562    21882189.920   114991687.312 6      1268.908          37.812    21882193.360    89603925.193 6       988.760          38.125
R20  20748150.280   110949637.759 6      3122.524          36.312    20748148.540   110949637.784 6      3122.524          36.562    20748161.400    86294236.642 7      2428.629          43.000    20748161.720    86294241.642 7      2428.629          44.000
R04  21863563.200   117078384.355 7       -92.048          45.000    21863564.420   117078384.380 7       -92.048          43.437    21863574.300    91061019.327 7       -71.593          45.437    21863574.920    91061019.327 7       -71.593          45.812
R10  22004858.020   117298268.238 6       -24.956          39.250    22004856.860   117298268.242 6       -24.956          38.125
R11  22659700.100   121086562.176 7      3098.567          45.500    22659700.160   121086562.180 7      3098.567          44.937    22659710.000    94178473.974 7      2409.997          46.687    22659710.360    94178482.977 7      2409.997          46.187
G22  24096038.820   126625534.678 6      4727.836          41.312    24096037.240   126625534.699 4      4727.836          27.812    24096043.900    98669267.131 4      3684.028          27.500
