     3.05           OBSERVATION DATA    MIXED               RINEX VERSION / TYPE
TPS2RIN 1.0.29.3920 TPS-USER            20240511 190524 UTC PGM / RUN BY / DATE
Win64 build Feb 23, 2024 (c) Topcon Positioning Systems     COMMENT
SRC: 20240508_GUI09.tps                                     COMMENT
OPT: -S -v 3.05                                             COMMENT
Observer            Agency                                  OBSERVER / AGENCY
O0M3X53SBGM         TPS HIPER_SR        4.8 HSR Jul,08,2022 REC # / TYPE / VERS
FW: 4.8 HSR Jul,08,2022 p3                                  COMMENT
SN: HiPer SR 1212-12575                                     COMMENT
000                 TPSHIPER_SR     NONE                    ANT # / TYPE
        1.8000        0.0000        0.0000                  ANTENNA: DELTA H/E/N
GUI09                                                       MARKER NAME
  5387646.4894 -1580362.4966  3016922.4883                  APPROX POSITION XYZ
  2024     5     8     9    43   14.0000000     GPS         TIME OF FIRST OBS
  2024     5     8     9    58   15.0000000     GPS         TIME OF LAST OBS
     1.000                                                  INTERVAL
   902 EPOCHS                                               COMMENT
G   16 C1C L1C D1C S1C C1W L1W D1W S1W C2W L2W D2W S2W C2X  SYS / # / OBS TYPES
       L2X D2X S2X                                          SYS / # / OBS TYPES
R   16 C1C L1C D1C S1C C1P L1P D1P S1P C2P L2P D2P S2P C2C  SYS / # / OBS TYPES
       L2C D2C S2C                                          SYS / # / OBS TYPES
    15                                                      # OF SATELLITES
   G04   159   159   159   159   159   159   159   159   159PRN / # OF OBS
         159   159   159   159   159   159   159            PRN / # OF OBS
   G10   318   318   318   318   318   318   318   318   318PRN / # OF OBS
         318   318   318   318   318   318   318            PRN / # OF OBS
   G16   902   902   902   902   902   902   902   902   902PRN / # OF OBS
         902   902   902     0     0     0     0            PRN / # OF OBS
   G18   902   902   902   902   902   902   902   902   902PRN / # OF OBS
         902   902   902   902   902   902   902            PRN / # OF OBS
   G23   902   902   902   902   902   902   902   902   902PRN / # OF OBS
         902   902   902   902   902   902   902            PRN / # OF OBS
   G26   902   902   902   902   902   902   902   902   902PRN / # OF OBS
         902   902   902   902   902   902   902            PRN / # OF OBS
   G27   902   902   902   902   902   902   902   902   902PRN / # OF OBS
         902   902   902   902   902   902   902            PRN / # OF OBS
   G28   902   902   902   902   902   902   902   902   902PRN / # OF OBS
         902   902   902   902   902   902   902            PRN / # OF OBS
   G29   902   902   902   902   902   902   902   902   902PRN / # OF OBS
         902   902   902   902   902   902   902            PRN / # OF OBS
   G31   902   902   902   902   902   902   902   902   902PRN / # OF OBS
         902   902   902   902   902   902   902            PRN / # OF OBS
   R09   902   902   902   902   902   902   902   902   902PRN / # OF OBS
         902   902   902   902   902   902   902            PRN / # OF OBS
   R10   902   902   902   902   902   902   902   902     0PRN / # OF OBS
           0     0     0     0     0     0     0            PRN / # OF OBS
   R16   902   902   902   902   902   902   902   902   902PRN / # OF OBS
         902   902   902   902   902   902   902            PRN / # OF OBS
   R18   902   902   902   902   902   902   902   902   902PRN / # OF OBS
         902   902   902   902   902   902   902            PRN / # OF OBS
   R20   902   902   902   902   902   902   902   902   902PRN / # OF OBS
         902   902   902   902   902   902   902            PRN / # OF OBS
G L1C                                                       SYS / PHASE SHIFT
G L1W -0.25000                                              SYS / PHASE SHIFT
G L2W  0.00000                                              SYS / PHASE SHIFT
G L2X  0.25000                                              SYS / PHASE SHIFT
R L1C                                                       SYS / PHASE SHIFT
R L1P -0.25000                                              SYS / PHASE SHIFT
R L2P -0.25000                                              SYS / PHASE SHIFT
R L2C                                                       SYS / PHASE SHIFT
  5 R09 -2 R10 -7 R16 -1 R18 -3 R20  2                      GLONASS SLOT / FRQ #
                                                            GLONASS COD/PHS/BIS
    18    18  1929     7GPS                                 LEAP SECONDS
                                                            END OF HEADER
> 2024 05 08 09 43 14.0000000  0 14
G28  21734324.160   114214636.051 7      -254.400          44.937    21734322.980   114214636.064 5      -254.400          35.500    21734325.360    88998428.807 5      -198.233          35.375    21734325.980    88998431.807 7      -198.233          47.937
G04  24465609.760   128567652.998 6      2216.614          36.812    24465608.160   128567653.016 2      2216.614          17.062    24465615.260   100182590.758 2      1727.231          17.562    24465614.940   100182602.775 6      1727.231          37.125
R10  22371664.300   119253560.718 6      5944.121          40.812    22371662.980   119253560.732 6      5944.121          40.250
R18  23192396.820   123802596.650 6     -1561.224          41.062    23192396.640   123802596.656 6     -1561.224          41.812    23192408.460    96290950.984 7     -1214.286          46.750    23192407.860    96290947.983 7     -1214.286          46.437
G31  20676745.660   108657028.155 7      1415.880          47.937    20676744.820   108657028.160 8      1415.880          48.812    20676745.940    84667819.044 8      1103.283          49.000    20676746.520    84667818.045 8      1103.283          51.187
R20  20259179.560   108334936.258 6      5184.136          37.000    20259178.560   108334936.292 6      5184.136          37.125    20259188.240    84260542.512 7      4032.105          44.937    20259189.500    84260545.522 7      4032.105          44.312
G18  21629972.040   113666266.106 7      1552.419          46.562    21629971.160   113666266.116 6      1552.419          38.437    21629973.820    88571116.501 6      1209.677          38.187    21629974.040    88571125.506 8      1209.677          50.812
G29  24803084.800   130341083.583 6      -412.682          38.687    24803083.680   130341083.585 5      -412.682          33.375    24803090.140   101564475.384 5      -321.571          33.375    24803090.540   101564473.378 6      -321.571          39.625
G27  21908495.420   115129925.364 7      4341.980          44.312    21908493.880   115129925.366 6      4341.980          37.000    21908499.520    89711640.477 6      3383.361          36.500    21908502.280    89711655.482 8      3383.361          48.562
R16  20950544.980   111914048.754 7       755.452          47.375    20950544.660   111914048.752 7       755.452          46.625    20950553.760    87044296.375 8       587.574          49.000    20950553.480    87044297.373 8       587.574          49.687
G23  24835070.240   130509180.013 6      4681.819          40.875    24835069.840   130509180.015 4      4681.819          26.375    24835079.680   101695485.689 4      3648.170          26.375    24835080.240   101695501.743 7      3648.170          42.937
G16  22049598.000   115871417.301 7      4426.139          46.187    22049596.780   115871417.308 5      4426.139          34.500    22049599.320    90289408.550 5      3448.939          34.375
R09  19747826.900   105452299.401 7      4219.461          47.625    19747825.300   105452299.404 7      4219.461          47.375    19747830.860    82018463.700 8      3281.803          51.625    19747830.960    82018467.697 8      3281.803          51.562
G26  20681363.800   108681302.635 7      3129.119          46.812    20681362.820   108681302.638 7      3129.119          47.562    20681367.500    84686751.690 7      2438.274          47.875    20681367.700    84686751.686 8      2438.274          48.875
> 2024 05 08 09 43 15.0000000  0 14
G28  21734372.220   114214890.642 7      -254.748          44.125    21734371.340   114214890.652 5      -254.748          35.000    21734373.880    88998627.186 5      -198.505          35.375    21734374.540    88998630.189 8      -198.505          48.187
G04  24465187.460   128565436.639 6      2216.160          38.000    24465186.540   128565436.655 2      2216.160          17.062    24465193.480   100180863.728 2      1726.878          17.562    24465193.260   100180875.726 6      1726.878          37.125
R10  22370548.940   119247616.767 6      5943.925          40.812    22370547.580   119247616.781 6      5943.925          40.125
R18  23192689.680   123804157.947 6     -1561.398          41.062    23192689.340   123804157.958 6     -1561.398          41.812    23192700.840    96292165.322 7     -1214.420          46.937    23192700.480    96292162.325 7     -1214.420          46.687
G31  20676476.520   108655612.630 7      1415.223          47.687    20676475.480   108655612.635 8      1415.223          48.125    20676476.540    84666716.038 8      1102.771          48.625    20676477.240    84666715.039 8      1102.771          50.500
R20  20258209.540   108329752.476 6      5183.384          36.187    20258210.020   108329752.490 6      5183.384          37.125    20258218.900    84256510.669 7      4031.521          44.625    20258219.800    84256513.674 7      4031.521          44.687
G18  21629676.920   113664713.991 7      1551.832          46.250    21629675.680   113664713.996 6      1551.832          39.125    21629678.560    88569907.053 6      1209.220          39.000    21629678.660    88569916.058 8      1209.220          50.812
G29  24803163.420   130341496.221 6      -412.670          39.062    24803162.020   130341496.221 5      -412.670          33.375    24803168.700   101564796.913 5      -321.561          33.375    24803169.220   101564794.917 6      -321.561          39.687
G27  21907669.460   115125583.588 7      4341.571          43.625    21907667.680   115125583.588 6      4341.571          36.687    21907673.440    89708257.273 6      3383.042          36.812    21907676.460    89708272.276 8      3383.042          48.812
R16  20950403.680   111913293.602 7       754.794          47.687    20950403.360   111913293.608 7       754.794          46.812    20950412.460    87043709.037 8       587.062          49.125    20950412.620    87043710.041 8       587.062          49.500
G23  24834178.920   130504498.141 6      4682.010          40.375    24834178.900   130504498.141 4      4682.010          26.375    24834188.520   101691837.486 4      3648.320          26.375    24834189.220   101691853.505 7      3648.320          42.562
G16  22048755.540   115866991.231 7      4425.984          45.437    22048754.420   115866991.236 5      4425.984          34.500    22048757.020    90285959.661 5      3448.819          34.312
R09  19747037.120   105448080.273 7      4218.873          47.812    19747035.240   105448080.272 7      4218.873          46.625    19747040.900    82015182.157 8      3281.345          51.937    19747040.740    82015186.149 8      3281.345          52.125
G26  20680768.480   108678173.630 7      3128.852          47.375    20680767.380   108678173.640 7      3128.852          47.625    20680772.080    84684313.508 7      2438.067          47.500    20680772.420    84684313.508 8      2438.067          48.937
> 2024 05 08 09 43 16.0000000  0 14
G28  21734420.580   114215145.493 7      -255.011          45.437    21734419.840   114215145.498 5      -255.011          35.000    21734422.380    88998825.769 5      -198.710          35.000    21734422.960    88998828.766 7      -198.710          47.750
G04  24464765.540   128563220.580 6      2215.850          38.000    24464764.880   128563220.590 2      2215.850          17.062    24464771.640   100179136.929 2      1726.637          17.562    24464771.260   100179148.937 6      1726.637          37.125
R10  22369434.040   119241672.619 6      5944.223          41.125    22369432.540   119241672.631 6      5944.223          40.125
R18  23192982.140   123805719.166 7     -1561.231          42.000    23192981.460   123805719.180 7     -1561.231          42.000    23192993.360    96293379.608 7     -1214.291          46.625    23192992.920    96293376.609 7     -1214.291          46.750
G31  20676207.040   108654197.507 8      1414.909          48.187    20676206.140   108654197.506 8      1414.909          48.875    20676207.340    84665613.340 8      1102.527          48.562    20676208.000    84665612.341 8      1102.527          51.250
R20  20257240.080   108324569.142 6      5183.210          36.187    20257240.320   108324569.154 6      5183.210          37.125    20257249.520    84252479.187 7      4031.385          44.687    20257250.760    84252482.194 7      4031.385          44.250
G18  21629381.700   113663162.300 7      1551.508          46.562    21629380.340   113663162.303 6      1551.508          39.000    21629383.240    88568697.943 6      1208.967          39.000    21629383.700    88568706.950 8      1208.967          51.312
G29  24803242.100   130341908.587 6      -412.254          38.687    24803240.500   130341908.592 5      -412.254          33.312    24803247.180   101565118.228 5      -321.237          33.250    24803247.640   101565116.234 6      -321.237          39.687
G27  21906843.180   115121241.951 7      4341.560          44.250    21906841.440   115121241.953 6      4341.560          36.812    21906847.080    89704874.183 6      3383.034          36.687    21906849.880    89704889.191 8      3383.034          48.750
R16  20950262.560   111912538.787 7       754.622          47.875    20950262.160   111912538.796 7       754.622          47.625    20950271.180    87043121.956 8       586.928          49.187    20950270.980    87043122.958 8       586.928          49.437
G23  24833288.080   130499816.144 6      4682.111          41.312    24833287.860   130499816.143 4      4682.111          26.375    24833297.680   101688189.187 4      3648.398          26.375    24833298.060   101688205.191 7      3648.398          42.250
G16  22047913.160   115862565.080 7      4426.154          45.625    22047912.060   115862565.085 5      4426.154          34.250    22047914.760    90282510.712 5      3448.951          34.312
R09  19746246.820   105443861.386 8      4218.683          48.437    19746245.240   105443861.387 7      4218.683          47.625    19746250.780    82011900.802 8      3281.198          52.062    19746250.820    82011904.799 8      3281.198          51.750
G26  20680172.980   108675044.716 7      3128.798          47.000    20680171.960   108675044.721 8      3128.798          48.000    20680176.660    84681875.391 7      2438.024          47.812    20680176.940    84681875.392 8      2438.024          48.750
> 2024 05 08 09 43 17.0000000  0 14
G28  21734469.360   114215400.782 7      -255.604          44.812    21734468.440   114215400.790 5      -255.604          35.250    21734470.820    88999024.694 5      -199.172          35.062    21734471.420    88999027.689 8      -199.172          48.687
G04  24464344.320   128561005.057 6      2215.271          37.812    24464343.520   128561005.073 2      2215.271          17.062    24464349.880   100177410.555 2      1726.185          17.562    24464350.040   100177422.545 6      1726.185          36.875
R10  22368319.500   119235728.594 6      5943.862          41.125    22368317.700   119235728.592 6      5943.862          40.125
R18  23193274.280   123807280.586 6     -1561.592          40.875    23193274.340   123807280.584 7     -1561.592          42.000    23193285.880    96294594.033 7     -1214.572          47.062    23193285.340    96294591.032 7     -1214.572          46.750
G31  20675937.780   108652783.017 8      1414.089          48.750    20675937.000   108652783.024 8      1414.089          49.125    20675938.100    84664511.144 8      1101.887          48.937    20675938.800    84664510.143 8      1101.887          51.125
R20  20256270.240   108319386.600 6      5182.099          36.187    20256270.840   108319386.607 6      5182.099          37.125    20256280.780    84248448.323 7      4030.521          44.562    20256281.440    84248451.324 7      4030.521          44.375
G18  21629086.540   113661611.277 7      1550.605          46.437    21629085.320   113661611.284 6      1550.605          39.187    21629087.980    88567489.358 6      1208.264          38.562    21629088.360    88567498.364 8      1208.264          51.062
G29  24803320.920   130342320.957 6      -412.584          38.250    24803318.840   130342320.962 5      -412.584          33.312    24803325.600   101565439.554 5      -321.494          33.250    24803325.680   101565437.556 6      -321.494          39.187
G27  21906017.160   115116900.743 7      4340.906          44.000    21906015.420   115116900.748 6      4340.906          36.562    21906021.040    89701491.423 6      3382.524          36.437    21906023.900    89701506.429 8      3382.524          48.750
R16  20950121.380   111911784.578 8       753.830          48.000    20950121.020   111911784.584 7       753.830          47.312    20950129.940    87042535.345 8       586.312          49.562    20950129.780    87042536.345 8       586.312          49.812
G23  24832397.420   130495134.175 6      4681.709          41.000    24832396.840   130495134.172 4      4681.709          26.375    24832406.820   101684540.910 4      3648.085          26.375    24832407.440   101684556.947 7      3648.085          43.187
G16  22047071.000   115858139.072 7      4425.857          46.625    22047069.900   115858139.079 5      4425.857          34.250    22047072.480    90279061.876 5      3448.720          34.187
R09  19745456.820   105439642.985 8      4218.027          48.437    19745455.300   105439642.981 8      4218.027          48.125    19745460.800    82008619.818 8      3280.687          51.812    19745460.940    82008623.812 8      3280.687          52.375
G26  20679577.480   108671916.094 7      3128.382          47.000    20679576.560   108671916.101 8      3128.382          48.000    20679581.300    84679437.504 8      2437.700          48.062    20679581.380    84679437.504 8      2437.700          48.812
> 2024 05 08 09 43 18.0000000  0 14
G28  21734518.060   114215656.571 7      -256.105          45.375    21734517.080   114215656.579 5      -256.105          35.187    21734519.560    88999224.005 5      -199.563          35.062    21734519.940    88999227.007 7      -199.563          47.750
G04  24463923.060   128558790.149 6      2214.469          37.937    24463922.260   128558790.159 2      2214.469          17.062    24463928.520   100175684.655 2      1725.560          17.562    24463928.700   100175696.632 6      1725.560          36.875
R10  22367204.340   119229784.662 6      5943.759          41.187    22367203.180   119229784.658 6      5943.759          40.437
R18  23193566.860   123808842.163 6     -1561.720          40.875    23193567.220   123808842.161 7     -1561.720          42.187    23193578.280    96295808.580 7     -1214.671          46.875    23193577.760    96295805.583 7     -1214.671          46.875
G31  20675668.660   108651369.215 8      1413.435          48.250    20675668.040   108651369.215 8      1413.435          49.125    20675669.060    84663409.474 8      1101.378          49.125    20675669.500    84663408.475 8      1101.378          51.125
R20  20255301.180   108314204.799 6      5181.374          36.187    20255302.380   108314204.819 6      5181.374          37.125    20255311.700    84244418.037 7      4029.958          44.500    20255312.640    84244421.040 7      4029.958          44.875
G18  21628791.420   113660060.960 7      1549.944          46.562    21628790.140   113660060.970 6      1549.944          39.187    21628793.000    88566281.318 6      1207.749          38.812    21628793.480    88566290.323 8      1207.749          51.625
G29  24803399.380   130342733.315 6      -412.405          39.312    24803397.180   130342733.319 5      -412.405          32.750    24803404.080   101565760.859 5      -321.355          32.750    24803404.060   101565758.859 6      -321.355          39.187
G27  21905191.140   115112559.949 7      4340.520          45.187    21905189.300   115112559.954 6      4340.520          37.125    21905194.960    89698108.993 6      3382.224          36.437    21905198.120    89698123.999 8      3382.224          48.812
R16  20949980.060   111911030.975 7       753.249          47.937    20949979.920   111911030.976 7       753.249          47.250    20949989.100    87041949.203 8       585.861          49.187    20949988.680    87041950.205 8       585.861          50.062
G23  24831506.200   130490452.291 6      4681.792          40.687    24831505.940   130490452.293 4      4681.792          26.375    24831515.780   101680892.696 4      3648.150          26.375    24831515.820   101680908.752 7      3648.150          43.187
G16  22046228.660   115853713.270 7      4425.643          44.562    22046227.820   115853713.272 5      4425.643          34.000    22046230.260    90275613.202 5      3448.553          34.187
R09  19744667.000   105435425.129 8      4217.492          48.250    19744665.600   105435425.132 7      4217.492          47.437    19744671.060    82005339.269 8      3280.272          51.937    19744671.020    82005343.265 8      3280.272          52.812
G26  20678982.400   108668787.826 7      3128.064          47.187    20678981.240   108668787.834 7      3128.064          47.750    20678985.920    84676999.895 7      2437.452          47.687    20678986.200    84676999.895 8      2437.452          48.500
> 2024 05 08 09 43 19.0000000  0 14
G28  21734566.960   114215912.886 7      -256.369          44.562    21734565.820   114215912.896 5      -256.369          35.250    21734568.340    88999423.735 5      -199.768          35.375    21734568.740    88999426.737 8      -199.768          48.062
G04  24463501.940   128556575.819 6      2214.107          37.937    24463500.540   128556575.829 2      2214.107          17.062    24463507.200   100173959.197 2      1725.278          17.562    24463507.440   100173971.189 6      1725.278          36.875
R10  22366089.780   119223840.848 6      5944.078          41.187    22366087.680   119223840.840 6      5944.078          40.437
R18  23193860.020   123810403.959 6     -1561.731          41.812    23193859.940   123810403.965 7     -1561.731          42.375    23193871.060    96297023.319 7     -1214.680          46.375    23193870.220    96297020.320 7     -1214.680          46.875
G31  20675399.860   108649956.107 8      1413.018          48.000    20675399.060   108649956.109 8      1413.018          48.687    20675400.200    84662308.355 8      1101.053          49.125    20675400.900    84662307.354 8      1101.053          51.062
R20  20254332.380   108309023.818 6      5180.722          36.187    20254333.020   108309023.857 6      5180.722          37.000    20254342.520    84240388.402 7      4029.450          44.437    20254343.820    84240391.405 7      4029.450          44.750
G18  21628496.440   113658511.384 7      1549.421          46.375    21628495.340   113658511.394 6      1549.421          39.250    21628498.060    88565073.857 6      1207.341          38.937    21628498.580    88565082.857 8      1207.341          51.625
G29  24803477.320   130343145.732 6      -412.316          38.562    24803475.840   130343145.737 5      -412.316          32.750    24803482.360   101566082.228 5      -321.286          32.750    24803483.320   101566080.232 6      -321.286          39.000
G27  21904365.060   115108219.624 7      4340.312          44.125    21904363.360   115108219.626 6      4340.312          36.812    21904369.200    89694726.921 6      3382.061          36.937    21904371.900    89694741.919 8      3382.061          49.312
R16  20949839.120   111910277.992 7       752.874          47.875    20949838.920   111910277.991 7       752.874          47.625    20949848.000    87041363.543 8       585.569          49.187    20949847.740    87041364.545 8       585.569          49.875
G23  24830615.680   130485770.580 6      4681.719          40.687    24830615.160   130485770.584 4      4681.719          26.375    24830624.940   101677244.616 4      3648.092          26.312    24830623.980   101677260.633 6      3648.092          41.875
G16  22045386.620   115849287.682 7      4425.694          44.687    22045385.580   115849287.681 5      4425.694          34.187    22045387.960    90272164.689 5      3448.592          34.125
R09  19743877.380   105431207.833 8      4217.214          48.125    19743875.680   105431207.829 8      4217.214          48.062    19743881.360    82002059.146 8      3280.055          51.812    19743881.340    82002063.138 8      3280.055          52.812
G26  20678387.080   108665659.940 7      3127.904          46.312    20678386.080   108665659.947 7      3127.904          47.875    20678390.840    84674562.581 7      2437.328          47.937    20678391.000    84674562.583 8      2437.328          48.875
> 2024 05 08 09 43 20.0000000  0 14
G28  21734615.940   114216169.555 7      -256.857          45.312    21734614.780   114216169.567 5      -256.857          35.312    21734617.300    88999623.735 5      -200.149          34.750    21734617.660    88999626.728 7      -200.149          47.812
G04  24463080.340   128554361.894 6      2213.761          37.625    24463079.640   128554361.904 2      2213.761          17.187    24463085.900   100172234.062 2      1725.009          17.562    24463086.360   100172246.048 6      1725.009          36.875
R10  22364974.560   119217896.998 6      5943.880          41.312    22364972.500   119217897.007 6      5943.880          40.312
R18  23194152.880   123811965.821 6     -1561.877          41.187    23194152.580   123811965.819 7     -1561.877          42.375    23194163.340    96298238.090 7     -1214.794          46.375    23194163.120    96298235.089 7     -1214.794          46.875
G31  20675131.180   108648543.522 8      1412.299          48.875    20675130.440   108648543.527 8      1412.299          49.312    20675131.380    84661207.638 8      1100.493          48.687    20675132.100    84661206.639 8      1100.493          50.875
R20  20253363.660   108303843.498 6      5179.905          36.375    20253364.320   108303843.536 6      5179.905          37.000    20253374.060    84236359.270 7      4028.815          44.687    20253375.120    84236362.272 7      4028.815          44.562
G18  21628201.800   113656962.349 7      1548.725          47.312    21628200.600   113656962.357 6      1548.725          39.250    21628203.360    88563866.813 6      1206.799          38.875    21628203.820    88563875.817 8      1206.799          51.062
G29  24803555.760   130343558.027 6      -412.429          39.125    24803554.100   130343558.034 5      -412.429          33.062    24803560.820   101566403.490 5      -321.373          33.000    24803561.460   101566401.494 6      -321.373          39.000
G27  21903539.040   115103879.579 7      4339.860          44.687    21903537.520   115103879.582 6      4339.860          36.437    21903543.220    89691345.066 6      3381.709          36.375    21903546.040    89691360.068 8      3381.709          48.312
R16  20949698.380   111909525.461 7       752.261          47.875    20949698.140   111909525.464 7       752.261          47.250    20949707.120    87040778.243 8       585.092          49.250    20949706.920    87040779.247 8       585.092          49.875
G23  24829724.680   130481088.766 6      4681.735          40.062    24829724.260   130481088.771 4      4681.735          26.375    24829733.880   101673596.455 4      3648.105          26.312    24829733.180   101673612.481 7      3648.105          42.000
G16  22044544.060   115844862.125 7      4425.516          45.812    22044543.320   115844862.124 5      4425.516          34.187    22044545.780    90268716.205 5      3448.454          34.125
R09  19743087.600   105426990.903 8      4216.698          48.062    19743085.780   105426990.899 7      4216.698          47.437    19743091.620    81998779.316 8      3279.654          51.625    19743091.640    81998783.308 8      3279.654          52.250
G26  20677791.840   108662532.232 7      3127.624          47.375    20677790.840   108662532.237 7      3127.624          47.937    20677795.580    84672125.406 7      2437.110          47.437    20677795.720    84672125.406 8      2437.110          48.312
> 2024 05 08 09 43 21.0000000  0 14
G28  21734664.900   114216426.673 7      -257.480          44.312    21734663.620   114216426.680 5      -257.480          35.312    21734666.160    88999824.075 5      -200.634          35.562    21734666.560    88999827.074 7      -200.634          47.625
G04  24462659.440   128552148.533 6      2212.861          38.062    24462658.480   128552148.546 2      2212.861          17.187    24462664.640   100170509.361 2      1724.307          17.562    24462664.980   100170521.349 6      1724.307          36.937
R10  22363859.100   119211953.216 6      5943.569          41.312    22363857.680   119211953.224 6      5943.569          40.312
R18  23194444.940   123813527.852 6     -1562.348          41.187    23194445.180   123813527.855 7     -1562.348          42.437    23194456.100    96299453.003 7     -1215.159          46.437    23194455.460    96299450.002 7     -1215.159          46.562
G31  20674862.320   108647131.578 8      1411.469          48.437    20674861.660   108647131.580 8      1411.469          49.000    20674862.760    84660107.416 8      1099.846          49.187    20674863.580    84660106.419 8      1099.846          50.375
R20  20252395.580   108298663.918 6      5179.020          36.375    20252396.060   108298663.927 6      5179.020          37.000    20252405.120    84232330.681 7      4028.127          44.250    20252406.780    84232333.683 7      4028.127          45.312
G18  21627907.100   113655413.961 7      1547.891          46.625    21627905.860   113655413.973 6      1547.891          38.875    21627908.860    88562660.276 6      1206.149          38.687    21627909.340    88562669.281 8      1206.149          50.875
G29  24803634.300   130343970.242 6      -412.367          39.062    24803632.540   130343970.244 5      -412.367          33.062    24803639.020   101566724.686 5      -321.325          33.000    24803639.740   101566722.690 6      -321.325          39.000
G27  21902713.340   115099539.916 7      4339.228          44.000    21902711.700   115099539.923 6      4339.228          36.250    21902717.400    89687963.517 6      3381.217          36.000    21902720.180    89687978.514 8      3381.217          48.500
R16  20949557.480   111908773.516 8       751.480          48.062    20949557.260   111908773.520 7       751.480          47.812    20949566.440    87040193.392 8       584.485          48.875    20949566.100    87040194.394 8       584.485          49.375
G23  24828833.740   130476406.997 6      4681.494          39.750    24828833.240   130476407.002 4      4681.494          26.375    24828843.120   101669948.328 4      3647.917          26.312    24828843.220   101669964.372 7      3647.917          42.562
G16  22043702.240   115840436.694 7      4425.257          45.375    22043701.100   115840436.699 5      4425.257          34.187    22043703.840    90265267.823 5      3448.252          34.312
R09  19742298.120   105422774.467 8      4216.001          48.562    19742296.480   105422774.468 7      4216.001          47.625    19742302.060    81995499.867 8      3279.112          52.187    19742302.000    81995503.858 8      3279.112          51.937
G26  20677196.920   108659404.837 7      3127.025          47.312    20677195.760   108659404.842 7      3127.025          47.437    20677200.420    84669688.473 7      2436.643          47.250    20677200.760    84669688.471 7      2436.643          47.875
> 2024 05 08 09 43 22.0000000  0 14
G28  21734713.820   114216684.283 7      -257.915          44.875    21734712.700   114216684.290 5      -257.915          35.375    21734715.140    89000024.807 5      -200.972          35.562    21734715.500    89000027.807 7      -200.972          47.875
G04  24462237.920   128549935.703 6      2212.555          38.062    24462237.340   128549935.711 2      2212.555          17.187    24462243.560   100168785.078 2      1724.068          17.187    24462244.180   100168797.075 6      1724.068          36.937
R10  22362744.040   119206009.521 6      5943.661          41.312    22362742.660   119206009.527 6      5943.661          40.312
R18  23194737.760   123815090.032 7     -1562.216          42.437    23194737.840   123815090.041 7     -1562.216          42.187    23194748.680    96300668.038 7     -1215.057          46.375    23194748.260    96300665.037 7     -1215.057          46.875
G31  20674593.820   108645720.288 8      1410.934          48.625    20674593.060   108645720.291 8      1410.934          48.375    20674594.160    84659007.711 8      1099.429          48.000    20674595.060    84659006.712 8      1099.429          50.750
R20  20251427.220   108293485.109 6      5178.349          36.375    20251427.000   108293485.118 6      5178.349          37.000    20251436.840    84228302.721 7      4027.604          44.625    20251437.740    84228305.722 7      4027.604          44.250
G18  21627612.740   113653866.284 7      1547.226          46.812    21627611.360   113653866.300 6      1547.226          39.312    21627614.360    88561454.297 6      1205.631          39.062    21627614.740    88561463.299 8      1205.631          50.562
G29  24803712.320   130344382.505 6      -412.281          40.000    24803711.060   130344382.502 5      -412.281          32.750    24803717.500   101567045.916 5      -321.258          32.750    24803717.860   101567043.910 6      -321.258          39.000
G27  21901887.580   115095200.665 7      4339.098          45.375    21901886.000   115095200.665 6      4339.098          36.937    21901891.740    89684582.282 6      3381.115          36.250    21901894.420    89684597.288 8      3381.115          48.625
R16  20949417.040   111908022.219 8       750.971          48.500    20949416.560   111908022.217 7       750.971          46.687    20949425.780    87039609.045 8       584.088          49.500    20949425.560    87039610.045 8       584.088          49.625
G23  24827943.100   130471725.352 6      4681.514          39.500    24827942.380   130471725.356 4      4681.514          26.375    24827952.140   101666300.297 4      3647.933          26.312    24827952.100   101666316.332 7      3647.933          42.500
G16  22042860.120   115836011.470 7      4425.089          45.937    22042859.200   115836011.473 5      4425.089          34.062    22042861.600    90261819.602 5      3448.121          34.000
R09  19741508.860   105418558.555 8      4215.623          48.562    19741506.660   105418558.556 7      4215.623          47.562    19741512.540    81992220.824 8      3278.818          51.250    19741512.340    81992224.816 8      3278.818          50.312
G26  20676601.840   108656277.773 7      3126.809          47.437    20676600.660   108656277.778 7      3126.809          47.250    20676605.420    84667251.803 7      2436.475          47.125    20676605.700    84667251.800 8      2436.475          48.875
> 2024 05 08 09 43 23.0000000  0 14
G28  21734762.960   114216942.384 7      -258.138          45.500    21734761.820   114216942.396 5      -258.138          35.625    21734764.120    89000225.925 5      -201.147          35.312    21734764.740    89000228.927 8      -201.147          48.125
G04  24461817.040   128547723.462 6      2212.395          37.812    24461815.920   128547723.467 2      2212.395          17.187    24461822.660   100167061.258 2      1723.944          17.187    24461822.340   100167073.258 6      1723.944          36.937
R10  22361629.080   119200065.933 6      5943.779          41.312    22361627.680   119200065.949 6      5943.779          40.250
R18  23195030.820   123816652.413 6     -1562.083          41.875    23195030.400   123816652.408 7     -1562.083          42.187    23195041.480    96301883.207 7     -1214.953          46.125    23195040.960    96301880.208 7     -1214.953          46.187
G31  20674325.340   108644309.666 8      1410.586          48.875    20674324.620   108644309.674 8      1410.586          49.062    20674325.680    84657908.529 8      1099.158          48.750    20674326.560    84657907.530 8      1099.158          50.437
R20  20250458.820   108288307.040 6      5178.059          36.375    20250458.480   108288307.065 6      5178.059          37.000    20250468.380    84224275.348 7      4027.380          44.312    20250469.480    84224278.351 7      4027.380          44.687
G18  21627318.360   113652319.297 7      1546.898          47.375    21627316.960   113652319.307 6      1546.898          38.812    21627319.940    88560248.850 6      1205.375          38.625    21627320.340    88560257.846 8      1205.375          50.625
G29  24803790.760   130344794.760 6      -412.056          39.000    24803789.580   130344794.759 5      -412.056          32.750    24803795.860   101567367.149 5      -321.083          32.750    24803796.320   101567365.145 6      -321.083          39.000
G27  21901062.220   115090861.879 7      4338.826          43.875    21901060.320   115090861.879 6      4338.826          36.812    21901066.060    89681201.410 6      3380.903          36.562    21901068.860    89681216.410 8      3380.903          48.625
R16  20949276.440   111907271.546 7       750.631          47.562    20949276.320   111907271.542 7       750.631          47.750    20949285.420    87039025.180 8       583.824          48.937    20949285.120    87039026.182 8       583.824          48.500
G23  24827052.140   130467043.759 6      4681.767          40.875    24827051.520   130467043.766 4      4681.767          26.437    24827061.360   101662652.306 4      3648.130          26.312    24827059.960   101662668.311 7      3648.130          42.500
G16  22042018.260   115831586.428 7      4425.160          45.875    22042017.140   115831586.433 5      4425.160          34.062    22042019.560    90258371.517 5      3448.176          34.000
R09  19740719.060   105414343.195 8      4215.323          48.000    19740717.320   105414343.190 8      4215.323          48.062    19740723.120    81988942.211 8      3278.585          51.312    19740723.020    81988946.203 8      3278.585          51.375
G26  20676006.920   108653151.053 7      3126.722          46.937    20676005.660   108653151.058 8      3126.722          48.125    20676010.440    84664815.394 7      2436.406          47.937    20676010.480    84664815.392 8      2436.406          48.687
> 2024 05 08 09 43 24.0000000  0 14
G28  21734812.200   114217200.611 7      -258.655          45.687    21734810.960   114217200.616 5      -258.655          35.125    21734813.380    89000427.137 5      -201.550          35.125    21734813.760    89000430.135 7      -201.550          47.937
G04  24461395.680   128545511.479 6      2211.490          38.000    24461395.100   128545511.489 2      2211.490          17.187    24461401.300   100165337.633 2      1723.239          17.187    24461401.200   100165349.620 6      1723.239          36.937
R10  22360513.720   119194122.081 6      5943.563          41.312    22360513.160   119194122.095 6      5943.563          40.250
R18  23195323.400   123818214.627 6     -1562.534          41.562    23195323.100   123818214.626 7     -1562.534          42.500    23195334.260    96303098.263 7     -1215.304          46.687    23195333.700    96303095.262 7     -1215.304          46.875
G31  20674056.980   108642899.364 8      1409.812          48.937    20674056.220   108642899.369 8      1409.812          49.000    20674057.300    84656809.589 8      1098.555          49.312    20674058.100    84656808.592 8      1098.555          50.687
R20  20249490.060   108283129.487 6      5176.896          37.000    20249491.080   108283129.499 6      5176.896          37.437    20249500.300    84220248.356 7      4026.475          44.500    20249501.260    84220251.355 7      4026.475          45.187
G18  21627023.900   113650772.653 7      1546.096          47.250    21627022.720   113650772.660 6      1546.096          39.437    21627025.660    88559043.671 6      1204.750          39.062    21627025.900    88559052.671 8      1204.750          51.250
G29  24803869.640   130345206.678 6      -412.260          39.500    24803868.180   130345206.678 5      -412.260          33.062    24803874.200   101567688.121 5      -321.241          33.000    24803874.960   101567686.131 6      -321.241          39.125
G27  21900236.160   115086523.151 7      4338.203          44.062    21900234.700   115086523.145 6      4338.203          36.625    21900240.480    89677820.585 6      3380.418          36.312    21900242.960    89677835.591 8      3380.418          48.750
R16  20949136.040   111906521.117 7       749.865          47.187    20949135.780   111906521.115 7       749.865          47.250    20949144.900    87038441.519 8       583.228          49.625    20949144.640    87038442.519 8       583.228          49.500
G23  24826160.640   130462361.927 7      4681.425          42.312    24826160.620   130462361.937 4      4681.425          26.437    24826170.440   101659004.134 4      3647.864          26.312    24826169.620   101659020.161 6      3647.864          40.750
G16  22041176.260   115827161.187 7      4425.031          45.562    22041174.960   115827161.191 5      4425.031          34.062    22041177.360    90254923.277 5      3448.076          33.750
R09  19739929.380   105410127.973 8      4214.765          48.125    19739927.900   105410127.969 7      4214.765          47.625    19739933.640    81985663.704 8      3278.151          51.875    19739933.640    81985667.698 8      3278.151          52.312
G26  20675411.780   108650024.302 7      3126.370          47.500    20675410.720   108650024.301 8      3126.370          48.125    20675415.360    84662378.963 7      2436.133          47.812    20675415.620    84662378.965 8      2436.133          48.625
> 2024 05 08 09 43 25.0000000  0 14
G28  21734861.540   114217459.450 7      -259.104          44.500    21734860.240   114217459.458 5      -259.104          34.937    21734862.640    89000628.824 5      -201.899          35.000    21734862.980    89000631.824 8      -201.899          48.500
G04  24460974.900   128543300.123 6      2211.103          38.000    24460974.580   128543300.130 2      2211.103          17.187    24460980.740   100163614.498 2      1722.938          17.187    24460979.680   100163626.498 6      1722.938          36.375
R10  22359398.760   119188178.413 6      5943.752          41.375    22359397.460   119188178.427 6      5943.752          40.375
R18  23195616.260   123819777.128 6     -1562.623          41.562    23195615.860   123819777.140 7     -1562.623          42.375    23195626.920    96304313.547 7     -1215.374          46.312    23195626.680    96304310.544 7     -1215.374          47.187
G31  20673788.820   108641489.827 8      1409.332          48.500    20673788.060   108641489.835 8      1409.332          49.750    20673789.160    84655711.248 8      1098.181          49.312    20673789.920    84655710.251 8      1098.181          50.687
R20  20248521.540   108277952.757 6      5176.428          37.000    20248522.880   108277952.764 6      5176.428          37.437    20248532.440    84216222.005 7      4026.110          44.375    20248533.220    84216225.006 7      4026.110          44.750
G18  21626729.600   113649226.798 7      1545.603          45.687    21626728.460   113649226.802 6      1545.603          39.250    21626731.440    88557839.108 6      1204.366          38.937    21626731.620    88557848.105 8      1204.366          51.687
G29  24803948.100   130345618.665 6      -411.982          40.000    24803946.680   130345618.675 5      -411.982          33.062    24803952.380   101568009.149 5      -321.025          33.000    24803953.100   101568007.160 6      -321.025          39.125
G27  21899410.740   115082184.925 7      4338.079          44.437    21899409.160   115082184.922 6      4338.079          36.750    21899414.880    89674440.149 6      3380.322          36.437    21899417.480    89674455.153 8      3380.322          49.250
R16  20948995.440   111905771.389 8       749.513          48.187    20948995.300   111905771.385 7       749.513          47.500    20949004.680    87037858.387 8       582.955          49.250    20949004.300    87037859.387 8       582.955          49.812
G23  24825269.820   130457680.247 6      4681.791          40.437    24825269.840   130457680.249 4      4681.791          26.437    24825279.520   101655356.074 4      3648.149          26.312    24825279.260   101655372.103 7      3648.149          42.500
G16  22040334.160   115822736.263 7      4424.938          45.250    22040332.880   115822736.262 5      4424.938          34.062    22040335.380    90251475.280 5      3448.004          33.750
R09  19739140.260   105405913.404 8      4214.421          48.500    19739138.680   105405913.397 7      4214.421          47.437    19739144.360    81982385.699 8      3277.883          51.750    19739144.600    81982389.693 8      3277.883          52.750
G26  20674816.860   108646897.992 8      3126.264          48.437    20674815.740   108646897.991 8      3126.264          48.187    20674820.420    84659942.875 8      2436.050          48.312    20674820.620    84659942.873 8      2436.050          48.500
> 2024 05 08 09 43 26.0000000  0 14
G28  21734910.860   114217718.710 7      -259.620          44.625    21734909.560   114217718.718 5      -259.620          35.625    21734911.960    89000830.842 5      -202.301          35.312    21734912.260    89000833.836 8      -202.301          48.000
G04  24460554.580   128541089.319 6      2210.289          37.937    24460553.700   128541089.332 2      2210.289          17.187    24460560.140   100161891.792 2      1722.303          17.187    24460559.640   100161903.784 6      1722.303          36.375
R10  22358284.320   119182234.838 6      5943.322          41.375    22358281.860   119182234.847 6      5943.322          40.375
R18  23195909.020   123821339.799 7     -1562.911          42.250    23195908.880   123821339.798 7     -1562.911          42.375    23195919.600    96305528.946 7     -1215.598          46.125    23195919.320    96305525.943 7     -1215.598          46.625
G31  20673520.820   108640080.910 8      1408.490          48.875    20673519.980   108640080.912 8      1408.490          48.875    20673520.980    84654613.387 8      1097.525          48.375    20673521.760    84654612.390 8      1097.525          51.187
R20  20247553.800   108272776.752 6      5175.487          37.000    20247554.780   108272776.775 6      5175.487          37.437    20247564.400    84212196.234 7      4025.379          44.687    20247565.200    84212199.235 7      4025.379          44.812
G18  21626435.560   113647681.591 7      1544.761          46.000    21626434.500   113647681.601 6      1544.761          39.375    21626437.420    88556635.047 6      1203.710          38.937    21626437.760    88556644.046 8      1203.710          50.875
G29  24804026.320   130346030.623 6      -411.951          39.375    24804025.140   130346030.628 5      -411.951          33.187    24804030.860   101568330.148 5      -321.000          33.062    24804032.500   101568328.147 6      -321.000          39.125
G27  21898585.020   115077847.090 7      4337.490          44.875    21898583.820   115077847.087 6      4337.490          36.812    21898589.320    89671060.018 6      3379.862          36.875    21898592.040    89671075.020 8      3379.862          48.937
R16  20948855.300   111905022.188 7       748.793          47.437    20948855.080   111905022.192 7       748.793          47.187    20948864.520    87037275.679 8       582.395          49.062    20948864.060    87037276.681 8       582.395          49.062
G23  24824379.200   130452998.631 6      4681.457          40.562    24824378.960   130452998.630 4      4681.457          26.437    24824388.620   101651708.065 4      3647.888          26.312    24824388.900   101651724.092 7      3647.888          42.062
G16  22039492.200   115818311.441 7      4424.597          45.687    22039490.920   115818311.449 5      4424.597          34.437    22039493.620    90248027.373 5      3447.738          34.500
R09  19738350.940   105401699.275 8      4213.706          48.125    19738349.320   105401699.278 8      4213.706          48.562    19738355.320    81979108.053 8      3277.327          51.375    19738355.160    81979112.049 8      3277.327          51.187
G26  20674222.040   108643771.981 8      3125.702          48.125    20674220.840   108643771.981 8      3125.702          48.000    20674225.680    84657507.023 7      2435.612          47.687    20674226.100    84657507.023 8      2435.612          48.562
> 2024 05 08 09 43 27.0000000  0 14
G28  21734959.980   114217978.474 7      -260.196          44.437    21734958.840   114217978.485 5      -260.196          35.625    21734961.340    89001033.256 5      -202.750          35.312    21734961.900    89001036.254 7      -202.750          47.812
G04  24460134.160   128538879.040 6      2209.996          37.187    24460132.980   128538879.048 2      2209.996          17.187    24460139.520   100160169.493 2      1722.075          17.187    24460140.100   100160181.475 6      1722.075          36.375
R10  22357169.300   119176291.317 6      5943.287          41.250    22357167.620   119176291.336 6      5943.287          40.375
R18  23196201.900   123822902.647 7     -1563.072          42.125    23196201.600   123822902.650 7     -1563.072          42.500    23196212.320    96306744.494 7     -1215.723          46.687    23196212.080    96306741.493 7     -1215.723          46.375
G31  20673252.880   108638672.671 8      1407.764          48.937    20673251.980   108638672.676 8      1407.764          49.000    20673253.000    84653516.059 8      1096.959          48.875    20673253.680    84653515.062 8      1096.959          51.375
R20  20246586.220   108267601.536 6      5174.807          37.000    20246586.920   108267601.551 6      5174.807          37.437    20246596.780    84208171.064 7      4024.850          44.562    20246597.300    84208174.065 7      4024.850          44.812
G18  21626141.620   113646137.089 7      1544.109          47.062    21626140.620   113646137.096 6      1544.109          39.437    21626143.500    88555431.539 6      1203.202          38.937    21626143.800    88555440.535 8      1203.202          51.250
G29  24804104.800   130346442.623 6      -412.129          39.562    24804103.620   130346442.631 5      -412.129          33.187    24804109.460   101568651.184 5      -321.139          33.062    24804111.180   101568649.188 6      -321.139          38.875
G27  21897759.780   115073509.692 7      4336.990          44.312    21897758.560   115073509.689 6      4336.990          37.562    21897763.920    89667680.229 6      3379.473          36.875    21897766.840    89667695.237 8      3379.473          48.937
R16  20948715.140   111904273.626 8       748.122          48.312    20948714.940   111904273.627 7       748.122          47.687    20948724.580    87036693.460 8       581.873          49.687    20948724.020    87036694.456 8       581.873          49.625
G23  24823488.360   130448317.119 6      4681.433          40.125    24823488.060   130448317.122 4      4681.433          26.437    24823497.740   101648060.144 4      3647.870          26.312    24823497.540   101648076.151 7      3647.870          42.062
G16  22038649.960   115813886.843 7      4424.315          45.125    22038649.100   115813886.848 5      4424.315          34.750    22038651.640    90244579.637 5      3447.518          34.750
R09  19737562.100   105397485.690 7      4213.128          47.187    19737560.260   105397485.691 7      4213.128          47.562    19737566.300    81975830.819 8      3276.877          51.750    19737566.320    81975834.813 8      3276.877          52.375
G26  20673626.980   108640646.299 8      3125.409          48.375    20673626.080   108640646.307 8      3125.409          48.250    20673630.840    84655071.430 8      2435.384          48.312    20673631.040    84655071.427 8      2435.384          48.812
> 2024 05 08 09 43 28.0000000  0 14
G28  21735009.480   114218238.675 7      -260.259          44.812    21735008.440   114218238.682 5      -260.259          35.187    21735010.840    89001236.008 5      -202.799          35.062    21735011.480    89001238.999 8      -202.799          48.250
G04  24459714.120   128536669.322 6      2209.388          37.187    24459712.380   128536669.337 2      2209.388          17.187    24459719.300   100158447.634 2      1721.601          17.187    24459719.600   100158459.665 6      1721.601          36.375
R10  22356054.040   119170347.867 6      5943.472          41.250    22356052.980   119170347.873 6      5943.472          39.937
R18  23196494.980   123824465.628 7     -1562.956          42.562    23196494.520   123824465.637 7     -1562.956          42.562    23196505.180    96307960.148 7     -1215.633          47.187    23196504.680    96307957.145 7     -1215.633          46.500
G31  20672985.020   108637265.039 7      1407.438          47.812    20672984.060   108637265.044 8      1407.438          49.312    20672985.220    84652419.199 8      1096.705          49.312    20672985.720    84652418.204 8      1096.705          50.750
R20  20245619.100   108262427.034 6      5174.407          37.000    20245619.740   108262427.060 6      5174.407          37.437    20245628.740    84204146.461 7      4024.538          44.312    20245629.720    84204149.463 7      4024.538          45.312
G18  21625847.920   113644593.236 7      1543.648          46.562    21625846.920   113644593.246 6      1543.648          38.937    21625849.620    88554228.538 6      1202.842          38.750    21625849.980    88554237.537 8      1202.842          51.562
G29  24804183.100   130346854.558 6      -411.769          40.125    24804182.120   130346854.570 5      -411.769          33.250    24804187.840   101568972.170 5      -320.859          33.062    24804188.960   101568970.176 6      -320.859          38.875
G27  21896934.400   115069172.658 7      4336.914          45.062    21896933.340   115069172.655 6      4336.914          37.187    21896938.720    89664300.725 6      3379.414          36.437    21896941.400    89664315.732 8      3379.414          49.000
R16  20948575.160   111903525.597 7       747.925          47.625    20948574.800   111903525.596 7       747.925          47.312    20948584.520    87036111.656 8       581.719          49.437    20948584.120    87036112.654 8       581.719          50.000
G23  24822597.520   130443635.618 6      4681.654          40.937    24822597.120   130443635.621 4      4681.654          26.437    24822607.040   101644412.230 4      3648.042          26.312    24822607.180   101644428.259 7      3648.042          42.375
G16  22037808.080   115809462.337 7      4424.556          46.875    22037807.140   115809462.342 5      4424.556          34.750    22037809.580    90241131.972 5      3447.706          34.750
R09  19736773.240   105393272.589 8      4213.014          48.625    19736771.520   105393272.585 8      4213.014          48.187    19736777.220    81972553.958 8      3276.789          51.875    19736777.260    81972557.950 8      3276.789          52.437
G26  20673032.420   108637520.920 7      3125.325          47.562    20673031.300   108637520.927 8      3125.325          48.062    20673036.100    84652636.070 8      2435.318          48.125    20673036.460    84652636.064 8      2435.318          48.687
> 2024 05 08 09 43 29.0000000  0 14
G28  21735059.000   114218499.243 7      -260.880          44.812    21735058.080   114218499.253 5      -260.880          35.312    21735060.480    89001439.046 5      -203.283          35.187    21735061.100    89001442.048 8      -203.283          48.250
G04  24459293.420   128534460.055 6      2208.899          37.062    24459291.860   128534460.073 2      2208.899          17.187    24459298.620   100156726.130 2      1721.220          17.187    24459297.800   100156738.117 6      1721.220          36.187
R10  22354939.200   119164404.338 6      5943.501          41.000    22354937.180   119164404.346 6      5943.501          39.937
R18  23196787.320   123826028.654 7     -1563.122          42.562    23196787.120   123826028.660 7     -1563.122          42.562    23196797.920    96309175.831 7     -1215.762          46.375    23196797.400    96309172.828 7     -1215.762          46.187
G31  20672717.240   108635857.935 8      1406.743          48.062    20672716.200   108635857.940 8      1406.743          48.687    20672717.440    84651322.756 8      1096.163          48.750    20672717.840    84651321.759 8      1096.163          51.187
R20  20244651.160   108257253.200 6      5173.392          37.375    20244651.600   108257253.239 6      5173.392          37.187    20244661.120    84200122.377 7      4023.750          44.875    20244661.980    84200125.378 7      4023.750          44.687
G18  21625554.140   113643049.937 7      1542.948          47.500    21625553.340   113643049.947 6      1542.948          39.187    21625555.800    88553025.970 6      1202.297          39.312    21625556.300    88553034.966 8      1202.297          50.750
G29  24804261.420   130347266.379 6      -411.920          40.437    24804260.540   130347266.392 5      -411.920          33.250    24804266.200   101569293.066 5      -320.976          33.062    24804266.980   101569291.066 6      -320.976          38.937
G27  21896109.040   115064835.919 7      4336.507          45.000    21896108.060   115064835.916 6      4336.507          36.875    21896113.540    89660921.449 6      3379.097          36.937    21896116.320    89660936.453 8      3379.097          48.937
R16  20948435.120   111902778.084 7       747.163          47.500    20948434.740   111902778.088 7       747.163          47.500    20948444.540    87035530.259 8       581.127          49.375    20948444.000    87035531.259 8       581.127          49.562
G23  24821706.300   130438954.099 7      4681.409          42.000    24821706.360   130438954.101 4      4681.409          26.500    24821716.200   101640764.303 4      3647.851          26.312    24821716.360   101640780.340 7      3647.851          43.187
G16  22036966.260   115805037.908 7      4424.285          45.312    22036965.340   115805037.913 5      4424.285          34.500    22036967.640    90237684.368 5      3447.494          34.375
R09  19735984.600   105389059.888 7      4212.417          46.875    19735982.500   105389059.889 7      4212.417          47.812    19735988.460    81969277.421 8      3276.324          51.500    19735988.140    81969281.414 8      3276.324          52.250
G26  20672437.720   108634395.729 7      3125.040          47.500    20672436.560   108634395.734 7      3125.040          47.875    20672441.400    84650200.858 7      2435.096          47.812    20672441.820    84650200.854 8      2435.096          49.062
> 2024 05 08 09 43 30.0000000  0 14
G28  21735108.700   114218760.340 7      -261.218          44.000    21735107.820   114218760.347 5      -261.218          35.187    21735110.180    89001642.492 5      -203.547          35.125    21735110.820    89001645.483 7      -203.547          47.937
G04  24458872.580   128532251.363 6      2208.538          37.062    24458871.420   128532251.381 2      2208.538          16.312    24458878.280   100155005.069 2      1720.938          17.187    24458878.020   100155017.055 6      1720.938          36.187
R10  22353824.060   119158460.968 6      5943.577          41.000    22353822.680   119158460.974 6      5943.577          39.937
R18  23197080.600   123827591.921 7     -1563.320          42.562    23197080.060   123827591.927 7     -1563.320          42.437    23197091.020    96310391.704 7     -1215.915          46.250    23197090.360    96310388.704 7     -1215.915          46.187
G31  20672449.600   108634451.556 7      1406.127          47.312    20672448.620   108634451.561 8      1406.127          49.125    20672449.860    84650226.875 8      1095.683          49.187    20672450.320    84650225.878 8      1095.683          51.187
R20  20243683.840   108252080.190 6      5172.714          37.375    20243684.840   108252080.218 6      5172.714          37.187    20243694.000    84196098.918 7      4023.222          44.687    20243694.820    84196101.917 7      4023.222          45.437
G18  21625260.740   113641507.395 7      1542.276          46.500    21625259.700   113641507.402 6      1542.276          38.625    21625262.460    88551823.987 6      1201.773          38.625    21625262.860    88551832.979 8      1201.773          51.062
G29  24804340.220   130347678.253 6      -411.801          39.812    24804338.920   130347678.260 5      -411.801          33.312    24804344.480   101569614.000 5      -320.884          33.500    24804344.940   101569612.000 6      -320.884          38.937
G27  21895284.180   115060499.653 7      4336.208          45.125    21895282.940   115060499.653 6      4336.208          37.437    21895288.420    89657542.543 6      3378.864          36.875    21895291.200    89657557.549 8      3378.864          49.062
R16  20948295.580   111902031.271 8       746.648          48.562    20948295.180   111902031.272 7       746.648          46.937    20948304.780    87034949.398 8       580.726          49.125    20948304.480    87034950.396 8       580.726          49.875
G23  24820815.140   130434272.695 6      4681.624          39.625    24820815.540   130434272.698 4      4681.624          26.500    24820825.300   101637116.460 4      3648.019          26.312    24820825.000   101637132.465 7      3648.019          42.250
G16  22036124.360   115800613.693 7      4424.241          45.812    22036123.420   115800613.693 5      4424.241          34.250    22036125.680    90234236.924 5      3447.461          34.250
R09  19735195.940   105384847.762 8      4211.974          48.625    19735193.700   105384847.771 7      4211.974          47.687    19735199.740    81966001.325 8      3275.980          52.187    19735199.420    81966005.317 8      3275.980          52.625
G26  20671843.140   108631270.943 7      3124.792          46.875    20671842.040   108631270.945 8      3124.792          48.062    20671846.800    84647765.956 8      2434.903          48.125    20671847.120    84647765.952 8      2434.903          48.750
> 2024 05 08 09 43 31.0000000  0 14
G28  21735158.600   114219021.843 7      -261.693          45.062    21735157.660   114219021.853 5      -261.693          35.187    21735160.040    89001846.261 5      -203.917          35.125    21735160.740    89001849.256 7      -203.917          47.937
G04  24458452.940   128530043.177 6      2207.758          36.937    24458451.200   128530043.197 2      2207.758          16.312    24458458.020   100153284.402 2      1720.331          17.187    24458457.680   100153296.419 6      1720.331          36.187
R10  22352708.740   119152517.655 6      5943.213          41.000    22352708.220   119152517.660 6      5943.213          40.187
R18  23197373.380   123829155.289 6     -1563.444          41.937    23197372.940   123829155.300 7     -1563.444          42.250    23197383.360    96311607.655 7     -1216.012          46.937    23197383.320    96311604.652 7     -1216.012          46.750
G31  20672182.040   108633045.763 7      1405.445          47.687    20672181.100   108633045.770 8      1405.445          49.062    20672182.300    84649131.452 8      1095.152          48.625    20672182.860    84649130.455 8      1095.152          50.562
R20  20242716.760   108246907.856 6      5171.915          37.375    20242718.180   108246907.884 6      5171.915          37.187    20242726.560    84192075.994 7      4022.601          45.000    20242727.760    84192078.993 7      4022.601          45.000
G18  21624967.520   113639965.454 7      1541.592          46.625    21624966.280   113639965.462 6      1541.592          39.250    21624968.980    88550622.473 6      1201.241          38.875    21624969.380    88550631.472 8      1201.241          51.375
G29  24804418.560   130348090.059 6      -411.881          39.750    24804417.280   130348090.069 5      -411.881          33.312    24804422.720   101569934.884 5      -320.946          33.500    24804424.060   101569932.884 6      -320.946          38.937
G27  21894459.040   115056163.752 7      4335.640          45.312    21894457.780   115056163.752 6      4335.640          37.125    21894463.320    89654163.921 6      3378.421          36.937    21894466.140    89654178.924 8      3378.421          48.687
R16  20948155.760   111901285.000 8       745.989          48.812    20948155.180   111901285.004 7       745.989          46.687    20948165.000    87034368.965 8       580.214          49.312    20948164.640    87034369.965 8       580.214          49.812
G23  24819924.600   130429591.352 6      4681.198          40.812    24819924.640   130429591.354 4      4681.198          26.500    24819934.440   101633468.664 4      3647.686          26.625    24819934.540   101633484.687 7      3647.686          42.437
G16  22035282.380   115796189.581 7      4424.011          46.187    22035281.460   115796189.584 5      4424.011          34.250    22035283.920    90230789.571 5      3447.281          34.250
R09  19734406.860   105380636.084 7      4211.378          47.812    19734405.120   105380636.087 7      4211.378          47.875    19734411.020    81962725.575 8      3275.516          50.812    19734410.920    81962729.568 8      3275.516          52.500
G26  20671248.480   108628146.425 7      3124.271          47.250    20671247.400   108628146.427 7      3124.271          47.875    20671252.180    84645331.269 8      2434.497          48.125    20671252.300    84645331.263 8      2434.497          48.500
> 2024 05 08 09 43 32.0000000  0 14
G28  21735208.300   114219283.883 7      -262.301          44.750    21735207.300   114219283.896 5      -262.301          35.125    21735209.760    89002050.450 5      -204.391          35.000    21735210.680    89002053.441 8      -204.391          48.125
G04  24458032.480   128527835.615 6      2207.252          36.437    24458031.300   128527835.633 2      2207.252          16.312    24458037.900   100151564.224 2      1719.937          15.875    24458037.580   100151576.212 6      1719.937          36.187
R10  22351594.160   119146574.456 6      5943.128          41.062    22351592.940   119146574.467 6      5943.128          40.187
R18  23197666.060   123830718.915 7     -1563.710          42.750    23197665.840   123830718.930 7     -1563.710          42.250    23197676.660    96312823.807 7     -1216.219          46.062    23197675.960    96312820.804 7     -1216.219          46.312
G31  20671914.780   108631640.664 7      1404.753          47.875    20671913.760   108631640.666 8      1404.753          48.687    20671914.960    84648036.565 8      1094.613          48.375    20671915.380    84648035.570 8      1094.613          50.375
R20  20241749.660   108241736.349 6      5170.979          37.375    20241750.620   108241736.379 6      5170.979          37.187    20241759.480    84188053.720 7      4021.872          44.375    20241760.320    84188056.722 7      4021.872          44.750
G18  21624674.120   113638424.247 7      1540.830          46.625    21624673.140   113638424.255 6      1540.830          39.437    21624675.700    88549421.532 6      1200.647          38.687    21624676.220    88549430.531 8      1200.647          50.687
G29  24804497.540   130348501.883 6      -412.002          40.187    24804495.680   130348501.893 5      -412.002          33.562    24804501.040   101570255.786 5      -321.041          33.312    24804502.480   101570253.786 6      -321.041          38.562
G27  21893634.020   115051828.288 7      4335.215          45.562    21893632.900   115051828.285 6      4335.215          37.437    21893638.180    89650785.641 6      3378.089          36.937    21893641.020    89650800.646 8      3378.089          48.750
R16  20948016.280   111900539.349 7       745.356          47.625    20948015.800   111900539.358 7       745.356          47.687    20948025.460    87033789.018 8       579.721          48.750    20948025.060    87033790.020 8       579.721          49.000
G23  24819033.700   130424910.093 6      4681.170          41.562    24819033.740   130424910.090 4      4681.170          26.500    24819043.560   101629820.938 4      3647.665          26.625    24819043.300   101629836.949 7      3647.665          42.937
G16  22034440.600   115791765.682 7      4423.791          45.687    22034439.560   115791765.685 5      4423.791          34.625    22034442.300    90227342.377 5      3447.110          34.562
R09  19733618.340   105376424.948 8      4210.901          48.375    19733616.680   105376424.943 7      4210.901          47.937    19733622.420    81959450.243 8      3275.145          50.812    19733622.120    81959454.235 8      3275.145          51.125
G26  20670654.100   108625022.236 7      3124.082          47.312    20670652.940   108625022.238 8      3124.082          48.187    20670657.740    84642896.835 7      2434.350          47.875    20670657.840    84642896.833 8      2434.350          49.062
> 2024 05 08 09 43 33.0000000  0 14
G28  21735258.240   114219546.359 7      -262.889          44.250    21735257.300   114219546.366 5      -262.889          35.125    21735259.740    89002254.966 5      -204.848          35.000    21735260.700    89002257.957 8      -204.848          48.125
G04  24457613.020   128525628.542 6      2206.558          36.437    24457611.080   128525628.558 2      2206.558          16.312    24457618.160   100149844.427 2      1719.396          15.875    24457617.640   100149856.421 6      1719.396          36.062
R10  22350479.340   119140631.321 6      5942.882          41.062    22350477.900   119140631.332 6      5942.882          40.062
R18  23197959.360   123832282.668 7     -1563.981          42.750    23197958.620   123832282.677 7     -1563.981          42.312    23197969.580    96314040.049 7     -1216.430          46.125    23197969.280    96314037.048 7     -1216.430          46.062
G31  20671647.540   108630236.184 8      1404.014          48.125    20671646.460   108630236.187 8      1404.014          48.937    20671647.620    84646942.164 8      1094.037          48.687    20671648.360    84646941.165 8      1094.037          50.812
R20  20240781.820   108236565.563 6      5170.264          37.625    20240783.780   108236565.580 6      5170.264          37.187    20240792.760    84184031.975 7      4021.316          44.875    20240793.360    84184034.970 7      4021.316          44.437
G18  21624380.800   113636883.673 7      1540.085          47.437    21624380.060   113636883.681 6      1540.085          39.125    21624382.620    88548221.081 6      1200.067          38.750    21624383.060    88548230.081 8      1200.067          50.687
G29  24804575.780   130348913.672 6      -411.999          40.312    24804574.120   130348913.677 5      -411.999          33.562    24804579.340   101570576.651 5      -321.038          33.312    24804580.440   101570574.644 6      -321.038          38.562
G27  21892809.080   115047493.209 7      4334.679          45.125    21892807.920   115047493.209 6      4334.679          36.812    21892813.340    89647407.658 6      3377.672          36.625    21892816.280    89647422.661 8      3377.672          48.437
R16  20947876.680   111899794.261 8       744.599          48.250    20947876.440   111899794.267 7       744.599          47.500    20947885.880    87033209.493 8       579.133          49.375    20947885.640    87033210.493 8       579.133          50.250
G23  24818142.900   130420228.844 6      4681.030          40.250    24818143.080   130420228.844 4      4681.030          26.500    24818152.780   101626173.216 4      3647.556          26.625    24818152.680   101626189.247 7      3647.556          42.812
G16  22033598.840   115787341.917 7      4423.519          46.562    22033597.880   115787341.922 5      4423.519          34.625    22033600.400    90223895.293 5      3446.898          34.562
R09  19732829.380   105372214.271 7      4210.248          46.500    19732828.140   105372214.272 7      4210.248          47.625    19732833.980    81956175.274 8      3274.638          51.687    19732833.620    81956179.267 8      3274.638          52.562
G26  20670059.680   108621898.372 7      3123.450          47.625    20670058.420   108621898.377 7      3123.450          47.875    20670063.180    84640462.656 7      2433.857          47.937    20670063.480    84640462.654 8      2433.857          48.750
> 2024 05 08 09 43 34.0000000  0 14
G28  21735308.420   114219809.355 7      -263.357          44.937    21735307.420   114219809.365 5      -263.357          35.625    21735309.820    89002459.898 5      -205.213          35.187    21735310.600    89002462.896 8      -205.213          48.187
G04  24457192.820   128523422.060 6      2206.213          37.625    24457191.020   128523422.078 2      2206.213          16.312    24457198.320   100148125.093 2      1719.127          15.875    24457197.680   100148137.089 6      1719.127          36.062
R10  22349363.880   119134688.338 6      5942.956          40.875    22349362.540   119134688.338 6      5942.956          40.062
R18  23198251.900   123833846.612 7     -1564.116          42.375    23198251.560   123833846.621 7     -1564.116          42.312    23198262.420    96315256.454 7     -1216.535          46.125    23198261.980    96315253.449 7     -1216.535          46.437
G31  20671380.280   108628832.409 8      1403.452          48.125    20671379.360   108628832.409 8      1403.452          49.125    20671380.480    84645848.309 8      1093.599          49.187    20671381.020    84645847.310 8      1093.599          50.250
R20  20239815.240   108231395.603 6      5169.407          37.625    20239816.520   108231395.621 6      5169.407          37.437    20239825.680    84180010.898 7      4020.650          44.562    20239826.760    84180013.899 7      4020.650          44.812
G18  21624087.820   113635343.840 7      1539.417          47.062    21624087.120   113635343.853 6      1539.417          39.312    21624089.460    88547021.213 6      1199.546          39.000    21624089.980    88547030.211 8      1199.546          50.812
G29  24804654.100   130349325.489 6      -411.884          40.312    24804652.340   130349325.493 5      -411.884          33.062    24804657.640   101570897.542 5      -320.949          33.062    24804658.700   101570895.542 6      -320.949          38.562
G27  21891984.260   115043158.577 7      4334.338          45.000    21891983.080   115043158.580 6      4334.338          37.250    21891988.420    89644030.024 6      3377.406          36.750    21891991.640    89644045.026 8      3377.406          49.000
R16  20947737.240   111899049.817 7       744.052          47.000    20947736.880   111899049.820 7       744.052          47.187    20947746.500    87032630.483 8       578.707          49.062    20947746.500    87032631.481 8       578.707          49.937
G23  24817252.140   130415547.735 6      4681.168          41.000    24817252.300   130415547.737 4      4681.168          26.812    24817262.040   101622525.606 4      3647.664          26.625    24817262.420   101622541.633 7      3647.664          43.250
G16  22032757.340   115782918.357 7      4423.420          45.437    22032756.080   115782918.362 5      4423.420          34.125    22032758.760    90220448.363 5      3446.821          34.125
R09  19732041.120   105368004.192 8      4209.727          48.437    19732039.700   105368004.190 8      4209.727          48.375    19732045.640    81952900.765 8      3274.232          52.250    19732045.440    81952904.757 8      3274.232          52.625
G26  20669465.480   108618774.863 7      3123.264          47.875    20669464.020   108618774.870 7      3123.264          47.937    20669468.900    84638028.753 7      2433.712          47.625    20669469.260    84638028.749 8      2433.712          48.125
> 2024 05 08 09 43 35.0000000  0 14
G28  21735358.680   114220072.958 7      -263.608          44.437    21735357.560   114220072.966 5      -263.608          35.187    21735360.000    89002665.301 5      -205.409          35.187    21735360.880    89002668.299 8      -205.409          48.062
G04  24456773.200   128521216.296 6      2205.834          37.937    24456771.280   128521216.311 2      2205.834          16.312    24456778.480   100146406.320 2      1718.832          15.875    24456779.240   100146418.301 6      1718.832          36.062
R10  22348249.780   119128745.618 6      5942.879          40.875    22348248.320   119128745.611 6      5942.879          40.062
R18  23198545.300   123835410.880 6     -1564.187          41.375    23198544.500   123835410.878 7     -1564.187          42.312    23198555.360    96316473.096 7     -1216.590          45.562    23198555.000    96316470.093 7     -1216.590          45.937
G31  20671113.280   108627429.417 8      1402.929          48.312    20671112.400   108627429.422 8      1402.929          48.625    20671113.520    84644755.074 8      1093.192          48.375    20671114.040    84644754.071 8      1093.192          49.875
R20  20238849.100   108226226.494 6      5169.006          37.625    20238849.260   108226226.520 6      5169.006          37.437    20238859.160    84175990.492 7      4020.338          44.875    20238860.120    84175993.491 7      4020.338          44.375
G18  21623794.860   113633804.808 7      1538.935          46.812    21623794.100   113633804.824 6      1538.935          38.750    21623796.620    88545821.973 6      1199.170          38.437    21623796.960    88545830.972 8      1199.170          50.375
G29  24804732.440   130349737.449 6      -411.701          39.250    24804730.740   130349737.459 5      -411.701          33.062    24804735.900   101571218.550 5      -320.806          33.062    24804736.860   101571216.548 6      -320.806          38.125
G27  21891159.500   115038824.497 7      4334.104          44.687    21891158.260   115038824.497 6      4334.104          37.125    21891163.620    89640652.817 6      3377.224          36.812    21891166.600    89640667.821 8      3377.224          48.625
R16  20947598.080   111898306.118 7       743.591          47.437    20947597.600   111898306.127 7       743.591          47.500    20947607.300    87032052.052 8       578.348          49.500    20947607.060    87032053.052 8       578.348          49.875
G23  24816361.460   130410866.873 6      4681.038          41.062    24816361.620   130410866.870 4      4681.038          26.812    24816371.400   101618878.185 4      3647.562          26.625    24816372.360   101618894.220 7      3647.562          44.062
G16  22031915.420   115778495.126 7      4423.251          44.750    22031914.300   115778495.133 5      4423.251          34.187    22031916.980    90217001.691 5      3446.689          34.125
R09  19731253.040   105363794.757 8      4209.341          48.500    19731251.500   105363794.755 7      4209.341          47.312    19731257.340    81949626.763 8      3273.932          52.000    19731257.200    81949630.758 8      3273.932          51.750
G26  20668871.160   108615651.816 7      3123.061          47.125    20668869.680   108615651.824 7      3123.061          47.687    20668874.640    84635595.212 7      2433.554          47.750    20668874.860    84635595.210 8      2433.554          48.750
> 2024 05 08 09 43 36.0000000  0 14
G28  21735408.720   114220336.698 7      -264.170          44.562    21735407.780   114220336.705 5      -264.170          35.437    21735410.240    89002870.806 5      -205.846          35.125    21735410.880    89002873.808 8      -205.846          48.375
G04  24456353.560   128519010.789 6      2204.846          37.937    24456351.680   128519010.807 2      2204.846          16.312    24456358.740   100144687.741 2      1718.061          15.875    24456359.360   100144699.718 6      1718.061          36.062
R10  22347134.400   119122802.630 6      5942.701          41.187    22347133.360   119122802.628 6      5942.701          40.000
R18  23198838.340   123836975.006 6     -1564.580          41.375    23198837.600   123836975.006 7     -1564.580          42.062    23198848.420    96317689.639 7     -1216.896          46.125    23198848.180    96317686.638 7     -1216.896          46.125
G31  20670846.480   108626026.749 8      1402.176          48.062    20670845.460   108626026.756 8      1402.176          48.625    20670846.560    84643662.086 8      1092.605          48.562    20670847.020    84643661.087 8      1092.605          50.125
R20  20237882.640   108221057.863 6      5168.022          37.625    20237883.460   108221057.884 6      5168.022          37.437    20237892.380    84171970.446 7      4019.573          44.500    20237893.340    84171973.447 7      4019.573          44.687
G18  21623502.060   113632266.147 8      1538.127          48.062    21623501.360   113632266.157 6      1538.127          39.750    21623503.780    88544623.011 6      1198.540          38.875    21623504.180    88544632.007 8      1198.540          50.437
G29  24804810.660   130350149.068 6      -411.844          40.125    24804809.140   130350149.078 5      -411.844          32.875    24804814.260   101571539.286 5      -320.917          33.062    24804815.080   101571537.280 6      -320.917          38.125
G27  21890335.000   115034490.504 7      4333.517          45.062    21890333.640   115034490.504 6      4333.517          37.187    21890338.760    89637275.682 6      3376.766          36.500    21890341.960    89637290.681 8      3376.766          48.625
R16  20947459.120   111897562.710 8       742.825          48.125    20947458.740   111897562.714 7       742.825          47.812    20947467.940    87031473.836 8       577.753          49.125    20947467.780    87031474.840 8       577.753          49.375
G23  24815470.460   130406185.711 6      4681.002          41.750    24815470.720   130406185.705 4      4681.002          26.812    24815480.600   101615230.530 4      3647.534          26.625    24815481.320   101615246.535 7      3647.534          43.437
G16  22031073.960   115774071.697 7      4423.060          44.937    22031072.620   115774071.704 5      4423.060          34.187    22031075.240    90213554.870 5      3446.540          34.125
R09  19730464.620   105359585.476 8      4208.862          48.437    19730463.200   105359585.475 7      4208.862          47.375    19730469.180    81946352.875 8      3273.559          51.687    19730468.720    81946356.871 8      3273.559          52.687
G26  20668276.860   108612528.759 7      3122.672          46.062    20668275.440   108612528.764 7      3122.672          47.937    20668280.320    84633161.659 8      2433.251          48.062    20668280.560    84633161.655 8      2433.251          48.687
> 2024 05 08 09 43 37.0000000  0 14
G28  21735459.120   114220601.073 7      -264.614          45.000    21735458.000   114220601.084 5      -264.614          35.437    21735460.420    89003076.813 5      -206.193          35.187    21735461.060    89003079.813 8      -206.193          48.625
G04  24455933.780   128516805.916 6      2204.508          37.437    24455932.060   128516805.928 2      2204.508          16.312    24455939.060   100142969.657 2      1717.799          15.875    24455939.700   100142981.674 6      1717.799          36.062
R10  22346019.600   119116859.900 6      5942.685          41.187    22346018.800   119116859.898 6      5942.685          40.000
R18  23199131.280   123838539.444 6     -1564.535          41.875    23199130.800   123838539.447 7     -1564.535          42.312    23199141.500    96318906.422 7     -1216.861          45.750    23199141.440    96318903.423 7     -1216.861          46.125
G31  20670579.480   108624624.881 8      1401.611          48.812    20670578.640   108624624.886 8      1401.611          49.250    20670579.840    84642569.719 8      1092.164          49.250    20670580.240    84642568.719 8      1092.164          50.937
R20  20236916.760   108215890.128 6      5167.265          37.625    20236916.700   108215890.149 6      5167.265          37.437    20236926.280    84167951.096 7      4018.984          44.812    20236926.720    84167954.094 7      4018.984          44.500
G18  21623209.640   113630728.308 7      1537.478          47.687    21623208.740   113630728.316 6      1537.478          39.062    21623211.200    88543424.695 6      1198.035          39.000    21623211.620    88543433.689 8      1198.035          51.250
G29  24804889.460   130350560.816 6      -411.609          39.687    24804887.520   130350560.829 5      -411.609          32.875    24804892.640   101571860.123 5      -320.735          33.062    24804894.000   101571858.110 6      -320.735          38.125
G27  21889510.260   115030157.057 7      4333.226          45.500    21889509.140   115030157.057 6      4333.226          36.687    21889514.140    89633898.970 6      3376.540          36.687    21889517.300    89633913.971 8      3376.540          48.937
R16  20947320.020   111896820.042 8       742.407          48.437    20947319.580   111896820.043 7       742.407          47.875    20947329.160    87030896.201 8       577.428          49.562    20947328.700    87030897.203 8       577.428          49.812
G23  24814579.740   130401504.801 6      4680.815          40.562    24814580.000   130401504.803 4      4680.815          26.812    24814589.760   101611583.076 4      3647.388          26.687    24814590.400   101611599.089 7      3647.388          43.437
G16  22030232.180   115769648.589 7      4423.033          45.500    22030230.820   115769648.593 5      4423.033          34.187    22030233.540    90210108.292 5      3446.519          34.250
R09  19729676.840   105355376.871 7      4208.338          47.562    19729674.960   105355376.870 8      4208.338          48.312    19729681.120    81943079.521 8      3273.151          52.062    19729680.860    81943083.513 8      3273.151          53.062
G26  20667682.540   108609406.167 7      3122.513          46.187    20667681.300   108609406.172 7      3122.513          47.750    20667686.160    84630728.470 7      2433.127          47.812    20667686.500    84630728.468 8      2433.127          49.187
> 2024 05 08 09 43 38.0000000  0 14
G28  21735509.520   114220865.956 7      -265.080          44.875    21735508.320   114220865.969 5      -265.080          35.187    21735510.820    89003283.209 5      -206.556          35.250    21735511.520    89003286.213 8      -206.556          48.750
G04  24455514.400   128514601.662 6      2204.177          37.062    24455512.720   128514601.677 2      2204.177          16.312    24455519.500   100141252.059 2      1717.540          15.875    24455519.280   100141264.045 5      1717.540          35.812
R10  22344904.720   119110917.282 6      5942.624          41.187    22344903.940   119110917.288 6      5942.624          40.000
R18  23199424.320   123840104.098 7     -1564.775          42.187    23199423.760   123840104.112 7     -1564.775          42.312    23199434.780    96320123.380 7     -1217.047          45.187    23199434.160    96320120.377 7     -1217.047          46.062
G31  20670312.960   108623223.710 8      1400.894          48.625    20670312.000   108623223.715 8      1400.894          48.937    20670313.220    84641477.896 8      1091.605          48.500    20670313.860    84641476.897 8      1091.605          50.687
R20  20235950.840   108210723.204 6      5166.597          37.625    20235950.680   108210723.229 6      5166.597          37.375    20235959.940    84163932.379 7      4018.464          44.500    20235960.720    84163935.380 7      4018.464          44.250
G18  21622916.980   113629191.179 8      1536.838          48.000    21622916.300   113629191.186 6      1536.838          38.812    21622918.600    88542226.927 6      1197.536          38.750    21622918.920    88542235.926 8      1197.536          51.000
G29  24804967.380   130350972.629 6      -411.755          40.937    24804965.780   130350972.637 5      -411.755          33.062    24804971.080   101572181.010 5      -320.848          32.937    24804972.480   101572178.998 6      -320.848          37.687
G27  21888685.680   115025824.065 7      4332.771          45.375    21888684.600   115025824.062 6      4332.771          36.750    21888689.580    89630522.612 6      3376.185          36.437    21888692.620    89630537.614 8      3376.185          48.562
R16  20947181.180   111896078.020 8       741.781          48.125    20947180.560   111896078.021 7       741.781          47.437    20947190.060    87030319.069 8       576.941          48.937    20947189.900    87030320.073 8       576.941          49.500
G23  24813688.980   130396823.981 6      4680.817          41.437    24813689.180   130396823.985 4      4680.817          26.812    24813699.160   101607935.688 4      3647.390          26.687    24813699.500   101607951.707 7      3647.390          43.125
G16  22029390.320   115765225.696 7      4422.798          45.437    22029389.120   115765225.703 5      4422.798          34.125    22029392.040    90206661.884 5      3446.336          34.250
R09  19728888.860   105351168.816 8      4207.809          48.250    19728886.920   105351168.815 7      4207.809          47.812    19728892.980    81939806.590 8      3272.741          52.000    19728892.620    81939810.586 8      3272.741          51.812
G26  20667088.280   108606283.961 7      3122.100          47.375    20667087.180   108606283.964 7      3122.100          47.937    20667091.860    84628295.579 7      2432.805          47.875    20667092.240    84628295.573 8      2432.805          49.125
> 2024 05 08 09 43 39.0000000  0 14
G28  21735559.880   114221131.391 7      -265.542          44.937    21735558.960   114221131.401 5      -265.542          35.187    21735561.340    89003490.041 5      -206.916          35.250    21735562.100    89003493.037 8      -206.916          48.062
G04  24455095.140   128512398.052 6      2203.424          37.062    24455093.460   128512398.065 2      2203.424          15.625    24455100.180   100139534.961 2      1716.954          15.875    24455100.620   100139546.961 5      1716.954          35.812
R10  22343789.800   119104974.816 6      5942.484          41.062    22343789.220   119104974.827 6      5942.484          40.000
R18  23199717.440   123841668.980 6     -1564.875          41.500    23199717.060   123841668.988 7     -1564.875          42.125    23199728.040    96321340.501 7     -1217.125          45.937    23199727.240    96321337.502 7     -1217.125          46.375
G31  20670046.420   108621823.251 8      1400.256          48.250    20670045.440   108621823.261 8      1400.256          49.187    20670046.720    84640386.633 8      1091.109          48.937    20670047.440    84640385.632 8      1091.109          51.000
R20  20234984.180   108205557.116 6      5165.946          37.625    20234984.780   108205557.136 6      5165.946          37.375    20234993.940    84159914.309 7      4017.958          44.562    20234994.760    84159917.308 7      4017.958          44.812
G18  21622624.840   113627654.817 7      1536.050          47.250    21622623.920   113627654.821 6      1536.050          39.375    21622626.240    88541029.760 6      1196.922          39.187    21622626.600    88541038.759 8      1196.922          50.812
G29  24805045.660   130351384.498 6      -411.912          39.937    24805044.200   130351384.506 5      -411.912          33.062    24805049.320   101572501.945 5      -320.971          32.937    24805050.340   101572499.936 6      -320.971          37.687
G27  21887861.000   115021491.559 7      4332.353          45.500    21887860.020   115021491.561 6      4332.353          36.875    21887865.180    89627146.633 6      3375.860          36.812    21887868.280    89627161.635 8      3375.860          48.500
R16  20947042.340   111895336.658 7       741.025          47.937    20947042.020   111895336.662 7       741.025          46.937    20947051.300    87029742.456 8       576.353          49.437    20947051.080    87029743.458 8       576.353          50.062
G23  24812798.440   130392143.318 7      4680.768          42.250    24812798.400   130392143.320 4      4680.768          26.812    24812808.480   101604288.425 4      3647.352          26.687    24812809.440   101604304.436 7      3647.352          43.125
G16  22028548.540   115760803.040 7      4422.651          44.812    22028547.640   115760803.047 5      4422.651          34.125    22028550.460    90203215.660 5      3446.222          34.437
R09  19728100.980   105346961.320 8      4207.379          48.312    19728098.860   105346961.323 8      4207.379          48.437    19728105.080    81936534.096 8      3272.406          52.187    19728104.740    81936538.090 8      3272.406          52.687
G26  20666494.260   108603162.139 7      3121.669          47.000    20666493.140   108603162.147 7      3121.669          47.875    20666497.900    84625862.994 8      2432.470          48.125    20666498.320    84625862.996 8      2432.470          49.062
> 2024 05 08 09 43 40.0000000  0 14
G28  21735610.700   114221396.970 7      -265.883          44.875    21735609.440   114221396.977 5      -265.883          35.312    21735611.780    89003696.980 5      -207.181          35.312    21735612.740    89003699.977 8      -207.181          48.312
G04  24454675.940   128510194.653 6      2202.981          37.062    24454674.120   128510194.668 2      2202.981          15.625    24454680.860   100137818.028 2      1716.608          15.875    24454680.580   100137830.016 5      1716.608          35.812
R10  22342675.140   119099032.065 6      5942.671          41.062    22342674.140   119099032.082 6      5942.671          40.000
R18  23200010.460   123843233.701 6     -1564.895          41.500    23200009.960   123843233.696 7     -1564.895          42.125    23200021.160    96322557.496 7     -1217.141          46.125    23200020.400    96322554.497 7     -1217.141          46.000
G31  20669779.820   108620423.126 8      1399.734          48.687    20669779.000   108620423.133 8      1399.734          48.875    20669780.260    84639295.624 8      1090.702          49.000    20669781.080    84639294.623 8      1090.702          50.937
R20  20234017.240   108200391.450 6      5165.371          37.625    20234018.960   108200391.484 6      5165.371          37.375    20234027.840    84155896.579 7      4017.511          44.562    20234028.500    84155899.583 7      4017.511          44.562
G18  21622332.620   113626118.783 8      1535.568          48.000    21622331.640   113626118.790 6      1535.568          39.687    21622333.860    88539832.851 6      1196.546          39.687    21622334.420    88539841.855 8      1196.546          51.000
G29  24805124.080   130351795.996 6      -411.684          40.000    24805122.580   130351796.006 5      -411.684          32.687    24805127.520   101572822.585 5      -320.793          32.937    24805128.540   101572820.580 6      -320.793          37.687
G27  21887036.780   115017159.124 7      4332.171          45.125    21887035.440   115017159.121 6      4332.171          36.625    21887040.780    89623770.708 6      3375.717          36.375    21887043.800    89623785.705 8      3375.717          48.812
R16  20946903.760   111894595.516 7       740.726          47.500    20946903.260   111894595.519 7       740.726          47.562    20946912.440    87029166.006 8       576.120          49.187    20946912.220    87029167.012 8       576.120          49.625
G23  24811908.160   130387462.400 6      4680.792          41.687    24811907.580   130387462.400 4      4680.792          26.875    24811917.880   101600640.962 4      3647.371          26.687    24811918.260   101600656.982 7      3647.371          43.437
G16  22027706.900   115756380.202 7      4422.796          44.437    22027706.000   115756380.212 5      4422.796          34.437    22027708.860    90199769.295 5      3446.334          34.312
R09  19727313.040   105342754.034 7      4206.942          46.375    19727310.860   105342754.032 7      4206.942          47.625    19727317.220    81933261.761 8      3272.066          52.250    19727317.220    81933265.759 8      3272.066          52.812
G26  20665900.220   108600040.304 7      3121.556          46.500    20665899.000   108600040.306 8      3121.556          48.187    20665903.880    84623430.393 8      2432.381          48.312    20665904.080    84623430.391 8      2432.381          49.687
> 2024 05 08 09 43 41.0000000  0 14
G28  21735661.140   114221662.877 7      -266.048          44.312    21735659.920   114221662.884 5      -266.048          35.312    21735662.460    89003904.178 5      -207.310          35.125    21735663.380    89003907.180 8      -207.310          48.312
G04  24454256.400   128507991.679 6      2202.853          37.062    24454255.100   128507991.689 2      2202.853          15.625    24454261.560   100136101.423 2      1716.509          15.875    24454262.200   100136113.413 5      1716.509          35.812
R10  22341560.400   119093089.266 6      5942.939          41.187    22341559.600   119093089.280 6      5942.939          39.937
R18  23200303.420   123844798.462 7     -1564.771          42.437    23200303.080   123844798.455 7     -1564.771          42.312    23200314.020    96323774.524 7     -1217.044          46.125    23200313.560    96323771.523 7     -1217.044          46.187
G31  20669513.580   108619023.513 7      1399.437          47.375    20669512.700   108619023.515 8      1399.437          49.062    20669513.920    84638205.009 8      1090.470          48.750    20669514.840    84638204.005 8      1090.470          50.812
R20  20233051.300   108195226.461 6      5164.661          37.625    20233052.940   108195226.486 6      5164.661          37.375    20233061.700    84151879.361 7      4016.959          44.812    20233062.600    84151882.363 7      4016.959          44.625
G18  21622040.280   113624583.298 7      1535.299          47.375    21622039.440   113624583.306 6      1535.299          39.562    21622041.800    88538636.371 6      1196.337          39.250    21622042.240    88538645.370 8      1196.337          50.437
G29  24805202.080   130352207.366 6      -411.290          40.125    24805200.800   130352207.376 5      -411.290          32.687    24805205.820   101573143.128 5      -320.486          32.625    24805207.040   101573141.122 6      -320.486          37.562
G27  21886212.260   115012826.972 7      4332.062          45.312    21886211.040   115012826.972 6      4332.062          37.125    21886216.380    89620395.010 6      3375.633          36.500    21886219.360    89620410.001 8      3375.633          48.875
R16  20946764.800   111893854.853 7       740.461          47.937    20946764.560   111893854.857 7       740.461          47.812    20946773.680    87028589.931 8       575.914          49.062    20946773.660    87028590.937 8       575.914          49.125
G23  24811017.280   130382781.420 6      4680.968          40.687    24811016.740   130382781.419 4      4680.968          26.875    24811027.080   101596993.447 4      3647.507          26.687    24811027.420   101597009.476 7      3647.507          42.875
G16  22026865.460   115751957.435 7      4422.720          46.250    22026864.380   115751957.446 5      4422.720          34.437    22026867.320    90196322.988 5      3446.275          34.312
R09  19726524.960   105338547.140 8      4206.722          48.250    19726523.080   105338547.144 7      4206.722          47.937    19726529.500    81929989.735 8      3271.895          51.750    19726529.160    81929993.729 8      3271.895          52.812
G26  20665306.000   108596918.663 8      3121.495          48.375    20665304.980   108596918.665 8      3121.495          48.062    20665309.760    84620997.946 8      2432.334          48.000    20665309.920    84620997.946 8      2432.334          49.000
> 2024 05 08 09 43 42.0000000  0 14
G28  21735711.940   114221929.213 7      -266.430          44.562    21735710.520   114221929.223 5      -266.430          35.312    21735713.080    89004111.711 5      -207.608          34.812    21735713.880    89004114.710 7      -207.608          47.500
G04  24453837.520   128505789.201 6      2202.221          37.437    24453835.760   128505789.212 2      2202.221          15.625    24453842.360   100134385.207 2      1716.016          15.937    24453842.720   100134397.209 6      1716.016          36.250
R10  22340445.380   119087146.509 6      5942.809          41.187    22340444.220   119087146.520 6      5942.809          39.937
R18  23200596.860   123846363.362 6     -1565.066          41.937    23200596.140   123846363.360 7     -1565.066          42.187    23200607.220    96324991.669 7     -1217.274          45.375    23200606.600    96324988.666 7     -1217.274          45.250
G31  20669247.360   108617624.504 7      1398.798          47.250    20669246.480   108617624.506 7      1398.798          47.937    20669247.700    84637114.872 8      1089.972          48.000    20669248.640    84637113.869 8      1089.972          50.562
R20  20232085.600   108190062.151 6      5163.910          37.500    20232087.100   108190062.171 6      5163.910          37.375    20232096.120    84147862.676 7      4016.374          44.500    20232096.920    84147865.675 7      4016.374          44.000
G18  21621748.180   113623048.457 8      1534.585          48.187    21621747.400   113623048.462 6      1534.585          39.187    21621749.760    88537440.387 6      1195.780          38.875    21621750.020    88537449.386 8      1195.780          50.750
G29  24805280.520   130352618.654 6      -411.033          40.125    24805279.100   130352618.659 5      -411.033          32.500    24805284.100   101573463.602 5      -320.285          32.625    24805285.080   101573461.592 6      -320.285          37.562
G27  21885387.880   115008495.181 7      4331.624          45.125    21885386.660   115008495.175 6      4331.624          36.625    21885392.040    89617019.588 6      3375.291          36.687    21885394.920    89617034.585 8      3375.291          48.562
R16  20946626.580   111893114.763 7       739.853          47.437    20946626.080   111893114.759 7       739.853          47.875    20946635.240    87028014.299 8       575.441          48.937    20946635.260    87028015.305 8       575.441          48.437
G23  24810126.620   130378100.484 6      4681.011          41.250    24810126.100   130378100.481 4      4681.011          26.875    24810136.420   101593345.971 4      3647.541          26.875    24810136.400   101593361.990 7      3647.541          43.312
G16  22026023.520   115747534.774 7      4422.560          46.000    22026022.800   115747534.781 5      4422.560          34.125    22026025.580    90192876.754 5      3446.151          34.062
R09  19725737.280   105334340.716 8      4206.246          48.062    19725735.240   105334340.715 7      4206.246          47.562    19725741.620    81926718.068 8      3271.525          50.125    19725741.380    81926722.066 8      3271.525          50.875
G26  20664712.160   108593797.288 7      3121.262          47.937    20664711.040   108593797.293 7      3121.262          47.312    20664715.780    84618565.703 7      2432.152          47.500    20664716.160    84618565.705 8      2432.152          48.937
> 2024 05 08 09 43 43.0000000  0 14
G28  21735762.660   114222196.140 7      -267.202          45.000    21735761.400   114222196.147 5      -267.202          34.875    21735764.000    89004319.701 5      -208.209          34.812    21735764.720    89004322.699 8      -208.209          48.312
G04  24453418.600   128503587.407 6      2201.299          37.250    24453416.880   128503587.417 2      2201.299          15.625    24453423.320   100132669.525 2      1715.298          15.937    24453423.480   100132681.525 6      1715.298          36.250
R10  22339330.360   119081203.921 6      5942.531          41.250    22339329.900   119081203.940 6      5942.531          39.937
R18  23200889.940   123847928.491 6     -1565.326          41.937    23200889.220   123847928.503 7     -1565.326          42.187    23200900.520    96326209.002 7     -1217.476          45.812    23200899.900    96326206.003 7     -1217.476          45.812
G31  20668981.280   108616226.252 7      1397.916          47.875    20668980.300   108616226.260 8      1397.916          48.687    20668981.620    84636025.327 8      1089.285          48.875    20668982.500    84636024.326 8      1089.285          50.812
R20  20231119.840   108184898.683 6      5163.120          37.500    20231121.000   108184898.709 6      5163.120          37.500    20231130.500    84143846.643 7      4015.760          44.437    20231131.580    84143849.649 7      4015.760          44.125
G18  21621456.400   113621514.386 7      1533.732          47.312    21621455.380   113621514.394 6      1533.732          39.500    21621457.820    88536245.007 6      1195.116          39.250    21621458.120    88536254.008 8      1195.116          51.062
G29  24805358.460   130353030.063 6      -411.321          39.937    24805357.380   130353030.070 5      -411.321          32.500    24805362.200   101573784.178 5      -320.510          32.937    24805363.180   101573782.178 6      -320.510          37.562
G27  21884563.620   115004163.886 7      4331.133          45.187    21884562.580   115004163.883 6      4331.133          36.625    21884567.840    89613644.551 6      3374.909          36.562    21884570.860    89613659.552 8      3374.909          49.062
R16  20946488.280   111892375.348 7       739.160          47.687    20946487.620   111892375.352 7       739.160          47.562    20946496.680    87027439.205 8       574.902          49.125    20946496.800    87027440.211 8       574.902          49.750
G23  24809235.620   130373419.666 6      4680.918          40.437    24809235.380   130373419.665 4      4680.918          26.875    24809245.840   101589698.588 4      3647.468          26.875    24809245.520   101589714.612 7      3647.468          42.875
G16  22025181.900   115743112.359 7      4422.312          45.500    22025181.240   115743112.364 5      4422.312          34.187    22025183.860    90189430.717 5      3445.958          34.062
R09  19724949.540   105330134.912 7      4205.524          47.812    19724947.760   105330134.913 7      4205.524          47.437    19724953.960    81923446.889 8      3270.963          52.437    19724953.800    81923450.889 8      3270.963          52.562
G26  20664118.220   108590676.346 7      3120.759          47.125    20664117.140   108590676.348 8      3120.759          48.000    20664121.980    84616133.800 8      2431.760          48.000    20664122.040    84616133.802 8      2431.760          49.750
> 2024 05 08 09 43 44.0000000  0 14
G28  21735813.340   114222463.558 7      -267.444          44.437    21735812.340   114222463.565 5      -267.444          34.875    21735814.980    89004528.077 5      -208.398          34.625    21735815.500    89004531.081 8      -208.398          48.375
G04  24452999.960   128501386.131 6      2201.299          37.250    24452998.020   128501386.143 2      2201.299          15.625    24453004.280   100130954.247 2      1715.298          15.937    24453004.940   100130966.239 6      1715.298          36.250
R10  22338215.400   119075261.484 6      5942.708          41.250    22338215.280   119075261.485 6      5942.708          40.125
R18  23201182.760   123849493.842 6     -1565.172          41.562    23201182.380   123849493.854 7     -1565.172          42.000    23201193.660    96327426.493 7     -1217.356          45.875    23201193.000    96327423.494 7     -1217.356          45.687
G31  20668715.380   108614828.675 8      1397.532          48.250    20668714.420   108614828.683 8      1397.532          48.937    20668715.660    84634936.304 8      1088.986          48.937    20668716.280    84634935.305 8      1088.986          50.875
R20  20230154.460   108179736.023 6      5162.616          37.500    20230155.320   108179736.043 6      5162.616          37.500    20230165.120    84139831.241 7      4015.368          44.500    20230165.900    84139834.242 7      4015.368          44.625
G18  21621164.440   113619981.035 7      1533.249          47.437    21621163.620   113619981.040 6      1533.249          39.125    21621165.960    88535050.188 6      1194.739          39.125    21621166.280    88535059.189 8      1194.739          51.125
G29  24805437.000   130353441.500 6      -411.206          40.437    24805435.680   130353441.510 5      -411.206          32.500    24805440.380   101574104.777 5      -320.420          32.937    24805441.620   101574102.779 6      -320.420          37.437
G27  21883739.480   114999833.049 7      4330.934          44.687    21883738.480   114999833.040 6      4330.934          37.062    21883743.660    89610269.872 6      3374.754          36.437    21883746.540    89610284.876 8      3374.754          48.187
R16  20946350.040   111891636.569 8       738.813          48.375    20946349.480   111891636.573 8       738.813          48.000    20946358.280    87026864.592 8       574.633          49.062    20946358.540    87026865.598 8       574.633          48.937
G23  24808344.800   130368739.040 6      4680.886          41.437    24808344.640   130368739.040 4      4680.886          26.875    24808355.080   101586051.354 4      3647.443          26.875    24808354.780   101586067.360 7      3647.443          42.875
G16  22024340.580   115738690.153 7      4422.398          46.250    22024339.820   115738690.155 5      4422.398          34.187    22024342.320    90185984.845 5      3446.024          34.187
R09  19724161.840   105325929.629 8      4205.311          48.312    19724160.340   105325929.630 7      4205.311          47.375    19724166.400    81920176.115 8      3270.797          52.062    19724166.100    81920180.111 8      3270.797          52.500
G26  20663524.300   108587555.748 7      3120.766          46.687    20663523.240   108587555.748 7      3120.766          47.750    20663528.100    84613702.164 7      2431.766          47.687    20663528.180    84613702.166 8      2431.766          48.687
> 2024 05 08 09 43 45.0000000  0 14
G28  21735864.380   114222731.270 7      -267.819          44.687    21735863.380   114222731.278 5      -267.819          35.437    21735866.040    89004736.682 5      -208.690          35.000    21735866.280    89004739.684 7      -208.690          47.937
G04  24452581.320   128499185.293 6      2200.753          37.000    24452579.180   128499185.308 2      2200.753          15.625    24452585.660   100129239.310 2      1714.872          15.937    24452586.020   100129251.288 6      1714.872          36.250
R10  22337100.920   119069318.933 6      5942.671          41.687    22337100.520   119069318.944 6      5942.671          40.125
R18  23201476.420   123851059.207 6     -1565.322          41.562    23201475.520   123851059.202 7     -1565.322          42.000    23201486.620    96328643.988 7     -1217.473          45.312    23201486.420    96328640.992 7     -1217.473          46.125
G31  20668449.600   108613431.580 7      1396.955          47.875    20668448.540   108613431.582 8      1396.955          48.937    20668449.860    84633847.658 8      1088.537          48.437    20668450.620    84633846.657 8      1088.537          50.750
R20  20229189.480   108174573.962 6      5161.882          37.500    20229190.480   108174573.966 6      5161.882          37.500    20229199.940    84135816.296 7      4014.797          44.062    20229200.560    84135819.299 7      4014.797          44.375
G18  21620872.900   113618448.170 8      1532.750          48.000    21620871.940   113618448.175 6      1532.750          39.500    21620874.280    88533855.748 6      1194.351          39.000    21620874.620    88533864.747 8      1194.351          51.187
G29  24805515.080   130353852.728 6      -410.949          40.562    24805513.860   130353852.738 5      -410.949          32.812    24805518.720   101574425.210 5      -320.220          32.937    24805519.800   101574423.210 6      -320.220          37.437
G27  21882915.560   114995502.437 7      4330.581          44.625    21882914.380   114995502.434 6      4330.581          37.500    21882919.480    89606895.374 6      3374.479          36.750    21882922.320    89606910.379 8      3374.479          48.562
R16  20946211.380   111890898.201 8       738.282          48.187    20946211.260   111890898.202 7       738.282          47.250    20946220.040    87026290.302 8       574.219          49.562    20946220.120    87026291.308 8       574.219          49.687
G23  24807454.100   130364058.235 6      4680.994          41.500    24807453.840   130364058.235 4      4680.994          26.937    24807464.440   101582403.977 4      3647.527          26.875    24807464.480   101582419.988 7      3647.527          43.250
G16  22023499.000   115734267.940 7      4422.235          45.312    22023498.400   115734267.945 5      4422.235          34.375    22023500.700    90182538.970 5      3445.898          34.187
R09  19723374.560   105321724.687 8      4204.830          48.125    19723372.740   105321724.685 7      4204.830          47.687    19723378.720    81916905.600 8      3270.423          52.375    19723378.680    81916909.599 8      3270.423          52.625
G26  20662930.400   108584435.305 7      3120.495          47.187    20662929.520   108584435.310 7      3120.495          47.625    20662934.300    84611270.656 7      2431.555          47.937    20662934.700    84611270.662 8      2431.555          49.312
> 2024 05 08 09 43 46.0000000  0 14
G28  21735915.540   114222999.217 7      -268.079          44.812    21735914.200   114222999.227 5      -268.079          35.437    21735917.020    89004945.470 5      -208.893          35.125    21735917.580    89004948.471 7      -208.893          47.875
G04  24452162.600   128496984.760 6      2200.368          36.500    24452160.600   128496984.770 2      2200.368          15.625    24452166.980   100127524.607 2      1714.572          15.937    24452167.780   100127536.589 6      1714.572          36.250
R10  22335986.600   119063376.251 6      5942.654          41.687    22335985.880   119063376.267 6      5942.654          40.500
R18  23201769.340   123852624.510 6     -1565.356          41.750    23201768.700   123852624.508 6     -1565.356          41.625    23201780.140    96329861.444 7     -1217.499          45.500    23201779.640    96329858.450 7     -1217.499          45.375
G31  20668183.760   108612034.901 8      1396.453          49.625    20668182.720   108612034.904 8      1396.453          49.625    20668184.020    84632759.333 8      1088.145          49.125    20668184.880    84632758.334 8      1088.145          50.812
R20  20228224.460   108169412.403 6      5161.242          37.000    20228224.880   108169412.415 6      5161.242          37.500    20228234.700    84131801.761 7      4014.299          45.062    20228235.580    84131804.758 7      4014.299          44.437
G18  21620581.220   113616915.773 8      1532.119          48.625    21620580.340   113616915.781 6      1532.119          39.312    21620582.720    88532661.674 6      1193.859          39.125    21620583.000    88532670.673 8      1193.859          50.875
G29  24805593.000   130354263.735 6      -410.882          41.187    24805592.020   130354263.742 5      -410.882          32.812    24805596.780   101574745.469 5      -320.168          32.937    24805598.360   101574743.479 6      -320.168          37.437
G27  21882091.620   114991172.017 7      4330.277          45.187    21882090.320   114991172.014 6      4330.277          36.625    21882095.420    89603521.020 6      3374.242          36.375    21882098.260    89603536.022 8      3374.242          48.375
R16  20946073.440   111890160.218 8       737.731          49.437    20946073.120   111890160.219 8       737.731          48.625    20946081.680    87025716.315 8       573.791          48.937    20946081.960    87025717.317 8       573.791          49.250
G23  24806563.620   130359377.347 6      4680.754          41.625    24806562.920   130359377.349 4      4680.754          26.937    24806573.620   101578756.536 4      3647.341          26.875    24806574.020   101578772.559 7      3647.341          43.937
G16  22022657.520   115729845.662 7      4422.247          45.750    22022656.840   115729845.665 5      4422.247          34.375    22022659.100    90179093.039 5      3445.907          34.375
R09  19722587.260   105317520.026 8      4204.431          49.687    19722585.520   105317520.021 8      4204.431          48.937    19722591.220    81913635.310 8      3270.113          51.750    19722591.260    81913639.311 8      3270.113          52.000
G26  20662336.780   108581314.957 7      3120.232          47.687    20662335.720   108581314.965 8      3120.232          48.812    20662340.560    84608839.218 8      2431.350          48.312    20662340.920    84608839.220 8      2431.350          49.000
> 2024 05 08 09 43 47.0000000  0 14
G28  21735966.600   114223267.767 7      -268.774          44.625    21735965.460   114223267.775 5      -268.774          35.312    21735968.160    89005154.728 5      -209.435          35.125    21735968.440    89005157.724 7      -209.435          47.687
G04  24451743.400   128494784.905 6      2199.487          36.500    24451741.800   128494784.915 2      2199.487          15.625    24451748.480   100125810.432 2      1713.886          15.937    24451748.420   100125822.420 6      1713.886          36.000
R10  22334872.540   119057433.777 7      5942.380          42.062    22334871.000   119057433.780 6      5942.380          40.500
R18  23202063.280   123854190.069 7     -1565.624          43.187    23202061.800   123854190.070 7     -1565.624          42.375    23202073.600    96331079.101 7     -1217.708          45.062    23202072.780    96331076.107 7     -1217.708          46.000
G31  20667918.040   108610638.988 8      1395.634          48.750    20667917.100   108610638.990 8      1395.634          49.250    20667918.340    84631671.609 8      1087.507          49.125    20667919.360    84631670.610 8      1087.507          50.500
R20  20227259.120   108164251.719 6      5160.186          37.000    20227260.300   108164251.741 6      5160.186          38.062    20227269.600    84127787.901 7      4013.478          44.750    20227270.320    84127790.900 7      4013.478          44.625
G18  21620289.620   113615384.162 7      1531.278          47.187    21620288.780   113615384.164 6      1531.278          39.000    21620291.120    88531468.204 6      1193.204          38.812    21620291.620    88531477.205 8      1193.204          50.500
G29  24805671.680   130354674.833 6      -411.036          40.562    24805670.340   130354674.844 5      -411.036          33.125    24805675.120   101575065.806 5      -320.288          33.000    24805677.160   101575063.799 6      -320.288          37.437
G27  21881268.080   114986842.112 7      4329.763          45.625    21881266.420   114986842.106 6      4329.763          36.812    21881271.520    89600147.067 6      3373.841          36.750    21881274.320    89600162.068 8      3373.841          48.312
R16  20945935.720   111889422.948 8       737.006          49.312    20945935.140   111889422.946 8       737.006          49.437    20945943.640    87025142.873 8       573.227          49.250    20945943.680    87025143.875 8       573.227          49.375
G23  24805672.800   130354696.589 6      4680.693          40.937    24805672.220   130354696.592 4      4680.693          26.937    24805682.920   101575109.201 4      3647.293          26.875    24805684.320   101575125.208 7      3647.293          44.000
G16  22021815.980   115725423.647 7      4422.008          46.250    22021815.200   115725423.652 5      4422.008          33.937    22021817.740    90175647.315 5      3445.720          34.000
R09  19721799.900   105313315.994 8      4203.736          49.875    19721798.340   105313315.990 8      4203.736          48.875    19721804.000    81910365.504 8      3269.572          51.875    19721803.900    81910369.506 8      3269.572          52.250
G26  20661742.780   108578195.045 7      3119.785          47.000    20661742.000   108578195.050 8      3119.785          48.750    20661746.860    84606408.116 8      2431.002          48.500    20661747.000    84606408.118 8      2431.002          48.375
> 2024 05 08 09 43 48.0000000  0 14
G28  21736017.860   114223536.681 7      -269.042          44.625    21736016.520   114223536.688 5      -269.042          35.250    21736019.180    89005364.267 5      -209.643          35.125    21736019.620    89005367.260 8      -209.643          48.062
G04  24451324.860   128492585.478 5      2199.227          35.687    24451323.500   128492585.494 2      2199.227          15.625    24451329.860   100124096.595 2      1713.683          15.937    24451331.260   100124108.591 6      1713.683          36.000
R10  22333757.520   119051491.265 7      5942.473          42.062    22333755.800   119051491.274 6      5942.473          40.500
R18  23202355.980   123855755.708 7     -1565.609          43.187    23202355.680   123855755.704 7     -1565.609          42.375    23202366.860    96332296.815 7     -1217.696          45.000    23202366.060    96332293.818 7     -1217.696          45.250
G31  20667652.380   108609243.634 7      1395.025          46.875    20667651.560   108609243.639 8      1395.025          48.750    20667652.900    84630584.320 8      1087.032          48.562    20667653.660    84630583.323 8      1087.032          50.687
R20  20226294.680   108159091.660 6      5159.814          37.000    20226295.340   108159091.688 6      5159.814          38.062    20226304.700    84123774.526 7      4013.189          45.250    20226305.280    84123777.528 7      4013.189          44.750
G18  21619998.300   113613853.112 7      1530.855          46.562    21619997.360   113613853.117 6      1530.855          39.312    21619999.820    88530275.179 6      1192.874          39.062    21620000.260    88530284.182 8      1192.874          51.000
G29  24805749.980   130355085.846 6      -411.034          40.687    24805748.520   130355085.856 5      -411.034          32.937    24805753.320   101575386.071 5      -320.286          33.000    24805755.160   101575384.046 6      -320.286          37.375
G27  21880443.920   114982512.515 7      4329.401          45.750    21880442.560   114982512.512 6      4329.401          36.687    21880447.340    89596773.356 6      3373.559          36.500    21880450.440    89596788.362 8      3373.559          48.250
R16  20945797.200   111888686.172 8       736.468          49.437    20945797.100   111888686.181 8       736.468          48.437    20945805.700    87024569.829 8       572.809          49.500    20945806.020    87024570.831 8       572.809          49.625
G23  24804782.380   130350015.829 7      4680.794          43.062    24804781.580   130350015.829 4      4680.794          26.937    24804792.240   101571461.859 4      3647.372          26.750    24804794.040   101571477.872 7      3647.372          44.875
G16  22020974.680   115721001.716 7      4421.932          45.750    22020973.840   115721001.721 5      4421.932          34.000    22020976.080    90172201.663 5      3445.662          34.000
R09  19721012.920   105309112.356 8      4203.444          49.375    19721010.820   105309112.354 8      4203.444          49.187    19721016.760    81907096.015 8      3269.345          52.000    19721016.720    81907100.012 8      3269.345          52.250
G26  20661149.420   108575075.362 7      3119.571          47.000    20661148.340   108575075.364 8      3119.571          48.312    20661153.140    84603977.189 8      2430.835          48.000    20661153.400    84603977.190 8      2430.835          48.812
> 2024 05 08 09 43 49.0000000  0 14
G28  21736069.020   114223806.057 7      -269.561          45.000    21736067.720   114223806.064 5      -269.561          35.250    21736070.400    89005574.166 5      -210.048          35.187    21736070.880    89005577.161 8      -210.048          48.250
G04  24450906.600   128490386.598 5      2198.666          35.687    24450904.880   128490386.613 2      2198.666          15.250    24450911.440   100122383.180 2      1713.246          15.937    24450912.260   100122395.172 6      1713.246          36.000
R10  22332642.940   119045548.821 7      5942.470          42.250    22332641.500   119045548.835 6      5942.470          40.875
R18  23202649.800   123857321.516 7     -1565.848          42.562    23202648.840   123857321.509 6     -1565.848          41.875    23202660.280    96333514.661 7     -1217.882          45.125    23202659.440    96333511.662 7     -1217.882          45.687
G31  20667387.100   108607848.893 7      1394.491          46.937    20667386.120   108607848.897 8      1394.491          48.625    20667387.420    84629497.510 8      1086.616          48.562    20667388.220    84629496.511 8      1086.616          51.000
R20  20225329.940   108153932.390 6      5159.041          37.000    20225330.800   108153932.407 6      5159.041          38.062    20225339.660    84119761.753 7      4012.587          45.250    20225340.720    84119764.754 7      4012.587          44.500
G18  21619707.080   113612322.743 7      1530.123          46.812    21619706.080   113612322.748 6      1530.123          39.250    21619708.680    88529082.684 6      1192.304          38.875    21619708.900    88529091.687 8      1192.304          50.812
G29  24805827.700   130355496.787 6      -410.866          40.375    24805826.740   130355496.794 5      -410.866          32.937    24805831.700   101575706.276 5      -320.155          33.000    24805833.400   101575704.278 6      -320.155          37.375
G27  21879619.920   114978183.309 7      4329.077          45.250    21879618.880   114978183.306 6      4329.077          36.500    21879623.600    89593399.951 6      3373.306          36.375    21879626.800    89593414.955 8      3373.306          48.375
R16  20945659.460   111887949.970 7       735.925          47.500    20945659.400   111887949.971 7       735.925          47.812    20945667.900    87023997.221 8       572.386          49.312    20945668.080    87023998.223 8       572.386          49.437
G23  24803891.520   130345335.125 6      4680.659          41.437    24803890.860   130345335.127 4      4680.659          26.937    24803901.280   101567814.563 4      3647.267          26.750    24803901.880   101567830.558 7      3647.267          42.500
G16  22020133.400   115716579.938 7      4421.729          45.437    22020132.100   115716579.945 5      4421.729          34.000    22020134.540    90168756.119 5      3445.503          33.937
R09  19720225.760   105304909.221 8      4202.921          48.250    19720223.820   105304909.220 7      4202.921          47.812    19720229.620    81903826.907 8      3268.938          51.562    19720229.680    81903830.905 8      3268.938          52.250
G26  20660555.760   108571955.976 7      3119.281          46.812    20660554.780   108571955.975 8      3119.281          48.312    20660559.600    84601546.499 8      2430.609          48.062    20660559.900    84601546.501 8      2430.609          48.750
> 2024 05 08 09 43 50.0000000  0 14
G28  21736120.480   114224075.989 7      -270.194          44.625    21736119.080   114224075.997 5      -270.194          34.875    21736121.860    89005784.499 5      -210.541          34.937    21736122.300    89005787.497 8      -210.541          48.250
G04  24450487.980   128488188.364 6      2198.002          36.000    24450486.500   128488188.382 2      2198.002          15.250    24450493.060   100120670.271 2      1712.729          15.937    24450493.340   100120682.269 6      1712.729          36.000
R10  22331527.900   119039606.576 7      5942.247          42.250    22331526.640   119039606.590 6      5942.247          40.875
R18  23202942.820   123858887.590 7     -1566.145          42.562    23202942.220   123858887.591 6     -1566.145          41.875    23202953.600    96334732.723 7     -1218.113          45.187    23202953.060    96334729.728 7     -1218.113          45.625
G31  20667121.940   108606454.902 7      1393.669          47.625    20667120.860   108606454.907 8      1393.669          48.687    20667122.120    84628411.282 8      1085.976          48.625    20667123.000    84628410.281 8      1085.976          50.500
R20  20224364.840   108148773.973 6      5157.943          38.312    20224365.420   108148774.001 6      5157.943          38.062    20224374.980    84115749.661 7      4011.734          44.562    20224376.020    84115752.662 7      4011.734          44.187
G18  21619416.200   113610793.150 7      1529.181          47.687    21619415.080   113610793.157 6      1529.181          39.625    21619417.660    88527890.795 6      1191.570          39.125    21619417.840    88527899.797 8      1191.570          50.937
G29  24805905.900   130355907.833 6      -410.972          40.750    24805904.840   130355907.838 5      -410.972          32.937    24805909.800   101576026.570 5      -320.238          32.750    24805911.360   101576024.566 6      -320.238          37.375
G27  21878796.260   114973854.618 7      4328.399          44.625    21878795.240   114973854.612 6      4328.399          37.250    21878799.920    89590026.941 6      3372.779          36.562    21878802.860    89590041.945 8      3372.779          48.312
R16  20945521.740   111887214.434 8       735.264          48.750    20945521.660   111887214.429 8       735.264          48.250    20945530.160    87023425.133 8       571.872          49.000    20945530.380    87023426.131 8       571.872          49.812
G23  24803000.900   130340654.593 7      4680.354          42.500    24803000.000   130340654.596 4      4680.354          26.750    24803010.580   101564167.400 4      3647.029          26.750    24803010.780   101564183.407 7      3647.029          43.250
G16  22019291.720   115712158.409 7      4421.430          46.062    22019290.760   115712158.419 5      4421.430          33.562    22019293.120    90165310.771 5      3445.270          33.937
R09  19719438.640   105300706.709 7      4202.188          47.875    19719436.580   105300706.708 7      4202.188          47.625    19719442.640    81900558.286 8      3268.369          52.000    19719442.520    81900562.283 8      3268.369          52.562
G26  20659962.200   108568837.002 7      3118.823          47.125    20659961.340   108568837.004 8      3118.823          48.000    20659966.040    84599116.129 8      2430.252          48.312    20659966.400    84599116.136 8      2430.252          48.875
> 2024 05 08 09 43 51.0000000  0 14
G28  21736171.880   114224346.395 7      -270.773          44.562    21736170.620   114224346.403 5      -270.773          34.875    21736173.300    89005995.203 5      -210.992          34.937    21736173.680    89005998.200 8      -210.992          48.375
G04  24450069.920   128485990.653 5      2197.561          35.687    24450068.340   128485990.671 2      2197.561          15.250    24450074.800   100118957.769 2      1712.385          15.937    24450074.940   100118969.763 5      1712.385          35.937
R10  22330413.300   119033664.414 7      5942.110          42.062    22330411.940   119033664.430 6      5942.110          40.875
R18  23203236.360   123860453.830 6     -1566.426          41.750    23203235.680   123860453.839 6     -1566.426          41.625    23203246.980    96335950.911 7     -1218.331          45.062    23203246.460    96335947.915 7     -1218.331          44.625
G31  20666856.840   108605061.567 7      1392.879          47.187    20666855.660   108605061.571 8      1392.879          49.000    20666856.940    84627325.564 8      1085.361          48.562    20666857.980    84627324.565 8      1085.361          50.687
R20  20223400.560   108143616.302 6      5157.152          38.312    20223401.100   108143616.316 6      5157.152          38.062    20223410.800    84111738.128 7      4011.118          44.375    20223411.380    84111741.132 7      4011.118          44.812
G18  21619125.240   113609264.202 7      1528.561          47.875    21619124.120   113609264.207 6      1528.561          39.250    21619126.560    88526699.405 6      1191.086          38.937    21619126.800    88526708.408 8      1191.086          50.375
G29  24805984.040   130356318.861 6      -411.026          40.437    24805983.160   130356318.863 5      -411.026          32.562    24805987.840   101576346.845 5      -320.280          32.750    24805989.400   101576344.839 6      -320.280          37.250
G27  21877972.480   114969526.305 7      4327.982          44.562    21877971.500   114969526.302 6      4327.982          36.625    21877976.240    89586654.236 6      3372.454          36.562    21877979.060    89586669.236 8      3372.454          48.312
R16  20945384.280   111886479.487 8       734.627          48.625    20945384.180   111886479.488 7       734.627          47.375    20945392.540    87022853.506 8       571.377          49.125    20945392.700    87022854.506 8       571.377          48.875
G23  24802110.320   130335974.101 6      4680.371          41.250    24802109.460   130335974.109 4      4680.371          26.750    24802120.000   101560520.273 4      3647.043          26.750    24802119.960   101560536.278 7      3647.043          43.937
G16  22018450.520   115707737.040 7      4421.232          45.250    22018449.320   115707737.047 5      4421.232          33.562    22018451.780    90161865.547 5      3445.116          33.687
R09  19718651.920   105296504.670 8      4201.693          48.000    19718649.860   105296504.666 7      4201.693          47.437    19718655.740    81897290.031 8      3267.983          51.750    19718655.860    81897294.028 8      3267.983          52.062
G26  20659368.840   108565718.338 7      3118.465          47.875    20659367.860   108565718.343 8      3118.465          48.125    20659372.540    84596686.004 7      2429.972          47.875    20659373.040    84596686.006 8      2429.972          49.125
> 2024 05 08 09 43 52.0000000  0 14
G28  21736223.440   114224617.324 7      -271.133          44.500    21736222.240   114224617.334 5      -271.133          35.125    21736224.940    89006206.316 5      -211.273          34.812    21736225.400    89006209.316 7      -211.273          47.625
G04  24449651.600   128483793.586 5      2197.098          35.687    24449650.240   128483793.596 2      2197.098          15.250    24449656.860   100117245.768 2      1712.024          15.500    24449657.600   100117257.768 5      1712.024          35.937
R10  22329298.380   119027722.433 7      5942.088          42.062    22329297.100   119027722.449 6      5942.088          40.875
R18  23203530.700   123862020.262 6     -1566.351          41.687    23203528.880   123862020.266 6     -1566.351          41.625    23203540.480    96337169.241 7     -1218.273          44.875    23203539.880    96337166.242 7     -1218.273          44.625
G31  20666591.880   108603668.922 8      1392.457          48.062    20666590.640   108603668.924 7      1392.457          47.812    20666591.960    84626240.382 8      1085.031          48.062    20666592.900    84626239.383 8      1085.031          50.312
R20  20222436.020   108138459.417 6      5156.808          38.312    20222436.980   108138459.431 6      5156.808          37.687    20222446.120    84107727.220 7      4010.851          44.312    20222447.400    84107730.219 7      4010.851          44.187
G18  21618834.320   113607736.014 7      1527.996          46.625    21618833.360   113607736.017 6      1527.996          38.750    21618835.820    88525508.603 6      1190.646          38.625    21618836.080    88525517.606 8      1190.646          50.312
G29  24806062.320   130356729.925 6      -410.877          40.187    24806061.440   130356729.936 5      -410.877          32.562    24806066.120   101576667.158 5      -320.164          32.375    24806068.580   101576665.145 6      -320.164          37.250
G27  21877148.960   114965198.476 7      4327.705          44.750    21877147.820   114965198.473 6      4327.705          36.750    21877152.560    89583281.902 6      3372.238          36.250    21877155.740    89583296.905 7      3372.238          47.875
R16  20945246.480   111885745.225 8       734.202          48.250    20945246.620   111885745.220 7       734.202          47.312    20945255.200    87022282.409 8       571.046          48.500    20945255.340    87022283.409 8       571.046          48.062
G23  24801219.520   130331293.775 6      4680.327          41.500    24801218.900   130331293.780 4      4680.327          26.750    24801229.440   101556873.266 4      3647.008          26.750    24801227.580   101556889.238 6      3647.008          41.875
G16  22017609.300   115703315.900 7      4421.204          45.875    22017607.920   115703315.907 5      4421.204          33.125    22017610.360    90158420.501 5      3445.094          33.687
R09  19717865.400   105292303.164 7      4201.434          47.750    19717863.160   105292303.157 7      4201.434          47.750    19717868.940    81894022.194 8      3267.782          50.750    19717868.740    81894026.190 8      3267.782          50.875
G26  20658775.640   108562600.073 7      3118.209          47.437    20658774.460   108562600.076 7      3118.209          47.312    20658779.200    84594256.185 7      2429.773          47.250    20658779.540    84594256.192 8      2429.773          48.312
> 2024 05 08 09 43 53.0000000  0 14
G28  21736275.160   114224888.570 7      -271.530          44.687    21736273.800   114224888.580 5      -271.530          35.062    21736276.540    89006417.675 5      -211.582          34.875    21736276.940    89006420.668 8      -211.582          48.312
G04  24449233.520   128481596.936 6      2196.188          36.187    24449232.260   128481596.944 2      2196.188          15.250    24449238.960   100115534.097 2      1711.315          15.500    24449239.460   100115546.106 5      1711.315          35.937
R10  22328183.840   119021780.383 6      5941.932          41.812    22328182.480   119021780.402 6      5941.932          40.687
R18  23203824.040   123863586.710 6     -1566.512          41.687    23203822.700   123863586.703 6     -1566.512          41.500    23203834.020    96338387.579 7     -1218.398          44.875    23203833.420    96338384.578 7     -1218.398          45.000
G31  20666326.960   108602276.789 7      1391.767          47.500    20666325.640   108602276.792 8      1391.767          48.812    20666327.020    84625155.605 8      1084.494          48.687    20666327.980    84625154.607 8      1084.494          51.250
R20  20221471.760   108133303.206 6      5155.858          38.312    20221472.680   108133303.212 6      5155.858          37.687    20221482.140    84103716.829 7      4010.112          44.437    20221482.980    84103719.826 7      4010.112          44.312
G18  21618543.580   113606208.349 7      1527.260          47.000    21618542.640   113606208.349 6      1527.260          39.125    21618545.120    88524318.215 6      1190.073          39.062    21618545.160    88524327.220 8      1190.073          50.937
G29  24806140.980   130357140.867 6      -411.003          40.625    24806139.660   130357140.877 5      -411.003          32.437    24806144.300   101576987.371 5      -320.262          32.375    24806146.120   101576985.349 6      -320.262          37.250
G27  21876325.420   114960870.894 7      4327.303          44.812    21876324.280   114960870.891 6      4327.303          36.687    21876328.980    89579909.760 6      3371.924          36.812    21876332.000    89579924.761 8      3371.924          48.187
R16  20945109.260   111885011.438 8       733.398          49.187    20945109.340   111885011.444 7       733.398          47.875    20945117.700    87021711.687 8       570.420          49.000    20945117.840    87021712.689 8       570.420          49.625
G23  24800328.680   130326613.362 6      4680.285          41.750    24800328.160   130326613.359 4      4680.285          26.750    24800338.760   101553226.195 4      3646.975          26.750    24800338.660   101553242.200 7      3646.975          42.625
G16  22016768.100   115698894.786 7      4420.945          45.750    22016766.700   115698894.796 5      4420.945          33.125    22016768.900    90154975.485 5      3444.892          33.000
R09  19717078.480   105288102.038 8      4200.853          48.625    19717076.500   105288102.036 8      4200.853          48.312    19717082.220    81890754.657 8      3267.330          51.250    19717082.240    81890758.656 8      3267.330          52.250
G26  20658182.380   108559481.980 7      3117.846          47.437    20658181.160   108559481.982 8      3117.846          48.312    20658185.760    84591826.506 8      2429.490          48.000    20658186.000    84591826.504 8      2429.490          49.125
> 2024 05 08 09 43 54.0000000  0 14
G28  21736326.920   114225160.158 7      -271.854          45.187    21736325.560   114225160.166 5      -271.854          35.062    21736328.160    89006629.296 5      -211.834          34.875    21736328.940    89006632.291 8      -211.834          48.187
G04  24448816.080   128479400.649 6      2195.910          36.187    24448814.360   128479400.659 2      2195.910          15.250    24448820.800   100113822.705 2      1711.099          15.500    24448822.440   100113834.715 5      1711.099          35.937
R10  22327068.960   119015838.266 6      5942.056          41.812    22327068.340   119015838.290 6      5942.056          40.687
R18  23204117.020   123865153.198 6     -1566.584          41.187    23204116.120   123865153.204 6     -1566.584          41.500    23204127.300    96339605.967 7     -1218.454          44.750    23204126.700    96339602.968 7     -1218.454          45.375
G31  20666062.140   108600885.167 7      1391.221          47.312    20666060.900   108600885.171 8      1391.221          48.625    20666062.220    84624071.226 8      1084.068          48.687    20666063.280    84624070.229 8      1084.068          50.812
R20  20220507.240   108128147.564 6      5155.345          36.875    20220507.840   108128147.576 6      5155.345          37.687    20220517.760    84099706.894 7      4009.712          44.875    20220518.800    84099709.895 7      4009.712          44.500
G18  21618253.020   113604681.202 7      1526.822          47.187    21618252.080   113604681.207 6      1526.822          39.062    21618254.520    88523128.232 6      1189.732          38.937    21618254.740    88523137.239 8      1189.732          51.187
G29  24806219.200   130357551.611 6      -410.699          40.687    24806217.760   130357551.613 5      -410.699          32.437    24806222.540   101577307.419 5      -320.025          32.562    24806223.140   101577305.407 6      -320.025          37.250
G27  21875502.040   114956543.601 7      4326.970          45.500    21875500.840   114956543.598 6      4326.970          36.937    21875505.460    89576537.843 6      3371.665          36.562    21875508.480    89576552.843 8      3371.665          48.250
R16  20944971.960   111884278.091 8       733.026          48.312    20944972.180   111884278.095 7       733.026          47.437    20944980.460    87021141.303 8       570.132          49.312    20944980.680    87021142.305 8       570.132          50.187
G23  24799437.980   130321932.865 6      4680.434          40.937    24799437.480   130321932.862 4      4680.434          26.750    24799447.940   101549579.058 4      3647.091          26.875    24799447.820   101549595.092 7      3647.091          42.937
G16  22015926.520   115694473.661 7      4421.102          45.562    22015925.320   115694473.669 5      4421.102          33.312    22015927.480    90151530.453 5      3445.015          33.000
R09  19716291.660   105283901.288 8      4200.554          48.062    19716289.700   105283901.292 7      4200.554          47.875    19716295.540    81887487.409 8      3267.098          51.875    19716295.500    81887491.408 8      3267.098          52.125
G26  20657588.840   108556364.044 7      3117.801          47.500    20657587.860   108556364.049 7      3117.801          47.812    20657592.500    84589396.943 7      2429.455          47.875    20657592.820    84589396.950 8      2429.455          49.062
> 2024 05 08 09 43 55.0000000  0 14
G28  21736378.660   114225432.285 7      -272.251          45.125    21736377.380   114225432.293 5      -272.251          35.062    21736379.900    89006841.340 5      -212.144          34.875    21736380.740    89006844.334 8      -212.144          48.125
G04  24448397.900   128477205.025 6      2195.418          36.562    24448396.440   128477205.035 2      2195.418          15.250    24448403.080   100112111.826 2      1710.715          15.500    24448404.200   100112123.824 5      1710.715          35.937
R10  22325953.800   119009896.306 6      5942.116          41.937    22325953.120   119009896.320 6      5942.116          40.687
R18  23204410.480   123866719.961 6     -1566.616          41.187    23204409.480   123866719.959 6     -1566.616          41.500    23204421.160    96340824.554 7     -1218.479          44.437    23204420.200    96340821.555 7     -1218.479          45.062
G31  20665797.460   108599494.264 7      1390.684          47.812    20665796.220   108599494.263 8      1390.684          49.125    20665797.580    84622987.400 8      1083.650          49.312    20665798.540    84622986.405 8      1083.650          50.750
R20  20219544.680   108122992.786 6      5154.602          36.875    20219543.720   108122992.795 6      5154.602          37.687    20219554.080    84095697.618 7      4009.135          44.437    20219554.760    84095700.625 7      4009.135          44.812
G18  21617962.480   113603154.822 7      1526.197          47.250    21617961.480   113603154.827 6      1526.197          38.875    21617964.040    88521938.847 6      1189.245          38.625    21617964.460    88521947.849 8      1189.245          51.000
G29  24806297.500   130357962.444 6      -410.698          40.250    24806295.920   130357962.449 5      -410.698          32.125    24806300.780   101577627.547 5      -320.024          32.562    24806301.540   101577625.539 6      -320.024          36.875
G27  21874678.700   114952216.762 7      4326.724          44.687    21874677.560   114952216.759 6      4326.724          36.625    21874682.120    89573166.285 6      3371.473          36.312    21874685.140    89573181.284 8      3371.473          48.312
R16  20944834.840   111883545.436 8       732.441          48.937    20944834.880   111883545.437 8       732.441          48.500    20944843.300    87020571.454 8       569.676          49.312    20944843.740    87020572.454 8       569.676          49.687
G23  24798547.620   130317252.523 6      4680.531          41.500    24798546.960   130317252.522 4      4680.531          26.750    24798557.440   101545932.045 4      3647.167          26.875    24798556.960   101545948.062 7      3647.167          42.937
G16  22015085.240   115690052.821 7      4420.899          45.937    22015084.120   115690052.828 5      4420.899          33.312    22015086.160    90148085.646 5      3444.856          33.250
R09  19715505.060   105279701.150 8      4200.021          48.437    19715503.260   105279701.145 7      4200.021          47.812    19715508.920    81884220.629 8      3266.683          51.750    19715508.960    81884224.625 8      3266.683          52.375
G26  20656995.480   108553246.523 7      3117.516          47.562    20656994.640   108553246.525 8      3117.516          48.312    20656999.200    84586967.704 8      2429.233          48.125    20656999.780    84586967.709 8      2429.233          49.250
> 2024 05 08 09 43 56.0000000  0 14
G28  21736430.500   114225704.824 7      -272.990          45.062    21736429.120   114225704.832 5      -272.990          34.875    21736431.780    89007053.705 5      -212.719          34.812    21736432.380    89007056.702 7      -212.719          47.937
G04  24447980.140   128475009.894 6      2194.705          36.562    24447978.660   128475009.901 2      2194.705          15.250    24447985.240   100110401.337 2      1710.160          15.500    24447986.180   100110413.314 5      1710.160          35.937
R10  22324839.480   119003954.357 6      5941.741          41.937    22324837.880   119003954.379 6      5941.741          40.750
R18  23204703.340   123868286.833 6     -1567.245          41.312    23204702.960   123868286.840 6     -1567.245          41.500    23204714.220    96342043.239 7     -1218.968          44.625    23204713.920    96342040.244 7     -1218.968          45.000
G31  20665532.880   108598103.936 8      1389.813          48.500    20665531.680   108598103.944 8      1389.813          48.687    20665532.980    84621904.032 8      1082.971          48.812    20665533.740    84621903.033 8      1082.971          50.750
R20  20218580.860   108117838.700 6      5153.520          36.875    20218579.980   108117838.725 6      5153.520          37.625    20218590.020    84091688.893 7      4008.294          44.687    20218590.720    84091691.896 7      4008.294          44.625
G18  21617672.200   113601629.059 7      1525.319          47.875    21617671.060   113601629.064 6      1525.319          39.312    21617673.660    88520749.941 6      1188.560          38.937    21617674.280    88520758.943 8      1188.560          51.312
G29  24806375.600   130358373.196 6      -410.981          39.937    24806374.000   130358373.204 5      -410.981          32.125    24806378.780   101577947.612 5      -320.245          32.562    24806379.020   101577945.595 6      -320.245          36.875
G27  21873855.340   114947890.289 7      4326.079          45.500    21873854.200   114947890.286 6      4326.079          36.625    21873858.860    89569795.007 6      3370.971          36.562    21873861.880    89569810.006 8      3370.971          48.250
R16  20944698.060   111882813.292 8       731.674          48.250    20944698.080   111882813.296 7       731.674          47.750    20944706.160    87020002.008 8       569.080          49.062    20944706.340    87020003.008 8       569.080          48.875
G23  24797656.620   130312572.217 7      4680.117          42.562    24797656.360   130312572.219 4      4680.117          26.937    24797666.820   101542285.062 4      3646.844          26.875    24797666.500   101542301.054 7      3646.844          42.187
G16  22014243.900   115685632.072 7      4420.425          45.437    22014242.900   115685632.085 5      4420.425          33.187    22014244.920    90144640.909 5      3444.487          33.250
R09  19714718.480   105275501.463 8      4199.222          48.250    19714716.840   105275501.456 8      4199.222          48.125    19714722.520    81880954.205 8      3266.062          52.062    19714722.500    81880958.202 8      3266.062          52.187
G26  20656402.180   108550129.272 8      3116.912          48.375    20656401.520   108550129.275 8      3116.912          48.375    20656405.960    84584538.678 8      2428.763          48.250    20656406.520    84584538.678 8      2428.763          48.937
> 2024 05 08 09 43 57.0000000  0 14
G28  21736482.340   114225977.889 7      -273.322          44.500    21736481.080   114225977.897 5      -273.322          35.375    21736483.820    89007266.480 5      -212.979          35.000    21736484.460    89007269.478 8      -212.979          48.062
G04  24447563.040   128472815.331 6      2194.307          36.437    24447561.180   128472815.341 2      2194.307          15.250    24447567.700   100108691.288 2      1709.850          15.500    24447569.120   100108703.277 5      1709.850          35.937
R10  22323724.440   118998012.560 6      5941.735          41.750    22323723.140   118998012.558 6      5941.735          40.750
R18  23204996.920   123869853.885 6     -1567.111          41.750    23204996.480   123869853.878 6     -1567.111          41.562    23205007.860    96343262.042 7     -1218.864          44.812    23205007.440    96343259.043 7     -1218.864          44.937
G31  20665268.600   108596714.332 7      1389.277          47.812    20665267.220   108596714.334 8      1389.277          48.687    20665268.540    84620821.221 8      1082.554          49.000    20665269.420    84620820.224 8      1082.554          50.562
R20  20217616.720   108112685.425 6      5153.010          36.875    20217617.100   108112685.423 6      5153.010          37.625    20217626.480    84087680.773 7      4007.896          44.625    20217627.080    84087683.774 7      4007.896          44.500
G18  21617381.880   113600104.024 7      1524.734          47.812    21617380.820   113600104.034 6      1524.734          39.125    21617383.460    88519561.600 6      1188.104          39.187    21617384.160    88519570.606 8      1188.104          51.000
G29  24806453.960   130358784.006 6      -410.878          40.375    24806452.160   130358784.011 5      -410.878          32.125    24806456.860   101578267.717 5      -320.165          32.125    24806457.900   101578265.707 6      -320.165          36.875
G27  21873032.140   114943564.281 7      4325.797          45.687    21873030.980   114943564.278 6      4325.797          36.750    21873035.660    89566424.089 6      3370.751          36.500    21873038.420    89566439.087 7      3370.751          47.812
R16  20944560.620   111882081.780 8       731.227          48.375    20944561.100   111882081.789 7       731.227          47.937    20944569.380    87019433.055 8       568.732          49.125    20944569.460    87019434.057 8       568.732          49.000
G23  24796766.160   130307892.035 6      4680.143          40.937    24796765.640   130307892.037 4      4680.143          26.937    24796775.980   101538638.175 4      3646.865          26.875    24796776.380   101538654.190 7      3646.865          43.187
G16  22013402.840   115681211.549 7      4420.375          45.000    22013401.460   115681211.560 5      4420.375          33.187    22013403.640    90141196.346 5      3444.448          33.187
R09  19713932.120   105271302.344 8      4198.867          48.500    19713930.320   105271302.340 7      4198.867          47.687    19713936.180    81877688.224 8      3265.786          51.812    19713936.220    81877692.221 8      3265.786          52.562
G26  20655809.220   108547012.382 7      3116.724          47.625    20655808.260   108547012.384 8      3116.724          48.062    20655812.900    84582109.934 7      2428.616          47.875    20655813.460    84582109.937 8      2428.616          49.250
> 2024 05 08 09 43 58.0000000  0 14
G28  21736534.520   114226251.377 7      -273.783          45.062    21736533.220   114226251.387 5      -273.783          35.375    21736535.860    89007479.588 5      -213.337          35.000    21736536.340    89007482.581 8      -213.337          48.187
G04  24447145.340   128470621.285 6      2193.790          36.437    24447143.620   128470621.298 2      2193.790          15.250    24447150.000   100106981.642 2      1709.447          15.500    24447151.880   100106993.642 5      1709.447          35.937
R10  22322610.020   118992070.801 6      5941.638          41.750    22322608.880   118992070.798 6      5941.638          40.312
R18  23205290.740   123871421.061 6     -1567.434          41.750    23205290.400   123871421.065 6     -1567.434          41.562    23205301.420    96344480.961 7     -1219.116          44.437    23205300.880    96344477.965 7     -1219.116          45.500
G31  20665004.300   108595325.334 8      1388.582          48.437    20665002.840   108595325.333 8      1388.582          48.562    20665004.160    84619738.881 8      1082.012          48.687    20665005.000    84619737.888 8      1082.012          50.062
R20  20216653.700   108107532.895 6      5152.009          36.875    20216652.960   108107532.888 6      5152.009          37.625    20216663.020    84083673.252 7      4007.118          44.937    20216663.440    84083676.254 7      4007.118          44.562
G18  21617091.780   113598579.643 7      1523.952          47.562    21617090.600   113598579.648 6      1523.952          39.437    21617093.360    88518373.766 6      1187.495          38.937    21617093.940    88518382.767 8      1187.495          51.750
G29  24806531.940   130359194.745 6      -410.945          39.750    24806530.260   130359194.750 5      -410.945          32.187    24806535.100   101578587.767 5      -320.217          32.125    24806536.060   101578585.761 6      -320.217          36.875
G27  21872209.000   114939238.638 7      4325.284          44.437    21872207.800   114939238.632 6      4325.284          36.750    21872212.400    89563053.458 6      3370.351          36.562    21872215.720    89563068.460 8      3370.351          48.500
R16  20944423.920   111881350.832 7       730.600          47.687    20944424.180   111881350.839 7       730.600          47.750    20944432.440    87018864.535 8       568.245          49.125    20944432.520    87018865.537 8       568.245          49.375
G23  24795875.680   130303211.880 7      4679.980          42.312    24795874.900   130303211.879 4      4679.980          26.937    24795885.380   101534991.306 4      3646.738          26.875    24795885.100   101535007.328 7      3646.738          42.937
G16  22012561.440   115676791.124 7      4420.290          45.000    22012560.320   115676791.134 5      4420.290          32.937    22012562.420    90137751.861 5      3444.382          33.187
R09  19713146.020   105267103.679 8      4198.328          48.562    19713144.140   105267103.675 7      4198.328          47.937    19713149.760    81874422.596 8      3265.366          52.250    19713149.820    81874426.593 8      3265.366          52.437
G26  20655216.320   108543895.784 8      3116.301          48.062    20655215.320   108543895.788 8      3116.301          48.437    20655219.820    84579681.418 8      2428.287          48.187    20655220.340    84579681.422 8      2428.287          48.750
> 2024 05 08 09 43 59.0000000  0 14
G28  21736586.580   114226525.674 7      -274.473          44.125    21736585.320   114226525.676 5      -274.473          35.312    21736587.960    89007693.318 5      -213.875          35.125    21736588.700    89007696.313 8      -213.875          48.000
G04  24446727.780   128468428.135 5      2193.039          35.937    24446726.220   128468428.145 2      2193.039          15.562    24446732.740   100105272.696 2      1708.861          15.500    24446733.660   100105284.692 5      1708.861          35.937
R10  22321495.360   118986129.435 6      5941.363          41.375    22321494.680   118986129.444 6      5941.363          40.312
R18  23205584.240   123872988.780 6     -1567.945          40.937    23205583.860   123872988.781 6     -1567.945          41.375    23205595.100    96345700.298 7     -1219.513          44.625    23205594.460    96345697.299 7     -1219.513          45.062
G31  20664740.180   108593937.298 7      1387.780          47.625    20664738.780   108593937.302 8      1387.780          48.687    20664740.020    84618657.296 8      1081.387          48.562    20664740.860    84618656.301 8      1081.387          50.187
R20  20215690.420   108102381.403 6      5151.389          36.937    20215689.780   108102381.396 6      5151.389          37.625    20215699.540    84079666.532 7      4006.636          44.312    20215700.400    84079669.535 7      4006.636          44.312
G18  21616801.880   113597056.240 7      1523.185          47.375    21616800.820   113597056.242 6      1523.185          39.312    21616803.540    88517186.697 6      1186.897          39.062    21616804.100    88517195.700 8      1186.897          51.000
G29  24806609.820   130359605.775 6      -410.930          39.562    24806608.520   130359605.783 5      -410.930          32.187    24806613.360   101578908.051 5      -320.205          32.125    24806614.300   101578906.032 6      -320.205          36.937
G27  21871385.940   114934913.722 7      4324.703          46.312    21871384.860   114934913.714 6      4324.703          36.812    21871389.660    89559683.392 6      3369.899          36.625    21871392.640    89559698.394 8      3369.899          48.312
R16  20944287.360   111880620.827 8       729.742          48.687    20944287.380   111880620.836 7       729.742          47.687    20944295.860    87018296.756 8       567.577          48.125    20944296.040    87018297.756 8       567.577          49.125
G23  24794984.860   130298532.123 6      4679.631          40.312    24794984.360   130298532.128 4      4679.631          26.937    24794994.720   101531344.751 4      3646.465          26.687    24794994.060   101531360.762 7      3646.465          42.000
G16  22011720.320   115672371.213 7      4419.871          45.500    22011719.280   115672371.221 5      4419.871          32.937    22011721.420    90134307.779 5      3444.056          33.125
R09  19712359.740   105262905.861 8      4197.640          48.000    19712358.060   105262905.857 7      4197.640          47.750    19712363.640    81871157.629 8      3264.831          51.437    19712363.880    81871161.623 8      3264.831          52.687
G26  20654623.260   108540779.818 7      3115.916          47.375    20654622.400   108540779.818 8      3115.916          48.062    20654626.840    84577253.389 7      2427.986          47.812    20654627.280    84577253.389 8      2427.986          48.750
> 2024 05 08 09 44  0.0000000  0 14
G28  21736638.980   114226799.911 7      -274.427          44.125    21736637.720   114226799.916 5      -274.427          35.312    21736640.140    89007907.006 5      -213.839          35.187    21736640.720    89007910.002 8      -213.839          48.187
G04  24446310.480   128466235.015 5      2192.996          35.937    24446308.900   128466235.022 2      2192.996          15.562    24446315.400   100103563.771 2      1708.828          15.500    24446316.080   100103575.771 5      1708.828          35.625
R10  22320380.800   118980187.638 6      5941.963          41.375    22320379.620   118980187.655 6      5941.963          40.312
R18  23205877.920   123874556.138 6     -1567.464          40.937    23205877.200   123874556.131 6     -1567.464          41.375    23205888.920    96346919.350 7     -1219.139          44.250    23205888.120    96346916.351 7     -1219.139          44.875
G31  20664475.980   108592549.395 8      1387.719          48.250    20664474.640   108592549.398 8      1387.719          48.750    20664475.960    84617575.812 8      1081.340          48.562    20664476.500    84617574.817 8      1081.340          50.687
R20  20214726.760   108097230.213 6      5150.914          36.937    20214726.540   108097230.204 6      5150.914          37.625    20214736.280    84075660.055 7      4006.267          44.562    20214737.200    84075663.054 7      4006.267          44.937
G18  21616511.980   113595533.005 7      1522.962          47.437    21616511.060   113595533.012 6      1522.962          39.375    21616513.700    88515999.765 6      1186.724          39.250    21616514.300    88516008.759 8      1186.724          51.312
G29  24806688.100   130360016.327 6      -410.507          38.562    24806686.560   130360016.338 5      -410.507          32.250    24806691.620   101579227.957 5      -319.876          32.125    24806691.580   101579225.949 6      -319.876          36.937
G27  21870562.900   114930588.692 7      4324.882          45.937    21870561.780   114930588.689 6      4324.882          36.375    21870566.480    89556313.243 6      3370.038          36.125    21870569.640    89556328.242 8      3370.038          48.375
R16  20944150.780   111879890.894 8       729.684          48.875    20944150.880   111879890.903 7       729.684          47.625    20944159.280    87017729.026 8       567.532          48.812    20944159.160    87017730.026 8       567.532          48.875
G23  24794094.380   130293851.926 6      4680.290          40.312    24794093.540   130293851.928 4      4680.290          26.937    24794104.080   101527697.846 4      3646.980          26.687    24794103.120   101527713.857 7      3646.980          42.000
G16  22010879.340   115667950.946 7      4420.227          45.500    22010878.040   115667950.948 5      4420.227          33.000    22010880.340    90130863.414 5      3444.333          33.125
R09  19711573.580   105258708.038 8      4197.632          48.437    19711572.100   105258708.039 8      4197.632          48.250    19711577.580    81867892.657 8      3264.825          51.875    19711577.620    81867896.655 8      3264.825          52.875
G26  20654030.280   108537663.674 7      3116.011          47.875    20654029.320   108537663.676 8      3116.011          48.250    20654033.920    84574825.227 8      2428.060          48.312    20654034.340    84574825.227 8      2428.060          48.500
> 2024 05 08 09 44  1.0000000  0 14
G28  21736691.180   114227074.686 7      -275.007          44.875    21736690.020   114227074.693 5      -275.007          35.187    21736692.620    89008121.115 5      -214.291          35.187    21736693.000    89008124.111 8      -214.291          48.375
G04  24445893.160   128464042.545 5      2192.179          35.312    24445891.600   128464042.556 2      2192.179          15.562    24445898.020   100101855.357 2      1708.191          15.500    24445898.060   100101867.341 5      1708.191          35.625
R10  22319266.160   118974246.046 6      5941.505          41.562    22319264.960   118974246.058 6      5941.505          40.375
R18  23206171.840   123876123.750 6     -1567.802          40.937    23206170.880   123876123.745 6     -1567.802          41.625    23206182.460    96348138.596 7     -1219.402          44.062    23206181.820    96348135.601 7     -1219.402          44.625
G31  20664212.020   108591162.213 8      1386.910          48.250    20664210.660   108591162.218 8      1386.910          48.250    20664211.980    84616494.891 8      1080.709          48.375    20664212.660    84616493.896 8      1080.709          50.562
R20  20213763.200   108092079.790 6      5150.171          36.937    20213762.820   108092079.794 6      5150.171          37.500    20213773.040    84071654.185 7      4005.688          44.312    20213774.040    84071657.189 7      4005.688          44.937
G18  21616222.200   113594010.508 7      1522.207          47.437    21616221.420   113594010.516 6      1522.207          38.875    21616223.980    88514813.401 6      1186.135          38.687    21616224.540    88514822.398 8      1186.135          50.687
G29  24806766.100   130360426.890 6      -410.581          39.125    24806764.500   130360426.903 5      -410.581          32.250    24806769.620   101579547.879 5      -319.933          32.125    24806771.060   101579545.874 6      -319.933          36.937
G27  21869740.140   114926264.155 7      4324.279          45.625    21869738.880   114926264.152 6      4324.279          36.250    21869743.600    89552943.472 6      3369.568          36.187    21869746.680    89552958.471 7      3369.568          47.562
R16  20944014.180   111879161.621 8       729.040          48.375    20944014.520   111879161.624 7       729.040          47.937    20944022.680    87017161.803 8       567.031          48.500    20944022.840    87017162.803 8       567.031          48.687
G23  24793203.880   130289171.854 6      4680.126          41.625    24793202.840   130289171.859 4      4680.126          26.437    24793213.460   101524051.041 4      3646.852          26.687    24793212.140   101524067.062 7      3646.852          42.000
G16  22010038.100   115663530.909 7      4419.902          44.937    22010036.880   115663530.916 5      4419.902          33.000    22010039.160    90127419.232 5      3444.080          33.125
R09  19710787.720   105254510.788 7      4196.986          47.937    19710786.060   105254510.789 7      4196.986          47.750    19710791.440    81864628.129 8      3264.322          51.875    19710791.760    81864632.126 8      3264.322          52.562
G26  20653437.320   108534547.901 7      3115.672          47.875    20653436.440   108534547.903 8      3115.672          48.000    20653440.940    84572397.351 8      2427.797          48.125    20653441.260    84572397.356 8      2427.797          48.437
> 2024 05 08 09 44  2.0000000  0 14
G28  21736743.400   114227349.784 7      -275.377          45.187    21736742.300   114227349.795 5      -275.377          35.312    21736745.060    89008335.473 5      -214.580          35.187    21736745.560    89008338.471 7      -214.580          47.812
G04  24445475.880   128461850.426 5      2191.764          35.312    24445474.420   128461850.433 2      2191.764          15.562    24445480.940   100100147.216 2      1707.868          15.000    24445480.860   100100159.222 5      1707.868          35.625
R10  22318151.860   118968304.353 6      5941.635          41.562    22318149.500   118968304.362 6      5941.635          40.375
R18  23206465.740   123877691.297 6     -1567.514          40.937    23206464.640   123877691.293 6     -1567.514          41.625    23206476.260    96349357.797 7     -1219.177          43.625    23206475.580    96349354.800 7     -1219.177          44.375
G31  20663948.020   108589775.530 8      1386.359          48.000    20663946.860   108589775.535 7      1386.359          47.937    20663948.080    84615414.359 8      1080.280          48.000    20663948.660    84615413.362 8      1080.280          49.687
R20  20212800.360   108086930.007 6      5149.563          36.937    20212799.200   108086930.024 6      5149.563          37.500    20212810.180    84067648.806 7      4005.216          43.750    20212810.880    84067651.810 7      4005.216          44.125
G18  21615932.880   113592488.547 7      1521.683          46.312    21615931.680   113592488.552 6      1521.683          38.625    21615934.300    88513627.456 6      1185.727          38.500    21615934.920    88513636.455 8      1185.727          50.375
G29  24806843.900   130360837.306 6      -410.286          39.875    24806842.600   130360837.316 5      -410.286          32.250    24806847.920   101579867.677 5      -319.703          32.000    24806849.180   101579865.671 6      -319.703          37.000
G27  21868917.280   114921939.865 7      4324.113          44.937    21868915.980   114921939.859 6      4324.113          36.250    21868920.540    89549573.891 6      3369.438          36.250    21868923.540    89549588.889 7      3369.438          47.312
R16  20943877.980   111878432.793 8       728.551          48.625    20943877.880   111878432.797 7       728.551          47.437    20943886.100    87016594.935 7       566.650          47.750    20943886.260    87016595.935 7       566.650          47.812
G23  24792312.860   130284491.741 6      4680.041          41.875    24792312.160   130284491.748 4      4680.041          26.437    24792322.680   101520404.212 4      3646.785          26.687    24792322.580   101520420.227 7      3646.785          42.375
G16  22009197.360   115659110.872 7      4420.003          44.625    22009195.880   115659110.885 5      4420.003          32.687    22009197.960    90123975.047 5      3444.158          33.000
R09  19710001.720   105250313.926 8      4196.674          48.312    19710000.080   105250313.927 7      4196.674          47.375    19710005.560    81861363.901 8      3264.079          50.000    19710005.700    81861367.901 8      3264.079          50.812
G26  20652844.300   108531432.313 7      3115.474          47.562    20652843.620   108531432.316 7      3115.474          47.750    20652848.000    84569969.621 7      2427.642          47.750    20652848.260    84569969.623 8      2427.642          48.312
> 2024 05 08 09 44  3.0000000  0 14
G28  21736796.120   114227625.393 7      -275.725          44.562    21736794.580   114227625.405 5      -275.725          35.062    21736797.500    89008550.235 5      -214.851          34.937    21736798.040    89008553.226 8      -214.851          48.250
G04  24445059.200   128459658.910 5      2191.336          34.625    24445057.520   128459658.926 2      2191.336          15.562    24445064.120   100098439.546 2      1707.535          15.000    24445064.440   100098451.550 5      1707.535          35.625
R10  22317036.400   118962362.772 6      5941.674          41.125    22317035.100   118962362.786 6      5941.674          40.437
R18  23206759.480   123879259.099 6     -1567.736          40.562    23206758.520   123879259.086 6     -1567.736          41.625    23206770.340    96350577.198 7     -1219.350          43.937    23206769.240    96350574.195 7     -1219.350          44.562
G31  20663684.100   108588389.544 8      1385.735          48.062    20663683.000   108588389.546 8      1385.735          48.625    20663684.360    84614334.367 8      1079.794          48.812    20663685.100    84614333.370 8      1079.794          50.562
R20  20211837.440   108081781.060 6      5148.616          36.937    20211837.400   108081781.077 6      5148.616          37.500    20211847.260    84063644.072 7      4004.479          44.562    20211847.960    84063647.078 7      4004.479          44.875
G18  21615643.320   113590967.312 7      1520.990          46.937    21615642.180   113590967.312 6      1520.990          39.250    21615644.840    88512442.078 6      1185.187          38.812    21615645.320    88512451.076 8      1185.187          51.187
G29  24806922.280   130361247.792 6      -410.366          39.937    24806920.860   130361247.800 5      -410.366          31.937    24806925.940   101580187.532 5      -319.766          32.000    24806927.320   101580185.514 6      -319.766          37.000
G27  21868094.440   114917616.024 7      4323.686          45.625    21868093.200   114917616.024 6      4323.686          36.500    21868097.860    89546204.669 6      3369.106          36.625    21868100.600    89546219.676 8      3369.106          48.375
R16  20943742.000   111877704.604 8       727.990          48.875    20943741.580   111877704.608 7       727.990          47.437    20943749.840    87016028.564 8       566.215          48.875    20943750.040    87016029.566 8       566.215          48.937
G23  24791422.260   130279811.716 6      4680.096          41.312    24791421.660   130279811.721 4      4680.096          26.437    24791432.080   101516757.442 4      3646.828          26.687    24791431.680   101516773.438 7      3646.828          42.375
G16  22008356.180   115654691.080 7      4419.769          44.875    22008354.880   115654691.090 5      4419.769          32.687    22008356.940    90120531.058 5      3443.976          33.000
R09  19709215.880   105246117.659 8      4196.119          48.250    19709214.060   105246117.660 7      4196.119          47.187    19709219.660    81858100.140 8      3263.648          51.437    19709219.760    81858104.140 8      3263.648          52.312
G26  20652251.620   108528317.084 8      3115.244          48.000    20652250.820   108528317.089 7      3115.244          47.625    20652255.200    84567542.169 7      2427.463          47.500    20652255.640    84567542.174 8      2427.463          48.562
> 2024 05 08 09 44  4.0000000  0 14
G28  21736848.560   114227901.547 7      -276.523          45.125    21736847.100   114227901.557 5      -276.523          35.062    21736850.140    89008765.416 5      -215.473          35.000    21736850.540    89008768.412 8      -215.473          48.187
G04  24444642.160   128457468.026 5      2190.541          34.625    24444640.580   128457468.044 2      2190.541          15.562    24444647.180   100096732.361 2      1706.915          15.000    24444646.660   100096744.361 5      1706.915          35.625
R10  22315921.700   118956421.375 6      5941.254          41.125    22315920.900   118956421.394 6      5941.254          40.437
R18  23207053.300   123880827.148 6     -1568.383          40.375    23207052.040   123880827.138 6     -1568.383          41.250    23207063.800    96351796.796 7     -1219.853          44.125    23207063.000    96351793.795 7     -1219.853          45.125
G31  20663420.480   108587004.279 8      1384.760          48.562    20663419.380   108587004.282 8      1384.760          48.750    20663420.680    84613254.938 8      1079.034          48.687    20663421.520    84613253.939 8      1079.034          50.562
R20  20210874.900   108076632.977 6      5147.445          36.625    20210874.740   108076632.970 6      5147.445          37.500    20210884.500    84059639.991 7      4003.568          44.875    20210885.520    84059642.990 7      4003.568          45.062
G18  21615354.000   113589446.820 7      1519.976          46.312    21615352.840   113589446.825 6      1519.976          39.250    21615355.500    88511257.281 6      1184.397          38.937    21615355.980    88511266.275 8      1184.397          50.937
G29  24807000.340   130361658.284 6      -410.509          40.062    24806998.880   130361658.292 5      -410.509          31.937    24807004.020   101580507.392 5      -319.877          32.312    24807005.500   101580505.380 6      -319.877          37.000
G27  21867271.960   114913292.662 7      4323.069          45.562    21867270.440   114913292.662 6      4323.069          36.625    21867275.200    89542835.817 6      3368.625          36.625    21867277.960    89542850.819 8      3368.625          48.437
R16  20943605.680   111876977.080 7       727.081          47.937    20943605.300   111876977.084 8       727.081          48.000    20943613.660    87015462.710 8       565.507          48.937    20943613.800    87015463.712 8       565.507          49.125
G23  24790531.480   130275131.879 7      4679.590          42.000    24790531.060   130275131.886 4      4679.590          26.437    24790541.620   101513110.819 4      3646.434          26.687    24790542.000   101513126.805 7      3646.434          42.562
G16  22007514.780   115650271.490 7      4419.435          44.937    22007513.680   115650271.500 5      4419.435          32.812    22007516.000    90117087.221 5      3443.716          32.750
R09  19708430.260   105241921.944 7      4195.385          47.812    19708428.520   105241921.945 7      4195.385          47.750    19708433.860    81854836.807 8      3263.078          51.750    19708434.140    81854840.807 8      3263.078          52.187
G26  20651659.040   108525202.274 7      3114.480          47.687    20651658.020   108525202.277 7      3114.480          47.437    20651662.380    84565115.043 7      2426.867          47.812    20651662.780    84565115.050 8      2426.867          48.875
> 2024 05 08 09 44  5.0000000  0 14
G28  21736900.820   114228178.130 7      -276.667          45.000    21736899.780   114228178.143 5      -276.667          35.312    21736902.680    89008980.934 5      -215.585          35.000    21736903.280    89008983.929 8      -215.585          48.375
G04  24444225.480   128455277.661 5      2190.316          34.375    24444224.040   128455277.679 2      2190.316          15.562    24444230.280   100095025.584 2      1706.740          15.000    24444229.840   100095037.584 5      1706.740          35.187
R10  22314807.040   118950480.028 6      5941.434          41.125    22314806.300   118950480.042 6      5941.434          40.437
R18  23207346.940   123882395.320 6     -1568.215          40.375    23207346.040   123882395.310 6     -1568.215          41.250    23207357.400    96353016.482 7     -1219.723          43.937    23207356.820    96353013.485 7     -1219.723          44.187
G31  20663157.000   108585619.606 8      1384.485          48.250    20663155.920   108585619.614 8      1384.485          48.187    20663157.100    84612175.976 8      1078.820          48.437    20663157.980    84612174.975 8      1078.820          50.437
R20  20209912.940   108071485.589 6      5146.958          36.625    20209911.720   108071485.569 6      5146.958          37.500    20209921.760    84055636.450 7      4003.189          44.687    20209922.860    84055639.458 7      4003.189          45.125
G18  21615064.920   113587926.959 7      1519.578          46.062    21615063.660   113587926.966 6      1519.578          38.312    21615066.240    88510072.973 6      1184.087          38.375    21615066.720    88510081.966 8      1184.087          51.312
G29  24807078.480   130362068.771 6      -410.352          40.125    24807076.860   130362068.778 5      -410.352          32.375    24807082.140   101580827.248 5      -319.755          32.312    24807082.960   101580825.235 6      -319.755          37.000
G27  21866449.100   114908969.683 7      4322.945          45.437    21866447.880   114908969.678 6      4322.945          36.687    21866452.660    89539467.258 6      3368.528          36.312    21866455.640    89539482.258 8      3368.528          48.125
R16  20943469.640   111876250.107 8       726.880          49.000    20943469.380   111876250.110 7       726.880          47.625    20943477.600    87014897.284 8       565.351          49.062    20943477.700    87014898.286 8       565.351          49.375
G23  24789641.340   130270452.036 6      4679.968          41.562    24789640.600   130270452.041 4      4679.968          26.437    24789651.080   101509464.196 4      3646.728          26.437    24789651.960   101509480.211 7      3646.728          42.812
G16  22006674.040   115645852.047 7      4419.518          45.062    22006672.640   115645852.060 5      4419.518          32.812    22006675.020    90113643.506 5      3443.780          32.750
R09  19707644.420   105237726.716 7      4195.173          47.625    19707642.800   105237726.712 7      4195.173          47.250    19707648.280    81851573.849 8      3262.912          51.562    19707648.420    81851577.849 8      3262.912          52.750
G26  20651066.280   108522087.725 7      3114.520          47.250    20651065.340   108522087.730 7      3114.520          47.937    20651069.740    84562688.124 7      2426.898          47.687    20651069.880    84562688.126 8      2426.898          48.500
> 2024 05 08 09 44  6.0000000  0 14
G28  21736953.460   114228454.997 7      -277.245          45.125    21736952.660   114228455.007 5      -277.245          35.187    21736955.380    89009196.672 5      -216.035          35.187    21736956.240    89009199.670 8      -216.035          48.937
G04  24443809.480   128453087.652 5      2189.659          34.375    24443807.400   128453087.672 2      2189.659          15.562    24443813.580   100093319.082 2      1706.228          15.000    24443812.880   100093331.093 5      1706.228          35.187
R10  22313692.440   118944538.586 6      5941.167          41.000    22313691.140   118944538.592 6      5941.167          40.062
R18  23207640.600   123883963.479 6     -1568.400          41.062    23207639.740   123883963.475 6     -1568.400          41.437    23207651.200    96354236.161 7     -1219.867          44.125    23207650.480    96354233.166 7     -1219.867          44.687
G31  20662893.620   108584235.412 8      1383.771          48.312    20662892.500   108584235.417 8      1383.771          48.562    20662893.740    84611097.379 8      1078.263          48.562    20662894.620    84611096.380 8      1078.263          50.500
R20  20208950.780   108066338.690 6      5146.434          36.625    20208949.460   108066338.697 6      5146.434          37.125    20208959.560    84051633.334 7      4002.782          44.500    20208960.460    84051636.335 7      4002.782          44.750
G18  21614775.820   113586407.586 7      1518.895          46.750    21614774.480   113586407.591 6      1518.895          39.062    21614776.980    88508889.042 6      1183.555          38.812    21614777.700    88508898.043 8      1183.555          51.250
G29  24807156.540   130362479.029 6      -410.306          39.375    24807154.740   130362479.036 5      -410.306          32.375    24807160.200   101581146.923 5      -319.719          32.312    24807161.560   101581144.909 6      -319.719          37.375
G27  21865626.540   114904646.909 7      4322.354          45.812    21865625.080   114904646.909 6      4322.354          36.812    21865630.020    89536098.867 6      3368.068          36.500    21865633.180    89536113.867 8      3368.068          48.250
R16  20943333.800   111875523.568 7       726.069          47.812    20943333.320   111875523.567 7       726.069          47.750    20943341.600    87014332.192 8       564.720          49.000    20943341.720    87014333.194 8       564.720          49.250
G23  24788750.540   130265772.106 6      4679.698          41.187    24788749.980   130265772.108 4      4679.698          26.437    24788760.280   101505817.504 4      3646.518          26.437    24788760.200   101505833.515 7      3646.518          42.812
G16  22005832.900   115641432.589 7      4419.231          45.562    22005831.700   115641432.596 5      4419.231          32.812    22005834.220    90110199.770 5      3443.556          32.687
R09  19706858.820   105233531.779 8      4194.524          48.625    19706856.980   105233531.780 7      4194.524          47.625    19706862.660    81848311.126 8      3262.407          51.812    19706862.720    81848315.125 8      3262.407          52.312
G26  20650473.660   108518973.308 8      3114.115          48.000    20650472.780   108518973.315 7      3114.115          47.562    20650477.120    84560261.307 7      2426.583          47.312    20650477.540    84560261.311 8      2426.583          48.687
> 2024 05 08 09 44  7.0000000  0 14
G28  21737006.640   114228732.474 7      -277.620          45.187    21737005.480   114228732.484 5      -277.620          34.812    21737008.340    89009412.885 5      -216.327          34.750    21737008.700    89009415.879 8      -216.327          48.375
G04  24443392.120   128450898.359 5      2188.932          34.375    24443390.740   128450898.380 2      2188.932          15.562    24443396.720   100091613.142 2      1705.661          15.000    24443397.360   100091625.153 5      1705.661          35.187
R10  22312577.620   118938597.354 6      5940.998          41.000    22312576.360   118938597.381 6      5940.998          40.062
R18  23207934.540   123885531.932 6     -1568.461          41.062    23207933.640   123885531.938 6     -1568.461          41.437    23207945.080    96355456.079 7     -1219.914          44.187    23207944.640    96355453.078 7     -1219.914          44.750
G31  20662630.480   108582852.011 8      1383.178          48.500    20662629.260   108582852.015 8      1383.178          48.625    20662630.480    84610019.402 8      1077.801          48.562    20662631.420    84610018.403 8      1077.801          50.500
R20  20207987.240   108061192.770 6      5145.576          36.625    20207987.000   108061192.779 6      5145.576          37.125    20207997.080    84047630.954 7      4002.114          44.750    20207997.860    84047633.961 7      4002.114          44.937
G18  21614486.680   113584889.036 7      1518.265          47.750    21614485.540   113584889.043 6      1518.265          39.312    21614488.060    88507705.756 6      1183.064          38.750    21614488.960    88507714.753 8      1183.064          51.125
G29  24807234.840   130362889.447 6      -410.339          39.687    24807232.840   130362889.455 5      -410.339          32.437    24807238.260   101581466.723 5      -319.744          32.375    24807239.320   101581464.703 6      -319.744          37.375
G27  21864803.940   114900324.677 7      4322.145          45.937    21864802.760   114900324.677 6      4322.145          37.250    21864807.560    89532730.894 6      3367.905          36.937    21864810.680    89532745.895 8      3367.905          48.500
R16  20943197.660   111874797.738 8       725.638          48.062    20943197.420   111874797.742 7       725.638          47.875    20943205.680    87013767.657 8       564.385          49.125    20943205.600    87013768.661 8       564.385          49.500
G23  24787860.160   130261092.381 6      4679.770          41.750    24787859.460   130261092.381 4      4679.770          26.625    24787869.760   101502170.967 4      3646.574          26.437    24787869.620   101502186.952 7      3646.574          42.000
G16  22004991.880   115637013.425 7      4419.130          44.312    22004990.640   115637013.432 5      4419.130          32.687    22004993.300    90106756.265 5      3443.478          32.687
R09  19706073.320   105229337.514 8      4194.122          48.000    19706071.680   105229337.515 7      4194.122          47.000    19706077.220    81845048.920 8      3262.095          51.500    19706077.420    81845052.917 8      3262.095          52.125
G26  20649880.840   108515859.368 8      3113.846          48.500    20649880.200   108515859.375 7      3113.846          47.250    20649884.540    84557834.858 7      2426.374          47.812    20649884.700    84557834.863 8      2426.374          48.250
> 2024 05 08 09 44  8.0000000  0 14
G28  21737059.620   114229010.341 7      -278.146          44.687    21737058.340   114229010.354 5      -278.146          35.312    21737061.020    89009629.400 5      -216.737          35.250    21737061.640    89009632.395 8      -216.737          48.625
G04  24442976.260   128448709.479 5      2188.728          34.000    24442974.360   128448709.502 2      2188.728          15.562    24442980.100   100089907.526 2      1705.502          15.000    24442981.560   100089919.530 5      1705.502          35.187
R10  22311462.860   118932656.117 6      5941.043          40.875    22311462.420   118932656.122 6      5941.043          40.062
R18  23208228.060   123887100.429 6     -1568.578          41.250    23208227.200   123887100.441 6     -1568.578          41.625    23208239.140    96356676.026 7     -1220.005          44.312    23208238.160    96356673.033 7     -1220.005          44.375
G31  20662367.520   108581469.169 8      1382.430          48.125    20662366.120   108581469.174 8      1382.430          48.562    20662367.340    84608941.863 8      1077.218          48.500    20662368.200    84608940.866 8      1077.218          50.312
R20  20207025.120   108056047.553 6      5144.680          36.750    20207024.560   108056047.555 6      5144.680          37.125    20207035.020    84043629.110 7      4001.418          44.437    20207035.820    84043632.116 7      4001.418          44.750
G18  21614197.940   113583371.069 7      1517.624          46.625    21614196.660   113583371.074 6      1517.624          39.625    21614199.300    88506522.925 6      1182.564          39.062    21614199.940    88506531.924 8      1182.564          51.062
G29  24807313.040   130363299.745 6      -410.418          39.250    24807311.040   130363299.752 5      -410.418          32.437    24807316.480   101581786.436 5      -319.807          32.375    24807317.820   101581784.433 6      -319.807          37.375
G27  21863981.620   114896002.797 7      4321.626          44.875    21863980.340   114896002.794 6      4321.626          37.062    21863985.020    89529363.192 6      3367.501          36.562    21863988.200    89529378.190 8      3367.501          48.250
R16  20943062.020   111874072.417 8       724.949          48.187    20943061.620   111874072.421 7       724.949          47.375    20943069.920    87013203.519 8       563.849          49.312    20943069.860    87013204.525 8       563.849          49.125
G23  24786969.860   130256412.652 6      4679.576          41.687    24786968.920   130256412.651 4      4679.576          26.625    24786979.060   101498524.429 4      3646.423          26.437    24786980.720   101498540.438 7      3646.423          42.187
G16  22004150.920   115632594.355 7      4418.870          42.937    22004149.760   115632594.360 5      4418.870          32.687    22004152.280    90103312.836 5      3443.276          32.562
R09  19705288.060   105225143.677 7      4193.559          47.625    19705286.180   105225143.680 7      4193.559          47.812    19705291.800    81841787.047 8      3261.657          51.812    19705292.000    81841791.045 8      3261.657          52.187
G26  20649288.340   108512745.652 7      3113.532          47.687    20649287.600   108512745.659 8      3113.532          48.000    20649292.020    84555408.588 8      2426.129          48.125    20649292.260    84555408.588 8      2426.129          48.500
> 2024 05 08 09 44  9.0000000  0 14
G28  21737112.680   114229288.685 7      -278.472          45.562    21737111.460   114229288.698 5      -278.472          35.312    21737114.000    89009846.288 5      -216.991          35.250    21737114.480    89009849.284 8      -216.991          48.500
G04  24442559.840   128446521.227 5      2187.934          34.000    24442558.060   128446521.245 2      2187.934          13.312    24442563.840   100088202.394 2      1704.884          15.000    24442565.640   100088214.392 5      1704.884          35.187
R10  22310348.100   118926714.986 6      5941.095          40.875    22310347.900   118926714.978 6      5941.095          40.125
R18  23208521.900   123888669.157 6     -1568.701          41.562    23208520.980   123888669.158 6     -1568.701          41.625    23208532.820    96357896.139 7     -1220.101          44.187    23208532.120    96357893.140 7     -1220.101          44.875
G31  20662104.340   108580086.979 8      1382.033          49.125    20662103.140   108580086.984 8      1382.033          48.937    20662104.340    84607864.830 8      1076.909          48.875    20662105.280    84607863.831 8      1076.909          50.437
R20  20206063.460   108050903.080 6      5143.953          36.750    20206062.860   108050903.089 6      5143.953          37.125    20206073.180    84039627.859 7      4000.852          44.625    20206074.000    84039630.860 7      4000.852          45.062
G18  21613909.280   113581853.817 7      1517.010          46.937    21613907.960   113581853.821 6      1517.010          39.437    21613910.520    88505340.649 6      1182.085          39.000    21613910.920    88505349.639 8      1182.085          50.562
G29  24807391.160   130363710.037 6      -410.151          39.500    24807389.020   130363710.052 5      -410.151          32.437    24807394.560   101582106.142 5      -319.599          32.375    24807395.220   101582104.133 6      -319.599          37.625
G27  21863159.380   114891681.329 7      4321.371          46.937    21863157.920   114891681.323 6      4321.371          37.000    21863162.720    89525995.813 6      3367.302          36.562    21863165.760    89526010.808 8      3367.302          48.375
R16  20942926.320   111873347.717 8       724.508          48.250    20942925.680   111873347.718 8       724.508          48.250    20942934.160    87012639.857 8       563.507          49.000    20942934.360    87012640.861 8       563.507          49.250
G23  24786079.540   130251733.011 6      4679.632          40.187    24786078.480   130251733.008 4      4679.632          26.625    24786088.600   101494877.964 4      3646.466          26.437    24786090.040   101494893.969 7      3646.466          43.937
G16  22003310.200   115628175.430 7      4419.027          43.687    22003308.780   115628175.442 5      4419.027          32.625    22003311.420    90099869.520 5      3443.397          32.562
R09  19704502.660   105220950.363 7      4193.165          47.875    19704501.140   105220950.366 7      4193.165          47.937    19704506.540    81838525.578 8      3261.350          51.750    19704506.580    81838529.577 8      3261.350          52.000
G26  20648695.900   108509632.290 8      3113.302          48.062    20648695.200   108509632.292 7      3113.302          47.750    20648699.580    84552982.586 7      2425.950          47.812    20648699.900    84552982.586 8      2425.950          48.687
> 2024 05 08 09 44 10.0000000  0 14
G28  21737165.780   114229567.538 7      -279.187          45.187    21737164.340   114229567.546 5      -279.187          35.500    21737167.020    89010063.575 5      -217.548          35.437    21737167.500    89010066.566 8      -217.548          48.500
G04  24442143.520   128444333.501 5      2187.337          33.812    24442141.720   128444333.519 2      2187.337          13.312    24442147.820   100086497.670 2      1704.418          15.000    24442148.980   100086509.679 5      1704.418          35.125
R10  22309234.080   118920773.916 6      5940.965          41.250    22309233.260   118920773.930 6      5940.965          40.125
R18  23208815.800   123890238.084 6     -1569.111          41.562    23208815.000   123890238.077 6     -1569.111          41.625    23208826.960    96359116.403 7     -1220.420          43.750    23208826.180    96359113.404 7     -1220.420          44.937
G31  20661841.420   108578705.488 7      1381.048          47.437    20661840.160   108578705.490 8      1381.048          48.250    20661841.380    84606788.341 8      1076.142          48.375    20661842.400    84606787.342 8      1076.142          50.812
R20  20205101.300   108045759.406 6      5143.078          36.750    20205100.840   108045759.404 6      5143.078          37.312    20205111.040    84035627.222 7      4000.172          44.687    20205112.100    84035630.227 7      4000.172          45.062
G18  21613620.600   113580337.263 7      1516.047          46.312    21613619.400   113580337.265 6      1516.047          38.937    21613621.920    88504158.917 6      1181.336          38.875    21613622.360    88504167.913 8      1181.336          50.437
G29  24807469.280   130364120.384 6      -410.507          39.500    24807467.080   130364120.397 5      -410.507          32.437    24807472.640   101582425.887 5      -319.875          32.375    24807473.640   101582423.870 6      -319.875          37.625
G27  21862336.920   114887360.284 7      4320.730          46.062    21862335.560   114887360.283 6      4320.730          37.062    21862340.540    89522628.767 6      3366.802          36.812    21862343.680    89522643.767 8      3366.802          48.500
R16  20942790.900   111872623.657 8       723.570          48.625    20942790.220   111872623.666 7       723.570          47.500    20942798.720    87012076.705 8       562.776          48.875    20942798.680    87012077.705 8       562.776          48.937
G23  24785188.740   130247053.475 6      4679.355          41.437    24785188.040   130247053.475 4      4679.355          26.625    24785198.140   101491231.578 4      3646.251          26.437    24785198.840   101491247.571 7      3646.251          42.187
G16  22002469.500   115623756.765 7      4418.370          43.937    22002467.880   115623756.777 5      4418.370          32.625    22002470.400    90096426.406 5      3442.886          32.562
R09  19703717.580   105216757.567 8      4192.384          48.562    19703715.780   105216757.570 7      4192.384          47.875    19703721.320    81835264.519 8      3260.743          52.000    19703721.600    81835268.515 8      3260.743          52.187
G26  20648103.440   108506519.265 8      3112.789          48.187    20648102.740   108506519.267 7      3112.789          47.687    20648107.220    84550556.854 8      2425.550          48.250    20648107.400    84550556.854 8      2425.550          48.562
> 2024 05 08 09 44 11.0000000  0 14
G28  21737218.920   114229846.893 7      -279.277          44.750    21737217.460   114229846.901 5      -279.277          35.500    21737220.260    89010281.252 5      -217.618          35.125    21737220.600    89010284.245 7      -217.618          47.687
G04  24441726.640   128442146.423 5      2187.055          33.812    24441725.340   128442146.441 2      2187.055          13.312    24441731.640   100084793.452 2      1704.199          15.000    24441732.280   100084805.462 5      1704.199          35.125
R10  22308119.720   118914833.050 6      5941.004          41.250    22308118.860   118914833.063 6      5941.004          40.125
R18  23209110.200   123891807.231 6     -1569.027          40.875    23209108.680   123891807.229 6     -1569.027          41.625    23209120.800    96360336.865 7     -1220.354          44.437    23209120.260    96360333.868 7     -1220.354          44.500
G31  20661578.540   108577324.685 7      1380.686          47.875    20661577.460   108577324.688 8      1380.686          48.187    20661578.680    84605712.389 7      1075.859          47.562    20661579.460    84605711.390 8      1075.859          49.875
R20  20204139.740   108040616.544 6      5142.533          36.750    20204139.300   108040616.551 6      5142.533          37.312    20204149.260    84031627.225 7      3999.748          44.437    20204150.100    84031630.226 7      3999.748          44.687
G18  21613332.080   113578821.422 7      1515.689          46.937    21613331.000   113578821.424 6      1515.689          38.625    21613333.400    88502977.740 6      1181.056          38.375    21613333.920    88502986.740 8      1181.056          50.562
G29  24807547.560   130364530.755 6      -410.160          39.625    24807545.240   130364530.765 5      -410.160          32.437    24807550.740   101582745.648 5      -319.605          32.687    24807552.200   101582743.636 6      -319.605          37.625
G27  21861514.900   114883039.699 7      4320.692          45.875    21861513.500   114883039.698 6      4320.692          37.437    21861518.280    89519262.081 6      3366.773          37.250    21861521.640    89519277.077 7      3366.773          47.687
R16  20942655.480   111871900.260 8       723.280          48.625    20942654.860   111871900.266 7       723.280          47.687    20942663.140    87011514.059 8       562.551          48.312    20942663.180    87011515.059 8       562.551          48.687
G23  24784298.000   130242374.082 6      4679.394          40.125    24784297.580   130242374.084 4      4679.394          26.625    24784307.820   101487585.306 4      3646.281          26.437    24784308.540   101487601.298 7      3646.281          42.937
G16  22001628.480   115619338.260 7      4418.725          44.812    22001627.020   115619338.270 5      4418.725          33.125    22001629.700    90092983.418 5      3443.162          33.250
R09  19702932.420   105212565.353 8      4192.174          48.000    19702930.640   105212565.356 7      4192.174          47.625    19702936.220    81832003.906 8      3260.580          50.750    19702936.500    81832007.904 8      3260.580          51.437
G26  20647511.320   108503406.610 8      3112.760          48.812    20647510.440   108503406.620 7      3112.760          47.500    20647514.860    84548131.415 7      2425.527          47.312    20647515.260    84548131.413 8      2425.527          48.500
> 2024 05 08 09 44 12.0000000  0 14
G28  21737272.160   114230126.527 7      -279.884          44.812    21737270.680   114230126.534 5      -279.884          34.812    21737273.600    89010499.148 5      -218.091          34.750    21737273.680    89010502.140 8      -218.091          48.000
G04  24441310.840   128439959.606 5      2186.903          33.812    24441309.140   128439959.621 2      2186.903          13.312    24441315.400   100083089.441 2      1704.080          15.000    24441316.120   100083101.457 5      1704.080          35.125
R10  22307005.400   118908892.055 6      5941.014          41.250    22307004.040   118908892.058 6      5941.014          39.687
R18  23209404.220   123893376.300 6     -1569.116          40.875    23209403.120   123893376.301 6     -1569.116          41.500    23209414.560    96361557.248 7     -1220.424          43.312    23209413.940    96361554.249 7     -1220.424          43.937
G31  20661316.020   108575944.311 8      1380.051          48.062    20661314.840   108575944.313 7      1380.051          47.750    20661315.900    84604636.773 7      1075.365          47.625    20661316.800    84604635.776 8      1075.365          50.062
R20  20203178.240   108035474.188 6      5141.958          36.750    20203178.340   108035474.216 6      5141.958          37.312    20203187.640    84027627.627 7      3999.301          44.125    20203188.540    84027630.626 7      3999.301          44.250
G18  21613043.700   113577306.043 7      1515.079          46.062    21613042.620   113577306.043 6      1515.079          38.250    21613044.980    88501796.923 6      1180.581          38.562    21613045.500    88501805.919 8      1180.581          50.000
G29  24807625.340   130364940.895 6      -410.172          39.437    24807623.260   130364940.902 5      -410.172          32.500    24807628.940   101583065.229 5      -319.614          32.687    24807630.000   101583063.215 6      -319.614          37.625
G27  21860692.680   114878719.313 7      4320.269          46.125    21860691.500   114878719.316 6      4320.269          37.062    21860696.260    89515895.545 6      3366.443          36.812    21860699.300    89515910.543 8      3366.443          48.000
R16  20942519.800   111871177.244 8       722.727          48.125    20942519.460   111871177.245 7       722.727          47.000    20942527.920    87010951.703 8       562.121          48.062    20942528.000    87010952.701 8       562.121          48.187
G23  24783407.580   130237694.507 6      4679.475          40.750    24783407.220   130237694.509 4      4679.475          26.625    24783417.260   101483938.890 4      3646.344          26.437    24783418.360   101483954.903 7      3646.344          43.500
G16  22000787.500   115614919.737 7      4418.463          44.187    22000786.260   115614919.744 5      4418.463          33.125    22000788.800    90089540.411 5      3442.958          33.250
R09  19702147.500   105208373.432 7      4191.676          47.562    19702145.780   105208373.428 7      4191.676          47.437    19702151.260    81828743.517 8      3260.193          50.437    19702151.440    81828747.516 8      3260.193          50.562
G26  20646918.960   108500294.076 7      3112.382          47.625    20646918.020   108500294.084 7      3112.382          46.625    20646922.620    84545706.066 7      2425.233          46.750    20646923.020    84545706.066 8      2425.233          48.062
> 2024 05 08 09 44 13.0000000  0 14
G28  21737325.360   114230406.667 7      -280.376          45.250    21737324.020   114230406.680 5      -280.376          35.250    21737326.840    89010717.438 5      -218.474          34.750    21737327.000    89010720.433 8      -218.474          48.750
G04  24440894.280   128437773.511 5      2185.835          33.375    24440893.200   128437773.524 2      2185.835          13.312    24440899.300   100081385.990 2      1703.248          12.500    24440899.740   100081397.986 5      1703.248          35.125
R10  22305891.200   118902951.201 6      5940.784          40.500    22305889.540   118902951.197 6      5940.784          39.687
R18  23209698.100   123894945.588 6     -1569.334          41.125    23209696.740   123894945.599 6     -1569.334          41.500    23209708.680    96362777.813 7     -1220.593          43.750    23209708.300    96362774.819 7     -1220.593          44.437
G31  20661053.560   108574564.644 8      1379.374          48.250    20661052.180   108574564.646 8      1379.374          48.812    20661053.400    84603561.709 8      1074.837          48.437    20661054.240    84603560.710 8      1074.837          50.500
R20  20202216.320   108030332.688 6      5141.253          36.312    20202216.480   108030332.708 6      5141.253          37.312    20202226.460    84023628.682 7      3998.753          44.562    20202227.080    84023631.683 7      3998.753          44.687
G18  21612755.460   113575791.416 7      1514.237          47.250    21612754.400   113575791.421 6      1514.237          38.562    21612756.820    88500616.698 6      1179.925          38.625    21612757.240    88500625.694 8      1179.925          49.937
G29  24807703.100   130365351.079 6      -410.059          40.250    24807701.360   130365351.079 5      -410.059          32.500    24807707.000   101583384.843 5      -319.526          33.000    24807708.100   101583382.811 6      -319.526          37.562
G27  21859870.540   114874399.398 7      4319.794          45.500    21859869.300   114874399.398 6      4319.794          36.687    21859874.060    89512529.382 6      3366.073          36.562    21859877.060    89512544.383 7      3366.073          47.625
R16  20942384.820   111870454.891 7       722.093          47.750    20942384.140   111870454.895 7       722.093          47.875    20942392.720    87010389.877 8       561.628          48.062    20942392.600    87010390.877 8       561.628          48.125
G23  24782517.320   130233015.095 6      4679.361          41.812    24782516.780   130233015.100 4      4679.361          26.437    24782526.900   101480292.601 4      3646.255          26.437    24782528.220   101480308.622 7      3646.255          44.000
G16  21999946.820   115610501.421 7      4418.231          44.375    21999945.620   115610501.426 5      4418.231          32.250    21999947.960    90086097.571 5      3442.778          32.562
R09  19701362.780   105204182.097 7      4191.093          47.687    19701360.640   105204182.103 7      4191.093          47.000    19701366.380    81825483.598 8      3259.739          50.937    19701366.620    81825487.592 8      3259.739          50.687
G26  20646326.980   108497181.929 7      3112.002          47.812    20646325.840   108497181.931 7      3112.002          47.062    20646330.380    84543281.010 7      2424.936          47.125    20646330.880    84543281.006 8      2424.936          48.812
> 2024 05 08 09 44 14.0000000  0 14
G28  21737378.520   114230687.121 7      -280.931          45.187    21737377.300   114230687.131 5      -280.931          35.250    21737380.160    89010935.969 5      -218.907          34.562    21737380.680    89010938.964 8      -218.907          48.437
G04  24440478.220   128435587.758 5      2185.076          33.375    24440477.140   128435587.771 2      2185.076          13.312    24440483.240   100079682.808 2      1702.656          12.500    24440483.600   100079694.810 5      1702.656          35.125
R10  22304776.780   118897010.247 6      5940.625          40.500    22304774.860   118897010.266 6      5940.625          39.937
R18  23209991.580   123896514.886 6     -1569.564          41.125    23209990.920   123896514.892 6     -1569.564          41.500    23210002.440    96363998.375 7     -1220.772          43.500    23210001.740    96363995.376 7     -1220.772          44.437
G31  20660790.980   108573185.454 7      1378.682          47.625    20660789.820   108573185.456 8      1378.682          48.750    20660790.920    84602487.010 8      1074.297          48.562    20660791.620    84602486.013 8      1074.297          50.562
R20  20201255.040   108025191.848 6      5140.177          36.312    20201255.220   108025191.844 6      5140.177          37.312    20201264.880    84019630.226 7      3997.915          44.312    20201265.800    84019633.217 7      3997.915          44.500
G18  21612467.460   113574277.275 7      1513.543          46.562    21612466.100   113574277.282 6      1513.543          38.750    21612468.740    88499436.850 6      1179.384          38.937    21612469.140    88499445.846 8      1179.384          50.812
G29  24807780.720   130365761.077 6      -410.271          39.750    24807779.460   130365761.085 5      -410.271          32.875    24807785.020   101583704.324 5      -319.691          33.000    24807786.240   101583702.300 6      -319.691          37.562
G27  21859048.800   114870079.733 7      4319.276          45.437    21859047.320   114870079.732 6      4319.276          37.062    21859052.040    89509163.407 6      3365.669          36.812    21859055.220    89509178.400 7      3365.669          47.937
R16  20942249.560   111869732.928 7       721.534          47.562    20942249.000   111869732.935 7       721.534          47.812    20942257.660    87009828.350 8       561.193          48.750    20942257.520    87009829.348 8       561.193          48.625
G23  24781627.000   130228335.572 6      4679.343          41.937    24781626.180   130228335.583 4      4679.343          26.437    24781636.440   101476646.230 4      3646.241          26.437    24781636.920   101476662.223 7      3646.241          43.000
G16  21999105.880   115606083.108 7      4418.032          44.812    21999104.700   115606083.118 5      4418.032          32.250    21999107.080    90082654.732 5      3442.622          32.562
R09  19700577.940   105199991.074 8      4190.616          48.312    19700575.880   105199991.077 7      4190.616          47.875    19700581.400    81822223.913 8      3259.368          51.687    19700581.520    81822227.910 8      3259.368          52.687
G26  20645734.720   108494069.915 7      3111.713          47.875    20645733.640   108494069.915 7      3111.713          47.687    20645738.100    84540856.060 7      2424.711          47.750    20645738.640    84540856.056 8      2424.711          48.937
> 2024 05 08 09 44 15.0000000  0 14
G28  21737431.860   114230968.073 7      -281.211          45.312    21737430.880   114230968.084 5      -281.211          35.375    21737433.660    89011154.889 5      -219.125          35.125    21737433.940    89011157.878 7      -219.125          47.875
G04  24440062.120   128433402.549 5      2184.900          33.375    24440061.220   128433402.562 2      2184.900          13.312    24440067.640   100077980.050 2      1702.520          12.500    24440068.340   100077992.052 5      1702.520          35.375
R10  22303662.860   118891069.473 6      5940.721          40.812    22303660.720   118891069.474 6      5940.721          39.937
R18  23210285.860   123898084.417 6     -1569.635          40.750    23210284.980   123898084.415 6     -1569.635          41.687    23210296.980    96365219.108 7     -1220.827          44.375    23210295.720    96365216.114 7     -1220.827          44.437
G31  20660528.700   108571806.948 8      1378.240          48.375    20660527.520   108571806.950 8      1378.240          48.687    20660528.640    84601412.850 8      1073.953          48.687    20660529.360    84601411.851 8      1073.953          50.937
R20  20200294.280   108020051.674 6      5140.036          36.312    20200293.420   108020051.696 6      5140.036          37.000    20200303.360    84015632.336 7      3997.806          44.500    20200304.300    84015635.339 7      3997.806          44.812
G18  21612179.480   113572763.851 7      1513.131          46.625    21612178.180   113572763.858 6      1513.131          39.250    21612180.660    88498257.554 6      1179.063          39.062    21612181.080    88498266.553 8      1179.063          51.000
G29  24807858.940   130366171.085 6      -409.915          39.375    24807857.640   130366171.090 5      -409.915          32.875    24807863.120   101584023.805 5      -319.414          33.000    24807864.420   101584021.783 6      -319.414          37.562
G27  21858226.820   114865760.498 7      4318.973          46.187    21858225.420   114865760.495 6      4318.973          37.562    21858230.200    89505797.767 6      3365.434          37.250    21858233.420    89505812.763 8      3365.434          48.312
R16  20942114.320   111869011.587 8       721.102          49.250    20942114.000   111869011.591 8       721.102          48.187    20942122.460    87009267.308 8       560.857          49.000    20942122.240    87009268.305 8       560.857          48.750
G23  24780736.540   130223656.197 6      4679.370          41.812    24780735.760   130223656.210 4      4679.370          26.437    24780745.940   101472999.970 4      3646.263          26.437    24780746.580   101473015.963 7      3646.263          42.937
G16  21998265.000   115601665.000 7      4417.955          44.437    21998263.960   115601665.013 5      4417.955          32.250    21998266.440    90079212.053 5      3442.563          32.125
R09  19699792.920   105195800.619 7      4190.206          47.500    19699791.220   105195800.626 7      4190.206          47.750    19699796.880    81818964.673 8      3259.049          51.750    19699797.080    81818968.669 8      3259.049          51.937
G26  20645142.460   108490958.264 7      3111.505          47.687    20645141.460   108490958.272 7      3111.505          47.687    20645146.020    84538431.405 7      2424.550          47.562    20645146.320    84538431.401 8      2424.550          49.437
> 2024 05 08 09 44 16.0000000  0 14
G28  21737485.720   114231249.565 7      -281.715          44.812    21737484.440   114231249.572 5      -281.715          35.250    21737487.140    89011374.228 5      -219.518          35.187    21737487.620    89011377.220 8      -219.518          48.187
G04  24439647.860   128431217.996 5      2184.044          34.125    24439645.200   128431218.009 2      2184.044          13.312    24439651.540   100076277.797 2      1701.853          12.500    24439652.040   100076289.809 5      1701.853          35.375
R10  22302547.960   118885128.806 6      5940.665          40.812    22302546.280   118885128.820 6      5940.665          39.937
R18  23210580.300   123899654.143 6     -1569.746          40.875    23210579.080   123899654.149 6     -1569.746          41.687    23210590.860    96366440.018 7     -1220.913          44.000    23210589.900    96366437.024 7     -1220.913          45.187
G31  20660266.560   108570429.167 7      1377.513          47.562    20660265.300   108570429.169 8      1377.513          48.625    20660266.420    84600339.254 8      1073.386          48.625    20660267.200    84600338.253 8      1073.386          50.312
R20  20199333.440   108014912.486 6      5138.719          36.312    20199332.440   108014912.495 6      5138.719          37.000    20199342.500    84011635.177 7      3996.782          44.437    20199343.200    84011638.176 7      3996.782          44.312
G18  21611891.700   113571251.176 7      1512.356          46.625    21611890.480   113571251.178 6      1512.356          39.125    21611892.820    88497078.844 6      1178.459          38.562    21611893.200    88497087.847 8      1178.459          51.062
G29  24807937.040   130366581.180 6      -410.081          39.437    24807935.720   130366581.188 5      -410.081          33.375    24807941.280   101584343.360 5      -319.544          33.312    24807942.400   101584341.329 6      -319.544          37.750
G27  21857404.980   114861441.734 7      4318.554          45.625    21857403.460   114861441.731 6      4318.554          37.187    21857408.320    89502432.497 6      3365.107          37.250    21857411.380    89502447.494 8      3365.107          48.250
R16  20941979.540   111868290.936 8       720.414          48.437    20941979.040   111868290.929 8       720.414          48.125    20941987.540    87008706.784 8       560.322          48.625    20941987.380    87008707.784 8       560.322          48.812
G23  24779846.140   130218976.948 7      4679.223          42.312    24779845.120   130218976.958 4      4679.223          26.437    24779855.480   101469353.806 4      3646.148          26.437    24779856.600   101469369.829 7      3646.148          43.062
G16  21997424.660   115597247.113 7      4417.759          44.500    21997423.280   115597247.123 5      4417.759          32.437    21997425.680    90075769.547 5      3442.410          32.125
R09  19699008.040   105191610.747 8      4189.650          48.062    19699006.620   105191610.750 7      4189.650          47.812    19699012.200    81815705.886 8      3258.616          51.687    19699012.200    81815709.884 8      3258.616          52.312
G26  20644550.360   108487847.015 7      3111.119          47.500    20644549.400   108487847.023 7      3111.119          47.812    20644553.880    84536007.053 7      2424.248          47.500    20644554.360    84536007.051 8      2424.248          49.000
> 2024 05 08 09 44 17.0000000  0 14
G28  21737539.300   114231531.474 7      -282.143          44.812    21737538.000   114231531.481 5      -282.143          35.375    21737540.760    89011593.891 5      -219.852          35.187    21737541.140    89011596.887 8      -219.852          48.250
G04  24439231.540   128429033.935 5      2183.516          34.125    24439229.000   128429033.953 2      2183.516          13.312    24439236.380   100074575.933 2      1701.441          12.500    24439237.340   100074587.931 5      1701.441          35.375
R10  22301433.460   118879188.243 6      5940.386          40.812    22301432.620   118879188.246 6      5940.386          40.187
R18  23210874.040   123901224.018 6     -1570.012          40.875    23210873.620   123901224.019 6     -1570.012          41.437    23210884.860    96367661.026 7     -1221.121          43.687    23210883.940    96367658.031 7     -1221.121          44.500
G31  20660004.480   108569051.998 8      1376.759          48.125    20660003.380   108569051.998 8      1376.759          49.000    20660004.320    84599266.135 8      1072.799          49.062    20660005.220    84599265.139 8      1072.799          50.312
R20  20198371.540   108009773.932 6      5138.109          36.687    20198371.740   108009773.944 6      5138.109          37.000    20198381.660    84007638.528 7      3996.307          45.000    20198382.160    84007641.523 7      3996.307          45.062
G18  21611603.860   113569739.126 7      1511.728          46.312    21611602.760   113569739.131 6      1511.728          39.187    21611604.960    88495900.626 6      1177.970          39.062    21611605.520    88495909.628 8      1177.970          50.812
G29  24808014.960   130366991.218 6      -410.134          39.687    24808013.720   130366991.223 5      -410.134          33.375    24808019.340   101584662.865 5      -319.585          33.312    24808020.500   101584660.834 6      -319.585          37.750
G27  21856583.200   114857123.338 7      4318.189          46.500    21856581.700   114857123.337 6      4318.189          36.687    21856586.500    89499067.512 6      3364.822          36.812    21856589.360    89499082.512 8      3364.822          48.062
R16  20941844.600   111867570.845 8       719.671          48.375    20941844.340   111867570.846 8       719.671          48.187    20941852.880    87008146.720 8       559.744          48.625    20941852.760    87008147.720 8       559.744          48.750
G23  24778956.100   130214297.759 6      4679.040          41.625    24778954.900   130214297.767 4      4679.040          26.437    24778965.080   101465707.689 4      3646.005          26.437    24778965.460   101465723.686 7      3646.005          42.687
G16  21996584.120   115592829.365 7      4417.548          44.187    21996582.540   115592829.375 5      4417.548          32.437    21996585.000    90072327.146 5      3442.245          32.125
R09  19698223.720   105187421.371 7      4189.111          47.312    19698222.140   105187421.369 7      4189.111          47.750    19698227.840    81812447.476 8      3258.197          51.250    19698227.740    81812451.472 8      3258.197          52.500
G26  20643958.300   108484736.045 7      3110.759          47.500    20643957.400   108484736.047 7      3110.759          47.562    20643961.940    84533582.918 7      2423.968          47.562    20643962.300    84533582.914 8      2423.968          49.312
> 2024 05 08 09 44 18.0000000  0 14
G28  21737592.840   114231813.877 7      -282.671          45.812    21737591.760   114231813.884 5      -282.671          35.375    21737594.420    89011813.942 5      -220.263          35.375    21737594.760    89011816.935 8      -220.263          48.062
G04  24438815.660   128426850.395 5      2183.175          34.125    24438813.500   128426850.415 2      2183.175          13.312    24438820.900   100072874.475 2      1701.175          12.500    24438822.920   100072886.477 5      1701.175          35.375
R10  22300319.060   118873247.704 6      5940.515          41.312    22300317.840   118873247.715 6      5940.515          40.187
R18  23211168.380   123902794.042 6     -1570.078          41.000    23211167.080   123902794.038 6     -1570.078          41.437    23211179.200    96368882.148 7     -1221.172          44.250    23211178.060    96368879.147 7     -1221.172          44.687
G31  20659742.540   108567675.476 8      1376.161          48.500    20659741.440   108567675.476 8      1376.161          49.000    20659742.380    84598193.519 8      1072.334          48.812    20659743.200    84598192.522 8      1072.334          50.250
R20  20197411.040   108004636.153 6      5137.489          36.687    20197410.900   108004636.163 6      5137.489          37.000    20197420.600    84003642.484 7      3995.825          44.812    20197421.340    84003645.477 7      3995.825          44.500
G18  21611316.160   113568227.772 7      1511.006          47.062    21611315.100   113568227.780 6      1511.006          39.187    21611317.520    88494722.948 6      1177.407          38.812    21611318.120    88494731.950 8      1177.407          51.000
G29  24808093.120   130367401.250 6      -410.085          39.812    24808091.760   130367401.252 5      -410.085          33.062    24808097.360   101584982.356 5      -319.547          33.187    24808098.300   101584980.328 6      -319.547          37.750
G27  21855761.740   114852805.370 7      4317.722          45.812    21855760.100   114852805.367 6      4317.722          37.062    21855764.960    89495702.858 6      3364.458          37.125    21855767.380    89495717.859 7      3364.458          47.875
R16  20941710.340   111866851.377 8       719.140          48.625    20941709.620   111866851.378 8       719.140          48.250    20941718.120    87007587.129 8       559.331          48.562    20941717.840    87007588.129 8       559.331          48.625
G23  24778065.400   130209618.613 6      4679.090          41.437    24778064.540   130209618.618 4      4679.090          26.562    24778074.660   101462061.605 4      3646.044          26.437    24778074.920   101462077.599 7      3646.044          42.687
G16  21995743.480   115588411.769 7      4417.508          44.562    21995741.960   115588411.782 5      4417.508          32.250    21995744.360    90068884.866 5      3442.214          32.500
R09  19697439.140   105183232.494 7      4188.598          47.312    19697437.540   105183232.495 7      4188.598          47.687    19697443.360    81809189.463 8      3257.799          51.687    19697443.280    81809193.457 8      3257.799          52.437
G26  20643366.200   108481625.405 7      3110.391          47.375    20643365.460   108481625.413 7      3110.391          47.625    20643370.020    84531159.047 7      2423.681          47.750    20643370.360    84531159.042 8      2423.681          48.750
> 2024 05 08 09 44 19.0000000  0 14
G28  21737646.640   114232096.629 7      -283.062          44.062    21737645.580   114232096.634 5      -283.062          35.500    21737648.300    89012034.266 5      -220.567          35.187    21737648.620    89012037.258 8      -220.567          48.437
G04  24438400.040   128424667.332 5      2182.914          33.875    24438398.300   128424667.347 1      2182.914          11.812    24438405.400   100071173.389 2      1700.972          12.500    24438407.120   100071185.361 5      1700.972          35.375
R10  22299204.480   118867307.136 6      5940.587          41.312    22299203.060   118867307.160 6      5940.587          40.187
R18  23211462.660   123904364.104 6     -1570.067          40.875    23211461.280   123904364.092 6     -1570.067          41.812    23211473.120    96370103.297 7     -1221.163          44.312    23211472.240    96370100.300 7     -1221.163          45.125
G31  20659480.820   108566299.490 8      1375.660          48.187    20659479.540   108566299.489 8      1375.660          48.437    20659480.540    84597121.319 8      1071.943          48.562    20659481.440    84597120.325 8      1071.943          50.000
R20  20196450.120   107999499.129 6      5136.371          36.687    20196450.560   107999499.117 6      5136.371          37.000    20196460.180    83999647.004 7      3994.956          44.375    20196460.840    83999649.999 7      3994.956          44.250
G18  21611028.580   113566716.971 7      1510.502          47.437    21611027.720   113566716.978 6      1510.502          38.437    21611030.080    88493545.698 6      1177.014          38.812    21611030.700    88493554.700 8      1177.014          50.500
G29  24808171.260   130367811.153 6      -409.967          38.875    24808169.620   130367811.153 5      -409.967          33.062    24808175.400   101585301.753 5      -319.455          33.187    24808177.120   101585299.739 6      -319.455          38.312
G27  21854939.780   114848487.680 7      4317.487          45.375    21854938.700   114848487.680 6      4317.487          37.000    21854943.220    89492338.433 6      3364.275          37.250    21854946.180    89492353.428 8      3364.275          48.250
R16  20941575.660   111866132.408 7       718.699          47.500    20941574.940   111866132.409 7       718.699          47.562    20941583.560    87007027.931 8       558.988          49.000    20941583.300    87007028.931 8       558.988          48.812
G23  24777174.920   130204939.442 7      4679.160          42.687    24777174.200   130204939.447 4      4679.160          26.562    24777184.320   101458415.508 4      3646.098          26.437    24777184.540   101458431.534 7      3646.098          42.250
G16  21994903.000   115583994.247 7      4417.409          43.937    21994901.420   115583994.255 5      4417.409          32.250    21994903.780    90065442.639 5      3442.137          32.500
R09  19696655.020   105179044.040 7      4188.128          47.000    19696653.520   105179044.041 7      4188.128          47.250    19696659.020    81805931.776 8      3257.433          52.562    19696659.120    81805935.772 8      3257.433          52.062
G26  20642774.420   108478514.968 7      3110.159          47.187    20642773.480   108478514.976 7      3110.159          47.437    20642778.120    84528735.328 7      2423.500          47.875    20642778.620    84528735.326 8      2423.500          49.125
> 2024 05 08 09 44 20.0000000  0 14
G28  21737700.680   114232379.881 7      -283.524          44.875    21737699.500   114232379.883 5      -283.524          35.187    21737702.440    89012254.978 5      -220.928          35.125    21737702.780    89012257.969 8      -220.928          48.312
G04  24437984.660   128422484.866 5      2182.178          33.875    24437983.120   128422484.881 1      2182.178          11.812    24437989.920   100069472.766 2      1700.399          12.500    24437990.800   100069484.738 5      1700.399          35.125
R10  22298089.720   118861366.738 6      5940.435          40.937    22298088.560   118861366.752 6      5940.435          40.125
R18  23211756.880   123905934.404 6     -1570.454          40.875    23211755.620   123905934.402 6     -1570.454          41.812    23211767.260    96371324.655 7     -1221.464          44.187    23211766.580    96371321.657 7     -1221.464          44.812
G31  20659218.880   108564924.189 8      1374.919          48.000    20659217.840   108564924.191 8      1374.919          48.750    20659218.800    84596049.659 8      1071.365          48.875    20659219.660    84596048.664 8      1071.365          50.000
R20  20195490.540   107994362.807 6      5135.683          36.687    20195489.680   107994362.795 6      5135.683          37.000    20195499.520    83995652.086 7      3994.420          44.812    20195500.180    83995655.089 7      3994.420          44.250
G18  21610741.220   113565206.905 7      1509.674          47.375    21610740.220   113565206.912 6      1509.674          38.875    21610742.660    88492369.025 6      1176.370          38.687    21610743.400    88492378.021 8      1176.370          51.062
G29  24808248.740   130368221.090 6      -409.999          38.875    24808247.720   130368221.087 5      -409.999          32.875    24808253.540   101585621.177 5      -319.480          32.875    24808254.320   101585619.146 6      -319.480          38.312
G27  21854117.880   114844170.445 7      4316.934          46.312    21854116.940   114844170.447 6      4316.934          37.187    21854121.800    89488974.353 6      3363.845          37.000    21854124.540    89488989.353 8      3363.845          48.187
R16  20941440.860   111865414.080 8       717.999          48.250    20941440.460   111865414.083 8       717.999          48.062    20941449.020    87006469.231 8       558.443          48.750    20941449.040    87006470.231 8       558.443          49.062
G23  24776284.420   130200260.396 6      4678.928          41.375    24776283.780   130200260.401 4      4678.928          26.562    24776293.940   101454769.502 4      3645.918          26.437    24776293.440   101454785.535 7      3645.918          42.937
G16  21994062.280   115579576.927 7      4417.081          44.062    21994060.900   115579576.940 5      4417.081          32.500    21994063.040    90062000.576 5      3441.881          32.312
R09  19695870.800   105174856.130 8      4187.687          48.187    19695869.200   105174856.131 7      4187.687          47.625    19695874.780    81802674.513 8      3257.090          52.062    19695874.940    81802678.509 8      3257.090          52.687
G26  20642182.740   108475404.894 7      3109.855          47.312    20642181.660   108475404.901 7      3109.855          47.875    20642186.320    84526311.896 7      2423.264          47.937    20642186.800    84526311.896 8      2423.264          49.062
> 2024 05 08 09 44 21.0000000  0 14
G28  21737754.520   114232663.571 7      -283.988          45.250    21737753.560   114232663.576 5      -283.988          35.375    21737756.240    89012476.033 5      -221.289          35.125    21737756.880    89012479.027 8      -221.289          48.250
G04  24437569.440   128420302.907 5      2181.546          34.625    24437568.220   128420302.919 1      2181.546          11.812    24437574.600   100067772.532 2      1699.906          12.500    24437575.140   100067784.526 5      1699.906          35.125
R10  22296974.880   118855426.388 6      5940.230          40.937    22296974.560   118855426.407 6      5940.230          40.125
R18  23212051.300   123907504.852 6     -1570.563          41.562    23212049.720   123907504.840 6     -1570.563          41.750    23212061.400    96372546.103 7     -1221.549          44.250    23212060.940    96372543.106 7     -1221.549          45.062
G31  20658957.240   108563549.503 7      1374.379          47.187    20658956.300   108563549.503 8      1374.379          49.062    20658957.260    84594978.471 8      1070.945          48.937    20658958.140    84594977.478 8      1070.945          50.000
R20  20194530.200   107989227.203 6      5135.190          36.687    20194529.300   107989227.207 6      5135.190          37.000    20194539.180    83991657.735 7      3994.037          44.375    20194539.940    83991660.738 7      3994.037          44.625
G18  21610454.060   113563697.459 7      1509.086          47.937    21610453.000   113563697.464 6      1509.086          39.375    21610455.500    88491192.831 6      1175.911          38.750    21610455.920    88491201.834 8      1175.911          50.250
G29  24808327.220   130368630.962 6      -409.999          39.812    24808325.660   130368630.959 5      -409.999          32.875    24808331.620   101585940.556 5      -319.480          32.875    24808332.660   101585938.539 6      -319.480          38.750
G27  21853296.480   114839853.575 7      4316.732          45.687    21853295.560   114839853.578 6      4316.732          36.937    21853300.460    89485610.555 6      3363.687          37.062    21853303.160    89485625.552 8      3363.687          48.250
R16  20941306.460   111864696.272 8       717.500          48.250    20941305.920   111864696.271 7       717.500          47.125    20941314.640    87005910.933 8       558.055          49.062    20941314.520    87005911.929 8       558.055          48.750
G23  24775394.120   130195581.401 6      4678.884          41.812    24775393.580   130195581.409 4      4678.884          26.562    24775403.740   101451123.543 4      3645.884          26.437    24775402.680   101451139.547 7      3645.884          42.062
G16  21993221.580   115575159.747 7      4416.952          43.812    21993220.180   115575159.760 5      4416.952          32.500    21993222.560    90058558.617 5      3441.781          32.312
R09  19695086.720   105170668.714 7      4187.099          47.875    19695085.160   105170668.717 7      4187.099          47.687    19695090.720    81799417.633 8      3256.632          52.125    19695090.760    81799421.630 8      3256.632          52.562
G26  20641590.760   108472295.113 7      3109.577          47.687    20641589.960   108472295.121 7      3109.577          47.500    20641594.580    84523888.690 7      2423.047          47.125    20641595.100    84523888.690 8      2423.047          48.812
> 2024 05 08 09 44 22.0000000  0 14
G28  21737808.820   114232947.785 7      -284.393          45.125    21737807.700   114232947.792 5      -284.393          35.125    21737810.220    89012697.500 5      -221.605          35.000    21737810.840    89012700.490 7      -221.605          47.625
G04  24437154.360   128418121.563 5      2180.983          34.625    24437153.620   128418121.575 1      2180.983          11.812    24437159.420   100066072.783 2      1699.467          12.500    24437159.840   100066084.788 5      1699.467          35.125
R10  22295860.440   118849486.161 6      5940.298          41.187    22295860.280   118849486.172 6      5940.298          40.000
R18  23212345.500   123909075.496 6     -1570.734          41.562    23212344.080   123909075.489 7     -1570.734          42.125    23212355.840    96373767.717 7     -1221.682          44.812    23212355.180    96373764.720 7     -1221.682          44.937
G31  20658695.760   108562175.540 7      1373.605          47.437    20658694.820   108562175.540 8      1373.605          48.375    20658695.760    84593907.850 7      1070.342          47.875    20658696.680    84593906.853 8      1070.342          50.000
R20  20193570.020   107984092.480 6      5134.296          36.750    20193570.000   107984092.465 6      5134.296          37.000    20193579.000    83987664.051 7      3993.341          44.062    20193579.360    83987667.056 7      3993.341          44.187
G18  21610166.940   113562188.770 7      1508.365          47.437    21610165.980   113562188.775 6      1508.365          38.875    21610168.360    88490017.229 6      1175.349          38.687    21610169.000    88490026.228 8      1175.349          49.812
G29  24808405.400   130369040.884 6      -409.907          39.625    24808403.620   130369040.886 5      -409.907          32.937    24808409.640   101586259.971 5      -319.408          32.562    24808411.300   101586257.946 6      -319.408          38.750
G27  21852475.260   114835537.208 7      4316.074          44.812    21852473.960   114835537.212 6      4316.074          37.000    21852479.000    89482247.157 6      3363.175          36.687    21852481.820    89482262.151 7      3363.175          47.687
R16  20941172.300   111863979.114 7       716.874          47.250    20941171.860   111863979.118 7       716.874          47.375    20941180.340    87005353.141 7       557.569          47.937    20941180.160    87005354.139 8       557.569          48.187
G23  24774503.800   130190902.528 6      4678.917          41.625    24774503.300   130190902.533 4      4678.917          26.562    24774513.240   101447477.667 4      3645.909          26.937    24774513.120   101447493.680 7      3645.909          42.937
G16  21992381.220   115570742.779 7      4416.832          44.437    21992379.620   115570742.792 5      4416.832          32.500    21992382.060    90055116.822 5      3441.688          32.312
R09  19694302.580   105166481.885 7      4186.564          47.000    19694300.900   105166481.883 7      4186.564          47.687    19694306.700    81796161.207 8      3256.217          50.625    19694306.560    81796165.201 8      3256.217          51.750
G26  20640999.240   108469185.722 7      3109.251          47.750    20640998.160   108469185.727 7      3109.251          47.687    20641002.840    84521465.784 7      2422.793          47.625    20641003.340    84521465.784 8      2422.793          48.437
> 2024 05 08 09 44 23.0000000  0 14
G28  21737863.020   114233232.300 7      -284.793          45.750    21737861.860   114233232.308 5      -284.793          35.125    21737864.400    89012919.196 5      -221.917          35.000    21737865.020    89012922.186 7      -221.917          47.937
G04  24436738.980   128415940.528 5      2180.848          34.625    24436738.740   128415940.544 1      2180.848          11.812    24436744.340   100064373.278 2      1699.362          12.500    24436745.540   100064385.293 5      1699.362          35.125
R10  22294745.600   118843545.846 6      5940.253          41.187    22294746.160   118843545.873 6      5940.253          40.000
R18  23212639.660   123910646.103 6     -1570.685          41.437    23212638.240   123910646.085 7     -1570.685          42.125    23212650.160    96374989.289 7     -1221.644          44.375    23212649.180    96374986.297 7     -1221.644          45.000
G31  20658434.480   108560802.008 7      1373.218          47.500    20658433.440   108560802.007 8      1373.218          48.687    20658434.340    84592837.563 8      1070.040          48.125    20658435.340    84592836.570 8      1070.040          49.687
R20  20192610.560   107978958.316 6      5133.652          36.750    20192608.740   107978958.304 6      5133.652          37.000    20192618.940    83983670.817 7      3992.841          44.687    20192619.620    83983673.824 7      3992.841          43.812
G18  21609880.040   113560680.553 7      1507.917          47.375    21609878.960   113560680.556 6      1507.917          39.437    21609881.380    88488841.992 6      1175.000          39.125    21609881.900    88488850.992 8      1175.000          50.125
G29  24808483.520   130369450.614 6      -409.748          39.062    24808481.520   130369450.619 5      -409.748          32.937    24808487.840   101586579.233 5      -319.284          32.562    24808489.140   101586577.222 6      -319.284          38.750
G27  21851653.860   114831221.024 7      4315.994          46.250    21851652.640   114831221.026 6      4315.994          36.750    21851657.620    89478883.891 6      3363.112          36.750    21851660.480    89478898.888 8      3363.112          48.125
R16  20941038.100   111863262.362 8       716.435          48.000    20941037.640   111863262.369 7       716.435          47.375    20941046.120    87004795.665 8       557.227          48.187    20941046.220    87004796.665 8       557.227          48.937
G23  24773613.620   130186223.547 6      4678.973          41.750    24773612.860   130186223.549 4      4678.973          27.062    24773622.900   101443831.712 4      3645.953          26.937    24773623.340   101443847.746 7      3645.953          43.250
G16  21991540.720   115566325.798 7      4416.847          44.625    21991539.080   115566325.811 5      4416.847          32.375    21991541.400    90051675.018 5      3441.699          32.312
R09  19693518.740   105162295.380 8      4186.234          48.375    19693516.940   105162295.381 7      4186.234          47.375    19693522.700    81792905.036 8      3255.959          51.000    19693522.520    81792909.030 8      3255.959          51.375
G26  20640407.480   108466076.473 8      3109.031          48.125    20640406.480   108466076.475 7      3109.031          47.687    20640411.240    84519042.990 7      2422.622          47.437    20640411.440    84519042.996 8      2422.622          48.500
> 2024 05 08 09 44 24.0000000  0 14
G28  21737917.300   114233517.331 7      -285.445          45.125    21737916.080   114233517.341 5      -285.445          35.437    21737918.640    89013141.294 5      -222.424          35.437    21737919.240    89013144.279 8      -222.424          48.062
G04  24436323.540   128413760.172 5      2180.128          34.625    24436323.920   128413760.182 1      2180.128          11.812    24436329.600   100062674.301 1      1698.801          11.375    24436330.960   100062686.295 5      1698.801          35.125
R10  22293631.900   118837605.688 6      5940.050          41.625    22293631.800   118837605.697 6      5940.050          40.000
R18  23212933.880   123912216.925 6     -1570.955          41.750    23212932.560   123912216.905 7     -1570.955          42.187    23212944.360    96376211.047 7     -1221.854          44.687    23212943.440    96376208.050 7     -1221.854          45.250
G31  20658173.400   108559429.190 7      1372.398          47.625    20658172.220   108559429.192 8      1372.398          49.187    20658173.120    84591767.837 8      1069.401          48.750    20658173.900    84591766.840 8      1069.401          50.625
R20  20191650.720   107973824.947 6      5132.785          36.750    20191649.920   107973824.932 6      5132.785          37.000    20191659.020    83979678.192 7      3992.166          44.562    20191659.480    83979681.197 7      3992.166          44.500
G18  21609593.160   113559173.070 7      1507.049          46.000    21609592.260   113559173.078 6      1507.049          39.437    21609594.340    88487667.332 6      1174.324          38.812    21609595.000    88487676.334 8      1174.324          51.062
G29  24808561.260   130369860.386 6      -409.739          39.375    24808559.380   130369860.388 5      -409.739          32.750    24808565.840   101586898.529 5      -319.277          32.750    24808567.520   101586896.511 6      -319.277          39.000
G27  21850832.660   114826905.328 7      4315.351          45.750    21850831.360   114826905.328 6      4315.351          37.000    21850836.480    89475521.012 6      3362.611          36.937    21850839.280    89475536.009 8      3362.611          48.562
R16  20940904.220   111862546.275 7       715.663          47.812    20940903.620   111862546.282 7       715.663          47.687    20940912.040    87004238.709 8       556.627          48.687    20940912.260    87004239.706 8       556.627          48.437
G23  24772722.500   130181544.729 7      4678.551          42.187    24772722.580   130181544.736 4      4678.551          27.062    24772732.580   101440185.888 4      3645.624          26.937    24772732.020   101440201.909 7      3645.624          42.375
G16  21990700.280   115561909.049 7      4416.442          44.437    21990698.620   115561909.062 5      4416.442          32.375    21990700.980    90048233.397 5      3441.383          32.312
R09  19692734.840   105158109.424 8      4185.612          48.125    19692733.160   105158109.428 8      4185.612          48.000    19692738.880    81789649.299 8      3255.476          51.812    19692738.620    81789653.295 8      3255.476          52.312
G26  20639815.980   108462967.578 7      3108.643          47.062    20639814.820   108462967.577 7      3108.643          47.375    20639819.560    84516620.477 7      2422.320          47.500    20639819.880    84516620.477 8      2422.320          48.937
> 2024 05 08 09 44 25.0000000  0 14
G28  21737971.720   114233802.792 7      -285.473          44.625    21737970.440   114233802.802 5      -285.473          35.562    21737973.020    89013363.729 5      -222.447          35.437    21737973.700    89013366.719 8      -222.447          48.187
G04  24435909.100   128411580.333 5      2179.914          33.437    24435908.960   128411580.341 1      2179.914          11.812    24435914.580   100060975.724 1      1698.634          11.375    24435916.260   100060987.728 5      1698.634          35.125
R10  22292517.500   118831665.607 6      5940.210          41.625    22292517.480   118831665.613 6      5940.210          40.437
R18  23213228.040   123913787.937 6     -1570.918          41.750    23213226.700   123913787.927 7     -1570.918          42.187    23213238.700    96377432.945 7     -1221.825          44.375    23213237.740    96377429.950 7     -1221.825          44.937
G31  20657912.260   108558057.011 8      1372.115          48.062    20657911.180   108558057.008 8      1372.115          48.562    20657911.960    84590698.603 8      1069.181          48.437    20657912.920    84590697.610 8      1069.181          50.250
R20  20190690.380   107968692.312 6      5132.362          36.750    20190689.120   107968692.314 6      5132.362          36.875    20190698.960    83975686.162 7      3991.837          44.625    20190699.560    83975689.167 7      3991.837          44.187
G18  21609306.340   113557666.252 7      1506.786          45.375    21609305.540   113557666.254 6      1506.786          39.250    21609307.740    88486493.185 6      1174.119          38.875    21609308.260    88486502.182 8      1174.119          50.375
G29  24808638.960   130370270.139 6      -409.422          39.375    24808637.480   130370270.141 5      -409.422          32.750    24808643.780   101587217.814 5      -319.030          32.750    24808644.780   101587215.807 6      -319.030          39.000
G27  21850011.640   114822590.014 7      4315.287          45.062    21850010.240   114822590.016 6      4315.287          37.250    21850015.260    89472158.431 6      3362.561          36.750    21850018.160    89472173.433 8      3362.561          48.062
R16  20940770.080   111861830.784 8       715.393          48.437    20940769.860   111861830.782 8       715.393          48.125    20940778.180    87003682.207 8       556.417          48.250    20940778.300    87003683.205 8       556.417          48.875
G23  24771832.480   130176865.929 6      4679.009          41.500    24771832.240   130176865.939 4      4679.009          27.062    24771842.220   101436540.076 4      3645.981          26.937    24771841.660   101436556.075 7      3645.981          42.375
G16  21989859.500   115557492.418 7      4416.799          44.062    21989858.240   115557492.430 5      4416.799          32.125    21989860.540    90044791.867 5      3441.661          32.187
R09  19691951.200   105153923.992 8      4185.336          48.187    19691949.480   105153923.998 8      4185.336          48.125    19691955.020    81786393.969 8      3255.261          51.437    19691954.940    81786397.963 8      3255.261          51.875
G26  20639224.460   108459859.006 7      3108.614          47.625    20639223.260   108459859.011 7      3108.614          47.500    20639227.980    84514198.215 7      2422.297          47.125    20639228.400    84514198.215 8      2422.297          48.750
> 2024 05 08 09 44 26.0000000  0 14
G28  21738025.780   114234088.671 7      -286.453          45.250    21738024.740   114234088.679 5      -286.453          35.500    21738027.520    89013586.486 5      -223.210          35.625    21738027.980    89013589.478 8      -223.210          48.187
G04  24435495.100   128409400.965 5      2178.660          33.437    24435494.120   128409400.975 1      2178.660          11.812    24435499.600   100059277.515 1      1697.657          11.375    24435501.020   100059289.535 5      1697.657          34.875
R10  22291403.080   118825725.508 6      5939.692          41.625    22291403.360   118825725.527 6      5939.692          40.437
R18  23213522.060   123915359.019 6     -1571.609          41.187    23213520.800   123915359.014 7     -1571.609          42.125    23213532.940    96378654.903 7     -1222.363          45.062    23213532.040    96378651.909 7     -1222.363          45.312
G31  20657651.140   108556685.394 7      1370.984          47.875    20657650.060   108556685.391 8      1370.984          48.750    20657650.960    84589629.808 8      1068.299          48.687    20657651.760    84589628.811 8      1068.299          50.125
R20  20189730.640   107963560.354 6      5131.360          36.750    20189729.460   107963560.364 6      5131.360          36.875    20189739.640    83971694.639 7      3991.058          44.437    20189740.120    83971697.648 7      3991.058          44.375
G18  21609019.700   113556160.043 7      1505.543          46.187    21609018.920   113556160.048 6      1505.543          39.312    21609021.220    88485319.514 6      1173.151          38.937    21609021.700    88485328.513 8      1173.151          51.000
G29  24808716.060   130370679.788 6      -409.865          39.562    24808715.420   130370679.792 5      -409.865          32.750    24808721.880   101587537.016 5      -319.375          32.625    24808722.880   101587535.006 6      -319.375          39.250
G27  21849190.600   114818275.034 7      4314.383          45.250    21849189.060   114818275.036 6      4314.383          37.375    21849194.180    89468796.106 6      3361.857          37.125    21849197.100    89468811.108 8      3361.857          48.125
R16  20940636.400   111861115.826 8       714.296          48.562    20940636.040   111861115.828 7       714.296          47.312    20940644.220    87003126.123 8       555.564          48.375    20940644.380    87003127.119 8       555.564          48.250
G23  24770942.280   130172187.169 6      4678.246          41.437    24770941.800   130172187.181 4      4678.246          27.062    24770951.940   101432894.297 4      3645.387          26.937    24770952.060   101432910.316 7      3645.387          42.500
G16  21989019.180   115553075.894 7      4416.164          44.375    21989017.820   115553075.904 5      4416.164          32.125    21989020.120    90041350.420 5      3441.167          32.187
R09  19691167.160   105149738.989 8      4184.339          48.062    19691165.640   105149738.996 7      4184.339          47.500    19691171.360    81783138.965 8      3254.486          51.187    19691171.080    81783142.959 8      3254.486          52.375
G26  20638632.940   108456750.676 8      3107.832          48.062    20638631.800   108456750.687 7      3107.832          47.750    20638636.460    84511776.142 7      2421.687          47.625    20638636.620    84511776.140 8      2421.687          48.750
> 2024 05 08 09 44 27.0000000  0 14
G28  21738080.460   114234375.042 7      -286.489          45.000    21738079.240   114234375.052 5      -286.489          35.500    21738081.900    89013809.628 5      -223.238          35.062    21738082.360    89013812.620 8      -223.238          48.000
G04  24435080.100   128407222.157 5      2178.747          33.437    24435079.700   128407222.172 1      2178.747          11.812    24435085.340   100057579.746 1      1697.725          11.375    24435086.240   100057591.762 5      1697.725          34.875
R10  22290288.600   118819785.558 6      5940.024          41.625    22290288.120   118819785.583 6      5940.024          40.625
R18  23213816.820   123916930.276 6     -1571.238          41.250    23213815.060   123916930.266 7     -1571.238          42.125    23213827.560    96379876.990 7     -1222.074          44.687    23213826.580    96379873.992 7     -1222.074          45.500
G31  20657390.280   108555314.474 7      1370.700          47.562    20657389.320   108555314.473 8      1370.700          48.312    20657390.140    84588561.561 8      1068.078          48.375    20657390.880    84588560.562 8      1068.078          50.375
R20  20188771.020   107958429.249 6      5130.679          36.187    20188770.000   107958429.264 6      5130.679          36.875    20188779.740    83967703.792 7      3990.528          44.437    20188780.440    83967706.801 7      3990.528          44.000
G18  21608733.100   113554654.541 7      1505.218          47.125    21608732.620   113554654.549 6      1505.218          39.125    21608734.740    88484146.400 6      1172.897          38.875    21608735.060    88484155.398 8      1172.897          50.937
G29  24808794.820   130371089.499 6      -409.535          38.250    24808793.240   130371089.507 5      -409.535          32.750    24808799.920   101587856.266 5      -319.118          32.625    24808800.840   101587854.257 6      -319.118          39.250
G27  21848369.420   114813960.518 7      4314.333          45.250    21848368.100   114813960.518 6      4314.333          37.875    21848373.360    89465434.142 6      3361.818          37.187    21848376.100    89465449.142 8      3361.818          48.687
R16  20940502.540   111860401.502 7       714.136          47.812    20940502.260   111860401.501 8       714.136          48.000    20940510.480    87002570.537 8       555.439          48.750    20940510.580    87002571.537 8       555.439          48.375
G23  24770051.880   130167508.505 6      4678.729          41.937    24770051.340   130167508.515 4      4678.729          27.062    24770061.580   101429248.585 4      3645.763          26.937    24770060.700   101429264.596 7      3645.763          43.312
G16  21988178.920   115548659.594 7      4416.326          44.562    21988177.400   115548659.604 5      4416.326          32.125    21988179.480    90037909.149 5      3441.293          32.062
R09  19690383.740   105145554.534 8      4184.267          48.000    19690382.200   105145554.538 8      4184.267          48.062    19690387.860    81779884.389 8      3254.430          52.062    19690387.720    81779888.383 8      3254.430          52.750
G26  20638041.520   108453642.725 7      3107.877          47.375    20638040.380   108453642.727 7      3107.877          47.187    20638045.140    84509354.357 7      2421.723          47.000    20638045.320    84509354.354 8      2421.723          49.500
> 2024 05 08 09 44 28.0000000  0 14
G28  21738135.020   114234661.801 7      -286.946          45.375    21738133.780   114234661.811 5      -286.946          35.750    21738136.560    89014033.075 5      -223.594          35.375    21738136.780    89014036.064 8      -223.594          48.562
G04  24434665.980   128405043.873 5      2177.821          33.062    24434665.200   128405043.881 1      2177.821          11.812    24434670.800   100055882.382 1      1697.004          11.375    24434671.920   100055894.395 5      1697.004          34.875
R10  22289174.720   118813845.608 6      5939.967          41.625    22289173.960   118813845.630 6      5939.967          40.625
R18  23214110.860   123918501.585 6     -1571.363          41.250    23214109.760   123918501.585 7     -1571.363          42.062    23214121.980    96381099.121 7     -1222.171          45.250    23214120.960    96381096.129 7     -1222.171          45.062
G31  20657129.520   108553944.108 8      1370.090          48.937    20657128.500   108553944.107 8      1370.090          48.562    20657129.300    84587493.739 8      1067.603          48.687    20657130.180    84587492.740 8      1067.603          50.187
R20  20187812.040   107953298.730 6      5130.233          36.187    20187810.640   107953298.750 6      5130.233          36.875    20187820.300    83963713.388 7      3990.181          44.375    20187821.160    83963716.393 7      3990.181          44.812
G18  21608446.860   113553149.623 7      1504.571          46.375    21608446.240   113553149.630 6      1504.571          39.312    21608448.380    88482973.730 6      1172.393          38.750    21608448.800    88482982.726 8      1172.393          50.625
G29  24808873.060   130371499.121 6      -409.755          37.875    24808871.140   130371499.129 5      -409.755          32.750    24808877.840   101588175.442 5      -319.289          32.625    24808879.220   101588173.425 6      -319.289          39.250
G27  21847548.340   114809646.278 7      4314.067          45.312    21847547.020   114809646.278 6      4314.067          37.375    21847552.360    89462072.399 6      3361.611          37.312    21847555.200    89462087.399 8      3361.611          48.500
R16  20940369.020   111859687.645 8       713.628          48.250    20940368.680   111859687.649 8       713.628          48.000    20940376.940    87002015.317 8       555.044          48.562    20940377.080    87002016.313 8       555.044          48.687
G23  24769161.600   130162829.826 7      4678.628          42.625    24769161.020   130162829.831 4      4678.628          27.250    24769171.300   101425602.863 4      3645.684          27.375    24769170.260   101425618.879 7      3645.684          42.125
G16  21987338.260   115544243.354 7      4416.068          45.062    21987337.040   115544243.367 5      4416.068          32.187    21987339.240    90034467.925 5      3441.092          32.062
R09  19689600.060   105141370.501 8      4183.799          48.562    19689598.580   105141370.499 8      4183.799          48.125    19689604.280    81776630.133 8      3254.066          52.062    19689604.120    81776634.129 8      3254.066          52.562
G26  20637450.440   108450534.986 7      3107.569          46.500    20637448.900   108450534.996 7      3107.569          47.875    20637453.660    84506932.747 7      2421.482          47.937    20637454.060    84506932.749 8      2421.482          48.875
> 2024 05 08 09 44 29.0000000  0 14
G28  21738189.500   114234949.199 7      -287.842          45.375    21738188.420   114234949.209 5      -287.842          35.750    21738191.300    89014257.017 5      -224.293          35.375    21738191.720    89014260.009 8      -224.293          48.687
G04  24434251.860   128402866.242 5      2177.321          33.062    24434250.460   128402866.249 1      2177.321          11.812    24434256.480   100054185.527 1      1696.614          11.375    24434257.140   100054197.517 5      1696.614          34.875
R10  22288060.600   118807905.933 6      5939.377          41.062    22288060.040   118807905.960 6      5939.377          40.625
R18  23214405.760   123920073.264 6     -1571.885          41.500    23214404.320   123920073.262 7     -1571.885          42.125    23214416.340    96382321.534 7     -1222.577          45.125    23214415.580    96382318.540 7     -1222.577          45.312
G31  20656868.900   108552574.567 8      1369.060          48.812    20656867.880   108552574.566 8      1369.060          48.312    20656868.740    84586426.562 8      1066.800          48.562    20656869.560    84586425.563 8      1066.800          50.375
R20  20186851.840   107948169.235 6      5128.861          36.187    20186851.380   107948169.257 6      5128.861          36.875    20186860.980    83959723.780 7      3989.114          44.562    20186861.980    83959726.786 7      3989.114          44.500
G18  21608160.640   113551645.555 7      1503.495          47.437    21608160.020   113551645.560 6      1503.495          38.812    21608162.000    88481801.729 6      1171.555          39.000    21608162.420    88481810.728 8      1171.555          50.562
G29  24808950.920   130371908.851 6      -409.965          38.625    24808949.060   130371908.856 5      -409.965          32.625    24808955.940   101588494.703 5      -319.453          32.500    24808957.580   101588492.687 6      -319.453          39.687
G27  21846727.620   114805332.651 7      4313.192          45.812    21846726.160   114805332.651 6      4313.192          37.312    21846731.420    89458711.129 6      3360.929          37.312    21846734.340    89458726.127 8      3360.929          49.000
R16  20940235.660   111858974.555 7       712.654          47.437    20940235.000   111858974.551 7       712.654          47.875    20940243.480    87001460.683 8       554.286          48.750    20940243.220    87001461.679 8       554.286          48.500
G23  24768271.560   130158151.394 6      4678.186          41.125    24768270.780   130158151.405 4      4678.186          27.250    24768281.080   101421957.340 4      3645.340          27.375    24768280.720   101421973.355 7      3645.340          42.625
G16  21986497.940   115539827.450 7      4415.612          44.250    21986496.560   115539827.463 5      4415.612          32.187    21986499.000    90031026.963 5      3440.736          32.062
R09  19688816.780   105137187.162 7      4182.866          47.625    19688815.080   105137187.158 8      4182.866          48.000    19688820.860    81773376.427 8      3253.340          51.875    19688820.860    81773380.421 8      3253.340          52.375
G26  20636858.880   108447427.755 7      3106.866          47.500    20636857.660   108447427.760 7      3106.866          47.562    20636862.400    84504511.524 7      2420.935          47.625    20636862.840    84504511.524 8      2420.935          49.312
> 2024 05 08 09 44 30.0000000  0 14
G28  21738244.360   114235236.894 7      -287.709          44.812    21738243.240   114235236.901 5      -287.709          35.187    21738246.000    89014481.191 5      -224.189          35.187    21738246.540    89014484.186 8      -224.189          48.687
G04  24433837.840   128400689.020 5      2177.354          33.062    24433836.000   128400689.028 1      2177.354          11.000    24433842.080   100052488.988 1      1696.639          11.375    24433843.080   100052500.997 5      1696.639          34.875
R10  22286946.660   118801966.188 6      5939.917          41.062    22286945.320   118801966.202 6      5939.917          40.250
R18  23214699.860   123921644.981 6     -1571.614          41.250    23214698.440   123921644.979 7     -1571.614          42.125    23214710.720    96383543.979 7     -1222.366          45.500    23214709.800    96383540.986 7     -1222.366          45.562
G31  20656608.340   108551205.509 8      1368.927          48.062    20656607.400   108551205.511 8      1368.927          48.875    20656608.180    84585359.766 8      1066.697          48.812    20656609.000    84585358.765 8      1066.697          49.562
R20  20185891.920   107943040.287 6      5128.740          36.187    20185892.220   107943040.305 6      5128.740          36.875    20185902.220    83955734.599 7      3989.020          44.937    20185902.940    83955737.605 7      3989.020          44.687
G18  21607874.760   113550141.987 7      1503.405          47.000    21607873.940   113550141.997 6      1503.405          39.187    21607875.880    88480630.126 6      1171.484          39.250    21607876.220    88480639.125 8      1171.484          50.562
G29  24809028.620   130372318.421 6      -409.425          38.625    24809027.000   130372318.428 5      -409.425          32.625    24809033.960   101588813.842 5      -319.032          32.500    24809035.220   101588811.830 6      -319.032          39.687
G27  21845906.860   114801019.252 7      4313.388          44.812    21845905.340   114801019.252 6      4313.388          37.062    21845910.680    89455350.041 6      3361.082          36.750    21845913.580    89455365.039 8      3361.082          48.875
R16  20940102.160   111858261.884 8       712.530          48.187    20940101.740   111858261.882 7       712.530          47.875    20940110.060    87000906.381 8       554.190          48.312    20940109.780    87000907.377 8       554.190          48.187
G23  24767381.100   130153472.907 6      4678.613          41.687    24767380.420   130153472.915 4      4678.613          27.250    24767390.840   101418311.774 4      3645.673          27.375    24767391.000   101418327.793 7      3645.673          43.562
G16  21985657.620   115535411.549 7      4415.987          43.000    21985656.140   115535411.559 5      4415.987          32.125    21985658.800    90027585.999 5      3441.029          32.000
R09  19688033.440   105133004.173 8      4182.888          48.437    19688031.980   105133004.171 7      4182.888          47.375    19688037.540    81770122.995 8      3253.357          51.937    19688037.520    81770126.991 8      3253.357          52.875
G26  20636267.740   108444320.691 7      3107.050          46.875    20636266.360   108444320.696 7      3107.050          47.437    20636271.160    84502090.435 7      2421.078          47.437    20636271.620    84502090.435 8      2421.078          48.625
> 2024 05 08 09 44 31.0000000  0 14
G28  21738299.420   114235525.006 7      -288.332          44.875    21738298.060   114235525.011 5      -288.332          35.562    21738300.940    89014705.690 5      -224.675          35.312    21738301.600    89014708.677 8      -224.675          48.500
G04  24433423.080   128398512.285 5      2176.662          33.062    24433421.740   128398512.295 1      2176.662          11.000    24433427.720   100050792.837 1      1696.100          11.375    24433428.940   100050804.829 5      1696.100          34.875
R10  22285832.240   118796026.489 6      5939.596          41.000    22285831.840   118796026.492 6      5939.596          40.250
R18  23214993.900   123923216.777 6     -1571.840          41.250    23214993.380   123923216.781 7     -1571.840          42.250    23215005.400    96384766.487 7     -1222.543          45.437    23215004.480    96384763.497 7     -1222.543          45.875
G31  20656348.020   108549837.040 8      1368.087          48.500    20656347.000   108549837.045 8      1368.087          48.812    20656347.780    84584293.428 8      1066.042          48.750    20656348.800    84584292.431 8      1066.042          50.062
R20  20184932.420   107937912.059 6      5127.695          36.187    20184932.760   107937912.085 6      5127.695          36.562    20184943.040    83951745.988 7      3988.207          44.125    20184944.060    83951748.989 7      3988.207          44.500
G18  21607588.640   113548639.055 7      1502.522          47.375    21607588.060   113548639.062 6      1502.522          39.437    21607589.980    88479459.004 6      1170.796          38.875    21607590.240    88479467.998 8      1170.796          50.625
G29  24809106.320   130372727.911 6      -409.583          37.875    24809104.840   130372727.919 5      -409.583          32.375    24809112.060   101589132.924 5      -319.155          32.312    24809112.800   101589130.916 6      -319.155          39.687
G27  21845086.040   114796706.206 7      4312.831          45.312    21845084.480   114796706.205 6      4312.831          37.125    21845089.900    89451989.225 6      3360.648          37.062    21845092.660    89452004.225 8      3360.648          48.562
R16  20939968.900   111857549.747 7       711.771          47.312    20939968.320   111857549.748 7       711.771          47.687    20939976.540    87000352.501 8       553.599          48.875    20939976.700    87000353.495 8       553.599          48.687
G23  24766490.880   130148794.410 6      4678.370          41.000    24766490.160   130148794.415 4      4678.370          27.250    24766500.620   101414666.198 4      3645.483          27.375    24766500.700   101414682.219 7      3645.483          43.562
G16  21984817.540   115530995.769 7      4415.594          44.062    21984815.800   115530995.779 5      4415.594          32.125    21984818.640    90024145.136 5      3440.723          32.000
R09  19687250.220   105128821.627 7      4182.253          47.687    19687248.740   105128821.628 8      4182.253          48.125    19687254.220    81766869.905 8      3252.863          51.875    19687254.100    81766873.902 8      3252.863          53.125
G26  20635676.520   108441213.883 7      3106.545          47.750    20635675.180   108441213.888 8      3106.545          48.375    20635680.040    84499669.545 7      2420.684          47.812    20635680.500    84499669.548 8      2420.684          49.062
> 2024 05 08 09 44 32.0000000  0 14
G28  21738354.340   114235813.571 7      -288.620          45.687    21738352.980   114235813.581 5      -288.620          35.625    21738355.780    89014930.546 5      -224.898          35.500    21738356.440    89014933.537 7      -224.898          47.875
G04  24433008.840   128396336.109 5      2176.216          32.750    24433007.480   128396336.119 1      2176.216          11.000    24433013.580   100049097.117 1      1695.752          11.375    24433014.780   100049109.120 5      1695.752          34.687
R10  22284718.100   118790086.869 6      5939.734          41.000    22284717.440   118790086.872 6      5939.734          40.250
R18  23215288.320   123924788.750 6     -1571.887          41.875    23215287.880   123924788.754 7     -1571.887          42.687    23215299.780    96385989.131 7     -1222.579          45.000    23215299.060    96385986.138 7     -1222.579          45.000
G31  20656087.700   108548469.209 7      1367.677          47.750    20656086.760   108548469.206 7      1367.677          47.875    20656087.540    84583227.580 7      1065.722          47.625    20656088.380    84583226.579 8      1065.722          49.500
R20  20183974.320   107932784.567 6      5127.586          36.375    20183974.120   107932784.579 6      5127.586          36.562    20183984.320    83947757.923 7      3988.123          43.562    20183984.940    83947760.931 7      3988.123          44.250
G18  21607302.760   113547136.779 7      1502.079          47.812    21607302.120   113547136.784 6      1502.079          39.312    21607304.100    88478288.400 6      1170.451          39.062    21607304.400    88478297.398 8      1170.451          49.687
G29  24809184.100   130373137.376 6      -409.139          37.000    24809182.940   130373137.381 5      -409.139          32.375    24809189.880   101589451.977 5      -318.810          32.312    24809191.160   101589449.952 6      -318.810          39.687
G27  21844265.640   114792393.569 7      4312.615          46.000    21844263.860   114792393.568 6      4312.615          37.000    21844269.320    89448628.731 6      3360.479          37.000    21844272.120    89448643.729 8      3360.479          48.437
R16  20939835.820   111856838.244 8       711.371          48.500    20939835.200   111856838.239 7       711.371          47.562    20939843.600    86999799.099 8       553.289          48.000    20939843.740    86999800.097 7       553.289          47.875
G23  24765600.540   130144116.001 6      4678.483          40.812    24765599.940   130144116.009 4      4678.483          27.250    24765610.260   101411020.693 4      3645.571          27.375    24765609.620   101411036.704 7      3645.571          42.312
G16  21983977.260   115526580.144 7      4415.636          44.062    21983975.440   115526580.152 5      4415.636          32.125    21983978.400    90020704.387 5      3440.755          32.000
R09  19686466.980   105124639.594 7      4181.930          47.562    19686465.600   105124639.597 7      4181.930          47.875    19686471.100    81763617.213 8      3252.612          50.750    19686471.140    81763621.209 8      3252.612          50.687
G26  20635085.360   108438107.382 7      3106.449          47.437    20635083.980   108438107.389 7      3106.449          46.937    20635088.820    84497248.895 7      2420.610          46.937    20635089.400    84497248.898 8      2420.610          48.750
> 2024 05 08 09 44 33.0000000  0 14
G28  21738409.520   114236102.692 7      -289.267          45.937    21738407.900   114236102.702 5      -289.267          35.625    21738410.720    89015155.833 5      -225.403          35.500    21738411.580    89015158.829 8      -225.403          48.375
G04  24432595.220   128394160.579 5      2175.290          32.750    24432593.680   128394160.595 1      2175.290          11.000    24432599.560   100047401.900 1      1695.031          11.375    24432601.000   100047413.908 5      1695.031          34.687
R10  22283604.320   118784147.409 6      5939.466          41.750    22283602.960   118784147.421 6      5939.466          40.187
R18  23215583.320   123926360.926 7     -1572.237          42.250    23215582.340   123926360.924 7     -1572.237          42.687    23215594.320    96387211.936 7     -1222.851          45.437    23215593.640    96387208.944 7     -1222.851          45.437
G31  20655827.660   108547102.109 8      1366.855          48.062    20655826.580   108547102.112 8      1366.855          48.375    20655827.360    84582162.309 8      1065.082          48.312    20655828.300    84582161.311 8      1065.082          50.312
R20  20183015.320   107927657.967 6      5126.268          36.375    20183015.680   107927658.000 6      5126.268          36.562    20183025.340    83943770.591 7      3987.097          44.062    20183026.240    83943773.598 7      3987.097          44.500
G18  21607016.900   113545635.266 7      1501.214          47.812    21607016.360   113545635.274 6      1501.214          39.062    21607018.360    88477118.385 6      1169.777          39.000    21607018.680    88477127.384 8      1169.777          50.750
G29  24809262.120   130373546.911 6      -409.360          38.125    24809260.780   130373546.924 5      -409.360          32.375    24809268.020   101589771.091 5      -318.982          32.312    24809269.320   101589769.077 6      -318.982          39.562
G27  21843445.100   114788081.410 7      4312.110          46.062    21843443.300   114788081.415 6      4312.110          37.437    21843448.800    89445268.608 6      3360.085          37.187    21843451.560    89445283.609 8      3360.085          48.625
R16  20939702.680   111856127.418 8       710.597          48.250    20939702.180   111856127.422 8       710.597          48.250    20939710.460    86999246.239 8       552.687          48.250    20939710.500    86999247.233 7       552.687          47.875
G23  24764710.240   130139437.738 6      4678.246          41.375    24764709.800   130139437.745 4      4678.246          27.250    24764719.940   101407375.295 4      3645.387          27.125    24764719.480   101407391.301 7      3645.387          42.625
G16  21983136.960   115522164.737 7      4415.378          43.875    21983135.100   115522164.750 5      4415.378          31.875    21983138.120    90017263.816 5      3440.554          31.875
R09  19685683.980   105120458.145 8      4181.308          48.312    19685682.540   105120458.143 8      4181.308          48.125    19685688.160    81760364.973 8      3252.128          51.250    19685688.080    81760368.969 8      3252.128          51.875
G26  20634494.200   108435001.296 7      3105.947          47.250    20634492.920   108435001.301 7      3105.947          47.625    20634497.840    84494828.567 7      2420.218          47.437    20634498.440    84494828.569 8      2420.218          49.500
> 2024 05 08 09 44 34.0000000  0 14
G28  21738464.500   114236392.077 7      -289.417          45.437    21738463.020   114236392.087 5      -289.417          35.000    21738465.880    89015381.323 5      -225.520          35.187    21738466.320    89015384.311 8      -225.520          48.250
G04  24432180.480   128391985.397 5      2174.938          32.750    24432179.640   128391985.415 1      2174.938          11.000    24432185.820   100045706.954 1      1694.757          11.375    24432186.920   100045718.956 5      1694.757          34.687
R10  22282489.500   118778207.835 6      5939.603          41.750    22282488.620   118778207.849 6      5939.603          40.187
R18  23215877.600   123927933.051 6     -1572.017          41.937    23215876.760   123927933.063 7     -1572.017          42.500    23215889.040    96388434.700 7     -1222.680          45.375    23215888.080    96388431.705 7     -1222.680          45.937
G31  20655567.520   108545735.464 8      1366.466          48.500    20655566.540   108545735.466 8      1366.466          48.750    20655567.280    84581097.387 8      1064.779          48.625    20655568.120    84581096.388 8      1064.779          49.937
R20  20182056.160   107922531.942 6      5125.818          36.375    20182056.300   107922531.967 6      5125.818          36.562    20182066.760    83939783.676 7      3986.748          44.562    20182067.780    83939786.682 7      3986.748          44.312
G18  21606731.300   113544134.220 8      1500.891          48.000    21606730.720   113544134.228 6      1500.891          39.187    21606732.880    88475948.741 6      1169.525          38.812    21606732.960    88475957.740 8      1169.525          50.812
G29  24809340.480   130373956.273 6      -409.138          38.000    24809338.780   130373956.281 5      -409.138          32.250    24809345.940   101590090.067 5      -318.809          32.312    24809346.580   101590088.050 6      -318.809          39.562
G27  21842624.540   114783769.462 7      4311.940          45.750    21842622.780   114783769.464 6      4311.940          37.187    21842628.240    89441908.646 6      3359.953          37.250    21842631.180    89441923.652 8      3359.953          49.375
R16  20939569.800   111855416.999 8       710.318          48.562    20939569.060   111855416.997 7       710.318          47.500    20939577.540    86998693.687 8       552.469          48.500    20939577.360    86998694.682 8       552.469          48.687
G23  24763820.000   130134759.342 6      4678.558          41.812    24763819.420   130134759.350 4      4678.558          27.125    24763829.620   101403729.798 4      3645.630          27.125    24763828.940   101403745.823 7      3645.630          42.625
G16  21982297.080   115517749.323 7      4415.574          44.875    21982295.060   115517749.335 5      4415.574          31.875    21982297.900    90013823.238 5      3440.707          31.875
R09  19684901.060   105116277.027 7      4181.027          47.937    19684899.640   105116277.028 7      4181.027          47.937    19684905.040    81757112.995 8      3251.910          52.000    19684905.020    81757116.993 8      3251.910          52.750
G26  20633903.120   108431895.334 7      3105.939          47.437    20633901.880   108431895.338 7      3105.939          47.625    20633906.660    84492408.336 7      2420.212          47.375    20633907.300    84492408.336 8      2420.212          49.062
> 2024 05 08 09 44 35.0000000  0 14
G28  21738519.680   114236681.863 7      -290.061          45.187    21738518.280   114236681.873 5      -290.061          35.375    21738521.080    89015607.129 5      -226.022          35.250    21738521.680    89015610.116 7      -226.022          47.875
G04  24431767.280   128389810.684 5      2174.196          32.750    24431765.960   128389810.702 1      2174.196          11.000    24431771.700   100044012.377 1      1694.179          10.750    24431772.600   100044024.369 5      1694.179          34.687
R10  22281374.840   118772268.258 6      5939.601          40.625    22281373.900   118772268.264 6      5939.601          39.562
R18  23216172.240   123929505.342 6     -1572.501          41.937    23216171.760   123929505.332 7     -1572.501          42.375    23216183.660    96389657.582 7     -1223.056          45.562    23216182.740    96389654.588 7     -1223.056          45.562
G31  20655307.380   108544369.383 8      1365.700          48.125    20655306.640   108544369.385 7      1365.700          47.750    20655307.300    84580032.912 8      1064.182          48.000    20655308.140    84580031.916 8      1064.182          50.000
R20  20181097.960   107917406.610 6      5124.820          36.375    20181098.020   107917406.643 6      5124.820          36.562    20181108.180    83935797.305 7      3985.971          44.812    20181109.660    83935800.308 7      3985.971          44.875
G18  21606445.840   113542633.792 7      1499.991          46.625    21606445.280   113542633.805 6      1499.991          39.500    21606447.280    88474779.574 6      1168.824          39.312    21606447.680    88474788.575 8      1168.824          50.500
G29  24809418.460   130374365.522 6      -409.178          38.000    24809416.560   130374365.530 5      -409.178          32.250    24809424.060   101590408.956 5      -318.840          32.312    24809424.520   101590406.939 6      -318.840          39.375
G27  21841804.140   114779457.868 7      4311.358          45.500    21841802.240   114779457.873 6      4311.358          37.375    21841807.820    89438548.962 6      3359.500          37.875    21841810.700    89438563.964 8      3359.500          48.062
R16  20939436.840   111854707.090 8       709.616          48.687    20939436.180   111854707.093 7       709.616          47.437    20939444.580    86998141.535 8       551.924          48.812    20939444.600    86998142.533 8       551.924          48.062
G23  24762929.980   130130080.981 6      4678.327          41.812    24762929.140   130130080.992 4      4678.327          27.125    24762939.380   101400084.332 4      3645.450          27.125    24762937.860   101400100.347 7      3645.450          42.687
G16  21981456.640   115513334.013 7      4415.187          44.500    21981454.740   115513334.023 5      4415.187          32.125    21981457.860    90010382.736 5      3440.405          32.125
R09  19684118.120   105112096.348 7      4180.363          47.812    19684116.820   105112096.354 8      4180.363          48.375    19684122.220    81753861.357 8      3251.393          52.312    19684122.220    81753865.353 8      3251.393          52.562
G26  20633312.020   108428789.613 7      3105.541          46.812    20633310.840   108428789.623 7      3105.541          47.500    20633315.620    84489988.300 7      2419.902          47.187    20633316.220    84489988.300 8      2419.902          48.500
> 2024 05 08 09 44 36.0000000  0 14
G28  21738574.800   114236972.162 7      -290.661          45.625    21738573.480   114236972.174 5      -290.661          35.500    21738576.260    89015833.335 5      -226.489          35.250    21738576.860    89015836.323 8      -226.489          48.312
G04  24431352.180   128387636.495 5      2173.890          32.250    24431352.360   128387636.513 1      2173.890          11.000    24431357.940   100042318.206 1      1693.940          10.750    24431358.800   100042330.234 5      1693.940          34.687
R10  22280261.040   118766328.852 6      5939.203          40.625    22280260.240   118766328.858 6      5939.203          39.562
R18  23216466.780   123931077.798 6     -1572.717          41.687    23216466.120   123931077.788 7     -1572.717          42.375    23216478.060    96390880.597 7     -1223.225          45.437    23216477.300    96390877.605 7     -1223.225          45.875
G31  20655047.760   108543004.009 8      1364.918          48.437    20655046.800   108543004.009 8      1364.918          48.125    20655047.600    84578968.981 8      1063.572          48.437    20655048.420    84578967.984 8      1063.572          50.000
R20  20180139.720   107912282.095 6      5123.970          36.375    20180140.580   107912282.107 6      5123.970          36.812    20180150.100    83931811.561 7      3985.310          44.437    20180151.200    83931814.562 7      3985.310          44.625
G18  21606160.420   113541134.084 7      1499.210          47.437    21606159.840   113541134.091 6      1499.210          39.250    21606162.000    88473610.968 6      1168.215          38.812    21606162.280    88473619.967 8      1168.215          50.812
G29  24809496.380   130374774.858 6      -409.409          37.562    24809494.460   130374774.866 5      -409.409          32.375    24809501.980   101590727.909 5      -319.020          32.187    24809502.980   101590725.884 6      -319.020          39.375
G27  21840983.460   114775146.724 7      4310.817          45.437    21840981.860   114775146.723 6      4310.817          37.687    21840987.380    89435189.631 6      3359.078          37.625    21840990.160    89435204.627 8      3359.078          49.062
R16  20939303.860   111853997.843 8       708.837          48.750    20939303.520   111853997.844 7       708.837          47.500    20939311.640    86997589.894 8       551.318          48.562    20939311.740    86997590.890 8       551.318          48.750
G23  24762039.600   130125402.728 6      4678.220          41.812    24762038.980   130125402.738 4      4678.220          27.125    24762049.160   101396438.944 4      3645.366          27.125    24762048.580   101396454.959 7      3645.366          42.250
G16  21980616.480   115508918.913 7      4414.878          44.000    21980614.480   115508918.926 5      4414.878          32.125    21980617.680    90006942.401 5      3440.165          32.125
R09  19683335.060   105107916.245 8      4179.670          48.625    19683333.900   105107916.248 8      4179.670          48.625    19683339.500    81750610.166 8      3250.855          52.937    19683339.480    81750614.162 8      3250.855          51.937
G26  20632721.420   108425684.268 7      3105.160          47.625    20632720.000   108425684.278 7      3105.160          47.312    20632724.740    84487568.547 7      2419.605          47.375    20632725.560    84487568.551 8      2419.605          48.875
> 2024 05 08 09 44 37.0000000  0 14
G28  21738629.980   114237262.960 7      -291.098          45.062    21738628.900   114237262.970 5      -291.098          35.562    21738631.660    89016059.925 5      -226.830          35.250    21738632.120    89016062.912 8      -226.830          48.000
G04  24430939.040   128385462.946 5      2173.346          32.250    24430938.740   128385462.970 1      2173.346          11.000    24430944.500   100040624.532 1      1693.516          10.750    24430944.380   100040636.554 5      1693.516          34.812
R10  22279146.580   118760389.521 6      5939.315          40.625    22279145.640   118760389.526 6      5939.315          39.562
R18  23216761.160   123932650.425 6     -1572.735          41.937    23216760.340   123932650.423 7     -1572.735          42.375    23216772.660    96392103.760 7     -1223.238          45.687    23216771.780    96392100.767 7     -1223.238          45.812
G31  20654788.000   108541639.300 7      1364.311          47.312    20654787.180   108541639.305 8      1364.311          48.375    20654787.780    84577905.573 8      1063.100          48.187    20654788.520    84577904.574 8      1063.100          49.500
R20  20179181.600   107907158.338 6      5123.351          36.375    20179181.400   107907158.374 6      5123.351          36.812    20179191.920    83927826.433 7      3984.829          44.125    20179193.060    83927829.434 7      3984.829          44.437
G18  21605875.080   113539635.061 7      1498.624          47.000    21605874.560   113539635.069 6      1498.624          39.062    21605876.780    88472442.897 6      1167.759          38.750    21605877.420    88472451.899 8      1167.759          50.437
G29  24809573.980   130375184.157 6      -409.377          37.187    24809572.480   130375184.159 5      -409.377          32.375    24809580.000   101591046.837 5      -318.995          32.187    24809580.760   101591044.824 6      -318.995          39.375
G27  21840163.300   114770836.000 7      4310.470          46.125    21840161.600   114770836.002 6      4310.470          37.937    21840166.820    89431830.625 6      3358.808          37.812    21840169.960    89431845.625 8      3358.808          48.687
R16  20939171.240   111853289.210 8       708.314          48.125    20939170.680   111853289.208 7       708.314          47.625    20939179.240    86997038.730 8       550.911          48.187    20939179.240    86997039.725 8       550.911          48.500
G23  24761149.620   130120724.598 6      4677.983          41.125    24761148.680   130120724.614 4      4677.983          27.125    24761158.900   101392793.658 4      3645.182          27.125    24761158.620   101392809.692 7      3645.182          43.312
G16  21979776.020   115504503.985 7      4414.913          43.062    21979774.300   115504503.990 5      4414.913          32.062    21979777.520    90003502.193 5      3440.192          32.125
R09  19682552.160   105103736.649 7      4179.236          47.937    19682551.280   105103736.653 8      4179.236          48.250    19682556.780    81747359.369 8      3250.517          51.875    19682556.700    81747363.363 8      3250.517          51.375
G26  20632130.440   108422579.288 7      3104.743          47.062    20632129.100   108422579.298 7      3104.743          47.562    20632133.880    84485149.084 7      2419.280          47.312    20632134.420    84485149.084 8      2419.280          48.062
> 2024 05 08 09 44 38.0000000  0 14
G28  21738685.740   114237554.138 7      -291.360          44.437    21738684.220   114237554.149 5      -291.360          35.312    21738687.140    89016286.812 5      -227.034          35.312    21738687.800    89016289.801 8      -227.034          48.187
G04  24430526.300   128383289.931 5      2172.739          32.250    24430525.240   128383289.957 1      2172.739          11.000    24430531.220   100038931.275 1      1693.044          10.750    24430531.560   100038943.282 5      1693.044          34.812
R10  22278032.540   118754450.240 6      5939.467          40.875    22278031.640   118754450.235 6      5939.467          39.750
R18  23217055.960   123934223.150 6     -1572.693          41.937    23217055.320   123934223.151 7     -1572.693          42.750    23217067.400    96393326.989 7     -1223.206          45.500    23217066.600    96393323.994 7     -1223.206          45.875
G31  20654528.500   108540275.159 7      1363.919          47.312    20654527.540   108540275.161 8      1363.919          48.375    20654528.260    84576842.602 8      1062.794          48.562    20654528.820    84576841.601 8      1062.794          49.875
R20  20178223.960   107902035.321 5      5122.680          35.687    20178223.740   107902035.341 6      5122.680          36.812    20178233.580    83923841.856 7      3984.307          44.250    20178234.920    83923844.855 7      3984.307          44.687
G18  21605589.980   113538136.643 8      1498.230          48.375    21605589.380   113538136.653 6      1498.230          39.062    21605591.620    88471275.298 6      1167.452          38.562    21605592.140    88471284.303 8      1167.452          50.875
G29  24809652.600   130375593.372 6      -409.106          37.812    24809650.440   130375593.377 5      -409.106          32.375    24809657.640   101591365.699 5      -318.784          31.625    24809658.620   101591363.683 6      -318.784          39.312
G27  21839343.040   114766525.620 7      4310.226          45.187    21839341.260   114766525.622 6      4310.226          37.875    21839346.760    89428471.886 6      3358.618          37.375    21839349.700    89428486.892 8      3358.618          49.312
R16  20939038.640   111852581.106 8       707.950          48.875    20939038.080   111852581.102 7       707.950          47.812    20939046.640    86996487.984 7       550.627          47.875    20939046.680    86996488.982 8       550.627          48.500
G23  24760259.380   130116046.476 6      4678.170          41.750    24760258.480   130116046.489 4      4678.170          27.125    24760268.700   101389148.375 4      3645.327          27.125    24760268.520   101389164.388 7      3645.327          43.375
G16  21978935.960   115500089.177 7      4414.809          43.187    21978934.020   115500089.187 5      4414.809          32.062    21978937.320    90000062.087 5      3440.111          32.125
R09  19681769.900   105099557.507 8      4179.033          48.375    19681768.900   105099557.508 8      4179.033          48.500    19681774.240    81744108.923 8      3250.359          50.750    19681773.980    81744112.918 8      3250.359          52.812
G26  20631539.720   108419474.545 7      3104.723          47.062    20631538.260   108419474.550 7      3104.723          47.937    20631543.100    84482729.797 7      2419.265          47.687    20631543.760    84482729.806 8      2419.265          48.937
