     3.05           OBSERVATION DATA    MIXED               RINEX VERSION / TYPE
TPS2RIN 1.0.29.3920 TPS-USER            20240511 183535 UTC PGM / RUN BY / DATE
Win64 build Feb 23, 2024 (c) Topcon Positioning Systems     COMMENT
SRC: 20240506_GUI01.tps                                     COMMENT
OPT: -S -v 3.05                                             COMMENT
Observer            Agency                                  OBSERVER / AGENCY
O0M3X53SBGM         TPS HIPER_SR        4.8 HSR Jul,08,2022 REC # / TYPE / VERS
FW: 4.8 HSR Jul,08,2022 p3                                  COMMENT
SN: HiPer SR 1212-12575                                     COMMENT
000                 TPSHIPER_SR     NONE                    ANT # / TYPE
        1.8000        0.0000        0.0000                  ANTENNA: DELTA H/E/N
DELTA H stands for **SLANT** height here!                   COMMENT
GUI01                                                       MARKER NAME
  5389939.9337 -1590422.4309  3008228.3204                  APPROX POSITION XYZ
  2024     5     6    12    43   53.0000000     GPS         TIME OF FIRST OBS
  2024     5     6    12    58   56.0000000     GPS         TIME OF LAST OBS
     1.000                                                  INTERVAL
   904 EPOCHS                                               COMMENT
G   16 C1C L1C D1C S1C C1W L1W D1W S1W C2W L2W D2W S2W C2X  SYS / # / OBS TYPES
       L2X D2X S2X                                          SYS / # / OBS TYPES
R   16 C1C L1C D1C S1C C1P L1P D1P S1P C2P L2P D2P S2P C2C  SYS / # / OBS TYPES
       L2C D2C S2C                                          SYS / # / OBS TYPES
    16                                                      # OF SATELLITES
   G02   904   904   904   904   904   904   904   904   904PRN / # OF OBS
         904   904   904     0     0     0     0            PRN / # OF OBS
   G07   292   292   292   292   289   289   289   289   289PRN / # OF OBS
         289   289   289   285   285   285   285            PRN / # OF OBS
   G08   904   904   904   904   904   904   904   904   904PRN / # OF OBS
         904   904   904   904   904   904   904            PRN / # OF OBS
   G10   904   904   904   904   904   904   904   904   904PRN / # OF OBS
         904   904   904   904   904   904   904            PRN / # OF OBS
   G16   904   904   904   904   904   904   904   904   904PRN / # OF OBS
         904   904   904     0     0     0     0            PRN / # OF OBS
   G21   904   904   904   904   904   904   904   904   904PRN / # OF OBS
         904   904   904     0     0     0     0            PRN / # OF OBS
   G23   904   904   904   904   904   904   904   904   904PRN / # OF OBS
         904   904   904   904   904   904   904            PRN / # OF OBS
   G26   904   904   904   904   904   904   904   904   904PRN / # OF OBS
         904   904   904   904   904   904   904            PRN / # OF OBS
   G27   904   904   904   904   904   904   904   904   904PRN / # OF OBS
         904   904   904   904   904   904   904            PRN / # OF OBS
   R03   904   904   904   904   904   904   904   904   904PRN / # OF OBS
         904   904   904   904   904   904   904            PRN / # OF OBS
   R04   904   904   904   904   904   904   904   904   904PRN / # OF OBS
         904   904   904   904   904   904   904            PRN / # OF OBS
   R09   904   904   904   904   904   904   904   904   904PRN / # OF OBS
         904   904   904   904   904   904   904            PRN / # OF OBS
   R15   904   904   904   904   904   904   904   904   904PRN / # OF OBS
         904   904   904   904   904   904   904            PRN / # OF OBS
   R16   904   904   904   904   904   904   904   904   904PRN / # OF OBS
         904   904   904   904   904   904   904            PRN / # OF OBS
   R18   904   904   904   904   904   904   904   904   904PRN / # OF OBS
         904   904   904   904   904   904   904            PRN / # OF OBS
   R19   620   620   620   620   615   615   615   615   615PRN / # OF OBS
         615   615   615   614   614   614   614            PRN / # OF OBS
G L1C                                                       SYS / PHASE SHIFT
G L1W -0.25000                                              SYS / PHASE SHIFT
G L2W  0.00000                                              SYS / PHASE SHIFT
G L2X  0.25000                                              SYS / PHASE SHIFT
R L1C                                                       SYS / PHASE SHIFT
R L1P -0.25000                                              SYS / PHASE SHIFT
R L2P -0.25000                                              SYS / PHASE SHIFT
R L2C                                                       SYS / PHASE SHIFT
  7 R03  5 R04  6 R09 -2 R15  0 R16 -1 R18 -3 R19  3        GLONASS SLOT / FRQ #
                                                            GLONASS COD/PHS/BIS
    18    18  1929     7GPS                                 LEAP SECONDS
                                                            END OF HEADER
> 2024 05 06 12 43 53.0000000  0 14
G02  22331018.620   117350294.112 7      4501.759          44.875    22331016.700   117350294.119 5      4501.759          35.250    22331021.700    91441800.473 5      3507.864          35.187
R18  21472948.920   114624057.964 7       165.079          45.000    21472948.920   114624057.959 7       165.079          45.125    21472957.320    89152080.059 7       128.395          47.687    21472957.340    89152083.066 8       128.395          48.500
G27  20974824.140   110223435.401 7      2012.871          47.062    20974822.960   110223435.412 8      2012.871          48.937    20974828.500    85888418.434 8      1568.471          48.750    20974828.940    85888421.430 8      1568.471          50.437
R16  19525483.860   104301621.052 8       658.413          50.062    19525484.340   104301621.056 8       658.413          49.000    19525492.720    81123520.811 8       512.099          51.562    19525493.040    81123521.815 8       512.099          51.437
G16  20840959.300   109519973.021 7      1025.640          47.750    20840957.780   109519973.034 6      1025.640          40.625    20840961.520    85340247.655 6       799.200          40.062
R03  23245959.400   124437442.531 7      4605.387          42.875    23245959.440   124437442.549 7      4605.387          42.312    23245973.520    96784737.807 7      3581.968          42.062    23245973.300    96784736.827 6      3581.968          41.312
R15  23011855.400   122968361.328 7     -1693.335          42.750    23011857.300   122968361.343 7     -1693.335          42.437    23011877.120    95642143.846 7     -1317.038          44.250    23011877.000    95642140.844 7     -1317.038          44.562
G21  20837681.760   109502750.646 7      3756.928          47.875    20837679.780   109502750.648 6      3756.928          38.312    20837684.300    85326832.035 6      2927.476          39.000
G08  21176853.980   111285112.595 7      3616.944          47.062    21176852.920   111285112.595 6      3616.944          39.812    21176859.080    86715692.186 6      2818.398          39.500    21176859.720    86715697.194 8      2818.398          51.687
R09  20440345.120   109150296.744 7      5002.339          47.312    20440345.400   109150296.750 7      5002.339          46.812    20440351.600    84894705.190 8      3890.708          50.250    20440351.560    84894708.185 8      3890.708          50.625
G10  22110544.160   116191688.903 7      2281.150          46.625    22110542.680   116191688.911 7      2281.150          45.875    22110549.660    90539003.756 7      1777.520          45.937    22110549.580    90539005.759 8      1777.520          48.250
G26  23027977.060   121012821.461 7      -501.514          43.875    23027976.300   121012821.461 6      -501.514          41.875    23027987.440    94295749.566 6      -390.791          41.687    23027987.040    94295749.566 7      -390.791          45.125
G23  23828282.880   125218470.757 7       445.815          44.875    23828281.700   125218470.764 5       445.815          31.625    23828287.440    97572797.310 5       347.388          31.562    23828288.180    97572868.315 7       347.388          45.000
R04  23907282.460   128022413.645 6      5873.926          41.187    23907282.720   128022413.679 6      5873.926          39.937    23907310.100    99573098.693 7      4568.609          43.812    23907310.360    99573101.677 7      4568.609          44.625
> 2024 05 06 12 43 54.0000000  0 14
G02  22330161.920   117345792.501 7      4501.617          44.875    22330160.060   117345792.506 5      4501.617          35.562    22330165.320    91438292.729 5      3507.753          35.500
R18  21472918.020   114623892.889 7       165.427          44.187    21472917.560   114623892.879 7       165.427          45.312    21472926.400    89151951.662 7       128.665          47.875    21472926.580    89151954.673 8       128.665          48.062
G27  20974441.020   110221422.610 7      2012.897          47.187    20974440.080   110221422.617 8      2012.897          48.250    20974445.420    85886850.031 8      1568.491          48.375    20974446.040    85886853.029 8      1568.491          50.187
R16  19525360.560   104300963.017 8       657.882          49.375    19525361.080   104300963.021 8       657.882          48.250    19525369.500    81123009.008 8       511.686          50.812    19525369.580    81123010.012 8       511.686          50.937
G16  20840764.240   109518947.751 7      1025.250          47.000    20840762.640   109518947.763 6      1025.250          40.562    20840766.360    85339448.749 6       798.896          40.375
R03  23245098.940   124432837.329 7      4605.285          43.250    23245098.940   124432837.338 7      4605.285          42.250    23245113.420    96781155.990 6      3581.888          41.562    23245113.120    96781154.997 6      3581.888          41.312
R15  23012172.260   122970054.733 7     -1693.417          43.375    23012174.340   122970054.744 7     -1693.417          42.625    23012193.860    95643460.907 7     -1317.102          44.125    23012194.020    95643457.913 7     -1317.102          44.312
G21  20836966.880   109498994.000 7      3756.615          46.437    20836964.940   109498994.002 6      3756.615          38.875    20836969.360    85323904.784 6      2927.233          39.375
G08  21176165.780   111281495.788 7      3616.995          47.000    21176164.580   111281495.780 6      3616.995          39.750    21176170.880    86712873.897 6      2818.438          39.375    21176171.620    86712878.905 8      2818.438          51.250
R09  20439408.540   109145294.935 8      5001.666          48.187    20439408.760   109145294.928 7      5001.666          47.250    20439415.060    84890814.884 8      3890.185          49.937    20439414.900    84890817.881 8      3890.185          50.562
G10  22110109.960   116189408.144 7      2280.658          46.000    22110108.700   116189408.149 7      2280.658          46.500    22110115.760    90537226.551 7      1777.136          46.125    22110115.860    90537228.558 7      1777.136          47.875
G26  23028072.500   121013323.172 7      -501.646          43.500    23028072.040   121013323.169 6      -501.646          41.437    23028082.880    94296140.500 6      -390.893          41.562    23028082.440    94296140.492 7      -390.893          44.875
G23  23828198.120   125218025.264 7       445.488          44.750    23828197.060   125218025.271 5       445.488          31.625    23828202.480    97572450.179 5       347.134          31.562    23828203.200    97572521.183 7       347.134          45.000
R04  23906185.540   128016539.600 6      5874.427          41.187    23906186.400   128016539.633 6      5874.427          39.812    23906213.240    99568529.995 7      4568.999          44.312    23906213.720    99568532.994 7      4568.999          45.250
> 2024 05 06 12 43 55.0000000  0 14
G02  22329305.520   117341290.899 7      4501.485          44.125    22329303.360   117341290.906 5      4501.485          35.375    22329308.600    91434784.997 5      3507.651          35.500
R18  21472886.640   114623727.428 7       165.653          44.687    21472886.680   114623727.423 7       165.653          44.500    21472895.260    89151822.986 7       128.841          47.437    21472895.720    89151825.999 7       128.841          46.750
G27  20974057.960   110219409.600 7      2013.136          45.937    20974057.060   110219409.610 8      2013.136          48.500    20974062.360    85885281.456 8      1568.677          48.500    20974063.000    85885284.454 8      1568.677          49.875
R16  19525237.660   104300305.426 8       657.324          49.687    19525237.860   104300305.430 8       657.324          49.000    19525246.400    81122497.554 8       511.252          50.000    19525246.500    81122498.554 8       511.252          49.750
G16  20840569.080   109517922.598 7      1024.960          46.250    20840567.340   109517922.609 6      1024.960          39.812    20840571.400    85338649.931 6       798.670          39.500
R03  23244238.620   124428232.212 7      4605.029          43.187    23244238.740   124428232.230 7      4605.029          42.250    23244253.220    96777574.251 6      3581.689          41.875    23244252.740    96777573.264 6      3581.689          41.625
R15  23012489.320   122971747.851 7     -1693.006          43.375    23012491.420   122971747.863 7     -1693.006          42.625    23012510.260    95644777.758 7     -1316.783          43.875    23012510.480    95644774.760 7     -1316.783          44.250
G21  20836252.220   109495237.477 7      3756.401          46.750    20836250.020   109495237.482 6      3756.401          39.000    20836254.540    85320977.630 6      2927.066          39.062
G08  21175477.300   111277878.739 7      3617.136          46.562    21175476.320   111277878.731 6      3617.136          39.375    21175482.660    86710055.423 6      2818.547          38.875    21175483.380    86710060.434 8      2818.547          51.187
R09  20438471.920   109140293.437 7      5001.270          46.875    20438471.900   109140293.430 7      5001.270          47.312    20438478.400    84886924.836 8      3889.877          49.375    20438478.420    84886927.835 8      3889.877          49.500
G10  22109676.100   116187127.593 7      2280.398          45.937    22109674.800   116187127.598 7      2280.398          45.375    22109681.660    90535449.505 7      1776.934          45.625    22109681.900    90535451.509 7      1776.934          47.500
G26  23028167.980   121013824.713 7      -501.469          44.187    23028167.340   121013824.715 6      -501.469          41.500    23028178.400    94296531.306 6      -390.755          41.375    23028178.000    94296531.304 7      -390.755          44.750
G23  23828113.500   125217579.878 7       445.273          45.750    23828112.340   125217579.886 5       445.273          31.000    23828117.800    97572103.133 5       346.966          31.562    23828118.240    97572174.136 7       346.966          42.187
R04  23905088.520   128010665.139 6      5874.662          40.750    23905089.640   128010665.184 6      5874.662          39.812    23905116.280    99563960.983 7      4569.182          44.250    23905116.620    99563963.984 7      4569.182          44.000
> 2024 05 06 12 43 56.0000000  0 14
G02  22328448.860   117336789.459 7      4501.404          44.437    22328446.740   117336789.466 5      4501.404          35.375    22328451.880    91431277.392 5      3507.588          35.375
R18  21472855.700   114623561.763 7       165.884          45.437    21472855.980   114623561.759 7       165.884          44.437    21472864.220    89151694.124 7       129.021          47.375    21472864.880    89151697.134 7       129.021          47.500
G27  20973675.020   110217396.559 7      2013.088          46.937    20973674.020   110217396.564 8      2013.088          49.187    20973679.320    85883712.855 8      1568.640          48.875    20973679.600    85883715.853 8      1568.640          50.125
R16  19525114.920   104299648.417 8       656.686          49.750    19525115.080   104299648.420 8       656.686          49.187    19525123.480    81121986.549 8       510.756          50.312    19525123.740    81121987.549 8       510.756          50.750
G16  20840374.100   109516897.701 7      1024.703          47.000    20840372.360   109516897.708 6      1024.703          40.500    20840376.420    85337851.316 6       798.470          40.250
R03  23243377.980   124423627.347 7      4604.736          43.187    23243378.420   124423627.373 7      4604.736          42.187    23243392.580    96773992.704 7      3581.461          42.000    23243392.700    96773991.711 7      3581.461          42.375
R15  23012806.120   122973440.929 7     -1692.950          43.625    23012808.420   122973440.957 7     -1692.950          42.062    23012827.160    95646094.591 7     -1316.739          44.562    23012827.400    95646091.601 7     -1316.739          44.312
G21  20835537.200   109491481.233 7      3756.123          47.125    20835535.340   109491481.235 6      3756.123          38.625    20835539.840    85318050.696 6      2926.849          39.062
G08  21174788.980   111274261.583 7      3617.181          46.000    21174788.000   111274261.577 6      3617.181          39.250    21174794.300    86707236.866 6      2818.582          39.125    21174795.080    86707241.880 8      2818.582          51.687
R09  20437535.440   109135292.435 7      5000.825          47.250    20437535.520   109135292.431 7      5000.825          47.125    20437541.840    84883035.176 8      3889.530          50.125    20437542.040    84883038.179 8      3889.530          50.750
G10  22109242.460   116184847.425 7      2280.023          47.375    22109240.920   116184847.435 7      2280.023          46.500    22109247.860    90533672.759 7      1776.641          46.500    22109248.000    90533674.763 7      1776.641          47.812
G26  23028263.440   121014326.306 7      -501.515          44.062    23028262.820   121014326.306 7      -501.515          42.062    23028273.800    94296922.148 7      -390.791          42.312    23028273.580    94296922.146 7      -390.791          45.250
G23  23828028.840   125217134.738 7       444.956          45.750    23828027.680   125217134.748 5       444.956          31.000    23828033.120    97571756.274 5       346.719          31.187    23828033.000    97571827.287 7       346.719          43.500
R04  23903991.440   128004790.358 6      5875.051          40.750    23903992.600   128004790.381 6      5875.051          39.812    23904019.560    99559391.703 7      4569.484          44.062    23904019.760    99559394.699 7      4569.484          43.312
> 2024 05 06 12 43 57.0000000  0 14
G02  22327592.240   117332288.298 7      4500.994          45.000    22327590.280   117332288.303 5      4500.994          35.750    22327595.500    91427769.999 5      3507.268          35.812
R18  21472825.040   114623395.942 7       165.913          45.562    21472824.620   114623395.940 7       165.913          45.000    21472833.200    89151565.159 7       129.043          47.500    21472833.500    89151568.168 7       129.043          47.250
G27  20973292.200   110215383.526 8      2013.053          48.000    20973290.900   110215383.533 8      2013.053          49.187    20973296.320    85882144.264 8      1568.613          49.125    20973296.660    85882147.259 8      1568.613          50.562
R16  19524991.820   104298992.057 8       655.996          49.875    19524992.240   104298992.060 8       655.996          48.562    19525000.620    81121476.049 8       510.219          51.000    19525000.860    81121477.051 8       510.219          51.187
G16  20840179.100   109515873.158 7      1024.283          47.687    20840177.520   109515873.168 6      1024.283          40.187    20840181.400    85337052.971 6       798.143          40.062
R03  23242518.200   124419022.819 7      4604.308          42.937    23242518.540   124419022.842 7      4604.308          42.187    23242532.680    96770411.415 7      3581.128          42.000    23242532.400    96770410.413 7      3581.128          42.062
R15  23013123.240   122975134.037 7     -1693.148          43.437    23013125.600   122975134.062 7     -1693.148          43.062    23013144.480    95647411.427 7     -1316.893          44.250    23013144.100    95647408.438 7     -1316.893          44.875
G21  20834822.540   109487725.349 7      3755.700          47.500    20834820.760   109487725.356 6      3755.700          38.812    20834825.060    85315124.048 6      2926.520          38.750
G08  21174100.900   111270644.424 7      3617.121          47.062    21174099.660   111270644.418 6      3617.121          39.812    21174106.040    86704418.307 6      2818.536          39.187    21174106.820    86704423.321 8      2818.536          51.625
R09  20436599.000   109130291.991 8      5000.087          48.062    20436598.660   109130291.989 7      5000.087          47.062    20436605.320    84879145.950 8      3888.957          50.500    20436605.680    84879148.951 8      3888.957          50.500
G10  22108808.720   116182567.735 8      2279.421          48.062    22108807.140   116182567.745 7      2279.421          46.812    22108814.040    90531896.387 7      1776.172          46.750    22108814.260    90531898.390 7      1776.172          47.687
G26  23028359.040   121014827.999 7      -501.786          44.812    23028358.420   121014827.999 7      -501.786          42.625    23028369.300    94297313.077 7      -391.002          42.062    23028368.640    94297313.084 7      -391.002          45.250
G23  23827944.380   125216689.938 7       444.630          45.312    23827942.920   125216689.946 5       444.630          31.000    23827948.460    97571409.684 5       346.465          31.187    23827948.600    97571480.701 7       346.465          43.687
R04  23902894.260   127998915.328 6      5875.068          40.750    23902895.240   127998915.375 6      5875.068          40.187    23902922.160    99554822.262 7      4569.498          43.750    23902922.580    99554825.254 7      4569.498          44.812
> 2024 05 06 12 43 58.0000000  0 14
G02  22326735.520   117327787.247 7      4500.946          44.812    22326733.720   117327787.254 5      4500.946          35.812    22326738.880    91424262.699 5      3507.230          35.500
R18  21472793.900   114623229.882 7       166.106          45.812    21472793.600   114623229.883 7       166.106          45.000    21472802.140    89151436.029 8       129.194          48.125    21472802.380    89151439.036 7       129.194          47.250
G27  20972909.180   110213370.435 8      2013.026          48.312    20972907.880   110213370.447 8      2013.026          48.562    20972913.200    85880575.634 8      1568.592          48.375    20972913.880    85880578.631 8      1568.592          50.187
R16  19524869.280   104298336.260 8       655.442          48.937    19524869.260   104298336.258 8       655.442          48.625    19524877.920    81120965.985 8       509.788          51.125    19524878.020    81120966.983 8       509.788          50.875
G16  20839984.020   109514848.841 7      1024.241          47.312    20839982.600   109514848.849 6      1024.241          40.250    20839986.460    85336254.806 6       798.110          39.687
R03  23241657.600   124414418.489 7      4604.191          43.062    23241658.400   124414418.517 7      4604.191          42.125    23241672.460    96766830.280 6      3581.038          41.875    23241672.220    96766829.278 6      3581.038          41.625
R15  23013440.420   122976827.053 7     -1693.044          43.875    23013442.440   122976827.073 7     -1693.044          42.687    23013461.700    95648728.204 7     -1316.812          44.062    23013461.000    95648725.212 7     -1316.812          44.562
G21  20834107.860   109483969.730 7      3755.484          47.250    20834106.200   109483969.732 6      3755.484          38.937    20834110.280    85312197.597 6      2926.352          39.000
G08  21173412.380   111267027.146 7      3617.268          46.875    21173411.340   111267027.141 6      3617.268          39.625    21173417.560    86701599.657 6      2818.650          39.187    21173418.360    86701604.671 8      2818.650          51.312
R09  20435662.660   109125292.001 7      4999.664          47.250    20435662.340   109125292.007 7      4999.664          46.875    20435669.040    84875257.079 8      3888.628          50.312    20435669.320    84875260.079 8      3888.628          50.375
G10  22108374.900   116180288.395 7      2279.093          46.875    22108373.480   116180288.400 7      2279.093          46.750    22108380.200    90530120.280 7      1775.916          46.500    22108380.540    90530122.279 7      1775.916          47.687
G26  23028454.380   121015329.695 7      -501.871          43.750    23028453.820   121015329.700 6      -501.871          41.500    23028464.800    94297704.007 6      -391.068          41.937    23028464.380    94297704.011 7      -391.068          45.125
G23  23827859.660   125216245.394 7       444.311          42.750    23827858.260   125216245.399 5       444.311          31.250    23827863.760    97571063.290 5       346.217          31.187    23827864.060    97571134.298 7       346.217          43.625
R04  23901796.980   127993039.957 6      5875.488          41.125    23901797.880   127993040.007 6      5875.488          40.187    23901824.900    99550252.539 7      4569.824          44.437    23901825.220    99550255.522 7      4569.824          43.375
> 2024 05 06 12 43 59.0000000  0 14
G02  22325879.080   117323286.672 7      4500.444          44.312    22325877.180   117323286.676 5      4500.444          35.687    22325882.260    91420755.770 5      3506.839          35.500
R18  21472762.700   114623063.898 7       166.204          45.812    21472762.480   114623063.907 7       166.204          45.125    21472771.020    89151306.918 7       129.270          47.437    21472771.380    89151309.924 7       129.270          47.625
G27  20972526.040   110211357.546 7      2013.052          47.812    20972525.020   110211357.559 8      2013.052          48.750    20972530.060    85879007.149 8      1568.612          48.750    20972530.940    85879010.146 8      1568.612          50.000
R16  19524746.500   104297681.313 8       654.756          49.187    19524746.540   104297681.316 8       654.756          48.875    19524755.180    81120456.585 8       509.254          50.375    19524755.560    81120457.583 8       509.254          51.562
G16  20839789.280   109513825.100 7      1023.729          47.750    20839787.920   109513825.110 6      1023.729          40.750    20839791.680    85335457.089 6       797.711          40.375
R03  23240797.600   124409814.703 7      4603.745          43.062    23240798.120   124409814.736 7      4603.745          42.125    23240812.640    96763249.559 6      3580.691          41.625    23240812.280    96763248.549 6      3580.691          41.625
R15  23013757.320   122978520.284 7     -1693.081          43.625    23013759.280   122978520.304 7     -1693.081          42.687    23013778.480    95650045.142 7     -1316.840          43.937    23013777.900    95650042.144 7     -1316.840          45.062
G21  20833393.240   109480214.668 7      3755.034          46.937    20833391.580   109480214.673 6      3755.034          38.437    20833395.560    85309271.583 6      2926.001          38.750
G08  21172724.180   111263410.050 7      3617.189          45.937    21172723.040   111263410.044 6      3617.189          39.687    21172729.340    86698781.145 6      2818.589          39.000    21172730.180    86698786.157 8      2818.589          51.312
R09  20434726.500   109120292.801 7      4999.069          47.187    20434725.860   109120292.802 7      4999.069          47.187    20434732.780    84871368.819 8      3888.164          50.687    20434733.260    84871371.816 8      3888.164          51.000
G10  22107941.260   116178009.704 7      2278.584          46.750    22107939.800   116178009.712 7      2278.584          46.937    22107946.640    90528344.687 7      1775.520          46.937    22107946.740    90528346.688 8      1775.520          48.187
G26  23028550.040   121015831.674 7      -501.942          44.375    23028549.320   121015831.676 7      -501.942          42.187    23028560.400    94298095.156 6      -391.124          41.625    23028559.960    94298095.164 7      -391.124          45.062
G23  23827775.120   125215801.333 7       443.993          42.687    23827773.800   125215801.340 5       443.993          31.250    23827779.320    97570717.276 5       345.969          31.250    23827779.940    97570788.289 7       345.969          44.312
R04  23900699.480   127987164.648 6      5875.450          41.125    23900701.500   127987164.701 6      5875.450          40.187    23900728.100    99545682.859 7      4569.794          44.125    23900727.920    99545685.858 7      4569.794          43.750
> 2024 05 06 12 44  0.0000000  0 14
G02  22325022.280   117318786.065 7      4500.174          44.500    22325020.720   117318786.072 5      4500.174          35.687    22325025.980    91417248.810 5      3506.629          35.625
R18  21472731.760   114622897.497 7       166.306          46.000    21472731.280   114622897.493 7       166.306          44.875    21472739.820    89151177.493 7       129.349          47.937    21472739.940    89151180.499 7       129.349          47.000
G27  20972142.840   110209344.434 7      2012.940          47.250    20972141.780   110209344.447 8      2012.940          48.750    20972147.000    85877438.492 8      1568.525          48.875    20972147.680    85877441.494 8      1568.525          49.750
R16  19524623.640   104297026.779 8       654.081          49.687    19524623.880   104297026.780 8       654.081          49.187    19524632.640    81119947.504 8       508.730          50.812    19524633.040    81119948.504 8       508.730          51.500
G16  20839594.420   109512801.432 7      1023.381          47.500    20839592.920   109512801.440 6      1023.381          40.875    20839596.940    85334659.428 6       797.440          40.437
R03  23239937.540   124405210.964 7      4603.305          42.937    23239938.160   124405210.982 7      4603.305          42.500    23239952.280    96759668.890 7      3580.349          42.625    23239952.140    96759667.881 6      3580.349          41.437
R15  23014073.960   122980213.250 7     -1693.129          43.812    23014076.260   122980213.264 7     -1693.129          42.312    23014095.300    95651361.872 7     -1316.878          44.062    23014094.960    95651358.881 7     -1316.878          44.625
G21  20832678.820   109476459.699 7      3754.640          46.812    20832677.000   109476459.703 6      3754.640          38.812    20832681.000    85306345.643 6      2925.694          38.625
G08  21172035.640   111259792.668 7      3617.247          45.812    21172034.600   111259792.662 6      3617.247          39.375    21172041.020    86695962.409 6      2818.634          39.250    21172041.780    86695967.421 8      2818.634          51.312
R09  20433790.380   109115293.901 7      4998.421          47.125    20433789.880   109115293.902 7      4998.421          47.625    20433796.680    84867480.787 8      3887.661          50.000    20433797.140    84867483.785 8      3887.661          51.000
G10  22107507.720   116175731.215 7      2278.050          46.562    22107506.200   116175731.223 7      2278.050          46.500    22107513.160    90526569.239 7      1775.104          46.375    22107512.860    90526571.244 7      1775.104          47.750
G26  23028645.500   121016333.475 7      -501.919          44.062    23028644.740   121016333.474 7      -501.919          42.062    23028655.880    94298486.157 7      -391.106          42.062    23028655.540    94298486.159 7      -391.106          44.875
G23  23827690.720   125215357.358 7       443.706          45.312    23827689.180   125215357.366 5       443.706          31.437    23827694.780    97570371.328 5       345.745          31.250    23827695.220    97570442.345 7       345.745          44.250
R04  23899601.980   127981288.825 6      5875.751          41.125    23899603.800   127981288.856 6      5875.751          39.625    23899630.760    99541112.766 7      4570.028          44.437    23899630.660    99541115.767 7      4570.028          43.937
> 2024 05 06 12 44  1.0000000  0 14
G02  22324166.120   117314285.721 7      4500.159          44.187    22324164.320   117314285.726 5      4500.159          35.687    22324169.640    91413742.050 5      3506.617          35.625
R18  21472700.660   114622730.984 7       166.504          45.312    21472700.040   114622730.982 7       166.504          45.250    21472708.800    89151047.985 8       129.503          48.062    21472709.100    89151050.989 7       129.503          47.500
G27  20971759.800   110207331.366 7      2013.038          47.687    20971758.800   110207331.374 8      2013.038          48.625    20971763.840    85875869.872 8      1568.601          48.562    20971764.400    85875872.874 8      1568.601          49.687
R16  19524501.540   104296372.938 8       653.427          49.125    19524501.420   104296372.936 8       653.427          48.375    19524510.160    81119438.963 8       508.221          51.062    19524510.440    81119439.963 8       508.221          51.187
G16  20839399.760   109511778.146 7      1023.009          47.687    20839398.260   109511778.156 6      1023.009          40.437    20839402.260    85333862.066 6       797.150          39.937
R03  23239077.600   124400607.563 7      4603.161          42.937    23239078.260   124400607.575 7      4603.161          42.500    23239092.440    96756088.477 6      3580.236          41.687    23239091.820    96756087.470 6      3580.236          40.875
R15  23014390.580   122981906.283 7     -1693.182          44.375    23014393.100   122981906.292 7     -1693.182          42.562    23014412.580    95652678.653 7     -1316.919          44.437    23014411.600    95652675.661 7     -1316.919          44.062
G21  20831964.440   109472705.149 7      3754.215          47.125    20831962.540   109472705.157 6      3754.215          39.062    20831966.400    85303420.026 6      2925.363          38.750
G08  21171347.620   111256175.319 7      3617.251          46.437    21171346.440   111256175.316 6      3617.251          39.875    21171352.620    86693143.700 6      2818.637          39.562    21171353.720    86693148.715 8      2818.637          51.812
R09  20432854.480   109110295.614 7      4997.873          46.375    20432853.560   109110295.612 7      4997.873          46.562    20432860.600    84863593.235 8      3887.234          50.062    20432861.120    84863596.233 8      3887.234          50.625
G10  22107074.260   116173453.218 7      2277.685          46.937    22107072.780   116173453.225 7      2277.685          46.000    22107079.640    90524794.178 7      1774.819          46.625    22107079.640    90524796.181 7      1774.819          47.687
G26  23028740.900   121016835.441 7      -502.090          44.250    23028740.320   121016835.443 6      -502.090          41.500    23028751.320    94298877.299 6      -391.239          41.312    23028750.980    94298877.300 7      -391.239          44.937
G23  23827606.440   125214913.773 7       443.370          46.000    23827604.800   125214913.781 5       443.370          31.437    23827610.480    97570025.686 5       345.483          31.500    23827611.060    97570096.698 7       345.483          44.187
R04  23898504.500   127975412.772 6      5876.329          40.500    23898506.380   127975412.782 6      5876.329          39.625    23898533.560    99536542.498 7      4570.478          44.062    23898533.060    99536545.503 7      4570.478          44.687
> 2024 05 06 12 44  2.0000000  0 14
G02  22323309.860   117309785.637 7      4500.074          45.187    22323307.920   117309785.639 5      4500.074          35.562    22323313.400    91410235.499 5      3506.551          35.562
R18  21472669.320   114622564.329 7       166.856          44.000    21472669.100   114622564.322 7       166.856          45.312    21472677.540    89150918.364 8       129.777          48.625    21472677.520    89150921.373 7       129.777          47.562
G27  20971376.800   110205318.341 7      2013.140          47.500    20971375.800   110205318.348 8      2013.140          48.812    20971380.820    85874301.285 8      1568.680          49.062    20971381.420    85874304.287 8      1568.680          50.062
R16  19524379.300   104295719.713 8       652.969          49.812    19524379.240   104295719.712 8       652.969          48.500    19524387.760    81118930.905 8       507.864          50.562    19524388.200    81118931.905 8       507.864          51.187
G16  20839205.240   109510755.211 7      1022.843          47.500    20839203.620   109510755.224 6      1022.843          40.562    20839207.540    85333064.980 6       797.020          40.187
R03  23238217.860   124396004.526 7      4602.973          43.062    23238218.640   124396004.544 6      4602.973          41.687    23238232.960    96752508.352 6      3580.090          41.687    23238232.020    96752507.355 6      3580.090          41.437
R15  23014707.480   122983599.323 7     -1692.946          44.437    23014709.640   122983599.338 7     -1692.946          42.562    23014729.060    95653995.444 7     -1316.736          44.250    23014728.560    95653992.450 7     -1316.736          44.750
G21  20831249.900   109468950.936 7      3754.108          47.187    20831248.120   109468950.938 6      3754.108          38.437    20831251.980    85300494.674 6      2925.279          38.625
G08  21170659.060   111252557.945 7      3617.495          46.187    21170658.000   111252557.942 6      3617.495          40.000    21170664.360    86690324.975 6      2818.827          39.625    21170665.340    86690329.989 8      2818.827          51.312
R09  20431918.440   109105297.864 7      4997.575          47.500    20431917.900   109105297.865 7      4997.575          46.750    20431924.900    84859706.107 8      3887.003          50.562    20431925.080    84859709.102 8      3887.003          50.812
G10  22106640.940   116171175.683 7      2277.373          46.687    22106639.400   116171175.690 7      2277.373          46.937    22106646.180    90523019.482 7      1774.576          47.062    22106646.320    90523021.482 8      1774.576          48.187
G26  23028836.400   121017337.497 7      -501.904          44.687    23028835.800   121017337.494 6      -501.904          41.875    23028846.920    94299268.501 6      -391.094          41.625    23028846.760    94299268.502 7      -391.094          45.000
G23  23827522.160   125214470.527 7       443.137          45.562    23827520.560   125214470.537 5       443.137          31.437    23827526.100    97569680.303 5       345.302          31.500    23827526.640    97569751.316 7       345.302          44.562
R04  23897407.440   127969536.472 6      5876.574          40.500    23897408.400   127969536.498 6      5876.574          39.625    23897435.700    99531972.062 7      4570.668          44.500    23897436.140    99531975.054 7      4570.668          44.687
> 2024 05 06 12 44  3.0000000  0 14
G02  22322453.640   117305285.703 7      4499.664          44.312    22322451.600   117305285.707 5      4499.664          35.437    22322457.080    91406729.069 5      3506.232          35.562
R18  21472637.940   114622397.437 7       166.886          43.000    21472637.620   114622397.436 7       166.886          45.000    21472646.280    89150788.572 8       129.800          48.000    21472646.220    89150791.577 7       129.800          47.937
G27  20970993.780   110203305.224 7      2012.966          47.750    20970992.660   110203305.231 8      2012.966          48.562    20970997.720    85872732.628 8      1568.545          48.562    20970998.460    85872735.632 8      1568.545          49.687
R16  19524256.980   104295067.020 8       652.250          49.625    19524256.980   104295067.021 8       652.250          48.812    19524265.640    81118423.257 8       507.306          51.000    19524265.840    81118424.255 8       507.306          51.125
G16  20839010.400   109509732.521 7      1022.357          47.062    20839008.920   109509732.531 6      1022.357          40.562    20839013.100    85332268.083 6       796.642          40.437
R03  23237357.360   124391401.700 7      4602.606          43.687    23237358.220   124391401.721 6      4602.606          41.687    23237373.120    96748928.401 7      3579.804          42.250    23237371.940    96748927.402 6      3579.804          41.437
R15  23015024.460   122985292.265 7     -1693.040          43.937    23015027.020   122985292.285 7     -1693.040          42.937    23015046.180    95655312.168 7     -1316.809          44.187    23015045.540    95655309.170 7     -1316.809          44.375
G21  20830535.580   109465196.978 7      3753.637          47.687    20830533.760   109465196.980 6      3753.637          38.750    20830537.640    85297569.518 6      2924.912          38.875
G08  21169970.380   111248940.454 7      3617.441          46.875    21169969.600   111248940.449 6      3617.441          39.500    21169975.820    86687506.158 6      2818.785          39.437    21169976.680    86687511.168 8      2818.785          51.500
R09  20430982.440   109100300.595 7      4996.883          46.875    20430982.080   109100300.593 7      4996.883          46.875    20430989.020    84855819.348 8      3886.465          50.000    20430989.280    84855822.339 8      3886.465          51.562
G10  22106207.600   116168898.482 7      2276.851          47.125    22106206.080   116168898.492 7      2276.851          46.500    22106212.940    90521245.050 7      1774.169          46.750    22106213.300    90521247.052 7      1774.169          47.937
G26  23028932.000   121017839.557 7      -502.274          45.125    23028931.400   121017839.560 6      -502.274          41.937    23028942.400    94299659.718 6      -391.382          41.562    23028942.420    94299659.720 7      -391.382          45.000
G23  23827437.880   125214027.485 7       442.787          45.562    23827436.220   125214027.493 5       442.787          31.437    23827441.640    97569335.080 5       345.029          31.500    23827442.320    97569406.086 7       345.029          43.937
R04  23896310.140   127963659.857 6      5876.409          41.187    23896311.160   127963659.883 6      5876.409          39.625    23896338.580    99527401.371 7      4570.540          44.375    23896338.820    99527404.364 7      4570.540          44.500
> 2024 05 06 12 44  4.0000000  0 14
G02  22321597.420   117300785.958 7      4499.695          44.062    22321595.320   117300785.962 5      4499.695          35.437    22321600.760    91403222.781 5      3506.256          35.250
R18  21472606.540   114622230.367 7       167.281          45.000    21472606.460   114622230.370 7       167.281          45.250    21472615.000    89150658.632 7       130.108          47.937    21472615.400    89150661.635 8       130.108          48.062
G27  20970610.560   110201292.090 8      2013.252          48.125    20970609.660   110201292.100 8      2013.252          49.062    20970614.560    85871163.959 8      1568.768          49.062    20970615.320    85871166.963 8      1568.768          49.875
R16  19524135.100   104294414.968 8       651.795          49.312    19524134.860   104294414.969 8       651.795          49.000    19524143.340    81117916.108 8       506.952          50.687    19524143.840    81117917.106 8       506.952          49.937
G16  20838815.860   109508710.130 7      1022.365          46.937    20838814.420   109508710.135 6      1022.365          40.312    20838818.460    85331471.411 6       796.648          40.000
R03  23236498.220   124386799.201 7      4602.440          43.562    23236499.000   124386799.224 6      4602.440          41.562    23236513.300    96745348.688 7      3579.675          42.187    23236512.700    96745347.693 6      3579.675          41.812
R15  23015341.520   122986985.191 7     -1692.780          44.125    23015343.640   122986985.206 7     -1692.780          42.812    23015362.500    95656628.857 7     -1316.607          43.875    23015362.360    95656625.859 7     -1316.607          44.375
G21  20829821.160   109461443.345 7      3753.475          47.187    20829819.580   109461443.350 6      3753.475          38.937    20829823.220    85294644.622 6      2924.785          39.000
G08  21169282.180   111245322.917 7      3617.658          47.625    21169281.160   111245322.911 6      3617.658          39.437    21169287.440    86684687.301 6      2818.954          39.562    21169288.280    86684692.312 8      2818.954          51.187
R09  20430046.820   109095303.892 7      4996.570          47.500    20430046.320   109095303.890 7      4996.570          47.250    20430053.380    84851933.027 8      3886.221          49.937    20430053.700    84851936.018 8      3886.221          50.625
G10  22105774.480   116166621.709 7      2276.679          47.437    22105772.900   116166621.716 7      2276.679          46.812    22105779.700    90519470.947 7      1774.036          46.750    22105779.360    90519472.953 8      1774.036          48.125
G26  23029027.680   121018341.676 7      -502.172          44.187    23029026.940   121018341.673 6      -502.172          41.500    23029038.000    94300050.965 6      -391.303          40.875    23029037.580    94300050.969 7      -391.303          45.375
G23  23827353.580   125213584.754 7       442.769          45.250    23827352.000   125213584.758 5       442.769          31.437    23827357.440    97568990.092 5       345.015          31.375    23827357.900    97569061.093 7       345.015          44.250
R04  23895212.220   127957782.933 6      5877.046          41.187    23895213.560   127957782.972 6      5877.046          40.000    23895241.240    99522830.445 7      4571.036          44.687    23895241.300    99522833.440 7      4571.036          44.812
> 2024 05 06 12 44  5.0000000  0 14
G02  22320741.580   117296286.339 7      4499.497          44.000    22320739.020   117296286.344 5      4499.497          35.437    22320744.400    91399716.599 5      3506.102          35.250
R18  21472575.360   114622062.994 7       167.413          44.437    21472575.120   114622062.998 7       167.413          45.875    21472583.540    89150528.462 7       130.210          46.875    21472583.940    89150531.464 7       130.210          47.500
G27  20970227.580   110199278.855 8      2013.338          48.375    20970226.600   110199278.860 7      2013.338          47.875    20970231.500    85869595.208 7      1568.834          47.937    20970232.160    85869598.210 8      1568.834          49.562
R16  19524013.280   104293763.475 8       651.166          49.812    19524013.000   104293763.473 8       651.166          49.375    19524021.460    81117409.393 8       506.462          49.812    19524021.900    81117410.390 8       506.462          49.937
G16  20838621.560   109507687.962 7      1022.059          47.812    20838619.960   109507687.972 6      1022.059          40.812    20838623.980    85330674.921 6       796.410          40.000
R03  23235638.300   124382196.868 7      4602.194          43.562    23235638.900   124382196.894 6      4602.194          41.562    23235653.180    96741769.108 7      3579.484          42.375    23235652.580    96741768.113 7      3579.484          42.375
R15  23015658.160   122988677.984 7     -1692.816          43.937    23015660.720   122988678.014 7     -1692.816          42.687    23015679.140    95657945.467 7     -1316.635          44.312    23015679.200    95657942.469 7     -1316.635          44.000
G21  20829106.960   109457689.928 7      3753.268          47.125    20829105.340   109457689.933 6      3753.268          38.562    20829109.000    85291719.887 6      2924.625          38.562
G08  21168593.740   111241705.219 7      3617.727          47.250    21168592.720   111241705.216 6      3617.727          39.375    21168598.960    86681868.326 6      2819.008          39.312    21168599.840    86681873.337 8      2819.008          50.625
R09  20429111.180   109090307.629 7      4996.055          45.750    20429110.780   109090307.630 7      4996.055          47.000    20429117.820    84848047.054 8      3885.820          49.000    20429117.900    84848050.047 8      3885.820          50.562
G10  22105341.180   116164345.280 7      2276.164          47.562    22105339.720   116164345.287 7      2276.164          46.375    22105346.360    90517697.112 7      1773.634          46.500    22105346.300    90517699.115 7      1773.634          47.562
G26  23029122.980   121018843.755 7      -502.188          43.312    23029122.480   121018843.755 6      -502.188          41.187    23029133.680    94300442.193 6      -391.316          40.937    23029133.160    94300442.193 7      -391.316          44.687
G23  23827269.120   125213142.227 7       442.382          45.062    23827267.620   125213142.229 5       442.382          31.375    23827273.360    97568645.270 5       344.713          31.375    23827273.740    97568716.275 7       344.713          44.437
R04  23894115.180   127951905.718 6      5877.370          41.187    23894116.180   127951905.746 6      5877.370          40.000    23894143.860    99518259.276 7      4571.288          44.187    23894143.460    99518262.270 7      4571.288          44.562
> 2024 05 06 12 44  6.0000000  0 14
G02  22319885.240   117291786.975 7      4499.124          44.187    22319882.840   117291786.980 5      4499.124          35.062    22319888.300    91396210.607 5      3505.811          35.000
R18  21472544.040   114621895.504 7       167.350          45.812    21472543.880   114621895.505 7       167.350          45.062    21472552.180    89150398.192 7       130.161          47.937    21472552.620    89150401.195 7       130.161          47.687
G27  20969844.440   110197265.677 8      2012.995          48.187    20969843.520   110197265.684 8      2012.995          48.812    20969848.460    85868026.504 8      1568.568          49.187    20969848.900    85868029.508 8      1568.568          49.750
R16  19523891.420   104293112.697 8       650.306          48.312    19523891.060   104293112.698 8       650.306          48.562    19523899.720    81116903.234 8       505.793          51.187    19523900.300    81116904.234 8       505.793          51.375
G16  20838427.040   109506666.160 7      1021.487          46.375    20838425.400   109506666.170 6      1021.487          40.812    20838429.480    85329878.717 6       795.964          40.625
R03  23234778.300   124377594.904 7      4601.623          43.937    23234779.320   124377594.933 6      4601.623          41.750    23234793.580    96738189.818 7      3579.040          42.125    23234793.300    96738188.823 7      3579.040          42.125
R15  23015975.260   122990370.832 7     -1693.081          44.062    23015977.840   122990370.849 7     -1693.081          42.687    23015995.980    95659262.102 7     -1316.840          43.500    23015996.020    95659259.100 7     -1316.840          44.625
G21  20828392.760   109453936.906 7      3752.720          47.312    20828391.140   109453936.908 6      3752.720          38.000    20828394.800    85288795.458 6      2924.197          38.312
G08  21167905.360   111238087.537 7      3617.578          47.937    21167904.380   111238087.534 6      3617.578          40.062    21167910.520    86679049.353 6      2818.892          39.250    21167911.340    86679054.370 8      2818.892          51.500
R09  20428175.860   109085311.967 7      4995.199          47.062    20428175.240   109085311.963 7      4995.199          46.687    20428182.120    84844161.541 8      3885.155          50.187    20428182.420    84844164.534 8      3885.155          51.000
G10  22104907.920   116162069.313 7      2275.576          47.687    22104906.820   116162069.313 7      2275.576          46.750    22104913.320    90515923.630 7      1773.176          46.562    22104913.360    90515925.633 8      1773.176          48.125
G26  23029218.680   121019345.945 7      -502.347          43.875    23029218.100   121019345.939 6      -502.347          41.375    23029229.260    94300833.501 6      -391.439          41.375    23029228.800    94300833.500 7      -391.439          45.562
G23  23827185.100   125212700.047 7       441.904          44.750    23827183.640   125212700.050 5       441.904          31.375    23827189.320    97568300.719 5       344.341          31.375    23827189.980    97568371.723 7       344.341          44.000
R04  23893017.660   127946028.275 6      5877.579          40.937    23893017.960   127946028.317 6      5877.579          40.000    23893046.120    99513687.946 7      4571.450          44.250    23893046.180    99513690.955 7      4571.450          44.187
> 2024 05 06 12 44  7.0000000  0 14
G02  22319029.120   117287287.905 7      4498.883          44.750    22319026.700   117287287.912 5      4498.883          35.375    22319032.020    91392704.851 5      3505.623          35.000
R18  21472512.640   114621727.894 7       167.728          45.062    21472512.520   114621727.898 7       167.728          45.312    21472521.040    89150267.837 8       130.455          48.375    21472521.180    89150270.837 8       130.455          48.500
G27  20969461.280   110195252.520 7      2013.258          47.062    20969460.440   110195252.528 8      2013.258          48.937    20969465.480    85866457.815 8      1568.773          49.125    20969465.860    85866460.817 8      1568.773          49.500
R16  19523769.600   104292462.621 7       649.807          47.875    19523769.300   104292462.625 8       649.807          49.000    19523778.060    81116397.628 8       505.406          50.187    19523778.540    81116398.630 8       505.406          51.125
G16  20838232.480   109505644.734 7      1021.372          46.500    20838230.980   109505644.738 6      1021.372          40.250    20838235.120    85329082.802 6       795.874          39.687
R03  23233918.640   124372993.280 7      4601.536          43.812    23233919.420   124372993.309 6      4601.536          41.750    23233933.880    96734610.800 7      3578.972          42.125    23233933.880    96734609.797 6      3578.972          41.875
R15  23016291.560   122992063.686 7     -1692.764          44.937    23016294.400   122992063.703 7     -1692.764          42.687    23016312.760    95660578.751 7     -1316.594          43.750    23016312.840    95660575.755 7     -1316.594          44.312
G21  20827678.500   109450184.258 7      3752.556          47.625    20827676.980   109450184.261 6      3752.556          38.437    20827680.780    85285871.328 6      2924.070          38.500
G08  21167216.760   111234469.866 7      3617.747          47.312    21167215.840   111234469.863 6      3617.747          39.750    21167222.200    86676230.390 6      2819.023          39.312    21167223.160    86676235.405 8      2819.023          51.187
R09  20427240.560   109080316.884 7      4994.867          46.250    20427239.700   109080316.875 7      4994.867          46.937    20427246.680    84840276.476 8      3884.896          49.875    20427247.060    84840279.470 8      3884.896          50.812
G10  22104474.920   116159793.809 7      2275.395          46.875    22104473.640   116159793.812 7      2275.395          46.937    22104480.240    90514150.522 7      1773.035          46.937    22104480.200    90514152.523 7      1773.035          47.625
G26  23029314.400   121019848.263 7      -502.360          45.250    23029313.720   121019848.260 7      -502.360          42.250    23029324.880    94301224.920 6      -391.449          41.687    23029324.400    94301224.921 7      -391.449          45.687
G23  23827101.140   125212258.217 7       441.765          45.250    23827099.560   125212258.225 5       441.765          31.375    23827105.100    97567956.444 5       344.232          31.375    23827106.460    97568027.446 7       344.232          43.937
R04  23891919.620   127940150.698 6      5877.784          40.937    23891920.660   127940150.727 6      5877.784          40.062    23891948.280    99509116.483 7      4571.610          44.312    23891948.500    99509119.475 7      4571.610          44.812
> 2024 05 06 12 44  8.0000000  0 14
G02  22318172.800   117282789.032 7      4498.716          44.125    22318170.580   117282789.037 5      4498.716          35.812    22318175.920    91389199.242 5      3505.493          35.562
R18  21472481.120   114621560.132 7       167.799          44.937    21472481.020   114621560.144 7       167.799          45.437    21472489.600    89150137.361 8       130.510          48.000    21472490.100    89150140.362 8       130.510          48.000
G27  20969078.040   110193239.392 7      2013.144          47.062    20969077.380   110193239.400 8      2013.144          48.812    20969082.300    85864889.150 8      1568.684          49.062    20969082.620    85864892.150 8      1568.684          50.062
R16  19523648.340   104291813.197 8       649.023          48.500    19523647.800   104291813.201 8       649.023          48.375    19523656.460    81115892.523 8       504.796          51.187    19523656.840    81115893.525 8       504.796          50.875
G16  20838038.300   109504623.662 7      1020.799          46.937    20838036.700   109504623.669 6      1020.799          40.875    20838040.720    85328287.166 6       795.428          40.437
R03  23233058.900   124368391.989 7      4601.052          43.812    23233059.860   124368392.012 7      4601.052          42.250    23233074.340    96731032.017 6      3578.596          41.750    23233074.320    96731031.014 6      3578.596          41.875
R15  23016608.520   122993756.577 7     -1692.902          44.937    23016610.840   122993756.599 7     -1692.902          42.437    23016629.420    95661895.428 7     -1316.701          44.000    23016629.520    95661892.434 7     -1316.701          44.187
G21  20826964.500   109446431.966 7      3752.089          47.250    20826962.960   109446431.971 6      3752.089          38.875    20826966.920    85282947.474 6      2923.705          38.875
G08  21166528.400   111230852.157 7      3617.739          47.062    21166527.380   111230852.157 6      3617.739          38.937    21166533.740    86673411.407 6      2819.018          39.625    21166534.780    86673416.420 8      2819.018          51.250
R09  20426304.860   109075322.370 7      4994.158          46.812    20426304.340   109075322.371 7      4994.158          47.437    20426311.340    84836391.869 8      3884.345          50.125    20426311.400    84836394.866 8      3884.345          50.312
G10  22104041.920   116157518.778 7      2274.773          46.500    22104040.800   116157518.781 7      2274.773          46.562    22104047.320    90512377.773 7      1772.550          47.062    22104047.240    90512379.774 7      1772.550          47.750
G26  23029409.980   121020350.676 7      -502.501          44.687    23029409.280   121020350.673 6      -502.501          41.375    23029420.580    94301616.399 6      -391.559          41.375    23029420.120    94301616.399 7      -391.559          45.562
G23  23827017.300   125211816.723 7       441.292          45.375    23827015.660   125211816.733 5       441.292          31.375    23827021.120    97567612.431 5       343.864          31.375    23827022.080    97567683.441 7       343.864          44.000
R04  23890822.000   127934272.824 6      5878.026          40.937    23890822.940   127934272.845 6      5878.026          40.062    23890850.960    99504544.809 7      4571.798          44.187    23890850.820    99504547.823 7      4571.798          44.500
> 2024 05 06 12 44  9.0000000  0 14
G02  22317316.560   117278290.478 7      4498.479          45.062    22317314.480   117278290.485 5      4498.479          35.812    22317319.740    91385693.885 5      3505.308          35.250
R18  21472449.660   114621392.285 7       167.967          44.750    21472449.700   114621392.294 7       167.967          45.875    21472458.220    89150006.815 7       130.641          47.875    21472458.360    89150009.820 8       130.641          48.000
G27  20968695.060   110191226.338 7      2013.066          47.812    20968694.340   110191226.343 8      2013.066          48.875    20968699.340    85863320.540 8      1568.623          49.187    20968699.740    85863323.542 8      1568.623          49.562
R16  19523526.720   104291164.423 8       648.477          49.312    19523526.420   104291164.426 8       648.477          49.125    19523534.960    81115387.922 8       504.371          50.750    19523535.440    81115388.922 8       504.371          51.375
G16  20837844.000   109503602.960 7      1020.508          46.625    20837842.560   109503602.968 6      1020.508          39.562    20837846.540    85327491.821 6       795.201          39.562
R03  23232199.520   124363791.047 7      4600.878          43.937    23232200.660   124363791.078 7      4600.878          42.250    23232214.760    96727453.524 6      3578.461          41.875    23232214.300    96727452.527 6      3578.461          41.937
R15  23016925.420   122995449.540 7     -1692.947          43.562    23016927.680   122995449.549 7     -1692.947          42.437    23016946.760    95663212.142 7     -1316.737          44.312    23016946.500    95663209.144 7     -1316.737          44.500
G21  20826250.600   109442680.078 7      3751.728          47.500    20826249.080   109442680.083 6      3751.728          38.187    20826252.820    85280023.933 6      2923.424          38.562
G08  21165840.140   111227234.491 7      3617.759          47.562    21165839.060   111227234.485 6      3617.759          39.750    21165845.340    86670592.451 6      2819.033          39.000    21165846.240    86670597.463 8      2819.033          51.000
R09  20425369.900   109070328.492 7      4993.562          47.312    20425368.900   109070328.493 7      4993.562          47.062    20425375.940    84832507.748 8      3883.882          50.250    20425376.500    84832510.743 8      3883.882          50.812
G10  22103609.120   116155244.228 7      2274.380          46.437    22103607.880   116155244.233 7      2274.380          46.562    22103614.600    90510605.406 7      1772.245          46.812    22103614.700    90510607.409 7      1772.245          47.937
G26  23029505.320   121020853.228 7      -502.569          43.812    23029505.080   121020853.223 7      -502.569          42.625    23029516.220    94302007.994 6      -391.612          41.562    23029515.580    94302007.992 7      -391.612          45.875
G23  23826933.000   125211375.602 7       441.013          45.625    23826931.740   125211375.610 5       441.013          31.375    23826937.020    97567268.702 5       343.647          31.375    23826938.300    97567339.711 7       343.647          43.562
R04  23889724.220   127928394.763 6      5878.245          41.000    23889725.200   127928394.775 6      5878.245          40.062    23889753.180    99499972.992 7      4571.968          44.062    23889753.160    99499975.981 7      4571.968          43.937
> 2024 05 06 12 44 10.0000000  0 14
G02  22316460.380   117273792.096 7      4498.141          45.000    22316458.660   117273792.099 5      4498.141          35.250    22316463.820    91382188.665 5      3505.045          35.562
R18  21472418.200   114621224.237 7       168.044          45.625    21472418.220   114621224.240 7       168.044          45.500    21472426.720    89149876.112 8       130.701          48.187    21472426.880    89149879.116 8       130.701          48.187
G27  20968311.980   110189213.226 8      2013.050          48.500    20968311.200   110189213.231 8      2013.050          48.875    20968316.160    85861751.886 8      1568.610          48.937    20968316.760    85861754.885 8      1568.610          50.187
R16  19523405.280   104290516.230 8       647.787          49.437    19523404.980   104290516.231 8       647.787          48.937    19523413.680    81114883.777 8       503.835          51.000    19523414.100    81114884.777 8       503.835          51.062
G16  20837650.020   109502582.546 7      1020.106          46.375    20837648.280   109502582.553 6      1020.106          40.375    20837652.440    85326696.692 6       794.888          39.750
R03  23231340.200   124359190.398 7      4600.444          43.250    23231341.440   124359190.426 7      4600.444          42.250    23231355.240    96723875.260 6      3578.123          41.937    23231354.940    96723874.261 6      3578.123          41.937
R15  23017242.100   122997142.410 7     -1693.003          44.375    23017244.040   122997142.422 7     -1693.003          42.750    23017263.780    95664528.795 7     -1316.780          44.375    23017263.380    95664525.799 7     -1316.780          44.500
G21  20825536.780   109438928.474 7      3751.337          46.687    20825535.320   109438928.482 6      3751.337          38.437    20825538.880    85277100.615 6      2923.120          38.937
G08  21165151.820   111223616.743 7      3617.642          47.250    21165150.620   111223616.735 6      3617.642          39.750    21165156.980    86667773.431 6      2818.942          39.437    21165157.640    86667778.441 8      2818.942          51.062
R09  20424434.600   109065335.089 7      4993.022          47.062    20424434.120   109065335.095 7      4993.022          46.937    20424440.800    84828624.000 8      3883.462          50.312    20424441.200    84828626.993 8      3883.462          50.750
G10  22103176.420   116152970.088 7      2273.784          47.562    22103175.280   116152970.093 7      2273.784          46.437    22103181.740    90508833.353 7      1771.780          46.875    22103181.880    90508835.358 8      1771.780          48.000
G26  23029601.240   121021355.799 7      -502.720          44.375    23029600.660   121021355.798 7      -502.720          42.187    23029611.740    94302399.603 7      -391.730          42.000    23029611.420    94302399.601 7      -391.730          45.750
G23  23826849.200   125210934.752 7       440.636          45.687    23826847.860   125210934.760 5       440.636          31.375    23826853.140    97566925.187 5       343.353          31.312    23826853.760    97566996.189 7       343.353          43.625
R04  23888627.040   127922516.388 6      5878.360          41.000    23888627.720   127922516.420 6      5878.360          40.125    23888655.060    99495400.942 7      4572.058          44.437    23888655.260    99495403.943 7      4572.058          43.687
> 2024 05 06 12 44 11.0000000  0 14
G02  22315604.520   117269294.001 7      4497.993          45.875    22315602.780   117269294.004 5      4497.993          35.562    22315607.900    91378683.662 5      3504.930          35.562
R18  21472386.860   114621056.074 7       168.274          45.187    21472386.760   114621056.081 7       168.274          45.375    21472395.360    89149745.327 8       130.879          48.062    21472395.440    89149748.334 8       130.879          48.000
G27  20967928.820   110187200.203 8      2012.950          48.750    20967928.100   110187200.216 8      2012.950          48.687    20967933.160    85860183.305 8      1568.533          48.687    20967933.620    85860186.308 8      1568.533          49.687
R16  19523283.740   104289868.743 8       647.212          49.437    19523283.920   104289868.744 8       647.212          48.875    19523292.560    81114380.173 8       503.387          51.062    19523293.100    81114381.175 8       503.387          51.562
G16  20837455.800   109501562.514 7      1019.887          47.187    20837454.320   109501562.522 6      1019.887          40.500    20837458.360    85325901.869 6       794.718          40.000
R03  23230480.720   124354590.128 7      4600.219          43.250    23230481.900   124354590.146 7      4600.219          42.250    23230496.080    96720297.285 6      3577.948          41.937    23230495.540    96720296.292 6      3577.948          41.687
R15  23017558.640   122998835.344 7     -1692.984          43.750    23017561.140   122998835.350 7     -1692.984          42.812    23017580.840    95665845.505 7     -1316.765          44.437    23017580.520    95665842.505 7     -1316.765          45.812
G21  20824822.900   109435177.291 7      3750.988          46.875    20824821.500   109435177.298 6      3750.988          38.375    20824825.200    85274177.627 6      2922.848          38.625
G08  21164463.380   111219999.035 7      3617.706          46.875    21164462.160   111219999.029 6      3617.706          39.937    21164468.440    86664954.445 6      2818.992          39.500    21164469.180    86664959.455 8      2818.992          51.312
R09  20423499.620   109060342.337 7      4992.541          47.312    20423499.160   109060342.338 7      4992.541          47.125    20423506.000    84824740.749 8      3883.087          50.687    20423506.220    84824743.744 8      3883.087          50.187
G10  22102743.820   116150696.447 7      2273.358          47.687    22102742.580   116150696.452 7      2273.358          46.562    22102749.140    90507061.691 7      1771.448          46.750    22102749.160    90507063.694 7      1771.448          47.812
G26  23029696.920   121021858.538 7      -502.802          43.750    23029696.300   121021858.540 6      -502.802          41.875    23029707.560    94302791.343 7      -391.794          42.187    23029707.140    94302791.337 7      -391.794          45.437
G23  23826765.360   125210494.301 7       440.198          45.312    23826764.020   125210494.309 5       440.198          31.062    23826769.260    97566581.984 5       343.011          31.312    23826769.680    97566652.987 7       343.011          43.625
R04  23887528.760   127916637.845 6      5878.669          41.000    23887530.220   127916637.887 6      5878.669          40.125    23887557.860    99490828.762 7      4572.298          44.437    23887557.480    99490831.771 7      4572.298          44.750
> 2024 05 06 12 44 12.0000000  0 14
G02  22314748.240   117264795.909 7      4498.138          45.062    22314746.920   117264795.914 5      4498.138          35.437    22314751.880    91375178.665 5      3505.043          35.437
R18  21472355.060   114620887.501 7       168.877          45.562    21472355.040   114620887.512 7       168.877          45.312    21472363.580    89149614.222 8       131.349          48.125    21472364.040    89149617.227 8       131.349          48.375
G27  20967546.000   110185186.928 7      2013.492          47.500    20967545.060   110185186.938 8      2013.492          48.312    20967550.020    85858614.523 8      1568.955          49.312    20967550.360    85858617.525 8      1568.955          49.375
R16  19523162.900   104289221.680 8       646.889          49.125    19523162.740   104289221.681 8       646.889          49.187    19523171.540    81113876.906 8       503.136          51.250    19523172.020    81113877.908 8       503.136          51.500
G16  20837261.840   109500542.588 7      1019.942          46.687    20837260.240   109500542.598 6      1019.942          40.375    20837264.200    85325107.125 6       794.760          39.937
R03  23229621.220   124349989.923 7      4600.426          43.500    23229622.300   124349989.940 7      4600.426          42.250    23229636.440    96716719.358 7      3578.109          42.125    23229636.080    96716718.361 6      3578.109          41.937
R15  23017875.700   123000528.029 7     -1692.485          43.812    23017878.220   123000528.033 7     -1692.485          42.750    23017897.520    95667162.007 7     -1316.378          44.875    23017897.200    95667159.015 7     -1316.378          44.937
G21  20824109.120   109431426.210 7      3751.124          46.562    20824107.680   109431426.215 6      3751.124          38.250    20824111.580    85271254.713 6      2922.953          38.375
G08  21163774.900   111216381.051 7      3618.166          46.125    21163773.720   111216381.043 6      3618.166          39.250    21163780.000    86662135.239 6      2819.350          38.562    21163780.520    86662140.247 8      2819.350          51.500
R09  20422564.740   109055349.874 7      4992.458          46.375    20422564.080   109055349.875 7      4992.458          46.687    20422570.960    84820857.724 8      3883.023          50.937    20422571.360    84820860.721 8      3883.023          50.875
G10  22102311.160   116148422.998 7      2273.401          47.750    22102310.020   116148423.005 7      2273.401          47.062    22102316.520    90505290.180 7      1771.481          47.125    22102316.540    90505292.183 8      1771.481          48.062
G26  23029792.680   121022361.111 7      -502.415          43.750    23029791.860   121022361.110 6      -502.415          41.937    23029803.160    94303182.951 6      -391.492          41.937    23029802.920    94303182.945 7      -391.492          45.625
G23  23826681.580   125210053.898 7       440.391          44.750    23826680.200   125210053.903 5       440.391          31.062    23826685.480    97566238.817 5       343.162          31.312    23826685.980    97566309.819 7       343.162          43.937
R04  23886430.880   127910758.841 6      5879.530          41.312    23886432.660   127910758.886 6      5879.530          40.125    23886459.820    99486256.208 7      4572.968          44.562    23886459.800    99486259.217 7      4572.968          44.000
> 2024 05 06 12 44 13.0000000  0 14
G02  22313892.440   117260298.030 7      4497.691          45.375    22313891.100   117260298.029 5      4497.691          35.437    22313896.020    91371673.826 5      3504.694          35.500
R18  21472323.340   114620718.778 7       168.732          45.500    21472323.500   114620718.787 7       168.732          44.812    21472332.180    89149482.998 8       131.236          48.000    21472332.420    89149486.002 8       131.236          48.062
G27  20967162.780   110183173.669 7      2013.176          47.125    20967161.960   110183173.681 8      2013.176          49.312    20967166.920    85857045.758 8      1568.709          49.375    20967167.320    85857048.757 8      1568.709          49.687
R16  19523042.120   104288575.234 8       646.051          49.875    19523041.800   104288575.235 8       646.051          49.125    19523050.520    81113374.117 8       502.484          50.500    19523050.940    81113375.117 8       502.484          51.375
G16  20837067.800   109499522.969 7      1019.421          46.937    20837066.280   109499522.979 6      1019.421          40.187    20837070.160    85324312.619 6       794.354          39.625
R03  23228761.580   124345390.017 7      4599.672          43.500    23228763.020   124345390.043 7      4599.672          42.062    23228777.320    96713141.672 7      3577.522          42.312    23228776.880    96713140.679 7      3577.522          42.000
R15  23018192.840   123002220.723 7     -1692.805          44.437    23018195.200   123002220.743 7     -1692.805          42.750    23018214.220    95668478.542 7     -1316.626          44.625    23018214.020    95668475.546 7     -1316.626          44.500
G21  20823395.420   109427675.452 7      3750.578          47.375    20823393.960   109427675.459 6      3750.578          38.437    20823397.680    85268332.053 6      2922.528          39.000
G08  21163086.420   111212762.996 7      3618.028          46.687    21163085.220   111212762.990 6      3618.028          39.125    21163091.500    86659315.983 6      2819.242          39.125    21163092.400    86659320.994 8      2819.242          51.250
R09  20421630.040   109050358.014 8      4991.518          48.125    20421629.320   109050358.012 7      4991.518          46.750    20421636.360    84816975.170 8      3882.292          50.250    20421636.620    84816978.172 8      3882.292          50.375
G10  22101878.660   116146149.980 7      2272.749          47.812    22101877.460   116146149.987 7      2272.749          46.687    22101883.900    90503519.003 7      1770.974          46.937    22101884.180    90503521.004 7      1770.974          47.625
G26  23029888.400   121022863.755 7      -502.785          44.937    23029887.560   121022863.755 7      -502.785          42.187    23029898.860    94303574.611 7      -391.781          42.062    23029898.660    94303574.611 7      -391.781          45.375
G23  23826597.760   125209613.810 7       439.752          45.500    23826596.360   125209613.815 5       439.752          31.187    23826601.740    97565895.893 5       342.664          31.250    23826602.760    97565966.904 7       342.664          43.937
R04  23885332.840   127904879.645 6      5879.291          41.312    23885334.540   127904879.679 6      5879.291          40.250    23885361.800    99481683.497 7      4572.782          44.187    23885361.880    99481686.509 7      4572.782          44.562
> 2024 05 06 12 44 14.0000000  0 14
G02  22313036.540   117255800.339 7      4497.595          45.187    22313035.240   117255800.339 5      4497.595          35.562    22313040.200    91368169.140 5      3504.619          35.125
R18  21472291.620   114620549.871 7       168.993          45.687    21472291.980   114620549.877 7       168.993          45.062    21472300.480    89149351.625 7       131.439          47.562    21472300.820    89149354.630 8       131.439          48.437
G27  20966779.840   110181160.386 7      2013.256          46.687    20966778.820   110181160.396 8      2013.256          48.750    20966783.780    85855476.966 8      1568.771          48.812    20966784.100    85855479.963 8      1568.771          49.250
R16  19522920.980   104287929.437 8       645.423          49.687    19522920.920   104287929.438 8       645.423          48.937    19522929.560    81112871.833 8       501.995          50.500    19522930.200    81112872.833 8       501.995          50.625
G16  20836873.960   109498503.676 7      1019.080          47.062    20836872.180   109498503.684 6      1019.080          40.500    20836876.200    85323518.367 6       794.088          39.875
R03  23227902.420   124340790.390 7      4599.336          43.500    23227903.500   124340790.424 7      4599.336          42.062    23227918.240    96709564.205 6      3577.261          41.875    23227918.000    96709563.206 7      3577.261          42.000
R15  23018509.480   123003913.406 7     -1692.728          44.375    23018511.960   123003913.417 7     -1692.728          43.125    23018531.000    95669795.048 7     -1316.566          45.062    23018530.640    95669792.052 7     -1316.566          44.187
G21  20822681.680   109423925.033 7      3750.241          46.750    20822680.200   109423925.038 6      3750.241          38.812    20822684.000    85265409.655 6      2922.265          39.250
G08  21162397.820   111209144.922 7      3618.067          47.312    21162396.620   111209144.914 6      3618.067          39.687    21162402.920    86656496.711 6      2819.273          39.250    21162403.780    86656501.720 8      2819.273          51.500
R09  20420695.240   109045366.685 7      4990.966          46.437    20420694.960   109045366.686 7      4990.966          47.187    20420701.500    84813093.038 8      3881.863          49.687    20420701.760    84813096.040 8      3881.863          50.562
G10  22101446.220   116143877.382 7      2272.386          47.437    22101445.100   116143877.389 7      2272.386          46.875    22101451.460    90501748.154 7      1770.690          46.625    22101451.480    90501750.159 7      1770.690          47.625
G26  23029984.140   121023366.452 7      -502.830          44.562    23029983.160   121023366.454 7      -502.830          42.000    23029994.520    94303966.323 7      -391.816          42.062    23029994.220    94303966.317 7      -391.816          45.437
G23  23826514.180   125209173.992 7       439.664          45.250    23826512.720   125209173.997 5       439.664          31.187    23826517.980    97565553.182 5       342.596          31.250    23826518.420    97565624.191 7       342.596          43.750
R04  23884234.580   127899000.111 7      5879.741          42.125    23884236.900   127899000.126 6      5879.741          40.250    23884263.800    99477110.520 7      4573.132          44.562    23884263.580    99477113.534 7      4573.132          43.312
> 2024 05 06 12 44 15.0000000  0 14
G02  22312181.240   117251303.051 7      4497.039          44.812    22312179.460   117251303.048 5      4497.039          35.375    22312184.260    91364664.768 5      3504.187          35.125
R18  21472260.140   114620380.953 7       168.943          46.000    21472260.360   114620380.965 7       168.943          45.875    21472268.920    89149220.251 7       131.400          47.250    21472269.200    89149223.258 7       131.400          47.437
G27  20966396.600   110179147.253 7      2013.057          47.562    20966395.760   110179147.260 8      2013.057          48.875    20966400.700    85853908.293 8      1568.616          48.312    20966401.020    85853911.290 8      1568.616          49.437
R16  19522800.360   104287284.413 8       644.671          49.125    19522800.240   104287284.414 8       644.671          48.312    19522808.780    81112370.149 8       501.411          49.687    19522809.300    81112371.149 8       501.411          50.312
G16  20836680.000   109497484.841 7      1018.581          46.625    20836678.240   109497484.853 6      1018.581          40.375    20836682.380    85322724.475 6       793.699          39.937
R03  23227043.400   124336191.207 7      4598.914          42.500    23227044.620   124336191.235 7      4598.914          42.500    23227058.760    96705987.067 6      3576.933          41.875    23227059.020    96705986.066 6      3576.933          41.750
R15  23018826.360   123005606.166 7     -1692.807          43.937    23018828.640   123005606.186 7     -1692.807          42.812    23018847.820    95671111.625 7     -1316.628          43.812    23018847.360    95671108.629 7     -1316.628          44.125
G21  20821968.120   109420175.084 7      3749.667          46.500    20821966.680   109420175.092 6      3749.667          38.687    20821970.440    85262487.625 6      2921.819          38.875
G08  21161709.580   111205526.922 7      3618.009          46.875    21161708.000   111205526.917 6      3618.009          39.312    21161714.440    86653677.495 6      2819.228          38.562    21161715.460    86653682.507 8      2819.228          50.687
R09  20419760.700   109040376.005 8      4990.421          48.125    20419760.420   109040376.009 7      4990.421          47.000    20419766.900    84809211.404 8      3881.438          49.000    20419767.380    84809214.408 8      3881.438          49.625
G10  22101013.740   116141605.364 7      2271.778          47.875    22101012.720   116141605.367 7      2271.778          45.875    22101019.100    90499977.751 7      1770.217          46.062    22101019.000    90499979.756 7      1770.217          47.062
G26  23030079.720   121023869.374 7      -503.010          44.312    23030078.980   121023869.377 7      -503.010          42.125    23030090.300    94304358.203 6      -391.956          41.750    23030089.800    94304358.197 7      -391.956          45.187
G23  23826430.440   125208734.650 7       439.156          46.062    23826429.060   125208734.658 5       439.156          31.187    23826434.440    97565210.846 5       342.200          31.250    23826434.960    97565281.851 7       342.200          43.687
R04  23883136.660   127893120.443 7      5879.702          42.125    23883139.160   127893120.479 6      5879.702          40.250    23883166.120    99472537.462 7      4573.102          43.875    23883165.240    99472540.456 7      4573.102          43.625
> 2024 05 06 12 44 16.0000000  0 14
G02  22311325.620   117246805.973 7      4497.060          44.875    22311323.580   117246805.965 5      4497.060          35.687    22311328.500    91361160.560 5      3504.203          35.562
R18  21472228.420   114620211.907 7       169.286          45.687    21472228.800   114620211.908 7       169.286          45.375    21472237.040    89149088.765 8       131.667          48.125    21472237.640    89149091.776 7       131.667          47.937
G27  20966013.500   110177134.133 8      2013.294          48.562    20966012.660   110177134.140 8      2013.294          49.062    20966017.660    85852339.636 8      1568.800          48.812    20966017.940    85852342.632 8      1568.800          49.625
R16  19522679.480   104286640.050 8       644.224          49.062    19522679.580   104286640.054 8       644.224          49.437    19522688.060    81111868.983 8       501.063          51.125    19522688.700    81111869.982 8       501.063          51.750
G16  20836486.040   109496466.362 7      1018.399          47.187    20836484.460   109496466.370 6      1018.399          40.312    20836488.700    85321930.855 6       793.557          39.812
R03  23226184.180   124331592.375 7      4598.801          43.812    23226185.280   124331592.403 7      4598.801          42.500    23226200.000    96702410.212 6      3576.845          41.812    23226200.000    96702409.203 7      3576.845          42.125
R15  23019143.140   123007298.929 7     -1692.667          43.937    23019144.880   123007298.943 7     -1692.667          42.625    23019164.740    95672428.202 7     -1316.519          44.062    23019164.180    95672425.206 7     -1316.519          44.687
G21  20821254.520   109416425.482 7      3749.591          47.437    20821253.240   109416425.487 6      3749.591          38.687    20821256.860    85259565.868 6      2921.760          38.750
G08  21161020.880   111201908.943 7      3618.079          47.500    21161019.540   111201908.940 6      3618.079          39.750    21161026.080    86650858.296 6      2819.282          39.812    21161026.860    86650863.307 8      2819.282          51.562
R09  20418826.020   109035385.921 7      4989.978          47.500    20418825.820   109035385.922 7      4989.978          46.875    20418832.460    84805330.232 8      3881.094          50.375    20418832.700    84805333.235 8      3881.094          50.375
G10  22100581.580   116139333.812 7      2271.542          47.250    22100580.480   116139333.817 7      2271.542          46.375    22100586.820    90498207.719 7      1770.032          46.500    22100586.860    90498209.721 7      1770.032          47.750
G26  23030175.240   121024372.389 7      -502.890          43.750    23030174.620   121024372.391 6      -502.890          41.375    23030186.120    94304750.156 6      -391.862          41.937    23030185.700    94304750.152 7      -391.862          45.312
G23  23826347.060   125208295.658 7       438.946          45.000    23826345.620   125208295.662 5       438.946          30.937    23826350.880    97564868.778 5       342.036          31.250    23826351.820    97564939.781 7       342.036          43.625
R04  23882038.760   127887240.580 6      5880.053          41.750    23882041.260   127887240.621 6      5880.053          40.187    23882067.580    99467964.249 7      4573.374          44.125    23882067.300    99467967.259 7      4573.374          44.062
> 2024 05 06 12 44 17.0000000  0 14
G02  22310469.660   117242309.139 7      4496.929          45.187    22310467.980   117242309.139 5      4496.929          35.687    22310472.620    91357656.542 5      3504.100          35.500
R18  21472196.940   114620042.682 7       169.563          46.625    21472197.200   114620042.683 7       169.563          45.250    21472205.480    89148957.145 8       131.882          48.375    21472205.880    89148960.154 8       131.882          48.125
G27  20965630.360   110175121.049 7      2013.333          47.875    20965629.660   110175121.057 8      2013.333          49.187    20965634.560    85850771.002 8      1568.831          49.312    20965634.860    85850773.999 8      1568.831          49.687
R16  19522559.000   104285996.321 8       643.689          48.812    19522558.860   104285996.327 8       643.689          48.625    19522567.660    81111368.306 8       500.647          50.937    19522568.100    81111369.304 8       500.647          51.250
G16  20836292.260   109495448.220 7      1018.180          46.625    20836290.720   109495448.228 6      1018.180          40.125    20836294.860    85321137.502 6       793.387          39.687
R03  23225325.440   124326993.891 7      4598.533          43.812    23225326.620   124326993.908 7      4598.533          42.062    23225340.580    96698833.619 6      3576.637          41.875    23225340.780    96698832.616 7      3576.637          42.000
R15  23019459.820   123008991.673 7     -1692.455          43.500    23019461.280   123008991.682 7     -1692.455          42.625    23019480.980    95673744.754 7     -1316.354          44.562    23019480.700    95673741.760 7     -1316.354          44.750
G21  20820541.240   109412676.246 7      3749.321          47.250    20820539.620   109412676.253 6      3749.321          38.937    20820543.500    85256644.393 6      2921.549          38.937
G08  21160332.520   111198290.920 7      3618.316          47.000    21160331.020   111198290.917 6      3618.316          40.000    21160337.660    86648039.059 6      2819.467          39.437    21160338.440    86648044.076 8      2819.467          51.375
R09  20417891.620   109030396.370 7      4989.590          47.562    20417891.540   109030396.374 7      4989.590          46.625    20417898.160    84801449.479 8      3880.792          50.312    20417898.380    84801452.482 8      3880.792          50.812
G10  22100149.260   116137062.709 7      2271.209          47.062    22100148.160   116137062.714 7      2271.209          46.812    22100154.700    90496438.034 7      1769.773          47.000    22100154.760    90496440.039 8      1769.773          48.125
G26  23030271.280   121024875.519 7      -502.950          44.125    23030270.380   121024875.524 6      -502.950          41.625    23030281.720    94305142.199 6      -391.909          41.625    23030281.540    94305142.193 7      -391.909          45.562
G23  23826263.340   125207856.967 7       438.749          44.812    23826262.160   125207856.972 5       438.749          30.937    23826267.420    97564526.945 5       341.882          31.000    23826268.680    97564597.950 7       341.882          43.687
R04  23880940.820   127881360.505 6      5880.427          41.750    23880943.340   127881360.547 6      5880.427          40.187    23880969.760    99463390.858 7      4573.665          43.625    23880969.400    99463393.869 7      4573.665          44.000
> 2024 05 06 12 44 18.0000000  0 14
G02  22309614.080   117237812.424 7      4496.575          45.625    22309612.360   117237812.424 5      4496.575          35.500    22309617.080    91354152.618 5      3503.825          35.500
R18  21472165.260   114619873.172 7       169.541          46.375    21472165.400   114619873.167 7       169.541          45.125    21472173.740    89148825.306 8       131.865          48.000    21472174.060    89148828.313 7       131.865          47.937
G27  20965247.320   110173107.848 8      2013.127          48.375    20965246.540   110173107.855 8      2013.127          48.937    20965251.540    85849202.279 8      1568.671          49.062    20965251.980    85849205.277 8      1568.671          49.500
R16  19522438.700   104285353.096 8       642.871          49.250    19522438.600   104285353.094 8       642.871          49.062    19522447.320    81110868.018 8       500.011          51.187    19522447.600    81110869.018 8       500.011          50.875
G16  20836098.660   109494430.286 7      1017.746          47.562    20836096.980   109494430.296 6      1017.746          40.625    20836101.200    85320344.310 6       793.049          39.875
R03  23224466.520   124322395.586 7      4598.061          43.312    23224467.360   124322395.611 7      4598.061          42.062    23224481.980    96695257.177 7      3576.269          42.437    23224481.380    96695256.173 6      3576.269          41.687
R15  23019776.640   123010684.326 7     -1692.741          43.500    23019777.640   123010684.330 7     -1692.741          42.812    23019797.620    95675061.243 7     -1316.576          43.875    23019797.480    95675058.245 7     -1316.576          44.437
G21  20819827.600   109408927.225 7      3748.776          47.812    20819826.320   109408927.232 6      3748.776          38.750    20819830.220    85253723.088 6      2921.125          38.687
G08  21159643.940   111194672.746 7      3618.161          47.187    21159642.700   111194672.746 6      3618.161          39.250    21159648.980    86645219.714 6      2819.346          39.187    21159649.860    86645224.722 8      2819.346          51.812
R09  20416957.360   109025407.311 7      4988.737          46.812    20416957.140   109025407.310 7      4988.737          47.312    20416963.760    84797569.099 8      3880.129          50.125    20416964.000    84797572.099 8      3880.129          50.625
G10  22099717.300   116134791.946 7      2270.418          47.562    22099716.080   116134791.953 7      2270.418          46.562    22099722.520    90494668.614 7      1769.157          46.562    22099722.780    90494670.617 7      1769.157          47.625
G26  23030367.120   121025378.599 7      -503.197          44.312    23030366.040   121025378.602 6      -503.197          41.812    23030377.500    94305534.206 6      -392.101          41.687    23030377.120    94305534.198 7      -392.101          45.312
G23  23826179.900   125207418.503 7       438.133          45.250    23826178.760   125207418.508 5       438.133          30.937    23826183.940    97564185.289 5       341.402          31.000    23826185.180    97564256.294 7       341.402          43.500
R04  23879843.180   127875480.060 6      5880.540          41.750    23879844.420   127875480.100 6      5880.540          40.187    23879871.620    99458817.185 7      4573.753          44.625    23879871.300    99458820.178 7      4573.753          43.562
> 2024 05 06 12 44 19.0000000  0 14
G02  22308758.320   117233316.061 7      4496.181          45.437    22308756.820   117233316.063 5      4496.181          35.375    22308761.320    91350648.964 5      3503.517          35.375
R18  21472133.580   114619703.630 7       169.481          46.187    21472133.500   114619703.633 7       169.481          45.625    21472141.900    89148693.448 7       131.819          47.937    21472142.020    89148696.451 7       131.819          47.625
G27  20964864.160   110171094.788 7      2012.865          47.875    20964863.540   110171094.793 8      2012.865          49.187    20964868.500    85847633.668 8      1568.466          49.375    20964869.120    85847636.665 8      1568.466          50.000
R16  19522318.520   104284710.633 8       641.975          48.875    19522317.960   104284710.636 8       641.975          48.937    19522326.960    81110368.333 8       499.314          51.250    19522327.300    81110369.333 8       499.314          50.875
G16  20835904.860   109493412.819 7      1017.220          47.437    20835903.440   109493412.831 6      1017.220          40.312    20835907.460    85319551.483 6       792.639          40.062
R03  23223607.480   124317797.696 7      4597.703          43.562    23223608.200   124317797.721 7      4597.703          42.562    23223623.360    96691681.052 7      3575.991          42.187    23223622.120    96691680.057 6      3575.991          41.687
R15  23020093.580   123012377.135 7     -1693.016          43.562    23020094.860   123012377.125 7     -1693.016          42.687    23020115.040    95676377.841 7     -1316.790          43.875    23020114.140    95676374.843 7     -1316.790          44.062
G21  20819114.300   109405178.674 7      3748.255          46.875    20819112.940   109405178.681 6      3748.255          38.875    20819117.020    85250802.145 6      2920.718          39.187
G08  21158955.200   111191054.686 7      3618.013          46.187    21158954.240   111191054.685 6      3618.013          39.437    21158960.580    86642400.448 6      2819.231          38.875    21158961.240    86642405.458 8      2819.231          51.750
R09  20416023.180   109020418.933 7      4988.000          47.062    20416023.380   109020418.926 7      4988.000          47.000    20416029.800    84793689.252 8      3879.555          50.125    20416029.960    84793692.247 8      3879.555          51.125
G10  22099285.280   116132521.726 7      2269.808          47.500    22099284.080   116132521.733 7      2269.808          46.750    22099290.580    90492899.618 7      1768.682          46.875    22099290.660    90492901.618 7      1768.682          47.625
G26  23030462.900   121025881.879 7      -503.401          43.562    23030461.800   121025881.876 6      -503.401          41.937    23030473.140    94305926.362 6      -392.260          41.687    23030472.760    94305926.350 7      -392.260          45.187
G23  23826096.720   125206980.443 7       437.769          45.250    23826095.260   125206980.451 5       437.769          30.750    23826100.560    97563843.948 5       341.119          31.000    23826101.860    97563914.956 7       341.119          43.687
R04  23878744.660   127869599.522 6      5880.613          41.625    23878746.240   127869599.570 6      5880.613          40.312    23878773.160    99454243.446 7      4573.810          44.562    23878773.160    99454246.453 7      4573.810          43.187
> 2024 05 06 12 44 20.0000000  0 14
G02  22307902.660   117228819.963 7      4496.121          43.625    22307901.300   117228819.965 5      4496.121          35.562    22307905.680    91347145.521 5      3503.471          35.437
R18  21472101.740   114619534.002 7       169.716          47.500    21472101.840   114619533.997 7       169.716          45.125    21472110.320    89148561.515 8       132.001          48.187    21472110.600    89148564.516 7       132.001          47.500
G27  20964481.160   110169081.763 8      2013.100          48.062    20964480.460   110169081.770 8      2013.100          49.125    20964485.380    85846065.077 8      1568.649          49.125    20964486.220    85846068.078 8      1568.649          50.375
R16  19522198.180   104284068.893 8       641.446          49.187    19522197.940   104284068.899 8       641.446          48.500    19522206.780    81109869.204 8       498.902          51.125    19522207.000    81109870.204 8       498.902          51.437
G16  20835711.240   109492395.735 7      1016.995          47.312    20835709.800   109492395.740 6      1016.995          40.750    20835713.900    85318758.949 6       792.464          40.125
R03  23222748.720   124313200.180 7      4597.359          43.437    23222749.540   124313200.209 7      4597.359          42.562    23222764.560    96688105.220 7      3575.723          42.187    23222763.500    96688104.231 6      3575.723          41.687
R15  23020410.380   123014069.975 7     -1692.835          44.000    23020411.980   123014069.973 7     -1692.835          42.687    23020431.580    95677694.480 7     -1316.649          44.562    23020431.000    95677691.484 7     -1316.649          44.250
G21  20818401.100   109401430.509 7      3748.049          47.500    20818399.780   109401430.514 6      3748.049          39.000    20818403.520    85247881.504 6      2920.558          39.250
G08  21158266.780   111187436.631 7      3618.150          46.750    21158265.740   111187436.625 6      3618.150          39.500    21158272.180    86639581.184 6      2819.338          38.875    21158272.940    86639586.196 8      2819.338          51.750
R09  20415089.060   109015431.161 7      4987.587          45.562    20415089.060   109015431.154 7      4987.587          46.625    20415095.800    84789809.875 8      3879.234          50.375    20415095.780    84789812.871 8      3879.234          50.812
G10  22098853.340   116130252.002 7      2269.483          47.625    22098852.200   116130252.010 7      2269.483          46.375    22098858.740    90491131.006 7      1768.428          46.625    22098858.720    90491133.004 7      1768.428          47.812
G26  23030558.860   121026385.283 7      -503.337          44.312    23030557.620   121026385.285 6      -503.337          41.500    23030569.100    94306318.618 6      -392.211          41.500    23030568.420    94306318.618 7      -392.211          45.250
G23  23826013.460   125206542.770 7       437.568          45.125    23826012.080   125206542.774 5       437.568          30.750    23826017.460    97563502.908 5       340.962          30.812    23826018.860    97563573.910 7       340.962          44.000
R04  23877646.440   127863718.770 6      5881.132          41.625    23877649.080   127863718.807 6      5881.132          40.312    23877675.260    99449669.523 7      4574.214          44.062    23877675.160    99449672.522 7      4574.214          44.187
> 2024 05 06 12 44 21.0000000  0 14
G02  22307047.100   117224324.122 7      4495.610          44.812    22307045.820   117224324.124 5      4495.610          35.562    22307050.080    91343642.277 5      3503.073          35.625
R18  21472069.800   114619364.208 7       169.758          46.312    21472069.900   114619364.196 7       169.758          45.562    21472078.560    89148429.450 8       132.034          48.312    21472078.540    89148432.450 8       132.034          48.312
G27  20964097.960   110167068.753 8      2012.912          48.500    20964097.460   110167068.761 8      2012.912          49.187    20964102.380    85844496.508 8      1568.503          49.562    20964102.840    85844499.510 8      1568.503          49.875
R16  19522078.100   104283427.848 8       640.582          49.000    19522078.080   104283427.846 8       640.582          48.500    19522086.740    81109370.611 8       498.231          50.812    19522087.180    81109371.613 8       498.231          51.375
G16  20835517.840   109491378.975 7      1016.524          46.875    20835516.260   109491378.980 6      1016.524          40.437    20835520.460    85317966.672 6       792.097          40.062
R03  23221890.120   124308602.954 7      4596.939          43.437    23221890.700   124308602.982 7      4596.939          42.125    23221905.400    96684529.614 7      3575.397          42.187    23221904.960    96684528.621 6      3575.397          41.750
R15  23020727.100   123015762.807 7     -1692.924          44.000    23020728.880   123015762.811 7     -1692.924          42.812    23020748.320    95679011.111 7     -1316.719          44.000    23020748.000    95679008.117 7     -1316.719          44.625
G21  20817687.740   109397682.710 7      3747.480          46.562    20817686.540   109397682.715 6      3747.480          39.062    20817690.480    85244961.151 6      2920.115          38.750
G08  21157578.240   111183818.552 7      3617.943          46.937    21157577.180   111183818.546 6      3617.943          39.875    21157583.560    86636761.908 6      2819.177          39.125    21157584.420    86636766.920 8      2819.177          51.500
R09  20414155.460   109010443.957 7      4986.760          47.562    20414155.100   109010443.948 7      4986.760          47.125    20414161.920    84785930.943 8      3878.591          50.062    20414162.100    84785933.935 8      3878.591          51.000
G10  22098421.360   116127982.725 7      2268.882          47.187    22098420.260   116127982.730 7      2268.882          46.875    22098426.860    90489362.743 7      1767.960          47.062    22098426.960    90489364.745 7      1767.960          47.562
G26  23030654.640   121026888.781 7      -503.583          43.875    23030653.480   121026888.783 6      -503.583          41.625    23030664.840    94306710.952 6      -392.402          41.062    23030664.400    94306710.950 7      -392.402          45.250
G23  23825930.200   125206105.398 7       437.177          45.125    23825928.840   125206105.403 5       437.177          30.750    23825934.220    97563162.107 5       340.658          30.812    23825935.360    97563233.109 7       340.658          44.062
R04  23876547.640   127857837.798 6      5881.057          41.187    23876550.600   127857837.838 6      5881.057          40.312    23876576.900    99445095.438 7      4574.155          44.125    23876576.820    99445098.441 7      4574.155          43.875
> 2024 05 06 12 44 22.0000000  0 14
G02  22306191.480   117219828.542 7      4495.377          44.625    22306190.380   117219828.547 5      4495.377          35.750    22306194.680    91340139.238 5      3502.891          35.625
R18  21472038.100   114619194.274 7       170.068          46.312    21472038.080   114619194.267 7       170.068          45.312    21472046.720    89148297.287 8       132.275          48.062    21472046.800    89148300.287 8       132.275          48.750
G27  20963715.040   110165055.807 8      2012.960          48.312    20963714.400   110165055.814 8      2012.960          48.812    20963719.340    85842927.982 8      1568.540          48.812    20963719.660    85842930.986 8      1568.540          49.875
R16  19521958.300   104282787.476 8       640.051          49.250    19521958.180   104282787.474 8       640.051          49.125    19521966.980    81108872.544 8       497.818          51.312    19521967.500    81108873.546 8       497.818          51.500
G16  20835324.200   109490362.591 7      1016.258          46.687    20835322.920   109490362.599 6      1016.258          40.250    20835327.120    85317174.687 6       791.890          39.812
R03  23221031.040   124304006.083 7      4596.708          44.125    23221032.180   124304006.109 7      4596.708          42.125    23221046.520    96680954.278 7      3575.217          42.062    23221046.080    96680953.284 7      3575.217          42.250
R15  23021044.040   123017455.675 7     -1692.837          44.375    23021045.860   123017455.678 7     -1692.837          42.812    23021065.300    95680327.768 7     -1316.651          44.437    23021064.760    95680324.772 7     -1316.651          44.812
G21  20816974.580   109393935.284 7      3747.228          46.750    20816973.320   109393935.289 6      3747.228          38.937    20816977.340    85242041.085 6      2919.918          38.812
G08  21156889.880   111180200.489 7      3618.041          47.000    21156888.700   111180200.481 6      3618.041          39.062    21156895.060    86633942.640 6      2819.253          39.000    21156896.220    86633947.653 8      2819.253          51.562
R09  20413221.680   109005457.309 7      4986.359          46.062    20413221.120   109005457.310 7      4986.359          46.312    20413228.120    84782052.454 8      3878.279          50.625    20413228.260    84782055.445 8      3878.279          51.000
G10  22097989.580   116125713.911 8      2268.630          48.000    22097988.660   116125713.916 7      2268.630          46.250    22097995.120    90487594.839 7      1767.763          46.750    22097995.240    90487596.838 7      1767.763          47.750
G26  23030750.600   121027392.421 7      -503.653          44.125    23030749.440   121027392.415 7      -503.653          42.312    23030760.720    94307103.389 6      -392.457          41.937    23030760.380    94307103.381 7      -392.457          45.500
G23  23825847.200   125205668.403 7       436.953          44.812    23825845.680   125205668.410 5       436.953          31.062    23825851.020    97562821.597 5       340.483          30.812    23825852.340    97562892.595 7       340.483          43.687
R04  23875450.260   127851956.618 6      5881.373          41.187    23875452.280   127851956.646 6      5881.373          40.375    23875478.640    99440521.189 7      4574.401          44.187    23875478.620    99440524.217 7      4574.401          44.125
> 2024 05 06 12 44 23.0000000  0 14
G02  22305336.260   117215333.148 7      4495.584          44.750    22305334.880   117215333.150 5      4495.584          35.562    22305339.360    91336636.338 5      3503.053          35.375
R18  21472006.220   114619024.182 7       170.457          46.062    21472006.200   114619024.174 7       170.457          45.437    21472014.780    89148164.995 8       132.578          48.187    21472014.920    89148167.995 7       132.578          47.937
G27  20963331.940   110163042.844 7      2013.189          47.750    20963331.320   110163042.849 8      2013.189          48.500    20963336.260    85841359.444 8      1568.718          48.812    20963336.580    85841362.448 8      1568.718          50.062
R16  19521838.740   104282147.689 8       639.780          49.500    19521838.460   104282147.690 8       639.780          49.000    19521847.240    81108374.938 8       497.607          50.875    19521847.580    81108375.940 8       497.607          50.812
G16  20835130.920   109489346.509 7      1016.237          46.937    20835129.500   109489346.517 6      1016.237          40.375    20835133.700    85316382.938 6       791.873          40.375
R03  23220172.480   124299409.510 7      4596.648          43.562    23220173.660   124299409.533 7      4596.648          42.000    23220187.780    96677379.178 7      3575.170          42.000    23220187.620    96677378.179 7      3575.170          42.250
R15  23021360.620   123019148.483 7     -1692.437          44.187    23021362.820   123019148.492 7     -1692.437          42.812    23021382.360    95681644.374 7     -1316.340          44.562    23021381.620    95681641.376 7     -1316.340          45.125
G21  20816261.660   109390188.165 7      3747.239          46.500    20816260.240   109390188.167 6      3747.239          38.625    20816264.240    85239121.258 6      2919.926          39.125
G08  21156201.600   111176582.334 7      3618.474          46.687    21156200.180   111176582.331 6      3618.474          39.437    21156206.640    86631123.307 6      2819.590          38.937    21156207.600    86631128.321 8      2819.590          51.562
R09  20412288.000   109000471.214 7      4986.168          46.062    20412287.400   109000471.212 7      4986.168          46.437    20412294.440    84778174.384 8      3878.131          50.500    20412294.540    84778177.381 8      3878.131          50.875
G10  22097558.000   116123445.531 8      2268.397          48.000    22097556.980   116123445.538 7      2268.397          46.812    22097563.320    90485827.280 7      1767.582          46.812    22097563.380    90485829.281 7      1767.582          47.687
G26  23030846.460   121027896.079 7      -503.354          44.125    23030845.300   121027896.089 6      -503.354          41.500    23030856.420    94307495.854 6      -392.224          41.750    23030855.900    94307495.852 7      -392.224          45.437
G23  23825764.320   125205231.696 7       436.842          45.500    23825762.660   125205231.706 5       436.842          31.062    23825767.900    97562481.314 5       340.396          31.000    23825769.020    97562552.319 7       340.396          44.062
R04  23874351.660   127846075.164 6      5881.802          41.187    23874353.760   127846075.201 6      5881.802          40.375    23874380.540    99435946.741 7      4574.735          44.500    23874380.080    99435949.746 7      4574.735          43.750
> 2024 05 06 12 44 24.0000000  0 14
G02  22304480.960   117210837.949 7      4494.997          44.750    22304479.540   117210837.953 5      4494.997          35.812    22304484.080    91333133.591 5      3502.595          35.562
R18  21471974.500   114618853.884 7       170.274          45.875    21471974.340   114618853.879 7       170.274          45.312    21471982.920    89148032.545 8       132.435          48.000    21471983.040    89148035.546 8       132.435          48.000
G27  20962948.980   110161029.829 8      2012.955          48.062    20962948.320   110161029.832 8      2012.955          49.250    20962953.220    85839790.861 8      1568.536          49.250    20962953.720    85839793.863 8      1568.536          49.500
R16  19521719.120   104281508.492 8       638.753          49.750    19521718.780   104281508.493 8       638.753          49.000    19521727.640    81107877.785 8       496.808          50.562    19521727.900    81107878.791 8       496.808          51.187
G16  20834937.860   109488330.716 7      1015.534          46.750    20834936.340   109488330.729 6      1015.534          40.812    20834940.440    85315591.417 6       791.325          39.875
R03  23219313.360   124294813.229 7      4595.975          43.562    23219314.600   124294813.260 7      4595.975          42.000    23219329.160    96673804.314 7      3574.647          42.000    23219329.140    96673803.312 7      3574.647          42.062
R15  23021677.520   123020841.259 7     -1692.935          44.125    23021679.440   123020841.268 7     -1692.935          42.937    23021698.960    95682960.968 7     -1316.727          44.312    23021698.560    95682957.965 7     -1316.727          44.687
G21  20815548.740   109386441.340 7      3746.623          46.375    20815547.260   109386441.348 6      3746.623          39.187    20815551.160    85236201.665 6      2919.446          39.000
G08  21155513.040   111172964.126 7      3618.196          46.437    21155511.780   111172964.123 6      3618.196          39.687    21155518.020    86628303.933 6      2819.373          39.312    21155518.960    86628308.945 8      2819.373          51.625
R09  20411354.360   108995485.620 7      4985.261          45.937    20411354.000   108995485.621 7      4985.261          47.562    20411360.800    84774296.708 8      3877.426          49.687    20411361.040    84774299.703 8      3877.426          50.125
G10  22097126.540   116121177.544 8      2267.630          48.062    22097125.340   116121177.551 7      2267.630          46.687    22097131.760    90484060.022 7      1766.985          46.812    22097131.900    90484062.027 7      1766.985          47.562
G26  23030942.040   121028399.814 7      -503.827          44.312    23030941.200   121028399.814 6      -503.827          41.812    23030952.320    94307888.362 6      -392.592          41.812    23030952.340    94307888.354 7      -392.592          44.812
G23  23825681.200   125204795.257 7       436.223          44.250    23825679.600   125204795.265 5       436.223          31.062    23825684.820    97562141.230 5       339.914          31.000    23825685.880    97562212.235 7       339.914          43.937
R04  23873253.840   127840193.410 6      5881.765          41.437    23873255.120   127840193.450 6      5881.765          40.375    23873282.060    99431372.046 7      4574.706          44.437    23873281.660    99431375.045 7      4574.706          44.062
> 2024 05 06 12 44 25.0000000  0 14
G02  22303625.980   117206343.154 7      4494.565          43.625    22303624.240   117206343.156 5      4494.565          35.812    22303628.580    91329631.160 5      3502.258          35.250
R18  21471942.260   114618683.599 7       170.198          45.375    21471942.600   114618683.598 7       170.198          45.812    21471951.040    89147900.108 7       132.376          47.187    21471950.920    89147903.111 7       132.376          47.187
G27  20962566.040   110159016.980 8      2012.821          48.187    20962565.280   110159016.988 8      2012.821          48.187    20962570.240    85838222.417 8      1568.432          48.000    20962570.500    85838225.417 8      1568.432          49.125
R16  19521599.700   104280870.085 8       638.105          49.812    19521599.480   104280870.081 8       638.105          48.500    19521608.080    81107381.249 8       496.304          49.687    19521608.540    81107382.249 8       496.304          49.437
G16  20834744.720   109487315.401 7      1015.176          46.500    20834743.020   109487315.409 6      1015.176          40.375    20834747.120    85314800.261 6       791.046          39.625
R03  23218455.260   124290217.445 7      4595.642          43.750    23218456.120   124290217.473 7      4595.642          42.375    23218470.880    96670229.819 7      3574.388          42.312    23218470.500    96670228.818 7      3574.388          42.187
R15  23021994.220   123022534.161 7     -1692.961          44.562    23021996.060   123022534.159 7     -1692.961          42.375    23022015.580    95684277.646 7     -1316.747          44.125    23022015.200    95684274.646 7     -1316.747          44.062
G21  20814835.720   109382695.028 7      3746.140          47.062    20814834.320   109382695.038 6      3746.140          38.437    20814838.240    85233282.468 6      2919.071          39.125
G08  21154824.400   111169346.040 7      3618.148          46.812    21154823.180   111169346.037 6      3618.148          39.625    21154829.580    86625484.648 6      2819.336          38.687    21154830.360    86625489.659 8      2819.336          50.500
R09  20410420.900   108990500.740 7      4984.569          47.500    20410420.620   108990500.743 7      4984.569          46.812    20410427.320    84770419.585 8      3876.887          49.625    20410427.500    84770422.584 8      3876.887          49.437
G10  22096694.960   116118910.154 7      2267.106          47.625    22096693.940   116118910.159 7      2267.106          46.375    22096700.380    90482293.229 7      1766.576          46.437    22096700.520    90482295.231 7      1766.576          47.125
G26  23031038.200   121028903.772 7      -504.039          43.125    23031036.920   121028903.769 7      -504.039          42.187    23031048.280    94308281.050 6      -392.758          41.750    23031047.940    94308281.042 7      -392.758          45.000
G23  23825598.080   125204359.287 7       435.863          44.375    23825596.680   125204359.294 5       435.863          30.875    23825601.980    97561801.513 5       339.633          31.000    23825602.920    97561872.521 7       339.633          43.937
R04  23872155.160   127834311.582 6      5881.932          41.437    23872157.280   127834311.621 6      5881.932          40.250    23872183.480    99426797.297 7      4574.836          44.187    23872183.240    99426800.308 7      4574.836          43.750
> 2024 05 06 12 44 26.0000000  0 14
G02  22302770.420   117201848.514 7      4494.634          44.250    22302768.760   117201848.511 5      4494.634          35.187    22302773.380    91326128.851 5      3502.312          35.250
R18  21471910.380   114618513.078 7       170.643          46.000    21471910.420   114618513.081 7       170.643          46.000    21471919.100    89147767.484 8       132.722          48.125    21471919.100    89147770.487 7       132.722          47.625
G27  20962183.060   110157004.097 7      2013.037          47.812    20962182.240   110157004.104 8      2013.037          49.062    20962187.180    85836653.941 8      1568.601          49.062    20962187.400    85836656.942 8      1568.601          49.812
R16  19521480.200   104280232.296 8       637.636          49.750    19521480.000   104280232.294 8       637.636          48.750    19521488.780    81106885.192 8       495.939          50.625    19521489.180    81106886.197 8       495.939          51.062
G16  20834551.520   109486300.383 7      1014.974          47.125    20834549.860   109486300.393 6      1014.974          39.937    20834553.940    85314009.344 6       790.889          39.812
R03  23217596.460   124285621.937 7      4595.556          43.562    23217597.800   124285621.971 7      4595.556          42.375    23217612.120    96666655.565 6      3574.322          41.812    23217612.280    96666654.551 6      3574.322          41.812
R15  23022310.940   123024227.012 7     -1692.749          44.562    23022312.600   123024227.008 7     -1692.749          43.062    23022332.580    95685594.283 7     -1316.583          44.312    23022332.160    95685591.285 7     -1316.583          44.625
G21  20814122.840   109378949.013 7      3745.955          46.687    20814121.340   109378949.023 6      3745.955          38.312    20814125.520    85230363.506 6      2918.926          38.687
G08  21154135.920   111165727.885 7      3618.378          46.437    21154134.580   111165727.879 6      3618.378          38.937    21154141.060    86622665.311 6      2819.515          38.500    21154141.880    86622670.319 8      2819.515          51.875
R09  20409487.180   108985516.401 7      4984.165          46.625    20409487.240   108985516.402 7      4984.165          47.062    20409493.880    84766542.881 8      3876.573          50.125    20409493.900    84766545.885 8      3876.573          50.687
G10  22096263.580   116116643.163 7      2266.891          47.562    22096262.520   116116643.168 7      2266.891          46.500    22096268.920    90480526.746 7      1766.408          46.625    22096269.020    90480528.749 7      1766.408          47.625
G26  23031134.000   121029407.748 7      -503.804          43.625    23031132.860   121029407.742 6      -503.804          41.687    23031144.220    94308673.745 7      -392.574          42.062    23031143.460    94308673.741 7      -392.574          45.062
G23  23825515.060   125203923.599 7       435.661          44.187    23825513.680   125203923.604 5       435.661          30.875    23825519.020    97561462.020 5       339.476          31.187    23825519.600    97561533.029 7       339.476          44.000
R04  23871056.400   127828429.526 6      5882.175          41.562    23871058.880   127828429.573 6      5882.175          40.250    23871084.880    99422222.368 7      4575.025          44.312    23871085.180    99422225.374 7      4575.025          44.687
> 2024 05 06 12 44 27.0000000  0 14
G02  22301914.840   117197354.187 7      4494.187          44.562    22301913.460   117197354.187 5      4494.187          35.500    22301918.060    91322626.788 5      3501.964          35.250
R18  21471878.660   114618342.481 7       170.699          44.812    21471878.660   114618342.482 7       170.699          45.562    21471887.160    89147634.802 7       132.766          47.937    21471886.960    89147637.798 7       132.766          47.437
G27  20961800.060   110154991.302 8      2012.773          48.562    20961799.200   110154991.310 8      2012.773          49.187    20961804.160    85835085.538 8      1568.395          49.250    20961804.220    85835088.533 8      1568.395          49.812
R16  19521360.820   104279595.236 8       636.771          49.437    19521360.740   104279595.237 8       636.771          48.750    19521369.560    81106389.705 8       495.266          50.750    19521369.780    81106390.709 8       495.266          51.562
G16  20834358.360   109485285.764 7      1014.421          47.062    20834357.040   109485285.769 6      1014.421          40.000    20834361.100    85313218.732 6       790.458          39.687
R03  23216738.180   124281026.823 7      4594.874          43.562    23216739.480   124281026.864 7      4594.874          42.250    23216753.800    96663081.599 7      3573.791          42.000    23216753.740    96663080.592 7      3573.791          42.250
R15  23022627.780   123025919.943 7     -1693.025          44.187    23022629.140   123025919.942 7     -1693.025          43.062    23022649.240    95686910.993 7     -1316.797          44.312    23022649.160    95686907.993 7     -1316.797          44.437
G21  20813410.240   109375203.415 7      3745.374          47.375    20813408.620   109375203.423 6      3745.374          38.312    20813412.680    85227444.865 6      2918.473          38.312
G08  21153447.300   111162109.772 7      3618.127          47.250    21153446.120   111162109.764 6      3618.127          39.562    21153452.600    86619846.004 6      2819.320          39.375    21153453.380    86619851.012 8      2819.320          51.437
R09  20408554.160   108980532.700 7      4983.342          47.875    20408554.460   108980532.704 7      4983.342          47.687    20408560.500    84762666.676 8      3875.933          50.500    20408560.620    84762669.676 8      3875.933          50.187
G10  22095832.100   116114376.679 8      2266.240          48.062    22095831.280   116114376.687 7      2266.240          46.937    22095837.620    90478760.663 7      1765.901          46.812    22095837.680    90478762.664 7      1765.901          47.750
G26  23031229.960   121029911.890 7      -504.219          43.937    23031228.940   121029911.895 7      -504.219          42.062    23031240.140    94309066.587 6      -392.898          41.937    23031239.420    94309066.589 7      -392.898          45.062
G23  23825432.180   125203488.288 7       435.165          44.750    23825430.840   125203488.296 5       435.165          30.687    23825436.340    97561122.823 5       339.089          31.187    23825437.280    97561193.840 7       339.089          44.062
R04  23869957.620   127822547.242 6      5882.536          41.562    23869960.160   127822547.292 6      5882.536          40.250    23869986.760    99417647.267 7      4575.306          44.625    23869986.680    99417650.270 7      4575.306          44.500
> 2024 05 06 12 44 28.0000000  0 14
G02  22301059.500   117192860.083 7      4493.849          44.562    22301058.280   117192860.086 5      4493.849          35.562    22301062.800    91319124.900 5      3501.701          35.062
R18  21471846.520   114618171.716 7       170.913          44.937    21471846.720   114618171.712 7       170.913          45.250    21471855.320    89147501.983 8       132.932          48.000    21471855.140    89147504.979 8       132.932          48.187
G27  20961417.160   110152978.487 7      2012.856          47.562    20961416.280   110152978.497 8      2012.856          48.250    20961421.140    85833517.114 8      1568.459          48.937    20961421.300    85833520.110 8      1568.459          50.062
R16  19521241.580   104278958.846 8       635.952          49.437    19521241.620   104278958.847 8       635.952          48.750    19521250.500    81105894.742 8       494.630          51.125    19521250.800    81105895.744 8       494.630          51.437
G16  20834165.420   109484271.466 7      1014.038          46.500    20834163.840   109484271.471 6      1014.038          40.437    20834168.140    85312428.374 6       790.160          39.812
R03  23215880.020   124276431.976 7      4594.574          43.562    23215880.640   124276432.015 7      4594.574          42.312    23215895.360    96659507.842 7      3573.558          42.000    23215895.420    96659506.836 6      3573.558          41.937
R15  23022944.640   123027612.875 7     -1693.053          44.375    23022945.940   123027612.884 7     -1693.053          42.687    23022965.980    95688227.701 7     -1316.819          44.000    23022965.960    95688224.703 7     -1316.819          44.875
G21  20812697.600   109371458.141 7      3745.098          46.750    20812696.020   109371458.146 6      3745.098          38.312    20812699.860    85224526.475 6      2918.258          38.625
G08  21152758.820   111158491.612 7      3618.170          47.000    21152757.700   111158491.603 6      3618.170          39.125    21152764.060    86617026.665 6      2819.353          38.750    21152764.640    86617031.671 8      2819.353          51.500
R09  20407620.720   108975549.531 8      4982.846          48.000    20407621.280   108975549.540 7      4982.846          47.250    20407627.160    84758790.884 8      3875.547          50.375    20407627.320    84758793.884 8      3875.547          50.687
G10  22095401.120   116112110.645 7      2265.718          47.375    22095400.080   116112110.650 7      2265.718          46.375    22095406.340    90476994.924 7      1765.494          46.937    22095406.860    90476996.925 7      1765.494          47.687
G26  23031326.060   121030416.116 7      -504.298          43.750    23031324.820   121030416.118 6      -504.298          41.625    23031336.080    94309459.482 6      -392.960          41.875    23031335.760    94309459.486 7      -392.960          45.312
G23  23825349.360   125203053.284 7       434.873          45.312    23825348.140   125203053.289 5       434.873          30.687    23825353.520    97560783.865 5       338.862          31.187    23825354.140    97560854.869 7       338.862          44.375
R04  23868859.520   127816664.773 6      5882.571          41.562    23868861.560   127816664.823 6      5882.571          40.250    23868888.500    99413072.016 7      4575.333          44.500    23868888.140    99413075.032 7      4575.333          45.500
> 2024 05 06 12 44 29.0000000  0 14
G02  22300204.280   117188366.203 7      4493.967          43.437    22300203.040   117188366.205 5      4493.967          35.562    22300207.520    91315623.181 5      3501.792          35.437
R18  21471814.620   114618000.807 7       171.232          44.437    21471814.620   114618000.797 7       171.232          45.375    21471822.960    89147369.052 8       133.180          48.000    21471822.920    89147372.048 8       133.180          48.062
G27  20961034.120   110150965.703 8      2012.968          48.437    20961033.240   110150965.714 8      2012.968          49.437    20961038.140    85831948.714 8      1568.547          49.562    20961038.540    85831951.711 8      1568.547          49.875
R16  19521122.560   104278323.079 8       635.603          49.562    19521122.520   104278323.077 8       635.603          49.312    19521131.480    81105400.256 8       494.358          51.187    19521132.040    81105401.258 8       494.358          51.437
G16  20833972.380   109483257.492 7      1013.937          46.125    20833970.860   109483257.499 6      1013.937          40.250    20833975.020    85311638.270 6       790.081          39.750
R03  23215021.480   124271837.429 7      4594.437          42.312    23215022.660   124271837.468 7      4594.437          42.312    23215037.480    96655934.311 6      3573.451          41.750    23215037.340    96655933.308 6      3573.451          41.937
R15  23023261.320   123029305.792 7     -1692.831          43.875    23023263.300   123029305.807 7     -1692.831          42.500    23023282.760    95689544.404 7     -1316.646          43.500    23023282.480    95689541.408 7     -1316.646          43.812
G21  20811984.860   109367713.216 7      3744.980          47.062    20811983.320   109367713.221 6      3744.980          38.500    20811987.240    85221608.360 6      2918.166          38.437
G08  21152070.240   111154873.425 7      3618.334          47.187    21152069.040   111154873.425 6      3618.334          40.000    21152075.540    86614207.307 6      2819.481          39.562    21152076.120    86614212.311 8      2819.481          51.500
R09  20406687.720   108970566.941 8      4982.543          48.000    20406688.100   108970566.950 7      4982.543          47.125    20406694.320    84754915.541 8      3875.311          50.437    20406694.360    84754918.536 8      3875.311          50.937
G10  22094970.080   116109845.021 8      2265.621          48.062    22094969.000   116109845.025 7      2265.621          46.875    22094975.140    90475229.509 7      1765.419          47.000    22094975.540    90475231.511 7      1765.419          47.625
G26  23031421.800   121030920.415 7      -504.132          44.687    23031420.960   121030920.415 6      -504.132          41.437    23031431.980    94309852.436 6      -392.831          41.375    23031431.840    94309852.432 7      -392.831          45.125
G23  23825266.740   125202618.603 7       434.726          45.312    23825265.420   125202618.608 5       434.726          30.687    23825270.840    97560445.157 5       338.747          30.812    23825271.200    97560516.163 7       338.747          43.875
R04  23867760.620   127810781.968 6      5883.139          40.687    23867763.660   127810782.017 6      5883.139          40.250    23867789.880    99408496.511 7      4575.775          44.750    23867789.760    99408499.503 7      4575.775          44.875
> 2024 05 06 12 44 30.0000000  0 14
G02  22299349.340   117183872.764 7      4493.438          42.812    22299347.940   117183872.764 5      4493.438          35.375    22299352.620    91312121.804 5      3501.381          35.437
R18  21471782.700   114617829.925 7       171.023          45.875    21471782.600   114617829.915 7       171.023          45.562    21471791.240    89147236.145 8       133.018          48.062    21471791.380    89147239.144 8       133.018          48.000
G27  20960651.180   110148953.133 8      2012.702          48.500    20960650.200   110148953.137 8      2012.702          49.125    20960655.160    85830380.477 8      1568.339          49.187    20960655.680    85830383.474 8      1568.339          49.750
R16  19521003.700   104277688.139 8       634.696          49.500    19521003.600   104277688.130 8       634.696          48.687    19521012.740    81104906.406 8       493.652          51.062    19521013.180    81104907.410 8       493.652          51.062
G16  20833779.680   109482244.061 7      1013.277          47.062    20833777.940   109482244.068 6      1013.277          39.687    20833782.100    85310848.583 6       789.567          39.937
R03  23214163.220   124267243.398 7      4593.912          43.437    23214164.500   124267243.429 7      4593.912          42.062    23214178.740    96652361.185 7      3573.043          42.437    23214178.780    96652360.180 7      3573.043          42.625
R15  23023578.380   123030998.887 7     -1692.990          43.937    23023579.860   123030998.907 7     -1692.990          42.500    23023599.360    95690861.237 7     -1316.770          43.687    23023599.460    95690858.236 7     -1316.770          43.687
G21  20811272.260   109363968.841 7      3744.289          46.875    20811270.540   109363968.848 6      3744.289          39.250    20811274.800    85218690.675 6      2917.628          38.250
G08  21151381.900   111151255.409 7      3618.118          46.750    21151380.440   111151255.406 6      3618.118          39.812    21151387.000    86611388.080 6      2819.313          39.125    21151387.840    86611393.086 8      2819.313          51.000
R09  20405754.840   108965585.129 8      4981.551          48.375    20405755.120   108965585.130 7      4981.551          46.750    20405761.440    84751040.795 8      3874.540          50.875    20405761.560    84751043.790 8      3874.540          50.500
G10  22094538.980   116107580.077 7      2264.804          47.000    22094537.900   116107580.084 7      2264.804          46.437    22094544.180    90473464.622 7      1764.782          46.875    22094544.260    90473466.626 7      1764.782          47.312
G26  23031517.460   121031425.001 7      -504.590          44.812    23031516.920   121031425.001 7      -504.590          42.437    23031528.160    94310245.618 6      -393.187          41.812    23031527.680    94310245.614 7      -393.187          45.000
G23  23825184.000   125202184.445 7       434.056          45.687    23825182.700   125202184.450 5       434.056          30.812    23825188.020    97560106.856 5       338.226          30.812    23825188.740    97560177.873 7       338.226          44.062
R04  23866662.520   127804899.156 6      5882.965          40.687    23866664.920   127804899.212 6      5882.965          40.250    23866691.200    99403920.997 7      4575.639          44.625    23866691.020    99403924.004 7      4575.639          45.125
> 2024 05 06 12 44 31.0000000  0 14
G02  22298494.520   117179379.551 7      4493.237          43.062    22298492.940   117179379.559 5      4493.237          35.375    22298497.700    91308620.609 5      3501.224          35.125
R18  21471751.120   114617658.877 7       171.216          45.812    21471750.580   114617658.873 7       171.216          45.437    21471758.960    89147103.114 8       133.168          48.000    21471758.920    89147106.113 8       133.168          48.187
G27  20960268.000   110146940.567 8      2012.628          48.812    20960267.240   110146940.577 8      2012.628          49.375    20960272.140    85828812.250 8      1568.281          49.312    20960272.760    85828815.249 8      1568.281          49.625
R16  19520884.860   104277053.803 8       634.061          49.312    19520884.740   104277053.802 8       634.061          48.875    19520894.000    81104413.042 8       493.159          51.250    19520894.280    81104414.040 8       493.159          51.687
G16  20833586.780   109481230.958 7      1013.063          46.437    20833585.220   109481230.960 6      1013.063          40.187    20833589.300    85310059.151 6       789.400          39.750
R03  23213305.500   124262649.729 7      4593.607          43.437    23213306.760   124262649.752 7      4593.607          42.062    23213320.140    96648788.337 6      3572.806          41.812    23213320.400    96648787.332 6      3572.806          41.750
R15  23023895.220   123032691.986 7     -1692.998          44.437    23023896.640   123032692.003 7     -1692.998          42.687    23023916.500    95692178.075 7     -1316.777          43.500    23023916.200    95692175.077 7     -1316.777          43.750
G21  20810559.860   109360224.809 7      3743.994          47.062    20810558.100   109360224.817 6      3743.994          38.375    20810562.120    85215773.252 6      2917.398          38.500
G08  21150693.460   111147637.381 7      3618.065          46.375    21150692.160   111147637.383 6      3618.065          39.625    21150698.440    86608568.841 6      2819.272          38.875    21150699.480    86608573.847 8      2819.272          51.625
R09  20404821.860   108960603.868 8      4981.005          48.625    20404822.220   108960603.877 7      4981.005          47.000    20404828.660    84747166.490 8      3874.115          51.062    20404828.640    84747169.483 8      3874.115          51.187
G10  22094108.020   116105315.550 7      2264.410          47.937    22094106.920   116105315.558 7      2264.410          46.375    22094113.280    90471700.062 7      1764.475          46.312    22094113.680    90471702.064 7      1764.475          47.312
G26  23031613.960   121031929.663 7      -504.645          44.750    23031612.860   121031929.668 6      -504.645          41.875    23031624.200    94310638.857 6      -393.230          41.500    23031623.780    94310638.849 7      -393.230          45.437
G23  23825101.320   125201750.608 7       433.727          46.062    23825100.180   125201750.613 5       433.727          30.812    23825105.480    97559768.803 5       337.969          30.812    23825106.660    97559839.810 7       337.969          44.000
R04  23865563.720   127799016.093 7      5883.259          42.250    23865566.360   127799016.143 6      5883.259          40.875    23865592.680    99399345.290 7      4575.868          44.375    23865592.680    99399348.293 7      4575.868          44.500
> 2024 05 06 12 44 32.0000000  0 14
G02  22297639.440   117174886.603 7      4492.925          44.437    22297637.980   117174886.608 5      4492.925          35.500    22297642.640    91305119.626 5      3500.980          35.250
R18  21471718.800   114617487.715 7       171.236          45.937    21471718.660   114617487.713 7       171.236          45.500    21471726.920    89146969.994 8       133.183          48.437    21471726.940    89146972.991 8       133.183          48.312
G27  20959885.200   110144928.049 8      2012.560          48.437    20959884.340   110144928.051 8      2012.560          49.562    20959889.160    85827244.056 8      1568.228          49.437    20959889.920    85827247.053 8      1568.228          50.062
R16  19520766.540   104276420.146 8       633.385          48.375    19520766.140   104276420.142 8       633.385          48.375    19520775.380    81103920.197 8       492.632          51.187    19520775.500    81103921.195 8       492.632          51.312
G16  20833394.180   109480218.229 7      1012.580          46.187    20833392.480   109480218.234 6      1012.580          39.562    20833396.540    85309270.013 6       789.024          39.312
R03  23212447.340   124258056.405 7      4593.205          43.000    23212448.300   124258056.431 7      4593.205          42.562    23212462.680    96645215.773 6      3572.493          41.812    23212462.620    96645214.770 6      3572.493          41.625
R15  23024212.380   123034385.115 7     -1693.234          44.625    23024213.440   123034385.140 7     -1693.234          42.750    23024233.540    95693494.947 7     -1316.960          43.875    23024233.060    95693491.953 7     -1316.960          43.687
G21  20809847.220   109356481.169 7      3743.424          47.625    20809845.680   109356481.177 6      3743.424          38.562    20809849.680    85212856.140 6      2916.954          38.750
G08  21150004.820   111144019.339 7      3618.077          46.250    21150003.740   111144019.338 6      3618.077          39.562    21150010.040    86605749.591 6      2819.281          39.562    21150010.980    86605754.598 8      2819.281          51.625
R09  20403889.020   108955623.206 8      4980.325          48.187    20403889.580   108955623.218 7      4980.325          47.375    20403896.000    84743292.654 8      3873.586          50.250    20403896.080    84743295.652 8      3873.586          51.500
G10  22093677.220   116103051.518 7      2263.815          47.500    22093676.160   116103051.523 7      2263.815          46.625    22093682.440    90469935.889 7      1764.012          46.937    22093682.680    90469937.892 7      1764.012          47.250
G26  23031709.540   121032434.462 7      -504.846          44.312    23031708.760   121032434.464 6      -504.846          41.000    23031720.380    94311032.194 6      -393.386          41.375    23031719.760    94311032.195 7      -393.386          45.000
G23  23825019.040   125201317.112 7       433.352          45.125    23825017.660   125201317.115 5       433.352          30.812    23825023.040    97559431.018 5       337.677          31.000    23825024.060    97559502.027 7       337.677          44.375
R04  23864465.460   127793132.894 7      5883.319          42.250    23864467.860   127793132.933 6      5883.319          40.875    23864493.920    99394769.468 7      4575.915          43.937    23864494.100    99394772.477 7      4575.915          44.187
> 2024 05 06 12 44 33.0000000  0 14
G02  22296784.400   117170393.753 7      4492.836          43.187    22296782.900   117170393.753 5      4492.836          35.062    22296787.740    91301618.703 5      3500.911          35.125
R18  21471686.540   114617316.243 7       171.688          45.250    21471686.460   114617316.244 7       171.688          45.625    21471694.860    89146836.629 8       133.535          48.812    21471695.040    89146839.628 8       133.535          48.312
G27  20959502.140   110142915.383 8      2012.764          48.500    20959501.320   110142915.380 8      2012.764          49.312    20959506.240    85825675.747 8      1568.388          49.250    20959506.640    85825678.747 8      1568.388          50.125
R16  19520648.060   104275787.007 7       632.924          47.125    19520647.340   104275787.008 8       632.924          48.562    19520656.960    81103427.762 8       492.274          51.125    19520657.380    81103428.758 8       492.274          51.437
G16  20833201.440   109479205.667 7      1012.527          47.125    20833199.860   109479205.675 6      1012.527          40.500    20833204.060    85308481.006 6       788.982          40.125
R03  23211589.760   124253463.258 7      4593.105          44.062    23211590.200   124253463.278 7      4593.105          42.562    23211604.420    96641643.335 6      3572.415          41.437    23211604.880    96641642.330 6      3572.415          41.812
R15  23024528.680   123036078.081 7     -1692.867          44.187    23024530.300   123036078.093 7     -1692.867          42.750    23024550.680    95694811.671 7     -1316.675          44.750    23024550.200    95694808.675 7     -1316.675          44.875
G21  20809135.160   109352737.687 7      3743.499          46.875    20809133.280   109352737.692 6      3743.499          38.187    20809137.380    85209939.147 6      2917.012          38.062
G08  21149316.240   111140401.128 7      3618.293          46.937    21149315.180   111140401.128 6      3618.293          39.375    21149321.500    86602930.207 6      2819.449          39.500    21149322.400    86602935.213 8      2819.449          51.437
R09  20402956.380   108950642.937 8      4980.103          48.875    20402957.100   108950642.943 7      4980.103          47.937    20402963.440    84739419.113 8      3873.414          50.562    20402963.520    84739422.111 8      3873.414          51.687
G10  22093246.640   116100787.772 7      2263.590          46.937    22093245.340   116100787.777 7      2263.590          46.875    22093251.740    90468171.933 7      1763.837          46.875    22093251.740    90468173.938 7      1763.837          47.125
G26  23031805.740   121032939.171 7      -504.679          44.312    23031804.920   121032939.171 7      -504.679          42.312    23031816.380    94311425.466 6      -393.256          41.562    23031815.840    94311425.469 7      -393.256          45.187
G23  23824936.780   125200883.772 7       433.342          46.125    23824935.380   125200883.776 5       433.342          31.062    23824940.560    97559093.356 5       337.669          31.000    23824941.500    97559164.369 7       337.669          44.125
R04  23863366.940   127787249.317 6      5883.805          41.875    23863369.720   127787249.351 6      5883.805          41.125    23863395.000    99390193.359 7      4576.293          44.187    23863395.540    99390196.366 7      4576.293          44.312
> 2024 05 06 12 44 34.0000000  0 14
G02  22295929.440   117165901.184 7      4492.225          44.687    22295927.940   117165901.186 5      4492.225          35.062    22295932.940    91298118.006 5      3500.435          35.125
R18  21471654.360   114617144.691 7       171.505          47.625    21471654.360   114617144.694 7       171.505          46.812    21471662.680    89146703.206 8       133.393          48.625    21471662.980    89146706.206 8       133.393          48.125
G27  20959118.900   110140902.778 8      2012.432          49.000    20959118.260   110140902.775 8      2012.432          50.312    20959123.280    85824107.485 8      1568.129          49.687    20959124.020    85824110.487 8      1568.129          50.062
R16  19520529.740   104275154.602 8       631.925          49.687    19520528.900   104275154.595 8       631.925          49.375    19520538.500    81102935.889 8       491.497          51.500    19520538.860    81102936.887 8       491.497          51.562
G16  20833009.040   109478193.513 7      1011.794          46.437    20833007.320   109478193.521 6      1011.794          39.875    20833011.500    85307692.319 6       788.411          39.687
R03  23210731.540   124248870.474 7      4592.479          44.125    23210732.080   124248870.495 7      4592.479          42.750    23210746.460    96638071.179 6      3571.928          41.250    23210746.660    96638070.176 6      3571.928          41.812
R15  23024845.760   123037771.117 7     -1693.178          44.500    23024847.020   123037771.128 7     -1693.178          42.750    23024867.300    95696128.456 7     -1316.916          44.500    23024866.920    95696125.460 7     -1316.916          44.687
G21  20808423.060   109348994.633 7      3742.719          46.625    20808420.940   109348994.643 6      3742.719          38.437    20808425.280    85207022.496 6      2916.404          38.500
G08  21148627.840   111136782.929 7      3618.074          46.625    21148626.580   111136782.928 6      3618.074          39.187    21148632.840    86600110.835 6      2819.279          39.312    21148634.080    86600115.843 8      2819.279          51.437
R09  20402023.680   108945663.297 8      4979.287          48.187    20402024.540   108945663.304 7      4979.287          47.437    20402030.900    84735546.069 8      3872.779          50.500    20402030.860    84735549.066 8      3872.779          51.687
G10  22092815.980   116098524.513 7      2262.896          47.125    22092814.620   116098524.518 7      2262.896          46.625    22092821.040    90466408.361 7      1763.295          46.750    22092821.120    90466410.361 7      1763.295          47.750
G26  23031902.100   121033444.015 7      -504.992          44.562    23031901.100   121033444.014 6      -504.992          41.625    23031912.480    94311818.845 6      -393.500          41.625    23031912.060    94311818.847 7      -393.500          45.125
G23  23824854.440   125200450.830 7       432.612          45.875    23824853.000   125200450.838 5       432.612          31.062    23824858.140    97558756.005 5       337.101          31.000    23824859.320    97558827.006 7       337.101          43.750
R04  23862267.640   127781365.566 6      5883.708          41.875    23862270.440   127781365.600 6      5883.708          41.125    23862296.340    99385617.106 7      4576.217          44.000    23862296.480    99385620.126 7      4576.217          43.937
> 2024 05 06 12 44 35.0000000  0 14
G02  22295074.680   117161408.785 7      4492.439          45.187    22295073.240   117161408.788 5      4492.439          35.125    22295078.100    91294617.442 5      3500.602          34.937
R18  21471622.400   114616972.933 7       172.044          46.750    21471622.060   114616972.939 7       172.044          46.750    21471630.580    89146569.621 8       133.812          48.000    21471630.980    89146572.619 7       133.812          47.750
G27  20958735.920   110138890.147 8      2012.824          48.125    20958735.260   110138890.149 8      2012.824          48.875    20958740.300    85822539.207 8      1568.435          48.375    20958741.060    85822542.211 8      1568.435          49.312
R16  19520411.460   104274522.787 8       631.690          50.000    19520410.720   104274522.778 8       631.690          49.875    19520420.280    81102444.474 8       491.314          50.812    19520420.640    81102445.476 8       491.314          50.437
G16  20832816.360   109477181.643 7      1011.858          46.500    20832814.620   109477181.653 6      1011.858          40.125    20832818.820    85306903.851 6       788.461          39.437
R03  23209873.380   124244277.983 7      4592.493          45.562    23209874.140   124244277.995 7      4592.493          42.750    23209888.360    96634499.245 6      3571.939          41.250    23209889.260    96634498.242 7      3571.939          42.125
R15  23025162.440   123039464.144 7     -1692.804          44.375    23025164.220   123039464.148 7     -1692.804          43.812    23025184.200    95697445.224 7     -1316.625          44.375    23025183.980    95697442.232 7     -1316.625          44.812
G21  20807710.840   109345251.881 7      3742.745          47.125    20807708.600   109345251.891 6      3742.745          38.250    20807712.940    85204106.070 6      2916.425          38.375
G08  21147939.340   111133164.684 7      3618.415          46.500    21147938.180   111133164.681 6      3618.415          39.312    21147944.340    86597291.423 6      2819.544          38.812    21147945.500    86597296.432 8      2819.544          50.500
R09  20401091.320   108940684.197 8      4979.040          49.062    20401092.300   108940684.198 7      4979.040          47.937    20401098.300    84731673.437 8      3872.586          49.437    20401098.260    84731676.435 8      3872.586          49.687
G10  22092385.280   116096261.679 8      2262.801          48.000    22092384.060   116096261.686 7      2262.801          46.812    22092390.380    90464645.117 7      1763.221          46.625    22092390.640    90464647.120 7      1763.221          47.500
G26  23031997.940   121033948.913 7      -504.723          44.312    23031997.180   121033948.918 7      -504.723          42.312    23032008.520    94312212.268 7      -393.290          42.000    23032007.980    94312212.260 7      -393.290          45.375
G23  23824771.820   125200018.160 7       432.625          46.062    23824770.580   125200018.170 5       432.625          31.000    23824775.840    97558418.861 5       337.111          31.000    23824777.060    97558489.870 7       337.111          43.750
R04  23861168.500   127775481.504 6      5884.331          41.875    23861171.860   127775481.541 6      5884.331          41.125    23861197.520    99381040.624 7      4576.702          43.375    23861197.360    99381043.623 7      4576.702          43.625
> 2024 05 06 12 44 36.0000000  0 14
G02  22294219.920   117156916.634 7      4491.961          45.062    22294218.360   117156916.636 5      4491.961          35.437    22294223.260    91291117.074 5      3500.229          35.375
R18  21471590.140   114616800.991 7       172.000          47.312    21471590.060   114616800.997 7       172.000          46.937    21471598.600    89146435.890 8       133.778          48.750    21471598.660    89146438.891 8       133.778          48.500
G27  20958352.960   110136877.518 7      2012.654          47.750    20958352.280   110136877.526 8      2012.654          49.625    20958357.320    85820970.936 8      1568.302          49.375    20958357.660    85820973.939 8      1568.302          50.125
R16  19520293.300   104273891.587 8       630.876          50.375    19520292.440   104273891.583 8       630.876          49.875    19520302.120    81101953.549 8       490.681          51.125    19520302.440    81101954.549 8       490.681          51.562
G16  20832623.840   109476170.107 7      1011.365          46.625    20832622.100   109476170.114 6      1011.365          39.875    20832626.400    85306115.641 6       788.076          39.312
R03  23209015.540   124239685.748 7      4592.020          45.562    23209016.160   124239685.769 7      4592.020          43.687    23209030.600    96630927.526 6      3571.571          41.437    23209031.220    96630926.523 7      3571.571          42.125
R15  23025479.580   123041157.153 7     -1693.010          44.375    23025480.620   123041157.154 7     -1693.010          43.812    23025501.140    95698761.983 7     -1316.785          44.062    23025500.860    95698758.992 7     -1316.785          44.562
G21  20806998.780   109341509.463 8      3742.239          48.187    20806996.500   109341509.473 6      3742.239          38.500    20807000.660    85201189.906 6      2916.030          38.687
G08  21147250.820   111129546.382 7      3618.267          47.187    21147249.560   111129546.382 6      3618.267          39.625    21147255.780    86594471.975 6      2819.429          39.187    21147256.800    86594476.986 8      2819.429          51.250
R09  20400159.240   108935705.618 8      4978.281          49.437    20400159.960   108935705.613 8      4978.281          48.437    20400166.080    84727801.211 8      3871.997          50.437    20400166.080    84727804.208 8      3871.997          50.937
G10  22091954.660   116093999.283 8      2262.123          48.500    22091953.560   116093999.286 7      2262.123          46.937    22091959.980    90462882.214 7      1762.694          47.125    22091960.020    90462884.217 7      1762.694          47.625
G26  23032094.000   121034453.906 7      -505.051          45.312    23032093.320   121034453.909 7      -505.051          42.062    23032104.640    94312605.761 6      -393.546          41.750    23032104.080    94312605.761 7      -393.546          45.312
G23  23824689.520   125199585.804 7       432.143          45.875    23824688.440   125199585.809 5       432.143          31.000    23824693.520    97558081.963 5       336.735          31.000    23824694.760    97558152.974 7       336.735          43.562
R04  23860069.500   127769597.167 7      5884.550          42.875    23860073.200   127769597.198 7      5884.550          42.000    23860098.660    99376463.915 7      4576.872          43.437    23860098.480    99376466.927 7      4576.872          43.312
> 2024 05 06 12 44 37.0000000  0 14
G02  22293365.280   117152424.850 7      4491.697          44.812    22293363.400   117152424.855 5      4491.697          35.375    22293368.560    91287616.993 5      3500.023          35.375
R18  21471557.920   114616629.063 7       172.002          45.750    21471557.800   114616629.069 7       172.002          46.250    21471566.280    89146302.172 8       133.779          48.500    21471566.380    89146305.169 8       133.779          48.375
G27  20957970.140   110134865.071 8      2012.539          48.812    20957969.260   110134865.076 8      2012.539          49.125    20957974.380    85819402.797 8      1568.212          49.312    20957974.860    85819405.799 8      1568.212          50.187
R16  19520175.320   104273261.191 8       630.070          49.750    19520174.640   104273261.187 8       630.070          48.687    19520184.060    81101463.243 8       490.054          51.062    19520184.500    81101464.245 8       490.054          51.187
G16  20832431.480   109475159.059 7      1010.910          46.312    20832429.780   109475159.064 6      1010.910          40.437    20832433.980    85305327.815 6       787.722          39.625
R03  23208158.120   124235093.974 7      4591.696          44.937    23208158.320   124235093.994 7      4591.696          43.687    23208172.600    96627356.167 6      3571.319          41.437    23208173.440    96627355.157 7      3571.319          42.375
R15  23025796.480   123042850.266 7     -1692.944          44.750    23025797.880   123042850.278 7     -1692.944          43.812    23025818.000    95700078.837 7     -1316.735          44.187    23025817.800    95700075.843 7     -1316.735          44.500
G21  20806286.720   109337767.557 7      3741.774          47.125    20806284.320   109337767.565 6      3741.774          38.375    20806288.700    85198274.144 6      2915.668          38.125
G08  21146562.340   111125928.225 7      3618.212          47.187    21146561.000   111125928.222 6      3618.212          39.875    21146567.260    86591652.634 6      2819.386          39.500    21146568.500    86591657.642 8      2819.386          51.750
R09  20399227.000   108930727.751 8      4977.577          48.375    20399227.420   108930727.755 7      4977.577          47.750    20399233.860    84723929.545 8      3871.449          50.562    20399233.900    84723932.545 8      3871.449          50.687
G10  22091524.140   116091737.469 7      2261.662          47.000    22091523.140   116091737.474 7      2261.662          46.875    22091529.600    90461119.769 7      1762.334          46.750    22091529.580    90461121.770 7      1762.334          47.187
G26  23032190.080   121034959.133 7      -505.252          44.250    23032189.420   121034959.136 7      -505.252          42.000    23032200.780    94312999.438 6      -393.703          41.500    23032200.220    94312999.445 7      -393.703          45.062
G23  23824607.460   125199153.916 7       431.730          46.125    23824606.200   125199153.921 5       431.730          31.000    23824611.400    97557745.433 5       336.413          31.000    23824612.580    97557816.446 7       336.413          43.875
R04  23858971.240   127763712.747 7      5884.622          42.875    23858973.940   127763712.786 7      5884.622          42.000    23858999.940    99371887.165 7      4576.928          43.750    23858999.460    99371890.161 7      4576.928          42.937
> 2024 05 06 12 44 38.0000000  0 14
G02  22292510.260   117147933.261 7      4491.566          44.812    22292508.700   117147933.263 5      4491.566          35.375    22292513.820    91284117.064 5      3499.921          35.187
R18  21471525.620   114616456.953 7       172.143          46.000    21471525.320   114616456.956 7       172.143          45.437    21471534.040    89146168.307 7       133.889          47.625    21471533.980    89146171.307 8       133.889          48.687
G27  20957587.020   110132852.603 8      2012.475          48.750    20957586.360   110132852.605 8      2012.475          49.000    20957591.340    85817834.638 8      1568.162          49.250    20957591.920    85817837.637 8      1568.162          49.812
R16  19520057.220   104272631.390 7       629.422          47.687    19520056.700   104272631.389 8       629.422          48.750    19520066.200    81100973.398 8       489.550          51.062    19520066.420    81100974.398 8       489.550          50.937
G16  20832239.140   109474148.305 7      1010.614          46.187    20832237.480   109474148.310 6      1010.614          40.312    20832241.780    85304540.215 6       787.492          39.562
R03  23207300.180   124230502.535 7      4591.217          43.437    23207300.760   124230502.566 7      4591.217          42.812    23207315.720    96623785.026 6      3570.947          41.437    23207315.780    96623784.021 7      3570.947          42.500
R15  23026112.880   123044543.317 7     -1692.939          43.875    23026114.340   123044543.342 7     -1692.939          42.687    23026134.540    95701395.625 7     -1316.731          43.625    23026134.540    95701392.635 7     -1316.731          44.187
G21  20805574.620   109334025.940 7      3741.570          46.312    20805572.420   109334025.950 6      3741.570          38.187    20805576.680    85195358.604 6      2915.509          37.750
G08  21145873.700   111122309.999 7      3618.227          46.187    21145872.520   111122309.998 6      3618.227          39.437    21145878.680    86588833.247 6      2819.397          38.687    21145879.860    86588838.258 8      2819.397          51.437
R09  20398294.960   108925750.418 8      4976.981          48.312    20398295.320   108925750.433 7      4976.981          47.437    20398301.580    84720058.297 8      3870.985          50.562    20398301.800    84720061.296 8      3870.985          50.937
G10  22091093.820   116089476.085 7      2261.155          46.937    22091092.940   116089476.090 7      2261.155          46.437    22091099.120    90459357.658 7      1761.939          46.750    22091099.080    90459359.659 7      1761.939          47.437
G26  23032286.140   121035464.405 7      -505.330          43.812    23032285.480   121035464.405 6      -505.330          41.687    23032296.940    94313393.148 6      -393.764          41.562    23032296.040    94313393.146 7      -393.764          45.000
G23  23824525.340   125198722.318 7       431.394          45.062    23824524.180   125198722.320 5       431.394          30.625    23824529.200    97557409.123 5       336.151          31.000    23824530.140    97557480.123 7       336.151          43.812
R04  23857872.560   127757828.069 7      5884.943          42.875    23857875.380   127757828.108 6      5884.943          41.562    23857901.120    99367310.208 7      4577.178          43.562    23857900.720    99367313.232 7      4577.178          43.062
> 2024 05 06 12 44 39.0000000  0 14
G02  22291655.780   117143441.945 7      4491.045          44.687    22291653.980   117143441.945 5      4491.045          35.437    22291659.120    91280617.344 5      3499.516          35.187
R18  21471493.520   114616284.698 7       172.155          46.000    21471492.900   114616284.702 7       172.155          45.437    21471501.740    89146034.336 8       133.899          48.062    21471501.600    89146037.342 8       133.899          48.187
G27  20957204.160   110130840.153 8      2012.238          48.562    20957203.440   110130840.157 8      2012.238          48.687    20957208.380    85816266.509 8      1567.978          49.375    20957208.460    85816269.507 8      1567.978          49.500
R16  19519939.660   104272002.249 8       628.596          49.562    19519939.160   104272002.256 8       628.596          48.125    19519948.400    81100484.072 8       488.908          50.562    19519948.740    81100485.068 8       488.908          51.437
G16  20832046.740   109473137.901 7      1010.047          47.500    20832045.200   109473137.904 6      1010.047          39.875    20832049.420    85303752.893 6       787.049          39.687
R03  23206442.440   124225911.381 7      4590.781          43.875    23206443.120   124225911.399 7      4590.781          42.812    23206457.540    96620214.175 6      3570.607          41.500    23206458.080    96620213.168 7      3570.607          43.875
R15  23026429.860   123046236.401 7     -1693.268          43.437    23026431.520   123046236.418 7     -1693.268          42.812    23026451.460    95702712.447 7     -1316.986          44.187    23026451.400    95702709.453 7     -1316.986          45.125
G21  20804862.660   109330284.710 7      3740.947          46.687    20804860.520   109330284.720 6      3740.947          38.250    20804864.800    85192443.368 6      2915.024          38.500
G08  21145185.400   111118691.768 7      3618.037          45.750    21145183.980   111118691.765 6      3618.037          39.187    21145190.280    86586013.850 6      2819.250          38.687    21145191.440    86586018.865 8      2819.250          51.625
R09  20397362.800   108920773.660 7      4976.322          47.812    20397362.980   108920773.666 7      4976.322          46.937    20397369.700    84716187.489 8      3870.473          50.500    20397369.620    84716190.488 8      3870.473          51.500
G10  22090663.780   116087215.161 7      2260.476          47.812    22090662.640   116087215.164 7      2260.476          46.687    22090668.980    90457595.902 7      1761.410          47.437    22090668.900    90457597.904 7      1761.410          47.312
G26  23032382.500   121035969.774 7      -505.654          44.625    23032381.560   121035969.774 6      -505.654          41.812    23032393.120    94313786.938 6      -394.016          41.625    23032392.640    94313786.938 7      -394.016          45.125
G23  23824443.320   125198291.050 7       430.817          45.250    23824442.040   125198291.055 5       430.817          30.625    23824447.100    97557073.074 5       335.701          30.687    23824448.440    97557144.068 7       335.701          44.062
R04  23856773.580   127751943.223 7      5884.679          42.875    23856776.220   127751943.254 6      5884.679          41.562    23856802.140    99362733.103 7      4576.972          44.000    23856802.000    99362736.104 7      4576.972          43.875
> 2024 05 06 12 44 40.0000000  0 14
G02  22290801.220   117138950.979 7      4490.644          44.937    22290799.680   117138950.984 5      4490.644          35.312    22290804.600    91277117.904 5      3499.203          35.062
R18  21471461.120   114616112.402 7       172.218          46.875    21471460.740   114616112.403 7       172.218          45.625    21471469.400    89145900.325 7       133.947          47.687    21471469.460    89145903.330 8       133.947          48.125
G27  20956821.240   110128827.850 8      2012.104          48.187    20956820.440   110128827.852 8      2012.104          48.875    20956825.500    85814698.477 8      1567.874          49.062    20956825.620    85814701.472 8      1567.874          49.750
R16  19519822.000   104271373.920 8       627.857          49.250    19519821.640   104271373.927 8       627.857          48.562    19519830.780    81099995.368 8       488.334          51.125    19519830.940    81099996.361 8       488.334          51.312
G16  20831854.600   109472127.947 8      1009.735          48.000    20831853.060   109472127.951 6      1009.735          40.187    20831857.220    85302965.922 6       786.807          39.937
R03  23205584.760   124221320.726 7      4590.387          43.875    23205585.480   124221320.746 6      4590.387          41.750    23205600.260    96616643.657 6      3570.301          41.500    23205600.700    96616642.648 6      3570.301          40.750
R15  23026746.480   123047929.588 7     -1693.340          43.875    23026748.280   123047929.595 7     -1693.340          42.812    23026768.600    95704029.348 7     -1317.042          44.500    23026768.060    95704026.348 7     -1317.042          44.687
G21  20804150.960   109326543.963 7      3740.378          46.625    20804148.800   109326543.973 6      3740.378          37.625    20804152.780    85189528.508 6      2914.580          38.375
G08  21144496.920   111115073.636 7      3618.015          46.312    21144495.440   111115073.633 6      3618.015          39.437    21144501.920    86583194.527 6      2819.232          39.187    21144502.840    86583199.536 8      2819.232          51.437
R09  20396431.240   108915797.633 7      4975.573          47.437    20396431.220   108915797.636 7      4975.573          47.437    20396437.960    84712317.241 8      3869.890          50.562    20396437.940    84712320.239 8      3869.890          51.437
G10  22090233.620   116084954.805 7      2259.956          47.625    22090232.500   116084954.810 7      2259.956          46.875    22090238.800    90455834.587 7      1761.005          47.187    22090238.440    90455836.592 7      1761.005          47.500
G26  23032478.800   121036475.369 7      -505.867          44.750    23032477.980   121036475.366 6      -505.867          41.750    23032489.360    94314180.896 6      -394.182          41.437    23032489.140    94314180.896 7      -394.182          45.000
G23  23824361.300   125197860.219 7       430.529          44.125    23824360.100   125197860.226 5       430.529          30.625    23824365.200    97556737.355 5       335.477          30.687    23824366.020    97556808.380 7       335.477          45.000
R04  23855674.880   127746058.208 6      5885.050          41.687    23855677.400   127746058.253 6      5885.050          41.562    23855703.300    99358155.886 7      4577.261          44.437    23855703.100    99358158.893 7      4577.261          44.187
> 2024 05 06 12 44 41.0000000  0 14
G02  22289946.620   117134460.191 7      4490.727          44.500    22289945.140   117134460.191 5      4490.727          35.312    22289949.920    91273618.592 5      3499.268          35.062
R18  21471428.720   114615939.891 7       172.566          46.500    21471428.560   114615939.890 7       172.566          45.937    21471437.240    89145766.150 8       134.218          48.500    21471437.420    89145769.153 8       134.218          48.437
G27  20956438.220   110126815.492 8      2012.442          48.000    20956437.520   110126815.497 8      2012.442          49.125    20956442.580    85813130.406 8      1568.136          49.250    20956443.020    85813133.405 8      1568.136          49.937
R16  19519704.260   104270746.195 8       627.405          48.500    19519704.260   104270746.193 7       627.405          47.750    19519713.200    81099507.137 8       487.982          51.062    19519713.140    81099508.130 8       487.982          51.562
G16  20831662.660   109471118.302 7      1009.569          47.312    20831660.900   109471118.307 6      1009.569          40.187    20831665.040    85302179.188 6       786.677          39.625
R03  23204727.540   124216730.349 7      4590.249          43.812    23204728.140   124216730.377 7      4590.249          42.062    23204742.640    96613073.385 6      3570.193          41.000    23204743.320    96613072.383 6      3570.193          41.875
R15  23027063.480   123049622.731 7     -1693.000          43.687    23027065.260   123049622.740 7     -1693.000          42.625    23027085.000    95705346.220 7     -1316.778          44.250    23027084.840    95705343.228 7     -1316.778          44.125
G21  20803438.960   109322803.481 7      3740.307          47.187    20803437.020   109322803.491 6      3740.307          37.625    20803440.980    85186613.859 6      2914.525          38.125
G08  21143808.320   111111455.410 7      3618.399          47.062    21143806.820   111111455.405 6      3618.399          39.437    21143813.360    86580375.135 6      2819.532          39.250    21143814.460    86580380.147 8      2819.532          52.000
R09  20395499.360   108910822.126 7      4975.305          47.875    20395499.320   108910822.125 7      4975.305          47.000    20395506.320    84708447.405 8      3869.682          50.375    20395506.140    84708450.400 8      3869.682          51.062
G10  22089803.480   116082694.840 7      2259.762          47.625    22089802.460   116082694.848 7      2259.762          46.875    22089808.740    90454073.590 7      1760.854          47.000    22089808.500    90454075.592 7      1760.854          47.500
G26  23032575.060   121036980.964 7      -505.633          44.312    23032574.100   121036980.966 6      -505.633          41.250    23032585.560    94314574.868 6      -394.000          41.062    23032585.220    94314574.870 7      -394.000          45.187
G23  23824279.340   125197429.658 7       430.444          44.812    23824278.380   125197429.665 5       430.444          30.812    23824283.340    97556401.872 5       335.411          30.687    23824284.360    97556472.897 7       335.411          44.812
R04  23854575.840   127740172.977 6      5885.416          41.687    23854577.640   127740173.029 6      5885.416          40.437    23854604.360    99353578.484 7      4577.545          45.125    23854604.340    99353581.483 7      4577.545          45.437
> 2024 05 06 12 44 42.0000000  0 14
G02  22289091.980   117129969.734 7      4490.109          44.500    22289090.720   117129969.739 5      4490.109          35.125    22289095.400    91270119.543 5      3498.786          35.250
R18  21471396.120   114615767.352 7       172.343          45.687    21471395.800   114615767.352 7       172.343          45.500    21471405.040    89145631.959 8       134.045          48.375    21471404.980    89145634.955 8       134.045          48.625
G27  20956055.380   110124803.270 7      2011.930          47.812    20956054.740   110124803.273 8      2011.930          49.000    20956059.700    85811562.443 8      1567.737          49.187    20956060.360    85811565.441 8      1567.737          50.250
R16  19519586.880   104270119.204 8       626.461          49.437    19519586.620   104270119.205 7       626.461          47.875    19519595.920    81099019.475 8       487.248          50.625    19519596.080    81099020.469 8       487.248          50.812
G16  20831470.720   109470109.085 7      1008.867          46.062    20831468.960   109470109.088 6      1008.867          40.375    20831473.020    85301392.781 6       786.130          39.750
R03  23203870.260   124212140.435 7      4589.495          43.375    23203870.520   124212140.466 7      4589.495          42.062    23203885.440    96609503.435 7      3569.607          42.375    23203885.840    96609502.438 7      3569.607          43.250
R15  23027380.620   123051316.041 7     -1693.504          43.687    23027381.520   123051316.048 7     -1693.504          42.750    23027401.800    95706663.214 7     -1317.170          44.125    23027401.780    95706660.223 7     -1317.170          44.375
G21  20802727.080   109319063.467 7      3739.577          45.875    20802725.300   109319063.474 6      3739.577          38.375    20802729.260    85183699.565 6      2913.956          38.250
G08  21143119.800   111107837.279 7      3618.001          46.687    21143118.300   111107837.271 6      3618.001          39.500    21143124.740    86577555.818 6      2819.221          39.187    21143125.940    86577560.836 8      2819.221          51.375
R09  20394567.800   108905847.279 7      4974.359          47.937    20394568.040   108905847.272 7      4974.359          47.187    20394574.720    84704578.080 8      3868.946          50.500    20394574.780    84704581.077 8      3868.946          51.250
G10  22089373.460   116080435.422 7      2258.929          47.375    22089372.580   116080435.427 7      2258.929          47.125    22089378.920    90452313.008 7      1760.204          47.125    22089378.780    90452315.013 7      1760.204          47.875
G26  23032671.120   121037486.763 7      -505.966          44.187    23032670.380   121037486.763 6      -505.966          41.437    23032681.800    94314968.989 6      -394.259          41.625    23032681.480    94314968.989 7      -394.259          45.375
G23  23824197.520   125196999.523 7       429.799          44.625    23824196.400   125196999.528 5       429.799          30.812    23824201.480    97556066.710 5       334.908          31.062    23824202.620    97556137.718 7       334.908          44.125
R04  23853476.280   127734287.617 6      5885.201          41.437    23853478.920   127734287.658 6      5885.201          40.437    23853505.480    99349000.984 7      4577.378          44.562    23853505.360    99349003.980 7      4577.378          44.062
> 2024 05 06 12 44 43.0000000  0 14
G02  22288237.480   117125479.593 7      4490.065          45.375    22288236.220   117125479.598 5      4490.065          35.437    22288240.920    91266620.742 5      3498.752          35.125
R18  21471363.940   114615594.727 7       172.800          45.812    21471363.680   114615594.730 7       172.800          45.125    21471372.620    89145497.697 8       134.400          48.125    21471372.740    89145500.698 8       134.400          48.750
G27  20955672.460   110122791.128 7      2012.161          47.937    20955671.800   110122791.130 8      2012.161          49.375    20955676.720    85809994.544 8      1567.918          49.062    20955677.580    85809997.541 8      1567.918          50.062
R16  19519469.900   104269492.924 8       626.037          48.437    19519469.520   104269492.925 8       626.037          48.812    19519478.480    81098532.377 8       486.918          50.937    19519478.720    81098533.370 8       486.918          50.500
G16  20831278.680   109469100.279 7      1008.682          47.000    20831276.860   109469100.284 6      1008.682          40.500    20831281.060    85300606.700 6       785.986          40.375
R03  23203012.820   124207550.882 7      4589.491          43.375    23203012.940   124207550.913 7      4589.491          42.062    23203028.000    96605933.791 7      3569.604          43.312    23203028.100    96605932.798 7      3569.604          43.500
R15  23027697.340   123053009.403 7     -1693.233          43.750    23027698.540   123053009.409 7     -1693.233          42.750    23027719.200    95707980.255 7     -1316.959          44.562    23027718.680    95707977.259 7     -1316.959          45.062
G21  20802015.660   109315323.852 8      3739.535          48.062    20802013.660   109315323.862 6      3739.535          38.750    20802017.880    85180785.592 6      2913.924          38.312
G08  21142431.260   111104219.190 7      3618.180          46.750    21142429.960   111104219.187 6      3618.180          39.875    21142436.220    86574736.533 6      2819.361          39.125    21142437.160    86574741.548 8      2819.361          51.187
R09  20393636.240   108900873.084 7      4973.988          47.875    20393636.700   108900873.074 7      4973.988          47.000    20393643.140    84700709.263 8      3868.657          50.875    20393643.280    84700712.256 8      3868.657          51.625
G10  22088943.740   116078176.524 8      2258.726          48.437    22088942.760   116078176.529 7      2258.726          46.937    22088949.000    90450552.830 7      1760.046          47.250    22088949.040    90450554.835 7      1760.046          47.375
G26  23032767.620   121037992.726 7      -505.899          44.375    23032766.700   121037992.731 6      -505.899          41.812    23032778.120    94315363.242 6      -394.207          41.750    23032777.840    94315363.240 7      -394.207          45.000
G23  23824115.940   125196569.787 7       429.707          46.312    23824114.620   125196569.794 5       429.707          30.812    23824119.720    97555731.846 5       334.837          31.062    23824120.980    97555802.853 7       334.837          43.937
R04  23852377.620   127728402.072 6      5885.716          41.437    23852379.580   127728402.119 6      5885.716          40.437    23852406.460    99344423.348 7      4577.779          45.500    23852406.080    99344426.364 7      4577.779          45.875
> 2024 05 06 12 44 44.0000000  0 14
G02  22287383.140   117120989.638 7      4489.620          44.500    22287381.840   117120989.640 5      4489.620          35.750    22287386.580    91263122.082 5      3498.406          35.437
R18  21471331.720   114615421.880 7       172.807          45.437    21471331.340   114615421.881 7       172.807          45.937    21471340.120    89145363.261 8       134.406          48.625    21471340.280    89145366.265 8       134.406          48.250
G27  20955289.520   110120778.930 8      2012.040          48.875    20955288.760   110120778.935 8      2012.040          49.625    20955293.860    85808426.602 8      1567.823          49.312    20955294.780    85808429.601 8      1567.823          50.125
R16  19519352.760   104268867.242 8       625.226          48.812    19519352.500   104268867.237 8       625.226          48.875    19519361.360    81098045.724 8       486.287          50.750    19519361.600    81098046.722 8       486.287          51.000
G16  20831086.840   109468091.751 7      1008.203          47.125    20831085.020   109468091.756 6      1008.203          40.000    20831089.100    85299820.836 6       785.613          39.812
R03  23202155.280   124202961.578 7      4589.049          43.562    23202155.860   124202961.615 7      4589.049          42.062    23202170.820    96602364.347 7      3569.260          43.500    23202170.840    96602363.350 7      3569.260          44.312
R15  23028013.740   123054702.695 7     -1693.584          43.187    23028015.040   123054702.717 7     -1693.584          42.375    23028035.720    95709297.251 7     -1317.232          45.062    23028035.700    95709294.253 7     -1317.232          45.250
G21  20801304.060   109311584.553 7      3738.980          47.562    20801302.140   109311584.560 6      3738.980          38.562    20801306.300    85177871.856 6      2913.491          38.687
G08  21141742.780   111100601.029 7      3617.995          47.187    21141741.400   111100601.024 6      3617.995          39.812    21141747.780    86571917.192 6      2819.217          39.000    21141748.420    86571922.204 8      2819.217          51.062
R09  20392704.780   108895899.420 8      4973.133          48.250    20392705.140   108895899.416 7      4973.133          47.562    20392711.820    84696840.866 8      3867.992          50.687    20392711.820    84696843.866 8      3867.992          51.000
G10  22088513.720   116075918.020 8      2258.052          48.750    22088512.920   116075918.028 7      2258.052          47.187    22088519.200    90448792.965 7      1759.521          47.375    22088519.260    90448794.968 7      1759.521          47.812
G26  23032863.740   121038498.723 7      -506.191          44.437    23032862.960   121038498.728 6      -506.191          41.562    23032874.500    94315757.519 6      -394.435          41.812    23032873.420    94315757.517 7      -394.435          44.750
G23  23824034.320   125196140.316 7       429.164          45.500    23824032.960   125196140.327 5       429.164          30.875    23824037.880    97555397.198 5       334.413          31.062    23824039.320    97555468.209 7       334.413          43.812
R04  23851278.740   127722516.270 7      5885.700          42.312    23851280.360   127722516.304 6      5885.700          41.125    23851307.280    99339845.500 7      4577.766          45.187    23851306.740    99339848.505 7      4577.766          45.687
> 2024 05 06 12 44 45.0000000  0 14
G02  22286529.020   117116499.875 7      4489.654          44.875    22286527.460   117116499.875 5      4489.654          35.750    22286532.120    91259623.566 5      3498.432          35.437
R18  21471299.380   114615248.838 7       173.087          45.500    21471298.580   114615248.842 7       173.087          45.500    21471307.760    89145228.677 8       134.623          48.375    21471307.860    89145231.680 7       134.623          47.187
G27  20954906.740   110118766.740 8      2012.152          49.062    20954906.000   110118766.742 8      2012.152          48.937    20954910.960    85806858.663 8      1567.911          48.812    20954911.860    85806861.663 8      1567.911          49.437
R16  19519235.560   104268242.163 8       624.673          49.312    19519235.460   104268242.162 8       624.673          48.687    19519244.400    81097559.559 8       485.857          49.562    19519244.600    81097560.554 8       485.857          49.812
G16  20830894.900   109467083.533 7      1007.975          47.937    20830893.120   109467083.540 6      1007.975          40.000    20830897.260    85299035.216 6       785.435          39.937
R03  23201297.860   124198372.596 7      4588.832          42.937    23201298.580   124198372.629 7      4588.832          42.000    23201313.320    96598795.149 7      3569.091          43.437    23201313.740    96598794.152 7      3569.091          43.812
R15  23028330.960   123056395.987 7     -1693.264          42.812    23028332.640   123056395.988 7     -1693.264          42.375    23028352.900    95710614.208 7     -1316.983          43.562    23028352.580    95710611.214 7     -1316.983          44.062
G21  20800592.620   109307845.572 7      3738.777          47.312    20800590.700   109307845.576 6      3738.777          38.250    20800594.740    85174958.372 6      2913.333          38.625
G08  21141054.180   111096982.814 7      3618.129          47.062    21141052.740   111096982.811 6      3618.129          39.312    21141059.160    86569097.807 6      2819.321          38.875    21141059.680    86569102.818 8      2819.321          50.375
R09  20391773.520   108890926.266 7      4972.831          47.812    20391774.100   108890926.264 7      4972.831          47.812    20391780.380    84692972.861 8      3867.757          49.000    20391780.640    84692975.863 8      3867.757          49.937
G10  22088084.100   116073659.924 8      2257.876          48.500    22088083.200   116073659.931 7      2257.876          45.812    22088089.440    90447033.409 7      1759.384          46.062    22088089.500    90447035.412 7      1759.384          47.312
G26  23032960.160   121039004.793 7      -506.179          43.937    23032959.200   121039004.793 6      -506.179          41.625    23032970.800    94316151.847 6      -394.425          41.250    23032969.620    94316151.852 7      -394.425          44.812
G23  23823952.220   125195711.148 7       428.941          45.625    23823951.240   125195711.161 5       428.941          30.875    23823956.240    97555062.783 5       334.240          30.812    23823957.400    97555133.790 7       334.240          43.562
R04  23850179.360   127716630.165 7      5886.204          42.312    23850180.700   127716630.196 6      5886.204          41.125    23850208.060    99335267.417 7      4578.159          44.875    23850207.560    99335270.426 7      4578.159          45.000
> 2024 05 06 12 44 46.0000000  0 14
G02  22285674.700   117112010.535 7      4489.299          44.687    22285673.180   117112010.535 5      4489.299          35.562    22285678.020    91256125.387 5      3498.155          35.562
R18  21471266.800   114615075.848 7       173.118          45.500    21471266.480   114615075.840 7       173.118          45.375    21471275.600    89145094.124 8       134.647          48.250    21471275.520    89145097.129 8       134.647          48.250
G27  20954523.740   110116754.739 8      2012.097          48.562    20954523.060   110116754.739 8      2012.097          49.562    20954528.060    85805290.873 8      1567.868          49.250    20954528.820    85805293.875 8      1567.868          50.312
R16  19519118.980   104267617.883 8       624.023          49.250    19519118.620   104267617.887 8       624.023          49.000    19519127.460    81097074.012 8       485.352          50.875    19519127.740    81097075.012 8       485.352          50.937
G16  20830703.100   109466075.848 7      1007.567          47.187    20830701.600   109466075.856 6      1007.567          40.687    20830705.480    85298250.009 6       785.117          39.875
R03  23200440.640   124193784.116 7      4588.402          42.937    23200441.360   124193784.153 7      4588.402          42.000    23200456.360    96595226.344 7      3568.757          43.625    23200457.060    96595225.347 7      3568.757          44.500
R15  23028647.980   123058089.458 7     -1693.439          42.812    23028650.020   123058089.461 7     -1693.439          42.375    23028669.560    95711931.338 7     -1317.119          43.875    23028669.180    95711928.346 7     -1317.119          44.250
G21  20799881.200   109304107.116 7      3738.304          47.812    20799879.240   109304107.121 6      3738.304          38.500    20799883.240    85172045.294 6      2912.964          38.625
G08  21140365.880   111093364.746 7      3618.085          46.875    21140364.300   111093364.748 6      3618.085          39.312    21140370.680    86566278.542 6      2819.287          38.875    21140371.400    86566283.554 8      2819.287          50.937
R09  20390842.260   108885953.881 7      4972.158          47.312    20390842.680   108885953.884 7      4972.158          47.187    20390849.240    84689105.465 8      3867.234          50.250    20390849.200    84689108.467 8      3867.234          50.187
G10  22087654.480   116071402.471 8      2257.306          48.937    22087653.600   116071402.481 7      2257.306          46.500    22087660.000    90445274.363 7      1758.940          46.625    22087660.280    90445276.364 7      1758.940          47.750
G26  23033056.460   121039511.108 7      -506.329          44.250    23033055.600   121039511.116 6      -506.329          41.437    23033067.120    94316546.378 6      -394.542          41.312    23033066.360    94316546.381 7      -394.542          45.062
G23  23823870.540   125195282.461 7       428.680          45.250    23823869.680   125195282.468 5       428.680          30.875    23823874.700    97554728.745 5       334.036          30.812    23823875.560    97554799.752 7       334.036          43.562
R04  23849080.240   127710744.039 7      5886.346          42.312    23849082.260   127710744.060 6      5886.346          41.312    23849108.840    99330689.329 7      4578.269          45.250    23849108.360    99330692.330 7      4578.269          45.750
> 2024 05 06 12 44 47.0000000  0 14
G02  22284820.300   117107521.505 7      4488.781          44.812    22284819.100   117107521.505 5      4488.781          35.875    22284823.780    91252627.447 5      3497.751          35.750
R18  21471234.420   114614902.763 7       173.042          45.875    21471233.920   114614902.764 7       173.042          45.937    21471243.040    89144959.510 8       134.588          48.312    21471243.060    89144962.514 8       134.588          48.437
G27  20954141.120   110114742.820 8      2011.770          48.250    20954140.180   110114742.825 8      2011.770          48.937    20954145.140    85803723.154 8      1567.613          49.187    20954145.900    85803726.155 8      1567.613          50.375
R16  19519002.100   104266994.319 8       623.197          48.500    19519001.840   104266994.318 8       623.197          49.125    19519010.660    81096589.015 8       484.709          51.062    19519010.900    81096590.015 8       484.709          51.312
G16  20830511.280   109465068.576 7      1007.063          47.500    20830509.800   109465068.581 6      1007.063          40.375    20830513.820    85297465.120 6       784.724          40.000
R03  23199583.540   124189196.046 7      4587.833          42.500    23199584.660   124189196.078 7      4587.833          42.187    23199599.200    96591657.856 7      3568.314          43.437    23199599.760    96591656.852 7      3568.314          44.812
R15  23028964.740   123059782.950 7     -1693.559          43.187    23028966.940   123059782.956 7     -1693.559          42.437    23028986.660    95713248.482 7     -1317.213          44.437    23028986.080    95713245.490 7     -1317.213          44.250
G21  20799169.520   109300369.057 8      3737.818          48.375    20799167.900   109300369.064 6      3737.818          38.375    20799171.980    85169132.527 6      2912.585          38.687
G08  21139677.160   111089746.701 7      3618.068          47.000    21139675.940   111089746.698 6      3618.068          39.937    21139682.220    86563459.284 6      2819.274          39.250    21139682.880    86563464.298 8      2819.274          51.562
R09  20389911.320   108880982.136 8      4971.335          48.187    20389911.560   108880982.145 7      4971.335          47.187    20389918.080    84685238.561 8      3866.594          50.187    20389918.300    84685241.561 8      3866.594          51.250
G10  22087225.140   116069145.525 8      2256.611          48.250    22087224.260   116069145.532 7      2256.611          47.000    22087230.520    90443515.710 7      1758.399          47.187    22087230.840    90443517.709 7      1758.399          47.875
G26  23033152.820   121040017.568 7      -506.506          44.187    23033151.920   121040017.567 6      -506.506          41.562    23033163.540    94316941.008 6      -394.680          41.750    23033162.780    94316941.008 7      -394.680          45.062
G23  23823789.020   125194854.165 7       428.105          45.750    23823788.220   125194854.175 5       428.105          30.437    23823793.120    97554395.017 5       333.588          30.812    23823794.260    97554466.025 7       333.588          43.687
R04  23847981.020   127704857.753 6      5886.311          41.437    23847982.880   127704857.784 6      5886.311          41.312    23848009.540    99326111.114 7      4578.242          45.562    23848009.300    99326114.124 7      4578.242          45.437
> 2024 05 06 12 44 48.0000000  0 14
G02  22283966.120   117103032.751 7      4488.602          45.562    22283964.940   117103032.751 5      4488.602          35.625    22283969.420    91249129.723 5      3497.612          35.625
R18  21471201.700   114614729.599 7       173.140          44.687    21471201.540   114614729.603 7       173.140          45.562    21471210.560    89144824.831 8       134.665          48.562    21471210.700    89144827.831 8       134.665          48.625
G27  20953758.080   110112730.964 8      2011.775          48.187    20953757.340   110112730.972 8      2011.775          48.875    20953762.380    85802155.480 8      1567.617          48.937    20953763.060    85802158.484 8      1567.617          50.000
R16  19518885.460   104266371.476 8       622.515          48.812    19518885.260   104266371.477 8       622.515          49.125    19518894.140    81096104.586 8       484.178          50.875    19518894.420    81096105.588 8       484.178          51.500
G16  20830319.780   109464061.727 7      1006.676          46.750    20830318.280   109464061.732 6      1006.676          40.687    20830322.200    85296680.568 6       784.423          40.625
R03  23198726.220   124184608.375 7      4587.441          42.500    23198726.880   124184608.406 7      4587.441          42.187    23198742.220    96588089.677 7      3568.010          43.250    23198742.880    96588088.670 7      3568.010          44.625
R15  23029281.340   123061476.496 7     -1693.583          43.500    23029283.980   123061476.510 7     -1693.583          42.250    23029303.260    95714565.678 7     -1317.231          43.812    23029303.260    95714562.684 7     -1317.231          43.625
G21  20798458.400   109296631.439 8      3737.405          48.312    20798456.680   109296631.444 6      3737.405          38.312    20798460.560    85166220.105 6      2912.264          38.312
G08  21138988.720   111086128.709 7      3618.023          47.062    21138987.340   111086128.709 6      3618.023          39.375    21138993.740    86560640.078 6      2819.238          39.250    21138994.460    86560645.094 8      2819.238          51.187
R09  20388980.340   108876011.025 7      4970.836          47.312    20388980.540   108876011.026 7      4970.836          47.625    20388987.100    84681372.145 8      3866.206          50.437    20388987.300    84681375.143 8      3866.206          50.812
G10  22086795.760   116066889.086 8      2256.251          48.000    22086794.880   116066889.088 7      2256.251          46.812    22086801.120    90441757.446 7      1758.118          47.062    22086801.580    90441759.447 7      1758.118          47.312
G26  23033249.480   121040524.205 7      -506.747          44.375    23033248.180   121040524.210 6      -506.747          41.625    23033259.940    94317335.788 6      -394.868          41.125    23033259.540    94317335.791 7      -394.868          44.812
G23  23823707.700   125194426.261 7       427.716          45.437    23823706.760   125194426.271 5       427.716          30.437    23823711.840    97554061.587 5       333.286          30.812    23823713.200    97554132.591 7       333.286          43.687
R04  23846882.120   127698971.303 6      5886.544          41.437    23846883.320   127698971.326 6      5886.544          41.312    23846910.140    99321532.771 7      4578.423          45.562    23846909.760    99321535.768 7      4578.423          45.812
> 2024 05 06 12 44 49.0000000  0 14
G02  22283112.040   117098544.218 7      4488.194          46.000    22283110.740   117098544.225 5      4488.194          35.562    22283115.320    91245632.177 5      3497.294          35.625
R18  21471169.240   114614556.216 7       173.415          45.000    21471169.280   114614556.209 7       173.415          45.812    21471177.920    89144689.971 8       134.879          48.312    21471178.320    89144692.971 7       134.879          47.875
G27  20953375.260   110110719.095 8      2011.704          48.375    20953374.560   110110719.100 8      2011.704          48.812    20953379.560    85800587.791 8      1567.562          49.187    20953380.140    85800590.795 8      1567.562          50.375
R16  19518768.880   104265749.261 8       621.747          48.812    19518768.820   104265749.260 8       621.747          48.625    19518777.720    81095620.643 8       483.581          50.875    19518777.900    81095621.645 8       483.581          51.500
G16  20830128.120   109463055.183 7      1006.199          47.437    20830126.700   109463055.190 6      1006.199          40.687    20830130.720    85295896.250 6       784.051          40.250
R03  23197869.480   124180020.991 7      4587.054          42.687    23197870.220   124180021.011 6      4587.054          41.812    23197885.080    96584521.712 7      3567.709          43.187    23197885.560    96584520.706 7      3567.709          44.562
R15  23029598.160   123063169.985 7     -1693.659          43.937    23029600.480   123063169.995 7     -1693.659          42.250    23029620.440    95715882.818 7     -1317.290          43.875    23029620.120    95715879.822 7     -1317.290          43.625
G21  20797747.040   109292894.118 7      3736.955          47.625    20797745.520   109292894.126 6      3736.955          37.625    20797749.400    85163307.914 6      2911.913          38.437
G08  21138300.260   111082510.685 7      3617.855          47.312    21138298.940   111082510.682 6      3617.855          39.625    21138305.280    86557820.842 6      2819.107          39.500    21138305.980    86557825.855 8      2819.107          51.250
R09  20388049.220   108871040.434 7      4970.166          46.875    20388049.820   108871040.437 7      4970.166          47.812    20388056.180    84677506.134 8      3865.684          50.750    20388056.160    84677509.130 8      3865.684          50.625
G10  22086366.420   116064633.084 8      2255.610          48.312    22086365.420   116064633.089 7      2255.610          46.750    22086371.840    90439999.527 7      1757.619          47.250    22086371.980    90440001.531 7      1757.619          47.562
G26  23033345.860   121041030.864 7      -506.834          43.812    23033344.560   121041030.869 6      -506.834          41.562    23033356.240    94317730.579 6      -394.936          41.687    23033355.600    94317730.584 7      -394.936          45.187
G23  23823626.240   125193998.645 7       427.345          45.312    23823625.440   125193998.653 5       427.345          30.437    23823630.520    97553728.382 5       332.996          30.812    23823631.460    97553799.391 7       332.996          43.875
R04  23845782.180   127693084.558 6      5886.635          41.375    23845784.300   127693084.598 6      5886.635          41.187    23845811.020    99316954.221 7      4578.494          45.125    23845810.640    99316957.234 7      4578.494          45.687
> 2024 05 06 12 44 50.0000000  0 14
G02  22282258.080   117094056.107 7      4488.036          45.125    22282256.740   117094056.109 5      4488.036          35.562    22282261.240    91242134.954 5      3497.171          35.312
R18  21471136.580   114614382.910 7       173.264          46.375    21471136.620   114614382.917 7       173.264          46.062    21471145.760    89144555.192 8       134.761          48.312    21471146.040    89144558.195 8       134.761          48.625
G27  20952992.580   110108707.462 8      2011.597          48.312    20952991.640   110108707.467 8      2011.597          49.187    20952996.720    85799020.291 8      1567.478          49.125    20952997.360    85799023.295 8      1567.478          49.937
R16  19518652.580   104265127.917 8       621.009          48.687    19518652.820   104265127.918 8       621.009          48.750    19518661.380    81095137.375 8       483.007          51.000    19518661.640    81095138.375 8       483.007          51.062
G16  20829936.800   109462049.156 7      1005.963          46.875    20829935.200   109462049.161 6      1005.963          40.687    20829939.320    85295112.335 6       783.867          40.187
R03  23197012.980   124175434.080 7      4586.907          42.875    23197013.200   124175434.100 6      4586.907          41.812    23197028.240    96580954.125 7      3567.595          43.500    23197028.540    96580953.121 7      3567.595          44.187
R15  23029915.360   123064863.707 7     -1693.702          43.187    23029917.360   123064863.709 7     -1693.702          42.437    23029937.720    95717200.122 7     -1317.324          44.125    23029937.000    95717197.136 7     -1317.324          44.062
G21  20797036.160   109289157.367 7      3736.493          47.875    20797034.620   109289157.375 6      3736.493          38.250    20797038.340    85160396.170 6      2911.553          38.625
G08  21137611.900   111078892.820 7      3617.869          46.562    21137610.440   111078892.819 6      3617.869          39.875    21137616.760    86555001.730 6      2819.119          39.687    21137617.520    86555006.745 8      2819.119          51.437
R09  20387118.520   108866070.638 7      4969.437          46.937    20387118.940   108866070.645 7      4969.437          47.812    20387125.640    84673640.744 8      3865.118          50.250    20387125.420    84673643.742 8      3865.118          50.625
G10  22085937.380   116062377.709 7      2255.148          47.875    22085936.240   116062377.717 7      2255.148          46.687    22085942.680    90438242.100 7      1757.258          47.250    22085942.480    90438244.103 7      1757.258          47.375
G26  23033442.580   121041537.852 7      -507.053          44.062    23033441.080   121041537.854 6      -507.053          41.500    23033452.800    94318125.632 6      -395.106          41.625    23033452.100    94318125.629 7      -395.106          45.000
G23  23823544.960   125193571.558 7       426.905          45.750    23823544.040   125193571.563 5       426.905          30.937    23823549.160    97553395.593 5       332.654          30.812    23823549.780    97553466.604 7       332.654          43.312
R04  23844683.140   127687197.814 6      5886.768          41.375    23844684.740   127687197.859 6      5886.768          41.187    23844711.380    99312375.648 7      4578.597          44.500    23844710.880    99312378.635 7      4578.597          43.750
> 2024 05 06 12 44 51.0000000  0 14
G02  22281404.320   117089568.333 7      4487.461          44.125    22281402.600   117089568.341 5      4487.461          35.562    22281407.400    91238638.000 5      3496.723          35.500
R18  21471104.320   114614209.525 7       173.266          44.750    21471104.120   114614209.525 7       173.266          45.875    21471113.340    89144420.332 7       134.763          47.750    21471113.460    89144423.335 8       134.763          48.687
G27  20952609.920   110106695.921 8      2011.334          48.687    20952608.920   110106695.926 8      2011.334          49.000    20952613.980    85797452.857 8      1567.273          49.500    20952614.320    85797455.861 8      1567.273          49.562
R16  19518536.400   104264507.291 8       620.174          49.625    19518536.620   104264507.289 8       620.174          49.437    19518545.240    81094654.664 8       482.357          51.125    19518545.420    81094655.664 8       482.357          51.187
G16  20829745.720   109461043.587 7      1005.203          47.500    20829743.900   109461043.594 6      1005.203          40.812    20829747.940    85294328.779 6       783.275          40.375
R03  23196156.360   124170847.613 7      4586.103          42.875    23196156.860   124170847.631 6      4586.103          41.562    23196171.600    96577386.887 7      3566.969          43.187    23196171.700    96577385.888 7      3566.969          44.312
R15  23030232.460   123066557.502 7     -1693.980          43.187    23030234.300   123066557.508 7     -1693.980          42.500    23030254.340    95718517.503 7     -1317.540          43.875    23030253.880    95718514.513 7     -1317.540          44.375
G21  20796324.700   109285421.043 7      3735.966          47.250    20796323.580   109285421.047 6      3735.966          38.062    20796327.240    85157484.754 6      2911.142          38.000
G08  21136923.500   111075275.017 7      3617.639          47.125    21136922.100   111075275.014 6      3617.639          39.500    21136928.320    86552182.671 6      2818.940          39.250    21136929.120    86552187.684 8      2818.940          51.062
R09  20386188.180   108861101.481 7      4968.695          46.937    20386188.340   108861101.480 7      4968.695          47.187    20386194.900    84669775.838 8      3864.540          50.750    20386194.980    84669778.837 8      3864.540          50.562
G10  22085508.200   116060122.873 8      2254.454          48.375    22085507.200   116060122.878 7      2254.454          46.562    22085513.560    90436485.089 7      1756.718          46.750    22085513.520    90436487.092 7      1756.718          47.812
G26  23033539.060   121042044.973 7      -507.288          43.812    23033537.500   121042044.976 6      -507.288          41.562    23033549.200    94318520.786 6      -395.289          41.500    23033548.740    94318520.782 7      -395.289          45.062
G23  23823464.200   125193144.857 7       426.427          45.937    23823462.860   125193144.867 5       426.427          30.937    23823467.920    97553063.107 5       332.281          31.062    23823468.440    97553134.126 7       332.281          43.500
R04  23843583.660   127681310.941 6      5886.773          41.500    23843585.500   127681310.980 6      5886.773          41.187    23843612.260    99307796.961 7      4578.601          45.562    23843612.040    99307799.968 7      4578.601          45.562
> 2024 05 06 12 44 52.0000000  0 14
G02  22280550.460   117085081.024 7      4487.445          43.500    22280548.500   117085081.029 5      4487.445          35.062    22280553.520    91235141.402 5      3496.711          34.937
R18  21471071.900   114614036.251 7       173.527          45.062    21471071.760   114614036.254 7       173.527          45.250    21471080.820    89144285.568 8       134.966          48.125    21471080.780    89144288.571 8       134.966          48.937
G27  20952227.100   110104684.627 8      2011.515          48.750    20952226.140   110104684.627 8      2011.515          48.812    20952231.260    85795885.613 8      1567.414          49.250    20952231.420    85795888.615 8      1567.414          49.562
R16  19518420.560   104263887.559 8       619.539          49.750    19518420.580   104263887.555 8       619.539          49.312    19518428.980    81094172.655 8       481.864          51.375    19518429.420    81094173.653 8       481.864          51.125
G16  20829554.440   109460038.561 7      1005.062          46.812    20829552.680   109460038.569 6      1005.062          40.125    20829556.620    85293545.644 6       783.165          40.000
R03  23195299.580   124166261.693 7      4585.961          43.187    23195299.760   124166261.718 6      4585.961          41.562    23195314.860    96573820.079 7      3566.858          43.625    23195314.880    96573819.082 7      3566.858          43.750
R15  23030549.640   123068251.547 7     -1693.801          44.187    23030550.800   123068251.554 7     -1693.801          42.500    23030571.420    95719835.073 7     -1317.401          44.312    23030571.100    95719832.075 7     -1317.401          44.562
G21  20795614.080   109281685.309 7      3735.725          46.375    20795612.500   109281685.319 6      3735.725          38.062    20795616.500    85154573.799 6      2910.955          38.375
G08  21136234.860   111071657.432 7      3617.827          46.625    21136233.560   111071657.429 6      3617.827          39.437    21136239.940    86549363.778 6      2819.086          39.125    21136240.540    86549368.784 8      2819.086          51.062
R09  20385257.780   108856133.125 7      4968.276          46.812    20385257.320   108856133.131 7      4968.276          46.500    20385264.460    84665911.575 8      3864.215          50.625    20385264.600    84665914.575 8      3864.215          50.750
G10  22085079.300   116057868.739 7      2254.056          47.375    22085078.340   116057868.749 7      2254.056          46.500    22085084.720    90434728.631 7      1756.407          47.000    22085084.580    90434730.632 7      1756.407          47.937
G26  23033635.400   121042552.457 7      -507.358          43.562    23033634.160   121042552.457 6      -507.358          41.437    23033645.800    94318916.218 6      -395.344          41.500    23033645.220    94318916.222 7      -395.344          45.000
G23  23823382.920   125192718.742 7       426.147          45.625    23823381.840   125192718.749 5       426.147          31.250    23823386.900    97552731.077 5       332.062          31.062    23823387.600    97552802.096 7       332.062          43.937
R04  23842484.360   127675424.111 6      5886.981          41.500    23842486.600   127675424.145 6      5886.981          40.500    23842512.900    99303218.326 7      4578.763          44.375    23842512.620    99303221.316 7      4578.763          45.062
> 2024 05 06 12 44 53.0000000  0 14
G02  22279696.460   117080594.033 7      4487.074          44.687    22279694.600   117080594.035 5      4487.074          35.062    22279699.720    91231645.053 5      3496.421          34.937
R18  21471039.760   114613862.908 7       173.543          46.437    21471039.460   114613862.909 7       173.543          45.812    21471048.460    89144150.741 8       134.978          48.062    21471048.160    89144153.738 8       134.978          48.125
G27  20951844.360   110102673.446 8      2011.261          48.562    20951843.440   110102673.446 8      2011.261          48.875    20951848.520    85794318.461 8      1567.217          49.062    20951848.600    85794321.459 8      1567.217          49.812
R16  19518304.540   104263268.536 8       618.794          49.625    19518304.660   104263268.531 8       618.794          48.687    19518313.360    81093691.196 8       481.284          51.062    19518313.400    81093692.194 8       481.284          51.187
G16  20829363.380   109459033.956 7      1004.563          46.937    20829361.500   109459033.959 6      1004.563          40.437    20829365.580    85292762.833 6       782.777          40.000
R03  23194442.900   124161676.206 7      4585.459          42.875    23194443.420   124161676.223 6      4585.459          41.875    23194458.260    96570253.595 7      3566.468          43.375    23194458.520    96570252.598 7      3566.468          44.750
R15  23030866.640   123069945.691 7     -1694.041          43.625    23030868.200   123069945.698 7     -1694.041          42.562    23030888.200    95721152.716 7     -1317.588          44.312    23030888.020    95721149.720 7     -1317.588          44.437
G21  20794903.020   109277949.993 7      3735.262          46.812    20794901.600   109277950.003 6      3735.262          37.812    20794905.620    85151663.169 6      2910.594          37.812
G08  21135546.500   111068039.913 7      3617.599          46.375    21135545.080   111068039.907 6      3617.599          39.625    21135551.500    86546544.928 6      2818.908          39.062    21135552.040    86546549.934 8      2818.908          50.812
R09  20384327.740   108851165.428 7      4967.569          47.125    20384327.220   108851165.421 7      4967.569          47.375    20384334.160    84662047.813 8      3863.664          50.562    20384334.460    84662050.813 8      3863.664          50.875
G10  22084650.640   116055615.120 7      2253.468          47.875    22084649.540   116055615.125 7      2253.468          46.875    22084655.760    90432972.562 7      1755.949          47.250    22084655.880    90432974.563 7      1755.949          47.687
G26  23033731.700   121043060.073 7      -507.589          44.000    23033730.580   121043060.078 6      -507.589          41.062    23033742.560    94319311.760 6      -395.524          41.562    23033741.900    94319311.758 7      -395.524          45.000
G23  23823301.800   125192293.013 7       425.675          45.875    23823300.800   125192293.021 5       425.675          31.250    23823305.860    97552399.349 5       331.695          31.062    23823306.940    97552470.365 7       331.695          44.125
R04  23841385.280   127669537.083 6      5887.088          41.500    23841387.120   127669537.109 6      5887.088          40.500    23841413.780    99298639.524 7      4578.847          44.125    23841413.060    99298642.514 7      4578.847          43.312
> 2024 05 06 12 44 54.0000000  0 14
G02  22278842.980   117076107.397 7      4486.441          45.250    22278840.920   117076107.404 5      4486.441          35.250    22278845.800    91228148.979 5      3495.928          35.187
R18  21471006.800   114613689.487 7       173.469          45.750    21471007.040   114613689.488 7       173.469          46.125    21471015.740    89144015.861 7       134.921          47.937    21471015.680    89144018.859 8       134.921          48.250
G27  20951461.660   110100662.365 8      2010.992          48.187    20951460.740   110100662.365 8      2010.992          48.375    20951465.780    85792751.389 8      1567.007          48.937    20951465.940    85792754.389 8      1567.007          49.375
R16  19518188.840   104262650.271 8       617.945          50.250    19518189.100   104262650.277 8       617.945          48.562    19518197.580    81093210.332 8       480.624          51.562    19518197.800    81093211.332 8       480.624          50.625
G16  20829172.240   109458029.798 7      1003.903          47.000    20829170.440   109458029.805 6      1003.903          40.250    20829174.540    85291980.378 6       782.262          39.937
R03  23193586.220   124157091.139 7      4584.726          42.875    23193586.540   124157091.164 6      4584.726          41.875    23193601.620    96566687.451 7      3565.898          43.062    23193601.820    96566686.456 7      3565.898          44.125
R15  23031184.020   123071639.924 7     -1694.323          43.312    23031185.700   123071639.930 7     -1694.323          42.437    23031205.660    95722470.429 7     -1317.807          43.750    23031205.260    95722467.435 7     -1317.807          44.000
G21  20794192.400   109274215.144 7      3734.634          47.437    20794190.920   109274215.155 6      3734.634          37.250    20794194.860    85148752.906 6      2910.105          37.437
G08  21134858.180   111064422.462 7      3617.343          47.125    21134856.820   111064422.459 6      3617.343          39.437    21134862.980    86543726.139 6      2818.709          38.937    21134863.740    86543731.147 8      2818.709          51.187
R09  20383397.700   108846198.418 7      4966.599          47.687    20383397.360   108846198.411 7      4966.599          47.437    20383404.120    84658184.583 8      3862.910          50.625    20383403.980    84658187.585 8      3862.910          50.875
G10  22084221.820   116053362.057 7      2252.780          47.500    22084220.800   116053362.060 7      2252.780          47.000    22084227.080    90431216.933 7      1755.413          47.312    22084227.080    90431218.934 7      1755.413          47.687
G26  23033828.380   121043567.885 7      -507.805          42.750    23033827.340   121043567.882 6      -507.805          41.062    23033839.280    94319707.448 6      -395.692          41.250    23033838.540    94319707.452 7      -395.692          44.937
G23  23823221.040   125191867.713 7       425.060          46.500    23823219.840   125191867.717 5       425.060          31.250    23823225.060    97552067.946 5       331.216          31.562    23823226.180    97552138.960 7       331.216          44.625
R04  23840285.660   127663649.878 7      5887.261          42.000    23840286.600   127663649.925 6      5887.261          40.687    23840314.120    99294060.605 7      4578.981          44.062    23840314.040    99294063.602 7      4578.981          43.937
> 2024 05 06 12 44 55.0000000  0 14
G02  22277989.180   117071621.058 7      4486.142          43.812    22277987.240   117071621.065 5      4486.142          35.437    22277992.100    91224653.136 5      3495.695          35.125
R18  21470974.440   114613516.003 7       173.392          45.437    21470974.460   114613516.001 7       173.392          45.687    21470983.160    89143880.931 7       134.861          47.000    21470983.080    89143883.933 7       134.861          47.000
G27  20951078.920   110098651.387 7      2010.880          47.875    20951078.000   110098651.389 8      2010.880          48.250    20951083.100    85791184.401 8      1566.920          48.375    20951083.440    85791187.399 8      1566.920          48.937
R16  19518073.060   104262032.751 8       617.087          48.875    19518073.340   104262032.757 8       617.087          48.250    19518081.980    81092730.034 8       479.956          50.250    19518082.200    81092731.036 8       479.956          49.812
G16  20828981.140   109457026.062 7      1003.462          47.062    20828979.320   109457026.070 6      1003.462          40.312    20828983.380    85291198.244 6       781.918          40.125
R03  23192730.060   124152506.498 7      4584.213          43.250    23192730.200   124152506.523 6      4584.213          41.875    23192745.380    96563121.621 7      3565.499          42.375    23192745.520    96563120.628 7      3565.499          43.937
R15  23031501.180   123073334.231 7     -1694.404          43.500    23031502.780   123073334.243 7     -1694.404          42.437    23031522.340    95723788.205 7     -1317.869          43.875    23031521.980    95723785.213 7     -1317.869          44.062
G21  20793481.880   109270480.738 7      3734.108          47.437    20793480.220   109270480.748 6      3734.108          37.500    20793484.080    85145842.989 6      2909.695          37.812
G08  21134169.720   111060805.082 7      3617.237          46.687    21134168.500   111060805.082 6      3617.237          39.500    21134174.760    86540907.410 6      2818.626          38.812    21134175.540    86540912.416 8      2818.626          50.125
R09  20382467.380   108841232.046 7      4965.910          47.000    20382467.180   108841232.046 7      4965.910          47.750    20382473.980    84654321.859 8      3862.375          50.250    20382474.060    84654324.861 8      3862.375          50.500
G10  22083793.200   116051109.534 7      2252.213          47.750    22083792.040   116051109.541 7      2252.213          46.687    22083798.440    90429461.726 7      1754.971          47.062    22083798.360    90429463.727 7      1754.971          47.500
G26  23033925.060   121044075.895 7      -508.142          43.250    23033923.920   121044075.897 6      -508.142          41.562    23033935.740    94320103.295 6      -395.955          41.000    23033935.300    94320103.294 7      -395.955          44.687
G23  23823140.160   125191442.824 7       424.628          45.250    23823138.900   125191442.832 5       424.628          31.500    23823144.160    97551736.870 5       330.879          31.562    23823145.580    97551807.883 7       330.879          44.500
R04  23839186.420   127657762.595 7      5887.547          42.000    23839187.560   127657762.624 6      5887.547          40.687    23839214.800    99289481.612 7      4579.203          43.500    23839214.600    99289484.600 7      4579.203          43.937
> 2024 05 06 12 44 56.0000000  0 14
G02  22277135.380   117067135.112 7      4485.679          44.437    22277133.560   117067135.120 5      4485.679          35.062    22277138.480    91221157.601 5      3495.334          35.125
R18  21470942.080   114613342.465 7       173.551          45.937    21470941.480   114613342.466 7       173.551          45.500    21470950.720    89143745.963 7       134.984          47.562    21470950.400    89143748.972 8       134.984          48.062
G27  20950696.120   110096640.553 7      2010.783          47.937    20950695.480   110096640.557 8      2010.783          49.187    20950700.520    85789617.525 8      1566.844          49.187    20950700.860    85789620.523 8      1566.844          49.375
R16  19517957.820   104261416.000 8       616.299          49.562    19517957.740   104261415.999 8       616.299          48.812    19517966.560    81092250.335 8       479.344          50.812    19517966.780    81092251.335 8       479.344          51.187
G16  20828789.980   109456022.776 7      1003.060          47.750    20828788.500   109456022.779 6      1003.060          41.000    20828792.440    85290416.463 6       781.605          39.937
R03  23191873.500   124147922.303 7      4583.883          43.250    23191873.720   124147922.329 6      4583.883          41.937    23191888.920    96559556.151 7      3565.242          43.437    23191889.420    96559555.163 7      3565.242          44.562
R15  23031818.740   123075028.693 7     -1694.553          43.500    23031820.140   123075028.705 7     -1694.553          42.750    23031839.260    95725106.099 7     -1317.985          43.812    23031839.100    95725103.103 7     -1317.985          44.312
G21  20792771.460   109266746.796 7      3733.660          46.937    20792769.740   109266746.803 6      3733.660          38.125    20792773.420    85142933.428 6      2909.346          38.125
G08  21133481.320   111057187.786 7      3617.187          47.500    21133480.180   111057187.786 6      3617.187          39.500    21133486.480    86538088.746 6      2818.587          38.937    21133487.200    86538093.760 8      2818.587          51.437
R09  20381537.420   108836266.370 7      4965.304          46.750    20381537.560   108836266.371 7      4965.304          47.437    20381544.260    84650459.671 8      3861.903          49.937    20381543.940    84650462.671 8      3861.903          50.312
G10  22083364.400   116048857.578 7      2251.680          47.750    22083363.460   116048857.580 7      2251.680          47.187    22083369.860    90427706.955 7      1754.555          47.625    22083370.040    90427708.956 7      1754.555          47.937
G26  23034021.700   121044584.107 7      -508.312          44.375    23034020.640   121044584.109 6      -508.312          41.937    23034032.420    94320499.294 6      -396.087          41.750    23034032.120    94320499.291 7      -396.087          44.875
G23  23823059.560   125191018.370 7       424.218          45.812    23823058.000   125191018.378 5       424.218          31.500    23823063.400    97551406.126 5       330.559          31.562    23823064.940    97551477.135 7       330.559          44.250
R04  23838086.560   127651875.224 6      5887.395          41.312    23838088.580   127651875.258 6      5887.395          40.687    23838115.440    99284902.548 7      4579.085          45.125    23838115.180    99284905.549 7      4579.085          45.125
> 2024 05 06 12 44 57.0000000  0 14
G02  22276281.660   117062649.524 7      4485.329          44.875    22276279.880   117062649.529 5      4485.329          35.062    22276284.820    91217662.348 5      3495.062          35.312
R18  21470909.780   114613168.983 7       173.595          46.250    21470909.600   114613168.981 7       173.595          45.562    21470918.120    89143611.028 8       135.018          48.125    21470918.080    89143614.035 8       135.018          48.500
G27  20950313.620   110094629.921 7      2010.471          47.750    20950312.860   110094629.923 8      2010.471          49.000    20950317.880    85788050.799 8      1566.601          48.937    20950318.400    85788053.799 8      1566.601          49.562
R16  19517842.420   104260800.040 8       615.582          49.500    19517842.440   104260800.036 8       615.582          48.875    19517851.160    81091771.251 8       478.786          51.125    19517851.380    81091772.249 8       478.786          50.937
G16  20828599.380   109455019.974 7      1002.638          46.937    20828597.660   109455019.978 6      1002.638          40.562    20828601.740    85289635.064 6       781.276          40.312
R03  23191017.500   124143338.628 7      4583.430          43.375    23191017.620   124143338.654 6      4583.430          41.875    23191032.700    96555991.083 7      3564.890          43.437    23191032.780    96555990.090 7      3564.890          44.437
R15  23032136.100   123076723.284 7     -1694.553          44.250    23032137.180   123076723.298 7     -1694.553          42.562    23032156.380    95726424.102 7     -1317.986          44.062    23032156.380    95726421.101 7     -1317.986          43.500
G21  20792061.040   109263013.353 7      3733.275          47.125    20792059.320   109263013.361 6      3733.275          37.625    20792063.080    85140024.258 6      2909.046          37.937
G08  21132793.060   111053570.635 7      3617.106          47.625    21132791.980   111053570.635 6      3617.106          39.562    21132798.220    86535270.189 6      2818.524          39.125    21132798.940    86535275.199 8      2818.524          51.312
R09  20380607.820   108831301.410 7      4964.621          47.625    20380607.800   108831301.408 7      4964.621          46.750    20380614.480    84646598.038 8      3861.372          50.437    20380614.500    84646601.033 8      3861.372          50.937
G10  22082936.320   116046606.231 7      2251.083          47.437    22082935.060   116046606.228 7      2251.083          46.875    22082941.420    90425952.659 7      1754.091          47.250    22082941.280    90425954.664 7      1754.091          47.562
G26  23034118.640   121045092.560 7      -508.579          43.375    23034117.400   121045092.565 6      -508.579          41.812    23034129.340    94320895.484 6      -396.295          41.625    23034128.940    94320895.486 7      -396.295          44.937
G23  23822978.900   125190594.399 7       423.762          45.187    23822977.400   125190594.407 5       423.762          31.187    23822982.600    97551075.757 5       330.205          31.312    23822984.380    97551146.760 7       330.205          44.312
R04  23836987.580   127645987.762 6      5887.602          41.312    23836988.220   127645987.788 6      5887.602          40.312    23837016.040    99280323.396 7      4579.246          44.625    23837015.820    99280326.391 7      4579.246          46.000
> 2024 05 06 12 44 58.0000000  0 14
G02  22275428.300   117058164.246 7      4485.154          43.750    22275426.360   117058164.257 5      4485.154          35.312    22275431.360    91214167.332 5      3494.925          35.187
R18  21470877.420   114612995.421 7       173.658          46.062    21470877.080   114612995.422 7       173.658          45.500    21470885.680    89143476.044 7       135.067          47.812    21470885.420    89143479.053 7       135.067          47.812
G27  20949931.040   110092619.342 7      2010.559          47.687    20949930.260   110092619.344 8      2010.559          48.812    20949935.280    85786484.116 8      1566.670          48.750    20949935.660    85786487.116 8      1566.670          49.687
R16  19517727.400   104260184.812 8       614.905          49.187    19517727.200   104260184.811 8       614.905          48.625    19517736.040    81091292.742 8       478.260          51.125    19517736.220    81091293.745 8       478.260          51.687
G16  20828408.540   109454017.597 7      1002.247          46.250    20828407.000   109454017.602 6      1002.247          40.250    20828411.000    85288853.989 6       780.971          39.812
R03  23190161.180   124138755.360 7      4583.133          42.437    23190161.340   124138755.383 6      4583.133          41.875    23190176.420    96552426.325 7      3564.659          43.625    23190176.420    96552425.328 7      3564.659          45.000
R15  23032452.940   123078417.954 7     -1694.630          44.125    23032454.360   123078417.961 7     -1694.630          42.562    23032473.460    95727742.162 7     -1318.046          44.000    23032473.440    95727739.172 7     -1318.046          43.687
G21  20791350.800   109259280.342 7      3732.878          47.187    20791349.000   109259280.352 6      3732.878          38.250    20791352.780    85137115.422 6      2908.736          38.375
G08  21132104.840   111049953.536 7      3617.153          46.187    21132103.600   111049953.536 6      3617.153          39.187    21132109.880    86532451.676 6      2818.561          38.750    21132110.580    86532456.686 8      2818.561          50.687
R09  20379678.580   108826337.128 7      4964.036          46.875    20379678.380   108826337.121 7      4964.036          47.437    20379684.820    84642736.934 8      3860.917          50.375    20379685.000    84642739.927 8      3860.917          50.937
G10  22082507.920   116044355.386 8      2250.708          48.187    22082506.920   116044355.391 7      2250.708          47.437    22082513.140    90424198.762 7      1753.798          47.375    22082513.120    90424200.761 7      1753.798          47.687
G26  23034215.420   121045601.132 7      -508.409          43.375    23034214.280   121045601.137 6      -508.409          41.437    23034225.940    94321291.769 6      -396.163          41.500    23034225.600    94321291.776 7      -396.163          45.000
G23  23822898.180   125190170.822 7       423.516          45.437    23822896.760   125190170.830 5       423.516          31.187    23822901.860    97550745.706 5       330.012          31.312    23822903.980    97550816.712 7       330.012          44.562
R04  23835887.900   127640100.142 7      5887.761          42.000    23835888.640   127640100.184 6      5887.761          40.312    23835916.720    99275744.165 7      4579.370          44.812    23835916.380    99275747.158 7      4579.370          45.000
> 2024 05 06 12 44 59.0000000  0 14
G02  22274574.980   117053679.221 7      4484.794          43.562    22274572.920   117053679.231 5      4484.794          35.312    22274577.940    91210672.515 5      3494.645          35.187
R18  21470844.640   114612821.678 7       173.740          46.437    21470844.460   114612821.676 7       173.740          46.250    21470852.980    89143340.912 8       135.131          48.187    21470853.020    89143343.919 7       135.131          47.875
G27  20949548.400   110090608.773 8      2010.490          48.187    20949547.620   110090608.778 8      2010.490          49.437    20949552.720    85784917.444 8      1566.615          49.250    20949553.220    85784920.441 8      1566.615          49.625
R16  19517612.500   104259570.238 8       614.187          48.937    19517612.120   104259570.240 8       614.187          48.687    19517621.020    81090814.745 8       477.701          50.812    19517621.220    81090815.745 8       477.701          51.062
G16  20828217.740   109453015.543 7      1001.812          47.187    20828216.340   109453015.550 6      1001.812          40.062    20828220.260    85288073.170 6       780.633          40.000
R03  23189305.200   124134172.392 7      4582.754          42.437    23189305.580   124134172.417 7      4582.754          42.312    23189320.500    96548861.805 7      3564.364          44.062    23189320.420    96548860.810 7      3564.364          45.000
R15  23032770.060   123080112.609 7     -1694.683          43.500    23032771.300   123080112.613 7     -1694.683          42.562    23032790.540    95729060.194 7     -1318.087          43.812    23032790.640    95729057.206 7     -1318.087          43.562
G21  20790640.380   109255547.658 7      3732.518          47.000    20790638.700   109255547.666 6      3732.518          37.937    20790642.560    85134206.844 6      2908.456          38.625
G08  21131416.740   111046336.401 7      3617.119          46.937    21131415.260   111046336.400 6      3617.119          39.625    21131421.520    86529633.131 6      2818.535          39.125    21131422.100    86529638.137 8      2818.535          51.000
R09  20378748.820   108821373.428 8      4963.403          48.250    20378748.640   108821373.427 7      4963.403          47.375    20378755.300    84638876.287 8      3860.425          50.812    20378755.440    84638879.280 8      3860.425          51.187
G10  22082079.540   116042105.002 7      2250.198          47.437    22082078.600   116042105.006 7      2250.198          46.625    22082085.000    90422445.216 7      1753.401          47.187    22082084.880    90422447.218 8      1753.401          48.125
G26  23034312.160   121046109.864 7      -508.823          43.437    23034311.180   121046109.866 6      -508.823          41.562    23034322.840    94321688.174 6      -396.486          41.500    23034322.220    94321688.174 7      -396.486          44.625
G23  23822817.800   125189747.558 7       423.120          46.062    23822816.300   125189747.563 5       423.120          31.562    23822821.440    97550415.887 5       329.704          31.312    23822822.940    97550486.890 7       329.704          44.687
R04  23834788.700   127634212.359 7      5887.868          42.000    23834789.900   127634212.387 6      5887.868          40.312    23834817.120    99271164.776 7      4579.453          44.562    23834816.800    99271167.771 7      4579.453          46.687
> 2024 05 06 12 45  0.0000000  0 14
G02  22273721.380   117049194.508 7      4484.774          44.562    22273719.520   117049194.513 5      4484.774          35.375    22273724.600    91207177.936 5      3494.629          35.187
R18  21470812.140   114612647.883 7       173.885          46.437    21470812.100   114612647.879 7       173.885          45.875    21470820.540    89143205.735 7       135.244          47.500    21470820.580    89143208.740 7       135.244          47.937
G27  20949166.060   110088598.330 8      2010.543          48.562    20949165.100   110088598.330 8      2010.543          49.125    20949170.100    85783350.865 8      1566.657          49.062    20949170.760    85783353.861 8      1566.657          49.562
R16  19517497.400   104258956.434 8       613.555          49.562    19517497.320   104258956.432 8       613.555          48.375    19517506.020    81090337.341 8       477.209          50.812    19517506.440    81090338.341 8       477.209          50.875
G16  20828027.060   109452013.933 7      1001.461          46.312    20828025.720   109452013.938 6      1001.461          40.250    20828029.680    85287292.695 6       780.359          40.250
R03  23188449.240   124129589.830 7      4582.446          43.375    23188449.340   124129589.856 7      4582.446          42.312    23188464.220    96545297.603 7      3564.125          43.625    23188464.220    96545296.616 7      3564.125          44.437
R15  23033087.040   123081807.309 7     -1694.501          44.312    23033088.480   123081807.323 7     -1694.501          42.750    23033108.080    95730378.283 7     -1317.946          43.750    23033107.840    95730375.291 7     -1317.946          43.500
G21  20789930.440   109251815.435 7      3732.190          47.125    20789928.480   109251815.442 6      3732.190          38.000    20789932.260    85131298.626 6      2908.200          38.125
G08  21130728.520   111042719.357 7      3617.090          47.062    21130727.000   111042719.357 6      3617.090          39.625    21130733.180    86526814.658 6      2818.511          39.312    21130733.860    86526819.666 8      2818.511          51.000
R09  20377819.260   108816410.386 7      4962.892          47.875    20377819.140   108816410.389 7      4962.892          47.062    20377825.900    84635016.145 8      3860.027          50.812    20377826.060    84635019.142 8      3860.027          51.250
G10  22081651.380   116039855.182 8      2249.674          48.187    22081650.360   116039855.189 7      2249.674          47.125    22081656.860    90420692.115 7      1752.993          47.500    22081657.020    90420694.118 7      1752.993          47.937
G26  23034409.360   121046618.738 7      -508.879          43.250    23034407.900   121046618.740 6      -508.879          41.437    23034419.680    94322084.689 6      -396.529          41.437    23034419.080    94322084.693 7      -396.529          44.875
G23  23822737.200   125189324.743 7       422.671          45.500    23822735.900   125189324.748 5       422.671          31.562    23822741.080    97550086.425 5       329.354          31.750    23822742.500    97550157.432 7       329.354          44.750
R04  23833689.080   127628324.420 7      5888.111          42.062    23833689.660   127628324.460 6      5888.111          40.937    23833717.460    99266585.279 7      4579.642          45.312    23833717.340    99266588.282 7      4579.642          45.687
> 2024 05 06 12 45  1.0000000  0 14
G02  22272867.820   117044710.155 7      4484.191          44.750    22272866.280   117044710.162 5      4484.191          35.375    22272871.320    91203683.645 5      3494.175          35.125
R18  21470779.440   114612474.020 7       173.922          47.000    21470779.400   114612474.010 7       173.922          46.125    21470787.840    89143070.508 8       135.272          48.375    21470787.880    89143073.512 8       135.272          48.062
G27  20948783.480   110086587.988 8      2010.378          48.562    20948782.480   110086587.992 8      2010.378          48.500    20948787.600    85781784.372 8      1566.529          49.000    20948788.160    85781787.370 8      1566.529          49.875
R16  19517382.900   104258343.356 8       612.717          49.437    19517382.580   104258343.352 8       612.717          49.312    19517391.320    81089860.505 8       476.558          51.250    19517391.640    81089861.505 8       476.558          51.375
G16  20827836.520   109451012.738 7      1000.993          46.375    20827835.060   109451012.746 6      1000.993          40.312    20827839.240    85286512.550 6       779.995          40.062
R03  23187593.420   124125007.665 7      4582.022          42.937    23187593.260   124125007.696 7      4582.022          42.250    23187608.080    96541733.707 7      3563.795          43.687    23187608.220    96541732.722 7      3563.795          44.500
R15  23033404.040   123083502.151 7     -1694.824          43.750    23033405.260   123083502.162 7     -1694.824          42.750    23033425.600    95731696.479 7     -1318.196          43.812    23033425.220    95731693.483 7     -1318.196          43.625
G21  20789220.200   109248083.663 7      3731.629          47.125    20789218.400   109248083.668 6      3731.629          37.875    20789222.220    85128390.758 6      2907.762          37.812
G08  21130040.160   111039102.364 7      3617.085          47.187    21130038.760   111039102.358 6      3617.085          39.500    21130044.880    86523996.223 6      2818.507          39.500    21130045.740    86524001.233 8      2818.507          51.437
R09  20376889.680   108811447.999 8      4962.070          48.062    20376889.720   108811448.008 7      4962.070          47.250    20376896.800    84631156.525 8      3859.387          50.437    20376896.920    84631159.519 8      3859.387          51.625
G10  22081223.480   116037605.895 7      2248.996          47.687    22081222.400   116037605.903 7      2248.996          46.875    22081228.920    90418939.433 7      1752.465          47.062    22081229.120    90418941.431 8      1752.465          48.000
G26  23034506.180   121047127.804 7      -509.212          43.312    23034504.760   121047127.806 6      -509.212          41.687    23034516.540    94322481.357 6      -396.788          41.562    23034516.100    94322481.358 7      -396.788          44.875
G23  23822656.720   125188902.304 7       422.243          45.562    23822655.580   125188902.309 5       422.243          31.562    23822660.760    97549757.252 5       329.021          31.750    23822661.860    97549828.261 7       329.021          44.500
R04  23832589.560   127622436.337 7      5888.199          42.062    23832590.120   127622436.363 6      5888.199          40.937    23832617.820    99262005.652 7      4579.710          45.125    23832617.880    99262008.660 7      4579.710          44.875
> 2024 05 06 12 45  2.0000000  0 14
G02  22272014.580   117040225.978 7      4483.921          45.500    22272013.020   117040225.991 5      4483.921          35.812    22272017.980    91200189.491 5      3493.965          35.562
R18  21470747.060   114612299.970 7       174.065          46.562    21470746.740   114612299.968 7       174.065          45.750    21470755.260    89142935.146 8       135.384          48.375    21470755.280    89142938.152 7       135.384          47.625
G27  20948400.800   110084577.648 8      2010.237          48.625    20948399.940   110084577.644 8      2010.237          48.500    20948404.940    85780217.874 8      1566.419          48.937    20948405.800    85780220.871 8      1566.419          50.000
R16  19517268.100   104257730.857 8       612.086          49.500    19517268.000   104257730.856 8       612.086          48.562    19517276.660    81089384.121 8       476.067          50.750    19517276.940    81089385.119 8       476.067          51.250
G16  20827646.300   109450011.846 7      1000.673          46.625    20827644.640   109450011.853 6      1000.673          40.000    20827648.700    85285732.638 6       779.745          39.625
R03  23186737.400   124120425.788 7      4581.633          42.937    23186737.460   124120425.825 7      4581.633          42.250    23186751.980    96538170.037 7      3563.492          44.187    23186752.500    96538169.049 7      3563.492          44.312
R15  23033721.180   123085196.968 7     -1695.020          43.875    23033722.660   123085196.985 7     -1695.020          42.937    23033742.820    95733014.656 7     -1318.349          43.750    23033742.620    95733011.658 7     -1318.349          43.625
G21  20788510.260   109244352.192 7      3731.238          47.187    20788508.280   109244352.199 6      3731.238          38.062    20788512.100    85125483.126 6      2907.458          38.187
G08  21129351.940   111035485.323 7      3616.994          47.312    21129350.500   111035485.320 6      3616.994          39.375    21129356.540    86521177.760 6      2818.436          39.437    21129357.700    86521182.770 8      2818.436          51.437
R09  20375960.540   108806486.163 7      4961.359          47.187    20375960.360   108806486.170 7      4961.359          47.187    20375967.540    84627297.320 8      3858.834          50.437    20375967.780    84627300.315 8      3858.834          51.937
G10  22080795.680   116035357.008 8      2248.590          48.625    22080794.380   116035357.013 7      2248.590          46.562    22080800.800    90417187.051 7      1752.148          46.875    22080801.120    90417189.052 7      1752.148          47.875
G26  23034602.960   121047636.888 7      -509.195          44.000    23034601.720   121047636.890 6      -509.195          41.250    23034613.420    94322878.042 6      -396.776          41.000    23034613.060    94322878.042 7      -396.776          45.000
G23  23822576.320   125188480.162 7       421.823          46.187    23822575.180   125188480.172 5       421.823          31.812    23822580.580    97549428.314 5       328.693          31.750    23822581.480    97549499.331 7       328.693          44.625
R04  23831489.740   127616547.965 7      5888.282          42.062    23831490.220   127616548.001 6      5888.282          40.875    23831518.340    99257425.824 7      4579.775          44.812    23831518.180    99257428.821 7      4579.775          45.250
> 2024 05 06 12 45  3.0000000  0 14
G02  22271161.320   117035742.095 7      4483.785          45.125    22271159.580   117035742.098 5      4483.785          35.500    22271164.680    91196695.559 5      3493.858          35.437
R18  21470714.340   114612125.826 7       174.203          46.187    21470714.080   114612125.829 7       174.203          45.687    21470722.600    89142799.707 8       135.492          48.125    21470722.680    89142802.718 7       135.492          47.250
G27  20948018.360   110082567.357 8      2010.180          48.312    20948017.320   110082567.360 8      2010.180          48.687    20948022.400    85778651.420 8      1566.374          48.937    20948022.880    85778654.422 8      1566.374          49.500
R16  19517153.520   104257119.032 8       611.495          49.125    19517153.480   104257119.025 8       611.495          48.312    19517162.160    81088908.251 8       475.607          50.937    19517162.320    81088909.251 8       475.607          51.812
G16  20827455.800   109449011.345 7      1000.316          46.187    20827454.240   109449011.355 6      1000.316          40.250    20827458.320    85284953.029 6       779.467          40.562
R03  23185881.020   124115844.303 7      4581.261          43.125    23185881.840   124115844.339 7      4581.261          42.312    23185896.220    96534606.678 7      3563.203          43.312    23185896.580    96534605.684 7      3563.203          44.437
R15  23034038.660   123086891.807 7     -1694.779          43.875    23034039.960   123086891.824 7     -1694.779          42.625    23034059.800    95734332.841 7     -1318.162          44.250    23034059.780    95734329.841 7     -1318.162          43.875
G21  20787800.200   109240621.119 7      3730.877          47.187    20787798.440   109240621.126 6      3730.877          38.250    20787802.140    85122575.803 6      2907.177          38.500
G08  21128663.480   111031868.303 7      3617.039          47.437    21128662.000   111031868.300 6      3617.039          39.687    21128668.300    86518359.309 6      2818.472          38.937    21128669.360    86518364.321 8      2818.472          51.250
R09  20375031.580   108801524.955 7      4960.874          47.375    20375031.340   108801524.958 7      4960.874          47.312    20375038.480    84623438.604 8      3858.457          50.312    20375038.600    84623441.599 8      3858.457          51.437
G10  22080367.580   116033108.623 8      2248.113          48.500    22080366.600   116033108.633 7      2248.113          46.687    22080373.020    90415435.073 7      1751.776          47.062    22080372.880    90415437.071 7      1751.776          47.500
G26  23034700.000   121048146.133 7      -509.278          44.500    23034698.680   121048146.135 6      -509.278          41.500    23034710.300    94323274.848 6      -396.840          41.500    23034710.100    94323274.850 7      -396.840          44.875
G23  23822496.200   125188058.361 7       421.786          45.687    23822494.920   125188058.371 5       421.786          31.812    23822500.300    97549099.644 5       328.664          32.000    23822501.140    97549170.655 7       328.664          44.500
R04  23830389.960   127610659.459 6      5888.528          41.812    23830390.900   127610659.471 6      5888.528          40.875    23830418.820    99252845.852 7      4579.966          44.687    23830418.540    99252848.859 7      4579.966          46.062
> 2024 05 06 12 45  4.0000000  0 14
G02  22270308.180   117031258.552 7      4483.316          45.375    22270306.620   117031258.556 5      4483.316          35.687    22270311.460    91193201.898 5      3493.493          35.437
R18  21470681.920   114611951.637 7       174.219          46.750    21470681.400   114611951.629 7       174.219          45.750    21470689.900    89142664.214 8       135.504          48.062    21470689.940    89142667.225 7       135.504          47.625
G27  20947635.820   110080557.172 7      2010.125          47.375    20947634.880   110080557.175 8      2010.125          48.937    20947639.920    85777085.050 8      1566.332          49.250    20947640.500    85777088.050 8      1566.332          49.750
R16  19517039.320   104256507.933 8       610.751          49.000    19517039.060   104256507.934 8       610.751          48.875    19517047.940    81088432.960 8       475.029          50.812    19517048.160    81088433.960 8       475.029          51.500
G16  20827265.560   109448011.275 7       999.844          45.750    20827264.020   109448011.288 6       999.844          39.875    20827267.800    85284173.759 6       779.100          39.687
R03  23185025.080   124111263.267 7      4580.651          42.062    23185025.900   124111263.301 7      4580.651          42.312    23185040.540    96531043.713 7      3562.729          43.312    23185040.920    96531042.716 7      3562.729          44.312
R15  23034355.860   123088586.790 7     -1694.995          42.937    23034357.180   123088586.805 7     -1694.995          42.625    23034377.040    95735651.145 7     -1318.330          43.937    23034376.920    95735648.146 7     -1318.330          43.625
G21  20787090.200   109236890.498 7      3730.395          47.062    20787088.600   109236890.508 6      3730.395          38.562    20787092.260    85119668.834 6      2906.802          38.000
G08  21127975.180   111028251.372 7      3616.892          46.937    21127973.820   111028251.369 6      3616.892          39.375    21127980.040    86515540.926 6      2818.357          39.562    21127981.100    86515545.938 8      2818.357          52.000
R09  20374102.460   108796564.411 7      4960.188          47.500    20374102.240   108796564.412 7      4960.188          47.437    20374109.640    84619580.405 8      3857.924          50.750    20374109.580    84619583.405 8      3857.924          51.625
G10  22079939.900   116030860.786 7      2247.575          47.937    22079938.740   116030860.797 7      2247.575          46.750    22079945.080    90413683.512 7      1751.357          46.937    22079945.120    90413685.513 7      1751.357          47.312
G26  23034797.160   121048655.558 7      -509.483          43.750    23034795.640   121048655.566 6      -509.483          41.375    23034807.320    94323671.809 6      -397.000          41.062    23034807.320    94323671.809 7      -397.000          45.187
G23  23822416.040   125187637.041 7       421.128          46.000    23822414.700   125187637.046 5       421.128          31.812    23822420.040    97548771.345 5       328.152          32.000    23822420.880    97548842.370 7       328.152          43.937
R04  23829290.100   127604770.768 6      5888.656          41.812    23829290.900   127604770.804 6      5888.656          40.875    23829318.880    99248265.794 7      4580.066          44.312    23829318.680    99248268.789 7      4580.066          44.812
> 2024 05 06 12 45  5.0000000  0 14
G02  22269455.200   117026775.381 7      4482.924          44.500    22269453.600   117026775.386 5      4482.924          35.687    22269458.320    91189708.529 5      3493.188          35.875
R18  21470649.060   114611777.418 7       174.172          47.000    21470648.900   114611777.414 7       174.172          46.125    21470657.420    89142528.713 7       135.467          47.625    21470657.260    89142531.719 7       135.467          47.437
G27  20947253.140   110078547.182 8      2009.881          48.062    20947252.340   110078547.179 8      2009.881          49.125    20947257.540    85775518.821 8      1566.141          49.125    20947257.920    85775521.821 8      1566.141          49.312
R16  19516925.080   104255897.665 8       609.813          49.687    19516924.880   104255897.666 8       609.813          49.062    19516933.720    81087958.307 8       474.299          50.687    19516934.020    81087959.307 8       474.299          51.187
G16  20827075.540   109447011.709 7       999.384          46.875    20827074.000   109447011.714 6       999.384          40.437    20827077.800    85283394.873 6       778.741          39.937
R03  23184169.320   124106682.756 7      4580.271          42.062    23184169.900   124106682.784 6      4580.271          41.687    23184184.880    96527481.045 6      3562.433          40.250    23184185.100    96527480.046 6      3562.433          41.312
R15  23034673.340   123090281.870 7     -1695.110          43.187    23034674.560   123090281.887 7     -1695.110          42.250    23034694.360    95736969.513 7     -1318.419          43.500    23034694.080    95736966.517 7     -1318.419          43.437
G21  20786380.620   109233160.393 7      3729.774          47.250    20786378.900   109233160.403 6      3729.774          38.000    20786382.340    85116762.262 6      2906.318          38.000
G08  21127286.780   111024634.568 7      3616.637          46.750    21127285.580   111024634.567 6      3616.637          39.187    21127291.800    86512722.641 6      2818.159          38.812    21127292.800    86512727.655 8      2818.159          50.437
R09  20373173.940   108791604.582 7      4959.427          47.562    20373173.520   108791604.581 7      4959.427          46.562    20373180.760    84615722.765 8      3857.332          49.062    20373180.900    84615725.765 8      3857.332          49.437
G10  22079512.280   116028613.557 8      2246.865          48.250    22079511.200   116028613.565 7      2246.865          46.187    22079517.620    90411932.426 7      1750.804          46.062    22079517.540    90411934.425 7      1750.804          47.062
G26  23034893.920   121049165.260 7      -509.942          44.125    23034892.680   121049165.260 6      -509.942          40.937    23034904.320    94324068.961 6      -397.357          41.000    23034904.000    94324068.959 7      -397.357          44.625
G23  23822336.060   125187216.160 7       420.614          45.437    23822334.620   125187216.165 5       420.614          31.812    23822339.860    97548443.392 5       327.751          31.687    23822340.640    97548514.411 7       327.751          44.187
R04  23828190.780   127598882.050 7      5888.715          42.000    23828192.420   127598882.070 6      5888.715          41.000    23828219.040    99243685.676 7      4580.112          44.125    23828219.100    99243688.671 7      4580.112          45.062
> 2024 05 06 12 45  6.0000000  0 14
G02  22268601.860   117022292.576 7      4482.766          45.312    22268600.440   117022292.575 5      4482.766          35.750    22268605.500    91186215.436 5      3493.064          35.437
R18  21470616.180   114611603.170 7       174.319          45.937    21470616.540   114611603.171 7       174.319          46.187    21470624.800    89142393.195 7       135.582          47.750    21470624.800    89142396.197 7       135.582          47.937
G27  20946870.760   110076537.307 8      2009.906          48.000    20946869.800   110076537.304 8      2009.906          48.625    20946875.000    85773952.691 8      1566.161          48.437    20946875.300    85773955.693 8      1566.161          50.000
R16  19516810.840   104255288.168 8       609.227          50.312    19516810.860   104255288.167 8       609.227          48.500    19516819.600    81087484.254 8       473.843          50.625    19516819.840    81087485.254 8       473.843          50.875
G16  20826885.240   109446012.580 7       999.068          47.000    20826883.800   109446012.585 6       999.068          40.625    20826887.700    85282616.333 6       778.495          40.250
R03  23183313.720   124102102.694 7      4579.920          42.750    23183314.480   124102102.714 6      4579.920          41.687    23183329.340    96523918.777 7      3562.160          43.062    23183329.660    96523917.784 7      3562.160          43.937
R15  23034990.380   123091977.029 7     -1695.043          43.562    23034991.820   123091977.044 7     -1695.043          42.750    23035011.560    95738287.947 7     -1318.367          43.625    23035011.260    95738284.949 7     -1318.367          44.000
G21  20785670.580   109229430.726 7      3729.566          47.250    20785669.160   109229430.731 6      3729.566          38.000    20785672.560    85113856.036 6      2906.155          38.250
G08  21126598.540   111021017.829 7      3616.914          47.187    21126597.320   111021017.829 6      3616.914          39.125    21126603.540    86509904.405 6      2818.374          39.062    21126604.740    86509909.419 8      2818.374          51.062
R09  20372245.260   108786645.464 7      4958.873          47.250    20372244.740   108786645.460 7      4958.873          47.562    20372251.800    84611865.677 8      3856.901          50.125    20372251.980    84611868.679 8      3856.901          50.437
G10  22079084.540   116026366.885 8      2246.496          48.250    22079083.660   116026366.887 7      2246.496          47.000    22079090.140    90410181.773 7      1750.517          46.937    22079090.100    90410183.773 7      1750.517          47.937
G26  23034990.880   121049675.114 7      -509.902          43.625    23034989.680   121049675.116 6      -509.902          41.625    23035001.320    94324466.248 6      -397.326          41.375    23035000.860    94324466.250 7      -397.326          44.750
G23  23822256.060   125186795.720 7       420.278          45.562    23822254.640   125186795.728 5       420.278          31.812    23822259.940    97548115.783 5       327.490          31.687    23822260.960    97548186.790 7       327.490          44.000
R04  23827091.140   127592993.201 7      5888.823          42.000    23827091.820   127592993.248 6      5888.823          41.000    23827119.540    99239105.490 7      4580.196          43.437    23827119.700    99239108.501 7      4580.196          45.062
> 2024 05 06 12 45  7.0000000  0 14
G02  22267748.900   117017810.046 7      4482.197          45.687    22267747.520   117017810.048 6      4482.197          36.000    22267752.420    91182722.566 6      3492.621          36.000
R18  21470584.020   114611428.837 7       174.129          46.375    21470583.920   114611428.838 7       174.129          46.500    21470592.100    89142257.600 8       135.433          48.187    21470592.140    89142260.601 7       135.433          47.812
G27  20946488.260   110074527.505 7      2009.523          47.937    20946487.460   110074527.507 8      2009.523          49.062    20946492.500    85772386.614 8      1565.862          49.000    20946492.920    85772389.614 8      1565.862          49.875
R16  19516696.900   104254679.407 8       608.089          49.875    19516696.940   104254679.408 8       608.089          48.812    19516705.420    81087010.777 8       472.958          51.250    19516705.960    81087011.779 8       472.958          51.312
G16  20826695.140   109445013.855 7       998.256          47.312    20826693.680   109445013.863 6       998.256          40.625    20826697.580    85281838.108 6       777.862          40.312
R03  23182458.260   124097522.991 7      4579.357          43.062    23182459.120   124097523.008 7      4579.357          42.062    23182474.060    96520356.796 7      3561.722          43.875    23182473.980    96520355.806 7      3561.722          44.125
R15  23035307.620   123093672.258 7     -1695.540          43.437    23035308.720   123093672.270 7     -1695.540          42.750    23035328.600    95739606.442 7     -1318.753          43.625    23035328.480    95739603.440 7     -1318.753          44.000
G21  20784961.040   109225701.466 7      3728.896          47.500    20784959.460   109225701.474 6      3728.896          38.437    20784962.940    85110950.126 6      2905.633          38.750
G08  21125910.320   111017401.156 7      3616.411          47.250    21125908.980   111017401.153 6      3616.411          38.937    21125915.440    86507086.224 6      2817.983          38.875    21125916.380    86507091.242 8      2817.983          51.250
R09  20371316.700   108781686.982 7      4957.918          47.812    20371316.260   108781686.977 7      4957.918          47.375    20371323.520    84608009.078 8      3856.159          50.687    20371323.540    84608012.081 8      3856.159          51.375
G10  22078657.340   116024120.725 8      2245.644          48.000    22078656.260   116024120.730 7      2245.644          47.125    22078662.740    90408431.527 7      1749.853          47.312    22078662.640    90408433.525 7      1749.853          47.750
G26  23035087.840   121050185.134 7      -510.459          44.312    23035086.660   121050185.141 6      -510.459          41.750    23035098.380    94324863.659 6      -397.761          41.062    23035098.180    94324863.662 7      -397.761          44.687
G23  23822176.040   125186375.659 7       419.612          46.312    23822174.760   125186375.667 5       419.612          31.437    23822180.120    97547788.462 5       326.970          31.687    23822181.140    97547859.477 7       326.970          44.437
R04  23825991.340   127587104.221 6      5888.695          41.937    23825992.040   127587104.260 6      5888.695          41.000    23826020.120    99234525.165 7      4580.096          44.625    23826019.880    99234528.175 7      4580.096          44.625
> 2024 05 06 12 45  8.0000000  0 14
G02  22266896.240   117013328.053 7      4481.921          45.500    22266894.560   117013328.058 5      4481.921          35.625    22266899.700    91179230.110 6      3492.406          36.000
R18  21470551.340   114611254.626 7       174.319          46.000    21470551.000   114611254.627 7       174.319          45.937    21470559.620    89142122.105 8       135.582          48.062    21470559.320    89142125.106 7       135.582          47.875
G27  20946105.860   110072517.998 8      2009.571          48.437    20946104.980   110072517.998 8      2009.571          48.375    20946110.180    85770820.769 8      1565.900          48.500    20946110.500    85770823.770 8      1565.900          50.312
R16  19516582.940   104254071.542 8       607.591          49.062    19516582.900   104254071.543 8       607.591          48.687    19516591.740    81086537.995 8       472.571          51.437    19516592.360    81086538.997 8       472.571          51.875
G16  20826505.380   109444015.743 7       997.981          46.875    20826503.720   109444015.748 6       997.981          40.625    20826507.600    85281060.356 6       777.648          40.312
R03  23181602.780   124092943.898 7      4579.073          43.062    23181603.680   124092943.926 7      4579.073          42.062    23181618.540    96516795.298 7      3561.501          43.875    23181618.520    96516794.310 7      3561.501          44.000
R15  23035624.720   123095367.754 7     -1695.403          43.437    23035626.080   123095367.761 7     -1695.403          42.375    23035646.100    95740925.132 7     -1318.646          44.062    23035646.040    95740922.132 7     -1318.646          43.875
G21  20784251.500   109221972.853 7      3728.481          46.875    20784249.960   109221972.863 6      3728.481          38.250    20784253.600    85108044.721 6      2905.310          39.000
G08  21125222.100   111013784.727 7      3616.463          46.812    21125220.860   111013784.727 6      3616.463          39.250    21125227.200    86504268.230 6      2818.023          38.875    21125228.000    86504273.244 8      2818.023          51.500
R09  20370388.340   108776729.330 7      4957.391          47.375    20370388.040   108776729.322 7      4957.391          46.812    20370395.000    84604153.126 8      3855.749          50.375    20370395.160    84604156.130 8      3855.749          51.375
G10  22078230.120   116021875.280 8      2245.290          48.187    22078229.060   116021875.288 7      2245.290          47.062    22078235.340    90406681.833 7      1749.577          47.250    22078235.320    90406683.830 8      1749.577          48.062
G26  23035185.220   121050695.492 7      -510.341          44.187    23035183.800   121050695.497 6      -510.341          41.562    23035195.540    94325261.335 7      -397.668          42.000    23035194.960    94325261.337 7      -397.668          44.875
G23  23822096.300   125185956.184 7       419.356          46.312    23822094.940   125185956.191 5       419.356          31.437    23822100.220    97547461.599 5       326.771          31.562    23822101.660    97547532.615 7       326.771          44.500
R04  23824891.440   127581215.273 6      5889.166          41.937    23824892.120   127581215.312 6      5889.166          40.812    23824919.820    99229944.877 7      4580.462          44.500    23824919.940    99229947.886 7      4580.462          45.375
> 2024 05 06 12 45  9.0000000  0 14
G02  22266043.320   117008846.466 7      4481.270          45.250    22266041.780   117008846.469 6      4481.270          36.000    22266046.920    91175737.971 5      3491.899          35.562
R18  21470518.420   114611080.429 7       174.117          46.000    21470518.700   114611080.430 7       174.117          46.500    21470526.960    89141986.620 7       135.425          47.750    21470526.980    89141989.619 8       135.425          48.312
G27  20945723.600   110070508.688 8      2009.096          48.500    20945722.640   110070508.693 8      2009.096          49.000    20945727.740    85769255.079 8      1565.529          48.937    20945728.140    85769258.080 8      1565.529          50.375
R16  19516469.620   104253464.511 8       606.550          49.937    19516469.280   104253464.507 8       606.550          48.875    19516478.160    81086065.858 8       471.761          51.125    19516478.640    81086066.860 8       471.761          51.937
G16  20826315.680   109443018.140 7       997.186          46.625    20826313.860   109443018.148 6       997.186          40.375    20826317.880    85280283.005 6       777.028          40.187
R03  23180748.060   124088365.317 7      4578.335          43.500    23180748.340   124088365.342 7      4578.335          42.000    23180763.120    96513234.194 7      3560.927          44.187    23180763.080    96513233.205 7      3560.927          43.937
R15  23035942.160   123097063.502 7     -1695.973          43.375    23035943.180   123097063.500 7     -1695.973          42.312    23035962.980    95742244.022 7     -1319.090          43.562    23035963.200    95742241.026 7     -1319.090          43.750
G21  20783542.020   109218244.752 7      3727.825          47.687    20783540.460   109218244.762 6      3727.825          38.125    20783544.300    85105139.712 6      2904.798          38.437
G08  21124533.940   111010168.451 7      3616.052          47.125    21124532.660   111010168.453 6      3616.052          39.312    21124538.800    86501450.358 6      2817.703          39.062    21124539.760    86501455.375 8      2817.703          51.375
R09  20369459.940   108771772.420 8      4956.480          48.312    20369459.900   108771772.418 7      4956.480          46.875    20369466.700    84600297.756 8      3855.040          50.937    20369466.840    84600300.759 8      3855.040          51.187
G10  22077802.960   116019630.471 8      2244.395          48.062    22077801.860   116019630.481 7      2244.395          47.375    22077808.240    90404932.637 7      1748.879          47.812    22077808.120    90404934.638 7      1748.879          47.687
G26  23035282.160   121051206.150 7      -510.897          43.250    23035281.020   121051206.152 6      -510.897          41.625    23035292.700    94325659.242 6      -398.101          41.250    23035292.280    94325659.245 7      -398.101          45.062
G23  23822016.620   125185537.218 7       418.700          46.437    23822015.320   125185537.226 5       418.700          31.625    23822020.540    97547135.134 5       326.260          31.562    23822021.720    97547206.143 7       326.260          44.500
R04  23823791.540   127575326.290 7      5888.946          42.312    23823793.120   127575326.319 6      5888.946          40.812    23823820.180    99225364.557 7      4580.292          44.375    23823819.960    99225367.551 7      4580.292          44.437
> 2024 05 06 12 45 10.0000000  0 14
G02  22265190.340   117004365.222 7      4481.430          44.812    22265189.300   117004365.224 6      4481.430          36.000    22265194.260    91172246.094 5      3492.023          35.875
R18  21470486.180   114610906.189 7       174.655          46.375    21470485.900   114610906.190 7       174.655          46.625    21470494.320    89141851.096 8       135.843          48.125    21470494.120    89141854.093 7       135.843          47.937
G27  20945341.300   110068499.491 8      2009.491          48.250    20945340.320   110068499.498 8      2009.491          49.000    20945345.440    85767689.475 8      1565.837          49.250    20945345.960    85767692.476 8      1565.837          49.750
R16  19516355.940   104252858.201 8       606.359          49.062    19516355.660   104252858.205 8       606.359          49.187    19516364.640    81085594.288 8       471.613          50.812    19516365.040    81085595.290 8       471.613          51.125
G16  20826125.620   109442020.973 7       997.347          47.500    20826124.220   109442020.978 6       997.347          40.375    20826128.080    85279505.990 6       777.154          39.625
R03  23179892.860   124083787.144 7      4578.373          43.562    23179892.960   124083787.170 7      4578.373          42.437    23179907.920    96509673.404 7      3560.957          44.062    23179908.000    96509672.415 7      3560.957          44.500
R15  23036260.180   123098759.337 7     -1695.521          43.375    23036260.380   123098759.339 7     -1695.521          42.312    23036280.000    95743562.988 7     -1318.739          43.875    23036280.480    95743559.995 7     -1318.739          43.750
G21  20782832.460   109214517.114 7      3727.814          47.625    20782831.160   109214517.127 6      3727.814          37.937    20782834.920    85102235.064 6      2904.790          38.062
G08  21123845.840   111006552.246 7      3616.573          47.000    21123844.520   111006552.248 6      3616.573          39.000    21123850.760    86498632.538 6      2818.109          38.812    21123851.620    86498637.552 8      2818.109          50.875
R09  20368531.760   108766816.214 7      4956.247          47.812    20368531.780   108766816.213 7      4956.247          46.875    20368538.740    84596442.934 8      3854.859          50.375    20368538.760    84596445.937 8      3854.859          51.250
G10  22077375.720   116017386.211 8      2244.412          48.687    22077374.760   116017386.216 7      2244.412          47.312    22077381.120    90403183.863 7      1748.893          47.687    22077381.200    90403185.860 7      1748.893          47.937
G26  23035379.260   121051716.971 7      -510.493          43.937    23035378.240   121051716.966 6      -510.493          41.312    23035390.160    94326057.272 6      -397.787          41.000    23035389.560    94326057.273 7      -397.787          44.500
G23  23821936.800   125185118.673 7       418.775          45.812    23821935.660   125185118.678 5       418.775          31.625    23821940.940    97546808.995 5       326.318          31.562    23821941.940    97546880.006 7       326.318          44.750
R04  23822691.900   127569437.141 7      5889.721          42.312    23822693.820   127569437.159 6      5889.721          41.187    23822720.300    99220784.099 7      4580.894          44.562    23822720.220    99220787.100 7      4580.894          44.437
> 2024 05 06 12 45 11.0000000  0 14
G02  22264337.580   116999884.077 7      4480.829          45.375    22264336.580   116999884.079 6      4480.829          36.000    22264341.440    91168754.301 6      3491.555          36.187
R18  21470453.280   114610731.656 7       174.327          46.687    21470453.320   114610731.659 7       174.327          46.312    21470461.580    89141715.356 7       135.587          47.875    21470461.440    89141718.355 8       135.587          48.062
G27  20944959.100   110066490.191 8      2009.060          48.375    20944957.960   110066490.199 8      2009.060          48.875    20944963.120    85766123.791 8      1565.501          49.125    20944963.620    85766126.792 8      1565.501          50.312
R16  19516242.520   104252252.428 8       605.259          49.187    19516242.120   104252252.424 8       605.259          48.375    19516251.200    81085123.129 8       470.757          51.125    19516251.580    81085124.131 8       470.757          51.437
G16  20825935.840   109441024.022 7       996.608          47.750    20825934.440   109441024.024 6       996.608          40.375    20825938.320    85278729.145 6       776.578          40.187
R03  23179037.580   124079209.179 7      4577.589          43.687    23179037.920   124079209.199 7      4577.589          42.437    23179052.740    96506112.770 7      3560.347          44.062    23179052.980    96506111.781 7      3560.347          44.187
R15  23036577.160   123100455.058 7     -1695.925          42.937    23036577.940   123100455.062 7     -1695.925          42.187    23036597.720    95744881.866 7     -1319.053          44.062    23036597.540    95744878.872 7     -1319.053          43.437
G21  20782123.200   109210789.696 7      3727.063          46.937    20782121.760   109210789.709 6      3727.063          38.437    20782125.620    85099330.591 6      2904.205          37.812
G08  21123157.580   111002935.906 7      3616.164          47.000    21123156.420   111002935.906 6      3616.164          39.250    21123162.580    86495814.615 6      2817.790          38.437    21123163.340    86495819.627 8      2817.790          51.062
R09  20367603.720   108761860.455 7      4955.254          47.812    20367603.680   108761860.448 7      4955.254          47.000    20367610.760    84592588.452 8      3854.087          50.812    20367610.660    84592591.456 8      3854.087          51.000
G10  22076948.780   116015142.292 8      2243.433          48.125    22076947.820   116015142.294 7      2243.433          46.625    22076954.160    90401435.357 7      1748.130          46.812    22076954.340    90401437.358 8      1748.130          48.187
G26  23035476.420   121052227.769 7      -511.025          43.625    23035475.440   121052227.766 6      -511.025          41.937    23035487.100    94326455.290 6      -398.202          41.437    23035486.740    94326455.292 7      -398.202          44.625
G23  23821857.300   125184700.328 7       417.965          45.687    23821855.840   125184700.335 5       417.965          31.875    23821861.300    97546483.009 5       325.687          32.000    23821862.560    97546554.024 7       325.687          44.625
R04  23821592.440   127563547.674 7      5889.220          42.812    23821593.700   127563547.708 6      5889.220          41.187    23821620.320    99216203.423 7      4580.504          44.812    23821620.400    99216206.424 7      4580.504          44.812
> 2024 05 06 12 45 12.0000000  0 14
G02  22263485.100   116995403.476 7      4480.499          45.937    22263484.120   116995403.478 6      4480.499          36.312    22263488.800    91165262.934 5      3491.298          35.750
R18  21470420.380   114610557.261 7       174.532          46.125    21470420.500   114610557.265 7       174.532          46.437    21470429.180    89141579.718 7       135.747          47.937    21470428.780    89141582.723 8       135.747          48.375
G27  20944576.580   110064481.202 8      2009.003          48.625    20944575.680   110064481.204 8      2009.003          48.687    20944580.820    85764558.346 8      1565.457          48.812    20944581.320    85764561.348 8      1565.457          49.937
R16  19516129.460   104251647.606 8       604.534          49.562    19516128.840   104251647.601 8       604.534          48.875    19516137.920    81084652.709 8       470.193          50.875    19516138.480    81084653.711 8       470.193          51.062
G16  20825746.340   109440027.694 7       996.234          47.375    20825744.900   109440027.701 6       996.234          40.000    20825748.820    85277952.793 6       776.287          39.500
R03  23178182.740   124074631.839 7      4577.319          43.687    23178182.860   124074631.857 7      4577.319          42.750    23178197.440    96502552.619 7      3560.137          43.875    23178197.880    96502551.632 7      3560.137          44.500
R15  23036894.400   123102151.035 7     -1695.860          42.937    23036895.000   123102151.044 7     -1695.860          42.500    23036915.260    95746200.944 7     -1319.002          43.687    23036914.980    95746197.957 7     -1319.002          43.437
G21  20781413.940   109207062.922 7      3726.646          47.500    20781412.640   109207062.938 6      3726.646          38.437    20781416.620    85096426.622 6      2903.880          38.812
G08  21122469.540   110999319.835 7      3616.135          46.625    21122468.460   110999319.832 6      3616.135          39.562    21122474.540    86492996.899 6      2817.768          38.812    21122475.300    86493001.912 8      2817.768          51.375
R09  20366676.080   108756905.526 7      4954.696          47.687    20366675.480   108756905.527 7      4954.696          47.187    20366682.980    84588734.631 8      3853.652          50.375    20366682.860    84588737.632 8      3853.652          51.500
G10  22076521.860   116012899.075 8      2243.097          48.312    22076520.900   116012899.083 7      2243.097          46.875    22076527.360    90399687.404 7      1747.868          47.125    22076527.300    90399689.403 7      1747.868          47.687
G26  23035573.980   121052738.952 7      -511.319          44.187    23035572.680   121052738.954 7      -511.319          42.062    23035584.500    94326853.613 6      -398.431          41.500    23035584.020    94326853.617 7      -398.431          44.687
G23  23821777.640   125184282.592 7       417.570          47.187    23821776.340   125184282.599 5       417.570          31.875    23821781.760    97546157.509 5       325.379          32.000    23821783.000    97546228.518 7       325.379          44.625
R04  23820492.940   127557658.265 7      5889.607          42.812    23820493.460   127557658.302 6      5889.607          41.187    23820520.720    99211622.778 7      4580.806          44.437    23820520.620    99211625.782 7      4580.806          44.625
> 2024 05 06 12 45 13.0000000  0 14
G02  22262632.380   116990923.135 7      4480.236          45.750    22262631.380   116990923.135 6      4480.236          36.062    22262636.160    91161771.763 6      3491.093          36.000
R18  21470387.700   114610382.778 7       174.474          46.437    21470387.880   114610382.782 7       174.474          46.937    21470396.420    89141444.007 8       135.702          48.125    21470396.360    89141447.010 8       135.702          48.312
G27  20944194.260   110062472.267 8      2008.875          48.437    20944193.300   110062472.264 8      2008.875          48.937    20944198.460    85762992.941 8      1565.357          49.000    20944198.900    85762995.938 8      1565.357          50.187
R16  19516016.300   104251043.467 8       603.707          49.062    19516015.720   104251043.471 8       603.707          48.812    19516024.880    81084182.830 8       469.550          51.187    19516025.360    81084183.834 8       469.550          51.687
G16  20825556.720   109439031.759 7       995.707          47.250    20825555.420   109439031.764 6       995.707          40.562    20825559.080    85277176.740 6       775.876          40.125
R03  23177327.580   124070054.917 7      4576.634          43.875    23177328.060   124070054.937 7      4576.634          42.750    23177342.480    96498992.803 7      3559.605          43.812    23177342.720    96498991.808 7      3559.605          44.687
R15  23037211.900   123103847.060 7     -1696.150          42.937    23037213.000   123103847.075 7     -1696.150          42.500    23037232.920    95747520.052 7     -1319.228          43.812    23037232.720    95747517.063 7     -1319.228          43.625
G21  20780704.900   109203336.548 7      3726.109          47.562    20780703.560   109203336.560 6      3726.109          38.312    20780707.460    85093522.955 6      2903.462          38.750
G08  21121781.320   110995703.790 7      3615.910          46.875    21121780.320   110995703.784 6      3615.910          39.375    21121786.380    86490179.204 6      2817.592          39.125    21121787.080    86490184.218 8      2817.592          51.312
R09  20365748.140   108751951.235 7      4953.887          46.562    20365747.680   108751951.234 7      4953.887          47.312    20365755.280    84584881.296 8      3853.023          50.562    20365755.180    84584884.295 8      3853.023          51.625
G10  22076095.060   116010656.386 8      2242.382          48.312    22076093.980   116010656.394 7      2242.382          47.125    22076100.540    90397939.857 7      1747.311          47.062    22076100.320    90397941.857 7      1747.311          47.937
G26  23035671.060   121053250.241 7      -511.479          44.562    23035669.980   121053250.246 6      -511.479          41.375    23035681.800    94327252.012 6      -398.555          41.250    23035680.980    94327252.008 7      -398.555          45.062
G23  23821698.420   125183865.224 7       417.035          45.875    23821697.100   125183865.234 5       417.035          31.875    23821702.400    97545832.289 5       324.963          32.000    23821703.200    97545903.304 7       324.963          44.500
R04  23819392.780   127551768.745 6      5889.466          41.562    23819393.600   127551768.781 6      5889.466          41.187    23819420.720    99207042.044 7      4580.696          44.687    23819420.760    99207045.051 7      4580.696          44.437
> 2024 05 06 12 45 14.0000000  0 14
G02  22261780.060   116986443.097 7      4479.863          45.750    22261778.880   116986443.096 6      4479.863          36.375    22261783.600    91158280.832 6      3490.802          36.000
R18  21470354.960   114610208.181 7       174.740          46.500    21470355.080   114610208.176 7       174.740          46.625    21470363.540    89141308.205 8       135.909          48.125    21470363.660    89141311.206 8       135.909          48.375
G27  20943811.800   110060463.385 8      2008.943          48.562    20943811.100   110060463.388 8      2008.943          48.750    20943816.140    85761427.587 8      1565.410          49.000    20943816.760    85761430.588 8      1565.410          50.187
R16  19515903.080   104250440.034 8       603.117          49.562    19515903.060   104250440.035 8       603.117          48.562    19515912.060    81083713.493 8       469.091          50.875    19515912.200    81083714.493 8       469.091          51.562
G16  20825367.460   109438036.196 7       995.430          46.375    20825365.900   109438036.206 6       995.430          40.125    20825369.720    85276400.976 6       775.660          40.062
R03  23176472.400   124065478.343 7      4576.414          43.875    23176473.060   124065478.371 7      4576.414          42.437    23176487.500    96495433.262 7      3559.433          43.750    23176488.020    96495432.269 7      3559.433          44.437
R15  23037529.220   123105543.096 7     -1696.051          43.625    23037530.380   123105543.095 7     -1696.051          42.625    23037550.340    95748839.164 7     -1319.151          43.875    23037550.200    95748836.170 7     -1319.151          44.062
G21  20779995.760   109199610.559 7      3725.806          47.687    20779994.420   109199610.567 6      3725.806          38.375    20779998.280    85090619.590 6      2903.225          38.687
G08  21121093.120   110992087.747 7      3616.022          47.125    21121092.200   110992087.744 6      3616.022          39.375    21121098.240    86487361.515 6      2817.680          38.937    21121099.160    86487366.527 8      2817.680          50.875
R09  20364820.420   108746997.556 7      4953.366          47.812    20364819.720   108746997.557 7      4953.366          47.000    20364827.580    84581028.436 8      3852.618          51.187    20364827.520    84581031.438 8      3852.618          51.437
G10  22075668.440   116008414.176 8      2242.014          48.250    22075667.380   116008414.181 7      2242.014          47.375    22075673.800    90396192.681 7      1747.024          47.562    22075673.940    90396194.678 8      1747.024          48.500
G26  23035768.400   121053761.671 7      -511.499          44.000    23035767.300   121053761.676 6      -511.499          41.750    23035779.240    94327650.521 6      -398.571          41.250    23035778.820    94327650.523 7      -398.571          45.000
G23  23821618.900   125183448.205 7       416.856          46.125    23821617.760   125183448.215 5       416.856          31.875    23821622.920    97545507.346 5       324.823          32.187    23821624.080    97545578.359 7       324.823          44.500
R04  23818292.740   127545878.969 6      5889.966          41.562    23818293.940   127545879.016 6      5889.966          41.187    23818320.800    99202461.124 7      4581.085          44.062    23818320.780    99202464.130 7      4581.085          44.812
> 2024 05 06 12 45 15.0000000  0 14
G02  22260927.720   116981963.473 7      4479.362          45.562    22260926.560   116981963.476 6      4479.362          36.062    22260931.340    91154790.219 5      3490.412          35.812
R18  21470322.140   114610033.623 7       174.379          45.375    21470322.500   114610033.627 7       174.379          46.562    21470330.800    89141172.442 7       135.628          47.750    21470330.980    89141175.447 7       135.628          47.625
G27  20943429.680   110058454.732 8      2008.528          48.000    20943428.940   110058454.737 8      2008.528          49.125    20943433.900    85759862.404 8      1565.087          49.312    20943434.420    85759865.404 8      1565.087          49.750
R16  19515790.300   104249837.439 8       602.141          49.187    19515790.220   104249837.437 8       602.141          48.312    19515799.280    81083244.800 8       468.332          49.875    19515799.420    81083245.802 8       468.332          49.937
G16  20825178.140   109437041.170 7       994.716          47.000    20825176.620   109437041.173 6       994.716          40.437    20825180.500    85275625.630 6       775.103          39.937
R03  23175617.740   124060902.293 7      4575.700          43.250    23175618.000   124060902.327 7      4575.700          42.437    23175632.720    96491874.121 7      3558.878          43.875    23175633.120    96491873.122 7      3558.878          44.375
R15  23037846.500   123107239.298 7     -1696.338          43.875    23037848.100   123107239.302 7     -1696.338          42.812    23037868.040    95750158.418 7     -1319.374          43.687    23037867.380    95750155.424 7     -1319.374          43.687
G21  20779286.900   109195885.118 7      3725.091          47.250    20779285.380   109195885.125 6      3725.091          38.312    20779289.440    85087716.654 6      2902.668          38.937
G08  21120405.200   110988471.891 7      3615.670          47.562    21120404.020   110988471.894 6      3615.670          39.437    21120410.140    86484543.967 6      2817.405          39.250    21120411.180    86484548.979 8      2817.405          50.562
R09  20363892.840   108742044.654 7      4952.405          46.500    20363892.360   108742044.660 7      4952.405          46.500    20363900.180    84577176.189 8      3851.871          50.625    20363900.000    84577179.189 8      3851.871          50.625
G10  22075241.860   116006172.622 7      2241.141          47.437    22075240.740   116006172.629 7      2241.141          46.625    22075247.260    90394446.018 7      1746.344          46.937    22075247.680    90394448.015 7      1746.344          47.687
G26  23035865.560   121054273.359 7      -511.822          43.812    23035864.840   121054273.370 6      -511.822          41.687    23035876.540    94328049.235 6      -398.822          41.437    23035876.240    94328049.235 7      -398.822          44.750
G23  23821539.540   125183031.715 7       416.144          45.750    23821538.540   125183031.722 5       416.144          31.875    23821543.880    97545182.810 5       324.268          32.187    23821544.260    97545253.820 7       324.268          44.062
R04  23817193.040   127539989.205 7      5889.720          42.500    23817194.460   127539989.236 6      5889.720          41.187    23817220.940    99197880.182 7      4580.893          44.562    23817221.140    99197883.204 7      4580.893          44.875
> 2024 05 06 12 45 16.0000000  0 14
G02  22260075.220   116977484.438 7      4478.878          45.062    22260074.200   116977484.443 6      4478.878          36.187    22260078.820    91151300.068 6      3490.035          36.125
R18  21470289.500   114609859.253 7       174.400          46.562    21470289.520   114609859.262 7       174.400          46.562    21470298.080    89141036.831 8       135.645          48.187    21470298.400    89141039.830 7       135.645          47.875
G27  20943047.460   110056446.434 8      2008.277          48.375    20943046.780   110056446.441 8      2008.277          48.937    20943051.760    85758297.502 8      1564.891          49.125    20943052.540    85758300.502 8      1564.891          49.750
R16  19515678.020   104249235.832 8       601.266          49.500    19515677.620   104249235.831 8       601.266          49.187    19515686.620    81082776.884 8       467.651          50.562    19515686.960    81082777.882 8       467.651          51.375
G16  20824988.920   109436046.841 7       994.086          47.250    20824987.320   109436046.844 6       994.086          40.500    20824991.260    85274850.832 6       774.613          40.375
R03  23174762.840   124056326.921 7      4575.164          43.250    23174763.580   124056326.952 7      4575.164          42.437    23174778.180    96488315.502 7      3558.461          43.937    23174778.200    96488314.511 7      3558.461          44.312
R15  23038163.800   123108935.887 7     -1696.572          44.062    23038165.160   123108935.893 7     -1696.572          42.812    23038185.680    95751477.975 7     -1319.556          43.750    23038185.160    95751474.979 7     -1319.556          43.250
G21  20778577.960   109192160.375 7      3724.555          46.500    20778576.680   109192160.385 6      3724.555          38.500    20778580.620    85084814.264 6      2902.251          38.437
G08  21119717.180   110984856.346 7      3615.522          47.312    21119716.060   110984856.345 6      3615.522          39.375    21119722.240    86481726.664 6      2817.290          38.937    21119722.880    86481731.677 8      2817.290          51.000
R09  20362965.720   108737092.697 7      4951.570          47.375    20362964.840   108737092.703 7      4951.570          46.625    20362972.600    84573324.669 8      3851.221          49.687    20362972.800    84573327.670 8      3851.221          50.187
G10  22074815.380   116003931.848 7      2240.514          47.250    22074814.380   116003931.856 7      2240.514          46.937    22074820.920    90392699.967 7      1745.855          47.125    22074821.040    90392701.968 7      1745.855          47.812
G26  23035963.140   121054785.528 7      -512.243          44.312    23035962.100   121054785.536 7      -512.243          42.000    23035974.020    94328448.315 6      -399.150          41.500    23035973.640    94328448.319 7      -399.150          45.062
G23  23821460.600   125182615.878 7       415.727          46.312    23821459.380   125182615.881 5       415.727          31.937    23821464.880    97544858.782 5       323.943          32.187    23821464.980    97544929.788 7       323.943          44.375
R04  23816093.000   127534099.502 7      5889.747          42.500    23816094.240   127534099.530 6      5889.747          41.187    23816120.900    99193299.312 7      4580.914          44.125    23816120.960    99193302.321 7      4580.914          43.812
