     3.05           OBSERVATION DATA    MIXED               RINEX VERSION / TYPE
TPS2RIN 1.0.29.3920 TPS-USER            20240511 183234 UTC PGM / RUN BY / DATE
Win64 build Feb 23, 2024 (c) Topcon Positioning Systems     COMMENT
SRC: 20240506_GUI00.tps                                     COMMENT
OPT: -S -v 3.05                                             COMMENT
Observer            Agency                                  OBSERVER / AGENCY
O0M3X53SBGM         TPS HIPER_SR        4.8 HSR Jul,08,2022 REC # / TYPE / VERS
FW: 4.8 HSR Jul,08,2022 p3                                  COMMENT
SN: HiPer SR 1212-12575                                     COMMENT
000                 TPSHIPER_SR     NONE                    ANT # / TYPE
        1.8000        0.0000        0.0000                  ANTENNA: DELTA H/E/N
DELTA H stands for **SLANT** height here!                   COMMENT
GUI00                                                       MARKER NAME
  5390610.3112 -1590267.5204  3006806.9236                  APPROX POSITION XYZ
  2024     5     6    11    55   21.0000000     GPS         TIME OF FIRST OBS
  2024     5     6    12    10   23.0000000     GPS         TIME OF LAST OBS
     1.000                                                  INTERVAL
   903 EPOCHS                                               COMMENT
G   16 C1C L1C D1C S1C C1W L1W D1W S1W C2W L2W D2W S2W C2X  SYS / # / OBS TYPES
       L2X D2X S2X                                          SYS / # / OBS TYPES
R   16 C1C L1C D1C S1C C1P L1P D1P S1P C2P L2P D2P S2P C2C  SYS / # / OBS TYPES
       L2C D2C S2C                                          SYS / # / OBS TYPES
    14                                                      # OF SATELLITES
   G02    40    40    40    40    40    40    40    40    40PRN / # OF OBS
          40    40    40     0     0     0     0            PRN / # OF OBS
   G08   903   903   903   903   903   903   903   903   903PRN / # OF OBS
         903   903   903   903   903   903   903            PRN / # OF OBS
   G10   903   903   903   903   903   903   903   903   903PRN / # OF OBS
         903   903   903   903   903   903   903            PRN / # OF OBS
   G16   903   903   903   903   903   903   903   903   903PRN / # OF OBS
         903   903   903     0     0     0     0            PRN / # OF OBS
   G18   265   265   265   265   265   265   265   265   265PRN / # OF OBS
         265   265   265   265   265   265   265            PRN / # OF OBS
   G21   903   903   903   903   903   903   903   903   903PRN / # OF OBS
         903   903   903     0     0     0     0            PRN / # OF OBS
   G23   903   903   903   903   903   903   903   903   903PRN / # OF OBS
         903   903   903   903   903   903   903            PRN / # OF OBS
   G26   903   903   903   903   903   903   903   903   903PRN / # OF OBS
         903   903   903   903   903   903   903            PRN / # OF OBS
   G27   903   903   903   903   903   903   903   903   903PRN / # OF OBS
         903   903   903   903   903   903   903            PRN / # OF OBS
   R09   903   903   903   903   903   903   903   903   903PRN / # OF OBS
         903   903   903   903   903   903   903            PRN / # OF OBS
   R15   903   903   903   903   903   903   903   903   903PRN / # OF OBS
         903   903   903   903   903   903   903            PRN / # OF OBS
   R16   903   903   903   903   903   903   903   903   903PRN / # OF OBS
         903   903   903   903   903   903   903            PRN / # OF OBS
   R17   903   903   903   903   903   903   903   903   903PRN / # OF OBS
         903   903   903   903   903   903   903            PRN / # OF OBS
   R18   903   903   903   903   903   903   903   903   903PRN / # OF OBS
         903   903   903   903   903   903   903            PRN / # OF OBS
G L1C                                                       SYS / PHASE SHIFT
G L1W -0.25000                                              SYS / PHASE SHIFT
G L2W  0.00000                                              SYS / PHASE SHIFT
G L2X  0.25000                                              SYS / PHASE SHIFT
R L1C                                                       SYS / PHASE SHIFT
R L1P -0.25000                                              SYS / PHASE SHIFT
R L2P -0.25000                                              SYS / PHASE SHIFT
R L2C                                                       SYS / PHASE SHIFT
  5 R09 -2 R15  0 R16 -1 R17  4 R18 -3                      GLONASS SLOT / FRQ #
                                                            GLONASS COD/PHS/BIS
    18    18  1929     7GPS                                 LEAP SECONDS
                                                            END OF HEADER
> 2024 05 06 11 55 21.0000000  0 13
G08  21784379.100   114477681.074 7      3944.098          46.312    21784378.120   114477681.074 6      3944.098          36.187    21784383.780    89203407.806 5      3073.323          35.812    21784384.840    89203411.823 7      3073.323          47.562
G21  21832139.420   114728678.925 7      5187.187          44.437    21832137.720   114728678.928 5      5187.187          32.500    21832144.080    89398980.857 5      4041.964          32.437
G27  20725830.100   108914963.930 7      2458.054          47.750    20725828.760   108914963.933 8      2458.054          48.812    20725834.400    84868823.033 8      1915.367          48.937    20725834.900    84868823.035 8      1915.367          50.312
R16  19070106.060   101869078.158 8      3153.300          48.625    19070106.180   101869078.159 7      3153.300          47.937    19070114.140    79231540.551 8      2452.566          51.062    19070114.240    79231539.546 8      2452.566          51.687
G16  20313796.820   106749718.925 7      2431.626          46.187    20313795.760   106749718.938 6      2431.626          40.375    20313798.200    83181604.230 6      1894.773          39.875
R18  20133948.120   107476372.089 7       511.934          47.625    20133947.860   107476372.084 7       511.934          47.187    20133955.120    83592767.258 8       398.171          49.687    20133954.900    83592768.265 8       398.171          49.687
G26  21495647.540   112960377.607 7       419.248          46.875    21495646.480   112960377.612 7       419.248          46.562    21495653.580    88021099.065 7       326.686          47.062    21495653.540    88021102.069 8       326.686          49.000
R15  20822781.260   111270620.642 7      -687.585          47.375    20822781.020   111270620.635 7      -687.585          45.875    20822791.700    86543853.548 8      -534.789          48.687    20822791.400    86543855.552 8      -534.789          48.562
G18  25127902.080   132048007.787 6      -783.919          36.250    25127902.240   132048007.792 3      -783.919          21.187    25127909.120   102894579.793 3      -610.846          21.937    25127909.900   102894583.786 7      -610.846          42.250
G10  22344127.440   117419180.015 7      3873.012          46.312    22344126.880   117419180.020 7      3873.012          45.500    22344133.920    91495494.599 7      3017.932          45.562    22344134.380    91495493.611 7      3017.932          47.187
G23  23009029.920   120913265.284 7      2022.527          42.875    23009029.620   120913265.287 5      2022.527          32.937    23009034.900    94218147.363 5      1575.995          33.000    23009035.340    94218149.364 7      1575.995          47.562
R09  22136577.700   118208050.439 7      6464.717          42.937    22136577.800   118208050.435 7      6464.717          42.625    22136585.180    91939658.960 7      5028.113          44.937    22136585.300    91939659.953 7      5028.113          45.750
R17  23291004.200   124634863.406 6      -712.686          40.750    23291004.180   124634863.412 6      -712.686          40.437    23291015.560    96938274.476 7      -554.311          42.625    23291016.260    96938272.474 7      -554.311          43.937
> 2024 05 06 11 55 22.0000000  0 13
G08  21783628.580   114473736.996 7      3944.105          46.437    21783627.540   114473736.996 6      3944.105          36.062    21783633.420    89200334.503 5      3073.329          35.750    21783634.360    89200338.516 8      3073.329          48.062
G21  21831152.300   114723491.940 7      5186.789          44.375    21831150.660   114723491.945 5      5186.789          32.250    21831156.840    89394939.060 5      4041.654          32.562
G27  20725362.300   108912506.056 7      2457.868          47.687    20725361.100   108912506.060 8      2457.868          48.125    20725366.640    84866907.812 8      1915.222          48.562    20725367.120    84866907.810 8      1915.222          50.375
R16  19069515.900   101865925.338 8      3152.516          48.750    19069515.980   101865925.339 7      3152.516          47.312    19069523.900    79229088.362 8      2451.957          51.312    19069524.100    79229087.359 8      2451.957          51.562
G16  20313334.320   106747287.646 7      2431.154          46.625    20313333.040   106747287.651 6      2431.154          40.000    20313335.620    83179709.725 6      1894.406          39.625
R18  20133852.200   107475860.355 7       511.722          47.687    20133851.840   107475860.348 7       511.722          47.875    20133859.320    83592369.247 8       398.006          49.500    20133859.120    83592370.250 8       398.006          49.812
G26  21495567.780   112959958.615 7       418.954          46.625    21495566.880   112959958.620 7       418.954          46.625    21495573.780    88020772.582 7       326.458          46.687    21495573.940    88020775.581 8       326.458          48.312
R15  20822910.320   111271308.454 7      -687.949          46.875    20822909.820   111271308.444 7      -687.949          45.937    20822920.360    86544388.516 8      -535.071          48.750    20822920.380    86544390.516 8      -535.071          48.750
G18  25128052.260   132048791.694 6      -783.987          36.062    25128051.320   132048791.699 3      -783.987          21.187    25128058.320   102895190.632 3      -610.899          20.875    25128059.160   102895194.647 6      -610.899          41.875
G10  22343390.680   117415307.256 7      3872.589          46.562    22343390.040   117415307.264 7      3872.589          45.187    22343396.920    91492476.873 7      3017.602          45.312    22343397.640    91492475.883 7      3017.602          47.187
G23  23008645.120   120911243.149 7      2021.970          42.937    23008644.820   120911243.154 5      2021.970          32.937    23008649.960    94216571.680 5      1575.561          33.187    23008650.380    94216573.674 7      1575.561          47.875
R09  22135367.140   118201585.850 7      6464.592          43.312    22135367.160   118201585.848 7      6464.592          42.625    22135374.760    91934630.956 7      5028.016          45.312    22135374.960    91934631.949 7      5028.016          45.312
R17  23291137.460   124635576.167 6      -712.549          40.750    23291137.620   124635576.195 6      -712.549          40.437    23291148.640    96938828.862 7      -554.204          43.000    23291149.660    96938826.861 7      -554.204          43.187
> 2024 05 06 11 55 23.0000000  0 13
G08  21782878.140   114469792.874 7      3944.216          46.812    21782877.020   114469792.874 5      3944.216          35.875    21782882.920    89197261.167 5      3073.415          35.625    21782883.640    89197265.176 8      3073.415          48.062
G21  21830165.540   114718305.251 7      5186.545          44.625    21830163.620   114718305.256 5      5186.545          32.250    21830169.880    89390897.495 5      4041.464          32.562
G27  20724894.580   108910048.173 7      2457.853          47.312    20724893.500   108910048.178 8      2457.853          48.375    20724899.000    84864992.581 8      1915.210          48.375    20724899.540    84864992.581 8      1915.210          50.500
R16  19068926.020   101862773.181 8      3151.847          49.125    19068925.780   101862773.176 8      3151.847          48.375    19068933.820    79226636.679 8      2451.437          51.125    19068934.000    79226635.677 8      2451.437          51.562
G16  20312871.760   106744856.628 7      2430.967          45.875    20312870.460   106744856.632 6      2430.967          40.375    20312873.000    83177815.424 6      1894.260          39.625
R18  20133756.280   107475348.728 7       511.511          47.750    20133756.160   107475348.723 8       511.511          48.000    20133763.440    83591971.316 8       397.842          49.875    20133763.340    83591972.318 8       397.842          49.187
G26  21495487.960   112959539.846 7       418.792          47.687    21495487.040   112959539.846 7       418.792          46.625    21495494.080    88020446.260 7       326.332          46.937    21495494.160    88020449.260 8       326.332          48.312
R15  20823038.880   111271996.596 7      -688.287          47.125    20823038.640   111271996.592 7      -688.287          46.937    20823049.180    86544923.736 8      -535.334          48.500    20823049.020    86544925.748 8      -535.334          48.500
G18  25128201.580   132049575.432 6      -783.709          36.062    25128200.680   132049575.437 3      -783.709          21.187    25128207.560   102895801.335 3      -610.682          20.875    25128207.980   102895805.344 6      -610.682          41.875
G10  22342653.720   117411434.799 7      3872.289          46.437    22342653.060   117411434.804 7      3872.289          45.687    22342660.040    91489459.381 7      3017.368          45.875    22342660.380    91489458.392 7      3017.368          47.125
G23  23008260.380   120909221.427 7      2021.562          44.312    23008260.120   120909221.426 5      2021.562          33.437    23008265.320    94214996.313 5      1575.243          33.187    23008265.780    94214998.314 7      1575.243          47.812
R09  22134156.680   118195121.417 7      6464.363          43.312    22134156.800   118195121.400 7      6464.363          42.562    22134164.180    91929603.062 7      5027.838          45.562    22134164.260    91929604.056 7      5027.838          46.312
R17  23291270.720   124636288.626 6      -712.271          40.562    23291271.360   124636288.641 6      -712.271          40.250    23291281.960    96939382.985 7      -553.989          42.562    23291282.280    96939380.983 7      -553.989          42.812
> 2024 05 06 11 55 24.0000000  0 13
G08  21782127.560   114465848.707 7      3944.057          46.437    21782126.500   114465848.702 5      3944.057          35.875    21782132.320    89194187.790 5      3073.291          35.625    21782132.900    89194191.801 8      3073.291          48.250
G21  21829178.640   114713118.841 7      5186.158          44.437    21829176.780   114713118.846 5      5186.158          32.000    21829182.940    89386856.149 5      4041.162          32.125
G27  20724426.940   108907590.256 7      2457.895          47.875    20724425.640   108907590.256 8      2457.895          48.875    20724431.280    84863077.319 8      1915.243          49.250    20724431.780    84863077.322 8      1915.243          50.750
R16  19068336.020   101859621.661 8      3151.116          48.437    19068335.800   101859621.657 8      3151.116          48.125    19068343.760    79224185.502 8      2450.868          51.000    19068344.080    79224184.501 8      2450.868          51.625
G16  20312409.420   106742425.906 7      2430.435          46.062    20312407.900   106742425.918 6      2430.435          40.187    20312410.500    83175921.364 6      1893.845          39.625
R18  20133660.340   107474837.189 8       511.346          48.312    20133660.240   107474837.184 8       511.346          48.062    20133667.600    83591573.455 8       397.713          49.937    20133667.680    83591574.454 8       397.713          49.687
G26  21495408.260   112959121.299 7       418.323          47.437    21495407.320   112959121.301 7       418.323          46.937    21495414.480    88020120.121 7       325.966          46.812    21495414.780    88020123.127 8       325.966          48.812
R15  20823167.860   111272685.091 7      -688.806          47.375    20823167.520   111272685.087 7      -688.806          46.500    20823178.080    86545459.232 8      -535.738          49.187    20823177.920    86545461.240 8      -535.738          49.062
G18  25128350.600   132050359.008 6      -783.916          36.562    25128349.820   132050359.013 3      -783.916          21.187    25128356.520   102896411.915 3      -610.843          20.875    25128356.860   102896415.922 6      -610.843          41.500
G10  22341916.800   117407562.629 7      3871.960          46.625    22341916.220   117407562.629 7      3871.960          45.562    22341923.340    91486442.103 7      3017.112          45.625    22341923.460    91486441.113 7      3017.112          47.187
G23  23007875.760   120907200.101 7      2021.055          44.250    23007875.500   120907200.103 5      2021.055          33.437    23007880.620    94213421.259 5      1574.848          33.187    23007881.080    94213423.259 7      1574.848          47.937
R09  22132946.160   118188657.065 7      6464.144          43.500    22132945.900   118188657.069 7      6464.144          42.750    22132954.080    91924575.251 7      5027.667          45.187    22132953.900    91924576.251 7      5027.667          45.937
R17  23291403.520   124637000.759 6      -712.139          40.562    23291403.720   124637000.776 6      -712.139          40.250    23291414.900    96939936.859 7      -553.886          42.812    23291415.140    96939934.856 7      -553.886          42.437
> 2024 05 06 11 55 25.0000000  0 13
G08  21781376.740   114461904.435 7      3944.685          44.875    21781375.980   114461904.432 5      3944.685          35.312    21781381.580    89191114.336 5      3073.781          35.250    21781382.580    89191118.349 7      3073.781          47.875
G21  21828191.920   114707932.681 7      5186.389          42.625    21828189.880   114707932.683 5      5186.389          32.000    21828196.100    89382814.995 5      4041.342          32.125
G27  20723959.160   108905132.319 7      2458.341          47.750    20723957.900   108905132.321 8      2458.341          48.625    20723963.520    84861162.051 8      1915.590          48.937    20723964.340    84861162.054 8      1915.590          50.437
R16  19067745.880   101856470.802 7      3150.880          47.812    19067746.020   101856470.806 7      3150.880          47.687    19067753.920    79221734.844 8      2450.684          51.062    19067754.380    79221733.841 8      2450.684          51.125
G16  20311946.980   106739995.436 7      2430.703          47.000    20311945.320   106739995.444 6      2430.703          40.437    20311948.100    83174027.491 6      1894.054          39.750
R18  20133564.700   107474325.724 7       511.731          47.687    20133564.440   107474325.717 7       511.731          47.500    20133571.860    83591175.651 8       398.013          49.937    20133571.900    83591176.651 8       398.013          49.937
G26  21495328.780   112958702.924 7       418.565          47.125    21495327.760   112958702.929 7       418.565          46.875    21495334.860    88019794.119 7       326.155          46.437    21495335.360    88019797.125 8       326.155          48.437
R15  20823296.920   111273373.915 7      -688.635          47.250    20823296.280   111273373.914 7      -688.635          46.687    20823307.120    86545994.982 8      -535.605          48.812    20823306.640    86545996.992 8      -535.605          49.125
G18  25128499.280   132051142.300 6      -782.884          36.562    25128498.780   132051142.305 3      -782.884          21.187    25128505.560   102897022.275 3      -610.040          20.875    25128505.300   102897026.288 6      -610.040          41.500
G10  22341180.160   117403690.722 7      3872.166          45.875    22341179.340   117403690.721 7      3872.166          45.500    22341186.580    91483425.043 7      3017.272          45.625    22341186.720    91483424.054 7      3017.272          47.062
G23  23007491.320   120905179.159 7      2021.157          44.562    23007490.980   120905179.164 5      2021.157          33.500    23007496.060    94211846.505 5      1574.928          33.187    23007496.360    94211848.503 7      1574.928          47.687
R09  22131735.560   118182192.836 7      6464.570          42.937    22131735.300   118182192.837 7      6464.570          42.750    22131743.400    91919547.526 7      5027.999          45.812    22131743.160    91919548.517 7      5027.999          46.000
R17  23291536.800   124637712.562 6      -711.348          41.812    23291536.760   124637712.580 6      -711.348          40.625    23291547.820    96940490.491 7      -553.271          42.375    23291547.900    96940488.487 7      -553.271          42.687
> 2024 05 06 11 55 26.0000000  0 13
G08  21780626.200   114457960.043 7      3944.513          45.812    21780625.380   114457960.037 5      3944.513          35.812    21780630.900    89188040.787 5      3073.647          35.750    21780631.900    89188044.802 8      3073.647          48.062
G21  21827204.980   114702746.728 7      5185.912          44.250    21827203.000   114702746.731 5      5185.912          32.000    21827209.440    89378774.003 5      4040.971          32.125
G27  20723491.620   108902674.265 8      2458.193          48.187    20723490.120   108902674.273 8      2458.193          48.500    20723495.760    84859246.689 8      1915.475          49.062    20723496.620    84859246.691 8      1915.475          50.625
R16  19067156.180   101853320.546 8      3149.960          48.437    19067156.280   101853320.539 7      3149.960          47.875    19067164.220    79219284.639 8      2449.969          51.000    19067164.460    79219283.632 8      2449.969          51.437
G16  20311484.220   106737565.148 7      2430.296          47.062    20311482.880   106737565.155 6      2430.296          40.250    20311485.520    83172133.764 6      1893.738          39.437
R18  20133468.760   107473814.247 8       511.527          48.875    20133468.680   107473814.240 8       511.527          48.312    20133476.040    83590777.835 8       397.854          49.937    20133476.140    83590778.837 8       397.854          50.312
G26  21495249.200   112958284.658 7       418.245          46.687    21495248.100   112958284.662 7       418.245          46.625    21495255.240    88019468.195 7       325.905          46.625    21495255.800    88019471.197 8       325.905          49.000
R15  20823425.760   111274063.041 7      -689.272          47.125    20823424.820   111274063.045 7      -689.272          46.750    20823436.080    86546530.973 8      -536.101          49.062    20823435.720    86546532.987 8      -536.101          48.875
G18  25128648.160   132051925.340 5      -782.673          35.812    25128647.840   132051925.345 3      -782.673          21.187    25128654.720   102897632.438 3      -609.875          20.875    25128654.200   102897636.445 6      -609.875          41.250
G10  22340443.080   117399819.030 7      3871.694          46.312    22340442.740   117399819.029 7      3871.694          45.687    22340449.720    91480408.144 7      3016.904          45.062    22340449.940    91480407.149 7      3016.904          47.000
G23  23007106.780   120903158.545 7      2020.500          45.312    23007106.440   120903158.550 5      2020.500          33.500    23007111.620    94210272.004 5      1574.416          33.375    23007111.900    94210274.005 7      1574.416          47.875
R09  22130524.920   118175728.612 7      6464.177          43.312    22130524.680   118175728.618 7      6464.177          42.500    22130532.960    91914519.804 7      5027.694          45.625    22130532.820    91914520.802 7      5027.694          46.187
R17  23291669.840   124638423.970 6      -711.182          41.812    23291669.880   124638423.979 6      -711.182          40.625    23291680.700    96941043.797 7      -553.141          42.750    23291680.820    96941041.791 7      -553.141          42.750
> 2024 05 06 11 55 27.0000000  0 13
G08  21779875.600   114454015.552 7      3944.478          47.000    21779874.820   114454015.549 5      3944.478          35.812    21779880.320    89184967.162 5      3073.619          35.687    21779881.320    89184971.182 8      3073.619          48.187
G21  21826218.340   114697561.023 7      5185.496          44.187    21826216.100   114697561.027 5      5185.496          32.000    21826222.580    89374733.208 5      4040.646          32.062
G27  20723023.780   108900216.178 7      2458.106          47.562    20723022.380   108900216.185 8      2458.106          48.937    20723027.960    84857331.302 8      1915.407          49.125    20723028.920    84857331.305 8      1915.407          50.500
R16  19066566.560   101850170.915 8      3149.285          48.625    19066566.480   101850170.911 7      3149.285          47.750    19066574.760    79216834.926 8      2449.444          51.312    19066574.740    79216833.921 8      2449.444          51.375
G16  20311021.700   106735135.133 7      2429.871          46.687    20311020.500   106735135.137 6      2429.871          40.187    20311023.200    83170240.246 6      1893.406          39.812
R18  20133373.000   107473302.852 8       511.296          48.062    20133372.880   107473302.845 7       511.296          47.625    20133380.420    83590380.084 8       397.675          50.562    20133380.360    83590381.087 8       397.675          50.250
G26  21495169.740   112957866.575 7       417.925          47.937    21495168.540   112957866.580 7       417.925          47.250    21495175.680    88019142.419 7       325.656          47.000    21495176.120    88019145.422 8       325.656          48.875
R15  20823554.780   111274752.501 7      -689.674          47.125    20823553.980   111274752.494 7      -689.674          46.125    20823565.320    86547067.207 8      -536.413          49.187    20823564.980    86547069.219 8      -536.413          48.812
G18  25128797.220   132052708.227 5      -782.821          35.812    25128796.900   132052708.232 3      -782.821          21.187    25128803.600   102898242.478 3      -609.990          20.875    25128802.740   102898246.483 6      -609.990          41.250
G10  22339706.520   117395947.598 7      3871.226          46.312    22339705.980   117395947.605 7      3871.226          45.500    22339712.920    91477391.452 7      3016.540          45.875    22339712.860    91477390.461 7      3016.540          46.812
G23  23006722.320   120901138.307 7      2019.993          45.062    23006722.120   120901138.312 5      2019.993          33.500    23006727.220    94208697.791 5      1574.021          33.375    23006727.220    94208699.790 7      1574.021          47.437
R09  22129314.520   118169264.452 7      6464.053          43.312    22129314.540   118169264.447 7      6464.053          42.187    22129322.500    91909492.124 7      5027.597          45.437    22129322.460    91909493.122 7      5027.597          46.250
R17  23291802.500   124639135.040 6      -710.920          41.000    23291802.340   124639135.044 6      -710.920          40.625    23291814.160    96941596.848 7      -552.938          42.562    23291814.060    96941594.846 7      -552.938          42.875
> 2024 05 06 11 55 28.0000000  0 13
G08  21779124.740   114450070.915 7      3944.595          46.125    21779124.020   114450070.910 5      3944.595          35.250    21779129.860    89181893.427 5      3073.711          35.125    21779130.600    89181897.441 8      3073.711          48.187
G21  21825231.560   114692375.514 7      5185.269          45.062    21825229.320   114692375.521 5      5185.269          32.000    21825235.800    89370692.568 5      4040.470          32.062
G27  20722556.020   108897757.972 7      2458.278          47.062    20722554.500   108897757.974 8      2458.278          49.250    20722560.240    84855415.813 8      1915.541          49.062    20722560.840    84855415.818 8      1915.541          50.187
R16  19065976.940   101847021.869 8      3148.676          48.937    19065977.140   101847021.873 7      3148.676          47.750    19065985.100    79214385.680 8      2448.970          51.000    19065985.340    79214384.678 8      2448.970          51.187
G16  20310559.260   106732705.304 7      2429.536          46.875    20310558.200   106732705.314 6      2429.536          40.312    20310560.780    83168346.875 6      1893.145          39.562
R18  20133277.220   107472791.430 8       511.260          48.812    20133277.280   107472791.426 7       511.260          47.500    20133284.540    83589982.316 8       397.647          50.000    20133284.800    83589983.317 8       397.647          50.312
G26  21495090.220   112957448.605 7       417.752          46.625    21495089.060   112957448.610 7       417.752          46.375    21495096.140    88018816.728 7       325.521          47.187    21495096.540    88018819.730 8       325.521          49.312
R15  20823683.860   111275442.180 7      -689.902          47.312    20823683.060   111275442.170 7      -689.902          46.375    20823694.600    86547603.624 8      -536.591          48.812    20823693.960    86547605.626 8      -536.591          49.687
G18  25128945.600   132053490.799 5      -782.598          35.812    25128945.780   132053490.807 3      -782.598          20.187    25128952.460   102898852.276 3      -609.816          20.875    25128951.900   102898856.273 6      -609.816          40.937
G10  22338969.860   117392076.350 7      3871.072          46.312    22338969.360   117392076.355 7      3871.072          45.687    22338976.220    91474374.903 7      3016.419          45.437    22338976.200    91474373.908 7      3016.419          47.250
G23  23006337.720   120899118.364 7      2019.670          44.875    23006337.880   120899118.371 5      2019.670          33.437    23006342.620    94207123.815 5      1573.769          33.250    23006342.840    94207125.820 7      1573.769          47.750
R09  22128104.200   118162800.251 7      6464.085          43.000    22128103.780   118162800.255 7      6464.085          42.187    22128111.820    91904464.425 7      5027.621          45.125    22128111.620    91904465.425 7      5027.621          46.312
R17  23291935.300   124639845.682 6      -710.480          41.000    23291935.080   124639845.695 6      -710.480          40.375    23291946.500    96942149.584 7      -552.596          42.562    23291946.760    96942147.578 7      -552.596          42.875
> 2024 05 06 11 55 29.0000000  0 13
G08  21778374.100   114446126.239 7      3944.972          44.937    21778373.380   114446126.230 5      3944.972          35.250    21778379.140    89178819.657 5      3074.004          35.125    21778379.920    89178823.673 8      3074.004          48.125
G21  21824244.940   114687190.302 7      5185.294          44.062    21824242.500   114687190.304 5      5185.294          32.000    21824249.120    89366652.150 5      4040.489          32.062
G27  20722088.280   108895299.787 8      2458.414          48.062    20722086.820   108895299.792 8      2458.414          49.062    20722092.420    84853500.355 8      1915.647          48.875    20722092.940    84853500.359 8      1915.647          50.750
R16  19065388.040   101843873.537 8      3148.162          48.875    19065387.900   101843873.538 7      3148.162          47.937    19065395.840    79211936.979 8      2448.571          51.062    19065395.900    79211935.976 8      2448.571          51.562
G16  20310096.900   106730275.746 7      2429.682          46.500    20310095.900   106730275.754 6      2429.682          40.375    20310098.540    83166453.715 6      1893.258          39.750
R18  20133181.720   107472280.110 8       511.507          48.062    20133181.360   107472280.106 7       511.507          47.812    20133188.700    83589584.622 8       397.839          50.062    20133188.820    83589585.622 8       397.839          50.250
G26  21495010.580   112957030.864 7       417.733          47.312    21495009.640   112957030.869 7       417.733          47.250    21495016.640    88018491.217 7       325.506          47.062    21495017.080    88018494.219 8       325.506          48.937
R15  20823812.940   111276132.219 7      -690.000          47.437    20823812.260   111276132.220 7      -690.000          46.687    20823823.600    86548140.326 8      -536.667          48.625    20823823.080    86548142.332 8      -536.667          48.875
G18  25129094.580   132054273.211 5      -782.195          35.812    25129094.640   132054273.213 3      -782.195          20.187    25129101.340   102899461.944 3      -609.503          20.875    25129100.900   102899465.955 6      -609.503          40.937
G10  22338233.260   117388205.422 7      3871.070          46.187    22338232.740   117388205.424 7      3871.070          46.062    22338239.680    91471358.598 7      3016.418          45.812    22338239.580    91471357.603 7      3016.418          47.250
G23  23005953.620   120897098.864 7      2019.477          44.312    23005953.580   120897098.872 5      2019.477          33.437    23005958.420    94205550.181 5      1573.618          33.250    23005958.780    94205552.180 7      1573.618          47.500
R09  22126893.140   118156336.217 7      6464.164          43.312    22126893.220   118156336.221 7      6464.164          42.562    22126901.000    91899436.849 7      5027.683          45.000    22126901.060    91899437.849 7      5027.683          46.125
R17  23292068.260   124640556.049 6      -710.001          41.000    23292068.040   124640556.067 6      -710.001          40.375    23292079.060    96942702.094 7      -552.223          42.562    23292079.460    96942700.086 7      -552.223          42.625
> 2024 05 06 11 55 30.0000000  0 13
G08  21777623.320   114442181.446 7      3944.729          45.000    21777622.640   114442181.438 5      3944.729          35.437    21777628.600    89175745.795 5      3073.815          35.312    21777629.080    89175749.813 8      3073.815          48.187
G21  21823258.460   114682005.308 7      5184.774          43.687    21823255.760   114682005.313 5      5184.774          31.750    21823262.420    89362611.903 5      4040.083          31.937
G27  20721620.420   108892841.521 7      2458.209          47.375    20721619.040   108892841.523 8      2458.209          48.687    20721624.680    84851584.821 8      1915.488          48.750    20721625.100    84851584.825 8      1915.488          50.062
R16  19064798.980   101840725.783 7      3147.295          47.562    19064798.420   101840725.782 8      3147.295          48.062    19064806.500    79209488.725 8      2447.896          51.125    19064806.720    79209487.722 8      2447.896          51.562
G16  20309634.660   106727846.432 7      2429.120          46.750    20309633.500   106727846.443 6      2429.120          40.562    20309636.260    83164560.752 6      1892.821          40.062
R18  20133085.700   107471768.843 8       511.131          48.750    20133085.680   107471768.836 8       511.131          48.000    20133093.060    83589186.974 8       397.546          50.062    20133093.200    83589187.974 8       397.546          50.562
G26  21494931.160   112956613.270 7       417.362          46.500    21494930.080   112956613.272 7       417.362          46.500    21494937.220    88018165.815 7       325.217          47.000    21494937.600    88018168.819 8       325.217          48.875
R15  20823942.300   111276822.569 7      -690.572          47.062    20823941.620   111276822.567 7      -690.572          46.750    20823952.560    86548677.254 8      -537.112          49.312    20823952.340    86548679.258 8      -537.112          49.062
G18  25129243.620   132055055.352 5      -782.101          35.812    25129243.440   132055055.354 3      -782.101          20.187    25129250.140   102900071.404 3      -609.429          20.875    25129249.900   102900075.397 6      -609.429          40.937
G10  22337496.680   117384334.729 7      3870.536          46.187    22337496.240   117384334.728 7      3870.536          45.812    22337503.100    91468342.477 7      3016.002          45.625    22337503.040    91468341.485 7      3016.002          47.312
G23  23005569.320   120895079.703 7      2018.812          44.125    23005569.180   120895079.711 5      2018.812          33.312    23005574.280    94203976.811 5      1573.100          33.000    23005574.580    94203978.810 7      1573.100          47.437
R09  22125682.900   118149872.228 7      6463.872          42.687    22125682.940   118149872.229 7      6463.872          42.875    22125690.400    91894409.306 7      5027.456          45.375    22125690.800    91894410.306 7      5027.456          46.125
R17  23292200.940   124641265.988 6      -709.818          40.937    23292200.700   124641266.003 6      -709.818          40.375    23292211.780    96943254.270 7      -552.080          42.750    23292212.120    96943252.264 7      -552.080          42.562
> 2024 05 06 11 55 31.0000000  0 13
G08  21776872.600   114438236.754 7      3944.580          46.125    21776872.100   114438236.751 5      3944.580          35.562    21776877.960    89172672.013 5      3073.699          35.375    21776878.880    89172676.028 8      3073.699          48.062
G21  21822271.520   114676820.753 7      5184.317          43.875    21822269.020   114676820.758 5      5184.317          31.750    21822275.780    89358572.002 5      4039.727          31.937
G27  20721152.760   108890383.394 8      2457.954          48.375    20721151.280   108890383.399 8      2457.954          49.000    20721156.900    84849669.403 8      1915.289          49.250    20721157.220    84849669.402 8      1915.289          49.812
R16  19064209.840   101837578.831 8      3146.462          49.125    19064209.520   101837578.822 8      3146.462          48.125    19064217.380    79207041.089 8      2447.248          50.875    19064217.480    79207040.088 8      2447.248          51.437
G16  20309172.580   106725417.555 7      2428.695          46.937    20309171.220   106725417.565 6      2428.695          40.250    20309174.020    83162668.120 6      1892.490          39.750
R18  20132989.920   107471257.817 7       510.820          47.562    20132989.680   107471257.809 7       510.820          47.437    20132997.400    83588789.509 8       397.304          50.187    20132997.520    83588790.509 8       397.304          49.937
G26  21494851.700   112956196.031 7       416.958          47.375    21494850.700   112956196.035 7       416.958          47.000    21494857.760    88017840.694 7       324.903          47.000    21494858.300    88017843.696 8       324.903          48.312
R15  20824071.360   111277513.423 8      -691.161          48.312    20824071.300   111277513.430 7      -691.161          46.625    20824081.800    86549214.589 8      -537.570          48.812    20824081.720    86549216.587 8      -537.570          49.375
G18  25129392.780   132055837.464 5      -782.105          35.812    25129392.260   132055837.461 3      -782.105          20.187    25129398.800   102900680.840 3      -609.433          20.875    25129398.440   102900684.847 6      -609.433          41.000
G10  22336760.160   117380464.476 7      3870.025          46.687    22336759.820   117380464.484 7      3870.025          45.437    22336766.600    91465326.709 7      3015.604          45.687    22336766.720    91465325.714 7      3015.604          47.562
G23  23005185.220   120893061.081 7      2018.388          44.250    23005185.200   120893061.086 5      2018.388          33.312    23005190.100    94202403.859 5      1572.770          33.000    23005190.840    94202405.857 7      1572.770          47.312
R09  22124472.480   118143408.511 7      6463.548          43.062    22124472.220   118143408.520 7      6463.548          42.875    22124479.900    91889381.981 7      5027.204          45.687    22124480.120    91889382.985 7      5027.204          45.875
R17  23292333.720   124641975.779 6      -709.608          40.937    23292333.560   124641975.791 6      -709.608          40.500    23292344.820    96943806.322 7      -551.917          42.687    23292344.940    96943804.314 7      -551.917          42.625
> 2024 05 06 11 55 32.0000000  0 13
G08  21776121.900   114434291.896 7      3944.972          45.062    21776121.320   114434291.893 5      3944.972          35.375    21776127.180    89169598.102 5      3074.004          35.312    21776128.120    89169602.119 8      3074.004          48.312
G21  21821284.780   114671636.377 7      5184.365          43.812    21821282.560   114671636.382 5      5184.365          31.687    21821289.100    89354532.239 5      4039.765          31.937
G27  20720685.020   108887925.128 7      2458.431          47.312    20720683.400   108887925.130 8      2458.431          48.500    20720689.100    84847753.873 8      1915.660          48.562    20720689.480    84847753.874 8      1915.660          50.437
R16  19063620.800   101834432.384 8      3146.285          48.625    19063620.400   101834432.380 7      3146.285          47.937    19063628.380    79204593.861 8      2447.111          52.000    19063628.260    79204592.860 8      2447.111          51.562
G16  20308710.460   106722988.862 7      2428.716          46.250    20308709.200   106722988.867 6      2428.716          39.875    20308711.820    83160775.631 6      1892.506          39.312
R18  20132894.200   107470746.753 7       511.229          47.937    20132894.040   107470746.751 7       511.229          47.812    20132901.620    83588392.021 8       397.622          50.062    20132901.580    83588393.025 8       397.622          50.000
G26  21494772.440   112955778.875 7       417.234          47.437    21494771.380   112955778.880 7       417.234          46.937    21494778.400    88017515.640 7       325.117          47.375    21494778.860    88017518.637 8       325.117          48.750
R15  20824200.980   111278204.542 7      -691.055          47.187    20824200.780   111278204.535 7      -691.055          46.875    20824211.120    86549752.118 8      -537.487          48.750    20824210.800    86549754.120 8      -537.487          48.750
G18  25129541.380   132056619.292 5      -781.647          35.875    25129540.980   132056619.287 3      -781.647          20.187    25129547.760   102901290.055 3      -609.076          20.000    25129547.140   102901294.070 6      -609.076          41.000
G10  22336023.720   117376594.413 7      3870.064          46.500    22336023.240   117376594.424 7      3870.064          45.625    22336030.140    91462311.079 7      3015.635          45.437    22336030.140    91462310.087 7      3015.635          47.562
G23  23004801.280   120891042.777 7      2018.299          44.250    23004801.020   120891042.785 5      2018.299          33.375    23004805.940    94200831.159 5      1572.701          33.375    23004806.500    94200833.161 7      1572.701          47.625
R09  22123261.620   118136944.810 7      6463.839          43.062    22123261.700   118136944.819 7      6463.839          42.312    22123269.380    91884354.667 7      5027.430          44.875    22123269.720    91884355.671 7      5027.430          45.750
R17  23292466.360   124642685.183 6      -709.096          40.187    23292465.740   124642685.195 6      -709.096          40.500    23292477.500    96944358.084 7      -551.519          42.250    23292477.120    96944356.083 7      -551.519          42.625
> 2024 05 06 11 55 33.0000000  0 13
G08  21775371.200   114430347.007 7      3944.813          45.250    21775370.760   114430347.004 5      3944.813          35.375    21775376.460    89166524.170 5      3073.880          35.312    21775377.480    89166528.188 8      3073.880          48.500
G21  21820298.340   114666452.314 7      5183.811          43.312    21820296.100   114666452.324 5      5183.811          31.687    21820302.620    89350492.721 5      4039.333          31.812
G27  20720217.400   108885466.896 7      2458.186          47.687    20720215.680   108885466.901 8      2458.186          49.062    20720221.320    84845838.372 8      1915.470          48.750    20720221.700    84845838.372 8      1915.470          49.875
R16  19063031.980   101831286.664 7      3145.351          47.812    19063031.460   101831286.665 8      3145.351          48.187    19063039.540    79202147.195 8      2446.384          51.375    19063039.440    79202146.197 8      2446.384          51.187
G16  20308248.140   106720560.481 7      2428.193          47.000    20308247.100   106720560.491 6      2428.193          40.687    20308249.600    83158883.389 6      1892.098          39.750
R18  20132798.460   107470235.825 8       510.904          48.125    20132798.260   107470235.823 7       510.904          47.937    20132805.980    83587994.635 8       397.370          50.250    20132805.960    83587995.641 8       397.370          50.562
G26  21494692.720   112955361.965 7       416.945          47.250    21494692.040   112955361.969 7       416.945          47.187    21494698.960    88017190.776 7       324.892          46.750    21494699.700    88017193.770 8       324.892          48.750
R15  20824330.120   111278896.046 7      -691.708          47.875    20824330.140   111278896.050 7      -691.708          46.375    20824340.320    86550289.960 8      -537.995          48.875    20824340.500    86550291.962 8      -537.995          48.437
G18  25129689.700   132057400.966 5      -781.424          35.875    25129689.620   132057400.958 3      -781.424          20.187    25129696.420   102901899.153 3      -608.902          20.000    25129696.780   102901903.148 6      -608.902          41.187
G10  22335287.280   117372724.676 7      3869.540          46.312    22335286.860   117372724.681 7      3869.540          46.062    22335293.740    91459295.704 7      3015.226          45.500    22335293.800    91459294.711 7      3015.226          47.562
G23  23004417.120   120889024.920 7      2017.708          44.375    23004416.960   120889024.922 5      2017.708          33.375    23004422.020    94199258.802 5      1572.240          33.375    23004422.400    94199260.803 7      1572.240          47.687
R09  22122051.120   118130481.248 7      6463.502          43.187    22122051.040   118130481.252 7      6463.502          42.437    22122059.180    91879327.452 7      5027.168          45.375    22122059.460    91879328.458 7      5027.168          45.875
R17  23292598.340   124643394.294 6      -709.007          40.187    23292598.300   124643394.315 6      -709.007          40.500    23292610.040    96944909.622 7      -551.450          42.687    23292609.860    96944907.616 7      -551.450          42.562
> 2024 05 06 11 55 34.0000000  0 13
G08  21774620.520   114426401.936 7      3945.150          45.187    21774619.960   114426401.933 5      3945.150          35.187    21774625.640    89163450.096 5      3074.143          34.937    21774626.660    89163454.103 8      3074.143          48.250
G21  21819311.980   114661268.408 7      5183.753          44.000    21819309.640   114661268.415 5      5183.753          31.687    21819316.180    89346453.324 5      4039.288          31.812
G27  20719749.320   108883008.519 8      2458.353          48.062    20719747.840   108883008.522 8      2458.353          48.500    20719753.460    84843922.758 8      1915.600          48.812    20719753.860    84843922.758 8      1915.600          50.187
R16  19062442.920   101828141.501 8      3144.776          48.875    19062442.680   101828141.500 8      3144.776          48.125    19062450.800    79199700.958 8      2445.937          51.062    19062450.760    79199699.959 8      2445.937          51.437
G16  20307786.380   106718132.237 7      2428.109          46.687    20307784.920   106718132.244 6      2428.109          40.250    20307787.580    83156991.254 6      1892.033          39.750
R18  20132702.440   107469724.830 8       510.966          48.125    20132702.600   107469724.828 7       510.966          47.875    20132710.180    83587597.195 8       397.418          50.500    20132710.220    83587598.203 8       397.418          50.437
G26  21494613.780   112954945.164 7       416.680          47.000    21494612.760   112954945.169 7       416.680          46.937    21494619.800    88016865.993 7       324.686          47.062    21494620.260    88016868.992 8       324.686          48.687
R15  20824459.700   111279587.764 7      -691.877          47.187    20824459.700   111279587.762 7      -691.877          46.937    20824469.760    86550827.957 8      -538.126          49.062    20824469.760    86550829.961 8      -538.126          49.125
G18  25129838.640   132058182.319 5      -781.180          35.875    25129838.240   132058182.308 3      -781.180          20.187    25129845.040   102902507.998 3      -608.712          20.000    25129845.360   102902511.996 6      -608.712          41.187
G10  22334550.960   117368855.097 7      3869.416          46.500    22334550.620   117368855.099 7      3869.416          45.562    22334557.480    91456280.451 7      3015.129          45.562    22334557.620    91456279.462 7      3015.129          47.500
G23  23004033.240   120887007.328 7      2017.375          44.562    23004033.000   120887007.330 5      2017.375          33.500    23004038.180    94197686.657 5      1571.981          33.562    23004038.480    94197688.661 7      1571.981          47.625
R09  22120840.600   118124017.644 7      6463.412          43.062    22120840.940   118124017.655 7      6463.412          42.437    22120848.540    91874300.219 7      5027.098          45.250    22120848.920    91874301.222 7      5027.098          46.125
R17  23292730.780   124644102.992 6      -708.525          40.187    23292730.880   124644102.993 6      -708.525          40.125    23292742.880    96945460.818 7      -551.075          42.687    23292742.180    96945458.817 7      -551.075          42.750
> 2024 05 06 11 55 35.0000000  0 13
G08  21773869.740   114422456.952 7      3944.775          45.250    21773869.200   114422456.952 5      3944.775          35.187    21773874.760    89160376.086 5      3073.850          34.875    21773876.100    89160380.097 8      3073.850          48.187
G21  21818325.240   114656084.912 7      5183.149          44.187    21818323.260   114656084.919 5      5183.149          31.625    21818329.780    89342414.244 5      4038.817          31.687
G27  20719281.420   108880550.251 7      2458.064          47.687    20719280.180   108880550.258 8      2458.064          48.812    20719285.560    84842007.228 8      1915.374          49.187    20719285.780    84842007.230 8      1915.374          49.625
R16  19061854.240   101824997.148 8      3143.827          48.437    19061854.080   101824997.146 7      3143.827          47.125    19061862.080    79197255.352 8      2445.199          51.062    19061862.260    79197254.358 8      2445.199          51.437
G16  20307324.560   106715704.434 7      2427.410          46.437    20307323.000   106715704.444 6      2427.410          40.125    20307325.660    83155099.466 6      1891.489          39.437
R18  20132606.860   107469214.076 8       510.477          48.375    20132607.020   107469214.071 7       510.477          47.750    20132614.560    83587199.935 8       397.038          50.437    20132614.520    83587200.943 8       397.038          50.250
G26  21494534.480   112954528.671 7       416.239          47.250    21494533.460   112954528.678 7       416.239          46.812    21494540.620    88016541.455 7       324.342          46.625    21494541.020    88016544.454 8       324.342          48.437
R15  20824589.280   111280279.951 7      -692.566          47.187    20824588.920   111280279.950 7      -692.566          46.562    20824599.120    86551366.321 8      -538.663          48.375    20824599.220    86551368.329 7      -538.663          47.812
G18  25129988.160   132058963.608 5      -781.396          35.687    25129986.860   132058963.600 3      -781.396          20.187    25129993.760   102903116.799 3      -608.880          20.000    25129993.680   102903120.812 6      -608.880          41.375
G10  22333814.660   117364985.951 7      3868.728          46.125    22333814.280   117364985.961 7      3868.728          45.062    22333821.160    91453265.540 7      3014.593          45.125    22333821.540    91453264.550 7      3014.593          46.687
G23  23003649.500   120884990.277 7      2016.671          43.500    23003649.200   120884990.279 5      2016.671          33.500    23003654.320    94196114.929 5      1571.432          33.562    23003654.320    94196116.933 7      1571.432          46.875
R09  22119630.300   118117554.271 7      6463.199          42.875    22119630.440   118117554.278 7      6463.199          42.500    22119638.420    91869273.153 7      5026.932          45.187    22119638.540    91869274.155 7      5026.932          45.937
R17  23292862.980   124644811.413 6      -708.277          40.375    23292862.720   124644811.423 6      -708.277          40.125    23292875.120    96946011.823 7      -550.882          42.812    23292874.860    96946009.822 7      -550.882          42.937
> 2024 05 06 11 55 36.0000000  0 13
G08  21773119.400   114418511.839 7      3945.182          46.687    21773118.440   114418511.839 5      3945.182          35.437    21773124.160    89157301.976 5      3074.168          35.437    21773125.340    89157305.994 8      3074.168          48.375
G21  21817338.860   114650901.639 7      5183.195          44.375    21817336.680   114650901.644 5      5183.195          31.625    21817343.540    89338375.341 5      4038.853          31.687
G27  20718813.760   108878091.906 7      2458.395          47.750    20718812.260   108878091.913 8      2458.395          48.937    20718817.800    84840091.639 8      1915.632          49.375    20718818.000    84840091.641 8      1915.632          50.250
R16  19061266.100   101821853.391 8      3143.434          48.500    19061265.540   101821853.394 8      3143.434          48.125    19061273.400    79194810.220 8      2444.893          51.312    19061273.400    79194809.221 8      2444.893          51.375
G16  20306862.560   106713276.820 7      2427.461          46.937    20306861.060   106713276.831 6      2427.461          40.375    20306863.620    83153207.821 6      1891.528          39.937
R18  20132510.980   107468703.330 8       510.680          48.500    20132511.440   107468703.336 8       510.680          48.125    20132518.920    83586802.705 8       397.195          49.750    20132519.280    83586803.710 8       397.195          50.437
G26  21494455.140   112954112.354 7       416.201          46.750    21494454.220   112954112.353 7       416.201          46.937    21494461.300    88016217.045 7       324.313          46.625    21494461.720    88016220.049 8       324.313          48.625
R15  20824719.060   111280972.425 7      -692.701          47.125    20824718.300   111280972.423 7      -692.701          46.250    20824728.940    86551904.915 8      -538.768          48.562    20824729.000    86551906.926 8      -538.768          48.312
G18  25130136.200   132059744.670 5      -780.923          35.687    25130135.660   132059744.659 3      -780.923          20.187    25130142.220   102903725.420 3      -608.511          20.000    25130142.360   102903729.425 6      -608.511          41.375
G10  22333078.640   117361117.012 7      3868.770          46.250    22333078.060   117361117.020 7      3868.770          45.312    22333084.800    91450250.789 7      3014.626          45.250    22333085.220    91450249.799 7      3014.626          46.750
G23  23003265.620   120882973.557 7      2016.497          44.125    23003265.360   120882973.560 5      2016.497          33.000    23003270.680    94194543.465 5      1571.297          33.000    23003271.020    94194545.476 7      1571.297          47.312
R09  22118420.220   118111090.950 7      6463.268          43.000    22118420.580   118111090.956 7      6463.268          42.625    22118427.800    91864246.136 7      5026.986          45.375    22118427.860    91864247.142 7      5026.986          45.875
R17  23292995.280   124645519.514 6      -707.957          40.375    23292995.120   124645519.520 6      -707.957          40.125    23293007.780    96946562.570 7      -550.633          43.187    23293006.940    96946560.562 7      -550.633          42.750
> 2024 05 06 11 55 37.0000000  0 13
G08  21772368.520   114414566.750 7      3944.981          45.500    21772367.700   114414566.750 5      3944.981          35.437    21772373.560    89154227.887 5      3074.011          35.437    21772374.860    89154231.890 8      3074.011          48.312
G21  21816352.640   114645718.723 7      5182.579          44.437    21816350.460   114645718.728 5      5182.579          31.625    21816357.220    89334336.716 5      4038.374          31.687
G27  20718345.880   108875633.616 8      2458.212          48.000    20718344.460   108875633.629 8      2458.212          48.687    20718350.000    84838176.090 8      1915.490          48.750    20718350.280    84838176.094 8      1915.490          50.562
R16  19060677.680   101818710.373 8      3142.628          48.437    19060677.340   101818710.369 8      3142.628          48.187    19060685.100    79192365.644 8      2444.266          50.875    19060685.140    79192364.648 8      2444.266          51.375
G16  20306400.560   106710849.575 7      2426.982          46.687    20306399.180   106710849.582 6      2426.982          40.687    20306401.660    83151316.461 6      1891.155          40.375
R18  20132415.820   107468192.773 7       510.302          47.125    20132415.780   107468192.776 7       510.302          47.937    20132423.220    83586405.605 8       396.901          50.187    20132423.160    83586406.608 8       396.901          50.625
G26  21494375.800   112953696.286 7       415.740          46.687    21494375.100   112953696.294 7       415.740          46.875    21494382.140    88015892.847 7       323.953          46.687    21494382.420    88015895.849 8       323.953          48.437
R15  20824848.720   111281665.313 7      -693.199          47.062    20824847.740   111281665.306 7      -693.199          46.375    20824858.680    86552443.818 8      -539.155          48.687    20824858.620    86552445.830 8      -539.155          49.125
G18  25130284.920   132060525.578 6      -780.833          36.125    25130284.240   132060525.573 3      -780.833          20.187    25130290.800   102904333.922 3      -608.441          20.000    25130290.700   102904337.938 6      -608.441          41.437
G10  22332342.620   117357248.447 7      3868.260          45.625    22332341.780   117357248.452 7      3868.260          45.312    22332348.620    91447236.329 7      3014.228          45.375    22332348.740    91447235.332 7      3014.228          46.875
G23  23002882.040   120880957.329 7      2015.845          43.687    23002881.580   120880957.331 5      2015.845          33.000    23002886.940    94192972.384 5      1570.788          33.000    23002887.420    94192974.393 7      1570.788          47.437
R09  22117209.460   118104627.823 7      6462.963          43.000    22117209.600   118104627.835 7      6462.963          42.625    22117217.560    91859219.270 7      5026.749          45.000    22117218.200    91859220.274 7      5026.749          46.125
R17  23293128.200   124646227.341 6      -707.761          40.375    23293127.360   124646227.353 6      -707.761          40.187    23293139.820    96947113.094 7      -550.481          43.437    23293139.260    96947111.091 7      -550.481          43.250
> 2024 05 06 11 55 38.0000000  0 13
G08  21771617.940   114410621.519 7      3945.105          44.500    21771616.920   114410621.519 5      3945.105          35.125    21771622.760    89151153.681 5      3074.108          35.062    21771624.160    89151157.688 7      3074.108          47.750
G21  21815366.480   114640536.000 7      5182.403          45.062    21815364.180   114640536.005 5      5182.403          32.187    21815371.060    89330298.234 5      4038.236          32.562
G27  20717878.140   108873175.255 7      2458.161          47.062    20717876.700   108873175.260 8      2458.161          48.750    20717882.240    84836260.486 8      1915.450          48.812    20717882.660    84836260.484 8      1915.450          50.500
R16  19060089.280   101815567.924 8      3141.978          49.625    19060088.880   101815567.922 8      3141.978          48.437    19060096.760    79189921.517 8      2443.761          51.000    19060097.140    79189920.521 8      2443.761          51.250
G16  20305938.660   106708422.537 7      2426.759          46.250    20305937.340   106708422.541 6      2426.759          39.937    20305939.920    83149425.265 6      1890.981          39.687
R18  20132320.140   107467682.208 7       510.338          47.875    20132320.200   107467682.209 8       510.338          48.125    20132327.620    83586008.497 8       396.930          50.562    20132327.400    83586009.502 8       396.930          50.562
G26  21494296.740   112953280.353 7       415.699          46.687    21494295.900   112953280.353 7       415.699          47.062    21494303.020    88015568.737 7       323.921          47.125    21494303.480    88015571.735 8       323.921          48.562
R15  20824978.320   111282358.486 7      -693.486          46.625    20824976.940   111282358.482 7      -693.486          46.500    20824988.340    86552982.947 8      -539.378          48.750    20824988.360    86552984.957 8      -539.378          49.500
G18  25130434.000   132061306.269 6      -780.751          36.125    25130432.680   132061306.266 3      -780.751          20.062    25130439.320   102904942.257 3      -608.378          20.000    25130439.800   102904946.266 6      -608.378          41.437
G10  22331606.440   117353380.108 7      3868.045          46.750    22331605.660   117353380.107 7      3868.045          45.125    22331612.560    91444222.037 7      3014.061          45.312    22331612.620    91444221.044 7      3014.061          47.250
G23  23002498.580   120878941.432 7      2015.493          44.437    23002497.880   120878941.434 5      2015.493          33.187    23002503.280    94191401.555 5      1570.514          33.062    23002503.560    94191403.566 7      1570.514          47.312
R09  22115999.360   118098164.744 7      6462.922          43.000    22115999.940   118098164.751 7      6462.922          42.125    22116007.180    91854192.435 7      5026.717          45.312    22116007.760    91854193.437 7      5026.717          45.437
R17  23293260.680   124646934.810 6      -707.632          40.375    23293259.660   124646934.825 6      -707.632          40.187    23293272.220    96947663.369 7      -550.380          42.875    23293271.800    96947661.369 7      -550.380          43.062
> 2024 05 06 11 55 39.0000000  0 13
G08  21770867.020   114406676.246 7      3945.210          45.500    21770866.000   114406676.243 5      3945.210          35.187    21770872.040    89148079.446 5      3074.190          34.937    21770872.920    89148083.455 7      3074.190          47.750
G21  21814380.260   114635353.573 7      5182.276          45.125    21814377.940   114635353.578 5      5182.276          32.187    21814384.840    89326259.986 5      4038.137          32.562
G27  20717410.360   108870716.871 7      2458.275          47.125    20717408.860   108870716.875 8      2458.275          48.750    20717414.400    84834344.866 8      1915.539          48.875    20717414.900    84834344.866 8      1915.539          49.875
R16  19059501.300   101812426.164 8      3141.303          48.875    19059500.800   101812426.163 8      3141.303          48.125    19059508.780    79187477.931 8      2443.235          50.937    19059508.940    79187476.932 8      2443.235          52.312
G16  20305477.020   106705995.777 7      2426.608          46.250    20305475.340   106705995.782 6      2426.608          40.062    20305478.040    83147534.285 6      1890.863          39.562
R18  20132224.400   107467171.731 7       510.427          47.625    20132224.560   107467171.732 8       510.427          48.062    20132232.080    83585611.459 8       396.999          50.312    20132231.720    83585612.463 8       396.999          51.062
G26  21494217.800   112952864.646 7       415.504          47.125    21494216.880   112952864.653 7       415.504          46.500    21494223.860    88015244.813 7       323.770          46.812    21494224.280    88015247.815 8       323.770          48.562
R15  20825108.040   111283051.999 7      -693.737          46.250    20825106.800   111283051.993 7      -693.737          46.250    20825118.240    86553522.348 8      -539.573          48.687    20825118.260    86553524.358 8      -539.573          48.875
G18  25130582.660   132062086.771 5      -780.402          35.812    25130581.040   132062086.768 3      -780.402          20.062    25130587.760   102905550.438 3      -608.105          20.000    25130588.540   102905554.433 6      -608.105          41.437
G10  22330870.160   117349512.063 7      3867.858          46.562    22330869.560   117349512.062 7      3867.858          45.437    22330876.540    91441207.978 7      3013.916          45.500    22330876.640    91441206.987 7      3013.916          47.187
G23  23002115.320   120876925.934 7      2015.248          44.562    23002114.540   120876925.936 5      2015.248          33.187    23002119.700    94189831.043 5      1570.323          33.062    23002119.560    94189833.044 7      1570.323          47.125
R09  22114789.220   118091701.757 7      6462.917          42.812    22114789.500   118091701.763 7      6462.917          42.500    22114796.660    91849165.673 7      5026.713          45.187    22114797.220    91849166.673 7      5026.713          45.500
R17  23293392.480   124647641.966 6      -707.017          40.375    23293391.840   124647641.994 6      -707.017          39.875    23293404.480    96948213.367 7      -549.902          43.062    23293403.960    96948211.367 7      -549.902          43.187
> 2024 05 06 11 55 40.0000000  0 13
G08  21770116.380   114402731.041 7      3945.262          45.125    21770115.360   114402731.041 5      3945.262          35.500    21770121.260    89145005.267 5      3074.230          35.250    21770121.860    89145009.276 8      3074.230          48.187
G21  21813394.020   114630171.575 7      5181.915          45.312    21813391.920   114630171.580 5      5181.915          33.187    21813398.700    89322222.077 5      4037.856          33.312
G27  20716942.660   108868258.615 7      2458.288          47.625    20716941.300   108868258.617 8      2458.288          48.812    20716946.660    84832429.346 8      1915.549          48.750    20716947.100    84832429.349 8      1915.549          50.125
R16  19058913.460   101809285.190 7      3140.740          47.875    19058912.900   101809285.188 8      3140.740          48.375    19058920.720    79185034.953 8      2442.798          50.812    19058920.940    79185033.952 8      2442.798          51.375
G16  20305015.140   106703569.443 7      2426.355          46.000    20305013.720   106703569.450 6      2426.355          40.250    20305016.280    83145643.633 6      1890.666          40.000
R18  20132128.700   107466661.527 7       510.213          47.750    20132128.900   107466661.525 7       510.213          47.562    20132136.400    83585214.632 8       396.832          50.187    20132136.540    83585215.635 8       396.832          50.437
G26  21494138.680   112952449.290 8       415.226          48.187    21494137.860   112952449.290 7       415.226          46.937    21494144.860    88014921.158 7       323.553          46.875    21494145.320    88014924.160 8       323.553          48.375
R15  20825237.940   111283745.980 7      -694.052          47.687    20825236.680   111283745.976 7      -694.052          45.937    20825248.160    86554062.112 8      -539.818          49.062    20825248.040    86554064.121 8      -539.818          49.250
G18  25130730.620   132062867.199 5      -780.202          35.812    25130729.540   132062867.196 3      -780.202          20.062    25130736.380   102906158.568 3      -607.950          20.000    25130737.220   102906162.579 6      -607.950          41.437
G10  22330133.920   117345644.433 7      3867.549          47.062    22330133.580   117345644.435 7      3867.549          45.375    22330140.420    91438194.252 7      3013.675          45.312    22330140.420    91438193.257 7      3013.675          47.125
G23  23001731.980   120874910.993 7      2014.766          44.937    23001731.080   120874910.995 5      2014.766          32.750    23001736.340    94188260.959 5      1569.947          32.875    23001736.240    94188262.960 7      1569.947          47.437
R09  22113578.940   118085239.036 7      6462.731          43.812    22113579.400   118085239.053 7      6462.731          43.125    22113586.300    91844139.118 7      5026.568          45.062    22113586.940    91844140.120 7      5026.568          45.625
R17  23293524.240   124648348.983 6      -706.699          40.187    23293523.840   124648348.995 6      -706.699          39.875    23293536.640    96948763.265 7      -549.655          43.312    23293536.180    96948761.263 7      -549.655          43.437
> 2024 05 06 11 55 41.0000000  0 13
G08  21769365.260   114398785.700 7      3945.421          45.437    21769364.660   114398785.702 5      3945.421          35.500    21769370.480    89141930.981 5      3074.354          35.250    21769371.340    89141934.984 8      3074.354          48.000
G21  21812407.940   114624989.774 7      5181.712          44.750    21812405.960   114624989.779 5      5181.712          33.187    21812412.660    89318184.318 5      4037.697          33.312
G27  20716474.520   108865800.241 7      2458.457          47.437    20716473.320   108865800.249 8      2458.457          48.562    20716478.800    84830513.732 8      1915.681          48.750    20716479.400    84830513.735 8      1915.681          50.062
R16  19058325.240   101806144.806 8      3140.127          48.312    19058324.980   101806144.802 7      3140.127          47.750    19058332.780    79182592.434 8      2442.321          51.125    19058333.200    79182591.431 8      2442.321          51.687
G16  20304553.240   106701143.317 7      2426.054          46.000    20304551.980   106701143.321 6      2426.054          40.500    20304554.760    83143753.147 6      1890.431          39.812
R18  20132033.160   107466151.301 8       510.238          48.562    20132033.340   107466151.304 7       510.238          47.375    20132040.940    83584817.793 8       396.852          50.000    20132040.900    83584818.801 8       396.852          50.250
G26  21494059.680   112952034.024 7       415.194          47.937    21494058.860   112952034.026 7       415.194          47.062    21494065.720    88014597.568 7       323.528          47.125    21494066.260    88014600.565 8       323.528          49.000
R15  20825367.800   111284440.228 7      -694.357          47.250    20825366.700   111284440.229 7      -694.357          46.125    20825378.100    86554602.085 8      -540.055          49.062    20825378.020    86554604.089 8      -540.055          49.625
G18  25130879.540   132063647.369 5      -779.854          35.812    25130878.060   132063647.366 3      -779.854          20.062    25130884.940   102906766.491 3      -607.679          20.000    25130885.360   102906770.496 6      -607.679          41.437
G10  22329398.320   117341777.016 7      3867.357          47.000    22329397.680   117341777.021 7      3867.357          45.375    22329404.560    91435180.687 7      3013.525          45.312    22329404.360    91435179.694 7      3013.525          47.187
G23  23001348.420   120872896.354 7      2014.449          44.625    23001347.700   120872896.356 5      2014.449          32.750    23001352.980    94186691.113 5      1569.700          32.875    23001352.920    94186693.126 7      1569.700          47.562
R09  22112368.860   118078776.293 7      6462.749          43.187    22112368.760   118078776.310 7      6462.749          43.125    22112375.880    91839112.558 7      5026.582          45.062    22112376.760    91839113.555 7      5026.582          45.375
R17  23293656.540   124649055.567 6      -706.223          40.187    23293656.020   124649055.581 6      -706.223          39.875    23293669.020    96949312.819 7      -549.284          43.250    23293668.220    96949310.821 7      -549.284          43.250
> 2024 05 06 11 55 42.0000000  0 13
G08  21768614.640   114394840.432 7      3945.263          44.750    21768613.840   114394840.432 5      3945.263          35.250    21768619.620    89138856.751 5      3074.231          35.375    21768620.620    89138860.754 8      3074.231          48.250
G21  21811421.960   114619808.359 7      5181.241          44.687    21811420.020   114619808.361 5      5181.241          32.937    21811426.500    89314146.866 5      4037.330          33.312
G27  20716006.600   108863341.988 7      2458.287          47.750    20716005.580   108863341.990 8      2458.287          48.812    20716011.060    84828598.213 8      1915.548          48.812    20716011.580    84828598.215 8      1915.548          50.187
R16  19057737.220   101803005.196 8      3139.274          48.000    19057737.180   101803005.192 8      3139.274          48.500    19057744.980    79180150.519 8      2441.658          50.875    19057745.580    79180149.517 8      2441.658          51.937
G16  20304091.800   106698717.595 7      2425.565          46.875    20304090.400   106698717.605 6      2425.565          40.437    20304093.160    83141862.981 6      1890.050          39.687
R18  20131937.700   107465641.288 7       509.923          47.687    20131937.960   107465641.295 7       509.923          47.812    20131945.460    83584421.125 8       396.606          49.875    20131945.540    83584422.129 8       396.606          50.500
G26  21493980.860   112951619.102 7       414.817          47.250    21493979.900   112951619.105 7       414.817          46.875    21493986.820    88014274.258 7       323.234          46.812    21493987.320    88014277.254 8       323.234          48.437
R15  20825497.740   111285134.988 7      -694.990          46.375    20825497.140   111285134.984 7      -694.990          46.500    20825508.100    86555142.446 8      -540.548          49.062    20825508.140    86555144.450 8      -540.548          48.500
G18  25131027.780   132064427.476 5      -779.960          35.812    25131026.560   132064427.471 3      -779.960          20.062    25131033.340   102907374.366 3      -607.761          19.875    25131033.480   102907378.376 6      -607.761          41.250
G10  22328662.320   117337910.024 7      3866.853          47.625    22328661.780   117337910.029 7      3866.853          45.562    22328668.720    91432167.449 7      3013.132          45.375    22328668.640    91432166.456 7      3013.132          47.312
G23  23000965.160   120870882.254 7      2013.933          43.625    23000964.500   120870882.254 5      2013.933          33.312    23000969.700    94185121.687 5      1569.298          32.937    23000969.920    94185123.689 7      1569.298          47.625
R09  22111158.220   118072313.829 7      6462.386          42.250    22111158.440   118072313.846 7      6462.386          42.562    22111165.220    91834086.186 7      5026.300          44.375    22111166.460    91834087.190 7      5026.300          45.437
R17  23293789.020   124649761.952 6      -706.239          40.187    23293788.380   124649761.953 6      -706.239          40.312    23293800.860    96949862.226 7      -549.297          43.250    23293800.420    96949860.224 7      -549.297          43.687
> 2024 05 06 11 55 43.0000000  0 13
G08  21767863.800   114390894.972 7      3945.463          44.562    21767863.020   114390894.967 5      3945.463          34.875    21767868.900    89135782.367 5      3074.387          34.562    21767869.980    89135786.378 8      3074.387          48.437
G21  21810436.120   114614627.112 7      5181.121          43.312    21810434.060   114614627.122 5      5181.121          32.937    21810440.620    89310109.549 5      4037.237          32.562
G27  20715538.940   108860883.596 7      2458.323          47.125    20715537.720   108860883.603 8      2458.323          48.187    20715543.140    84826682.586 8      1915.576          48.500    20715543.640    84826682.589 8      1915.576          50.187
R16  19057149.400   101799866.107 8      3138.815          48.125    19057149.420   101799866.098 8      3138.815          48.187    19057157.240    79177709.002 8      2441.300          51.062    19057157.860    79177707.999 8      2441.300          51.375
G16  20303630.180   106696292.015 7      2425.473          46.687    20303628.880   106696292.022 6      2425.473          40.125    20303631.600    83139972.918 6      1889.979          39.375
R18  20131842.180   107465131.207 7       510.074          46.500    20131842.160   107465131.205 7       510.074          46.875    20131849.900    83584024.387 8       396.724          50.187    20131849.980    83584025.388 8       396.724          50.312
G26  21493901.940   112951204.246 7       414.833          46.937    21493900.860   112951204.251 7       414.833          46.812    21493907.940    88013950.992 7       323.246          47.000    21493908.460    88013953.989 8       323.246          48.437
R15  20825627.720   111285829.939 7      -695.071          47.687    20825627.500   111285829.937 7      -695.071          46.250    20825637.980    86555682.961 8      -540.611          48.312    20825637.780    86555684.967 8      -540.611          48.625
G18  25131176.520   132065207.290 6      -779.884          36.250    25131174.960   132065207.287 3      -779.884          20.062    25131181.580   102907982.015 3      -607.702          19.875    25131181.560   102907986.016 6      -607.702          41.250
G10  22327926.720   117334043.185 7      3866.780          46.625    22327926.000   117334043.190 7      3866.780          44.937    22327932.900    91429154.333 7      3013.075          45.000    22327932.900    91429153.341 7      3013.075          46.937
G23  23000582.100   120868868.432 7      2013.606          43.937    23000581.340   120868868.437 5      2013.606          33.312    23000586.360    94183552.475 5      1569.044          32.937    23000586.760    94183554.478 7      1569.044          47.187
R09  22109948.120   118065851.316 7      6462.489          42.250    22109948.400   118065851.328 7      6462.489          42.625    22109954.800    91829059.794 7      5026.380          45.000    22109956.000    91829060.791 7      5026.380          45.312
R17  23293920.600   124650467.877 6      -705.841          41.437    23293920.000   124650467.887 6      -705.841          40.312    23293932.900    96950411.283 7      -548.988          42.875    23293932.600    96950409.285 7      -548.988          43.500
> 2024 05 06 11 55 44.0000000  0 13
G08  21767113.040   114386949.295 7      3945.870          45.937    21767112.120   114386949.289 5      3945.870          35.250    21767118.180    89132707.817 5      3074.704          34.562    21767119.200    89132711.826 8      3074.704          48.312
G21  21809449.980   114609445.988 7      5181.147          44.312    21809448.020   114609445.998 5      5181.147          32.000    21809454.660    89306072.327 5      4037.258          32.562
G27  20715071.160   108858425.027 7      2458.664          47.187    20715069.920   108858425.035 8      2458.664          48.750    20715075.240    84824766.821 8      1915.842          48.750    20715075.960    84824766.823 8      1915.842          50.500
R16  19056562.000   101796727.534 8      3138.388          48.562    19056561.860   101796727.527 7      3138.388          47.937    19056569.820    79175267.891 8      2440.969          51.312    19056569.940    79175266.886 8      2440.969          51.687
G16  20303168.640   106693866.580 7      2425.384          46.625    20303167.260   106693866.590 6      2425.384          40.250    20303170.040    83138082.973 6      1889.909          39.750
R18  20131746.540   107464621.085 7       510.196          47.750    20131746.600   107464621.083 8       510.196          48.125    20131754.460    83583627.623 8       396.819          50.125    20131754.260    83583628.627 8       396.819          50.812
G26  21493822.860   112950789.453 7       414.900          47.500    21493822.000   112950789.455 7       414.900          47.125    21493828.880    88013627.778 7       323.299          47.250    21493829.440    88013630.774 8       323.299          48.562
R15  20825757.600   111286525.087 7      -695.136          47.312    20825757.300   111286525.088 7      -695.136          46.500    20825768.020    86556223.634 8      -540.661          48.875    20825767.920    86556225.634 8      -540.661          49.125
G18  25131324.100   132065986.743 6      -779.494          36.250    25131323.160   132065986.748 3      -779.494          20.062    25131329.960   102908589.385 3      -607.398          19.875    25131330.340   102908593.394 6      -607.398          41.375
G10  22327191.000   117330176.493 7      3866.689          47.062    22327190.180   117330176.498 7      3866.689          45.125    22327197.000    91426141.335 7      3013.004          45.125    22327197.140    91426140.340 7      3013.004          47.187
G23  23000198.820   120866854.861 7      2013.523          43.937    23000198.100   120866854.865 5      2013.523          33.250    23000203.120    94181983.462 5      1568.979          33.125    23000203.680    94181985.471 7      1568.979          47.375
R09  22108737.760   118059388.817 7      6462.514          42.437    22108738.060   118059388.821 7      6462.514          42.625    22108744.900    91824033.403 7      5026.400          45.000    22108745.760    91824034.399 7      5026.400          45.125
R17  23294052.020   124651173.358 6      -705.260          41.437    23294052.180   124651173.373 6      -705.260          40.312    23294064.520    96950959.994 7      -548.535          43.375    23294064.640    96950957.997 7      -548.535          43.437
> 2024 05 06 11 55 45.0000000  0 13
G08  21766362.280   114383003.635 7      3945.832          45.812    21766361.400   114383003.630 5      3945.832          35.250    21766367.440    89129633.279 5      3074.674          35.375    21766368.320    89129637.300 8      3074.674          48.187
G21  21808464.060   114604265.222 7      5180.824          43.750    21808461.940   114604265.224 5      5180.824          32.000    21808468.740    89302035.374 5      4037.006          31.625
G27  20714603.300   108855966.517 7      2458.626          46.687    20714602.080   108855966.522 8      2458.626          48.312    20714607.460    84822851.096 8      1915.813          48.312    20714608.040    84822851.101 8      1915.813          49.500
R16  19055974.620   101793589.658 7      3137.746          47.250    19055974.720   101793589.654 7      3137.746          47.812    19055982.560    79172827.327 8      2440.469          50.750    19055982.680    79172826.324 8      2440.469          50.750
G16  20302707.320   106691441.481 7      2425.068          46.375    20302705.740   106691441.488 6      2425.068          40.187    20302708.560    83136193.287 6      1889.663          39.562
R18  20131651.020   107464111.134 7       510.003          47.875    20131651.160   107464111.129 7       510.003          47.437    20131658.740    83583230.997 8       396.669          49.875    20131658.820    83583232.000 8       396.669          49.812
G26  21493744.140   112950374.944 7       414.514          47.312    21493743.040   112950374.946 7       414.514          46.687    21493750.080    88013304.784 7       322.998          46.687    21493750.380    88013307.784 7       322.998          47.875
R15  20825888.220   111287220.636 7      -695.619          47.062    20825887.520   111287220.637 7      -695.619          46.187    20825898.000    86556764.612 8      -541.037          48.687    20825898.160    86556766.620 8      -541.037          48.812
G18  25131472.660   132066766.025 6      -778.814          36.312    25131471.440   132066766.030 3      -778.814          20.062    25131478.400   102909196.616 3      -606.868          19.875    25131478.640   102909200.613 6      -606.868          41.375
G10  22326455.120   117326310.161 7      3866.313          46.437    22326454.440   117326310.166 7      3866.313          44.812    22326461.220    91423128.613 7      3012.711          44.812    22326461.140    91423127.622 7      3012.711          47.187
G23  22999815.600   120864841.772 7      2013.003          43.937    22999814.980   120864841.774 5      2013.003          33.250    22999820.060    94180414.820 5      1568.574          33.125    22999820.220    94180416.826 7      1568.574          47.437
R09  22107528.020   118052926.478 7      6462.306          42.937    22107527.660   118052926.490 7      6462.306          42.625    22107534.620    91819007.146 7      5026.238          45.000    22107535.520    91819008.143 7      5026.238          45.312
R17  23294184.100   124651878.582 6      -705.058          40.625    23294184.260   124651878.589 6      -705.058          40.250    23294196.060    96951508.496 7      -548.378          42.875    23294196.300    96951506.501 7      -548.378          43.187
> 2024 05 06 11 55 46.0000000  0 13
G08  21765611.260   114379057.850 7      3945.975          45.937    21765610.700   114379057.850 5      3945.975          35.000    21765616.480    89126558.647 5      3074.785          34.687    21765617.420    89126562.656 8      3074.785          48.312
G21  21807478.300   114599084.680 7      5180.542          44.000    21807476.140   114599084.684 5      5180.542          32.000    21807483.140    89297998.598 5      4036.786          31.625
G27  20714135.560   108853507.920 7      2458.665          47.812    20714134.320   108853507.924 8      2458.665          49.250    20714139.540    84820935.312 8      1915.843          49.062    20714140.420    84820935.315 8      1915.843          50.000
R16  19055387.500   101790452.409 8      3137.018          48.062    19055387.220   101790452.408 8      3137.018          48.375    19055395.220    79170387.245 8      2439.903          51.000    19055395.300    79170386.244 8      2439.903          50.875
G16  20302245.860   106689016.597 7      2424.885          46.125    20302244.280   106689016.602 6      2424.885          40.250    20302247.100    83134303.770 6      1889.520          39.437
R18  20131555.600   107463601.207 8       509.942          48.437    20131555.640   107463601.205 7       509.942          47.375    20131563.340    83582834.389 8       396.621          50.062    20131563.100    83582835.395 8       396.621          50.187
G26  21493665.220   112949960.563 7       414.384          47.562    21493664.280   112949960.568 7       414.384          46.750    21493671.360    88012981.888 7       322.897          47.000    21493671.520    88012984.890 8       322.897          48.937
R15  20826018.360   111287916.455 7      -695.836          47.312    20826017.720   111287916.453 7      -695.836          46.500    20826028.320    86557305.803 8      -541.206          48.562    20826028.480    86557307.813 8      -541.206          49.125
G18  25131621.040   132067545.087 6      -778.635          36.312    25131619.660   132067545.094 3      -778.635          20.062    25131626.580   102909803.677 3      -606.728          19.875    25131627.060   102909807.688 6      -606.728          41.500
G10  22325719.420   117322444.045 7      3866.138          46.625    22325718.740   117322444.047 7      3866.138          45.500    22325725.600    91420116.057 7      3012.575          46.000    22325725.600    91420115.066 7      3012.575          47.250
G23  22999432.400   120862829.017 7      2012.589          44.375    22999431.960   120862829.025 5      2012.589          33.125    22999437.180    94178846.447 5      1568.251          33.125    22999437.480    94178848.452 7      1568.251          47.187
R09  22106317.640   118046464.198 7      6462.340          43.187    22106317.960   118046464.204 7      6462.340          42.312    22106324.640    91813980.926 7      5026.264          45.125    22106325.380    91813981.917 7      5026.264          45.812
R17  23294316.000   124652583.443 6      -704.689          40.625    23294315.720   124652583.450 6      -704.689          40.250    23294327.820    96952056.723 7      -548.091          43.125    23294328.040    96952054.723 7      -548.091          43.875
> 2024 05 06 11 55 47.0000000  0 13
G08  21764860.500   114375111.912 7      3945.919          45.437    21764859.840   114375111.914 5      3945.919          35.312    21764865.620    89123483.896 5      3074.742          35.000    21764866.460    89123487.910 7      3074.742          47.812
G21  21806492.580   114593904.315 7      5180.153          44.062    21806490.460   114593904.323 5      5180.153          31.625    21806497.240    89293961.959 5      4036.483          31.625
G27  20713667.600   108851049.180 7      2458.736          47.250    20713666.480   108851049.193 8      2458.736          49.437    20713671.700    84819019.420 8      1915.898          49.437    20713672.140    84819019.426 8      1915.898          50.250
R16  19054800.200   101787315.711 8      3136.363          48.375    19054800.200   101787315.707 8      3136.363          48.687    19054808.040    79167947.593 8      2439.394          51.500    19054808.180    79167946.594 8      2439.394          51.250
G16  20301784.420   106686591.892 7      2424.527          47.125    20301782.980   106686591.902 6      2424.527          40.437    20301785.740    83132414.395 6      1889.242          39.750
R18  20131459.800   107463091.208 8       509.934          48.000    20131460.000   107463091.209 8       509.934          48.562    20131467.800    83582437.727 8       396.616          50.312    20131467.660    83582438.733 8       396.616          50.187
G26  21493586.340   112949546.282 7       414.205          47.312    21493585.480   112949546.287 7       414.205          46.875    21493592.360    88012659.070 7       322.757          46.875    21493592.640    88012662.074 8       322.757          48.500
R15  20826148.480   111288612.546 7      -696.339          47.562    20826148.300   111288612.550 7      -696.339          47.187    20826158.600    86557847.207 8      -541.597          48.250    20826158.540    86557849.211 8      -541.597          48.437
G18  25131769.140   132068323.920 6      -778.861          36.375    25131767.760   132068323.927 3      -778.861          19.875    25131774.920   102910410.560 3      -606.904          19.875    25131775.400   102910414.563 6      -606.904          41.500
G10  22324983.780   117318578.131 7      3865.740          45.562    22324983.200   117318578.138 7      3865.740          45.500    22324989.900    91417103.664 7      3012.265          45.375    22324989.740    91417102.671 7      3012.265          47.562
G23  22999049.580   120860816.546 7      2012.254          44.000    22999048.980   120860816.554 5      2012.254          33.125    22999054.160    94177278.290 5      1567.990          33.125    22999054.420    94177280.289 7      1567.990          47.812
R09  22105107.700   118040001.917 7      6462.142          43.500    22105107.360   118040001.924 7      6462.142          42.312    22105114.560    91808954.712 7      5026.110          45.000    22105115.360    91808955.703 7      5026.110          45.625
R17  23294447.360   124653287.859 6      -704.289          40.625    23294447.120   124653287.879 6      -704.289          40.250    23294459.460    96952604.606 7      -547.781          43.125    23294459.560    96952602.602 7      -547.781          43.250
> 2024 05 06 11 55 48.0000000  0 13
G08  21764109.720   114371165.875 7      3946.088          45.625    21764109.020   114371165.874 5      3946.088          35.312    21764114.580    89120409.064 5      3074.874          35.000    21764115.600    89120413.077 8      3074.874          48.187
G21  21805506.780   114588724.191 7      5179.920          45.187    21805504.680   114588724.195 5      5179.920          31.625    21805511.520    89289925.506 5      4036.302          31.937
G27  20713199.780   108848590.423 8      2458.794          48.312    20713198.620   108848590.428 8      2458.794          49.625    20713203.780    84817103.507 8      1915.944          49.187    20713204.200    84817103.507 8      1915.944          50.500
R16  19054213.620   101784179.673 8      3135.678          49.875    19054212.980   101784179.674 8      3135.678          49.625    19054220.940    79165508.456 8      2438.861          51.125    19054220.960    79165507.461 8      2438.861          51.187
G16  20301323.000   106684167.437 7      2424.362          47.312    20301321.500   106684167.442 6      2424.362          40.125    20301324.160    83130525.207 6      1889.113          39.437
R18  20131364.600   107462581.273 8       509.923          49.562    20131364.700   107462581.274 8       509.923          48.312    20131372.260    83582041.111 8       396.607          50.562    20131371.960    83582042.115 8       396.607          50.250
G26  21493507.480   112949132.186 7       414.070          47.375    21493506.620   112949132.185 7       414.070          47.562    21493513.680    88012336.397 7       322.652          47.250    21493513.660    88012339.399 8       322.652          48.437
R15  20826279.020   111289308.953 8      -696.553          48.937    20826278.420   111289308.957 8      -696.553          48.000    20826288.780    86558388.857 8      -541.763          48.812    20826288.760    86558390.869 8      -541.763          48.125
G18  25131917.400   132069102.456 6      -778.377          36.375    25131916.000   132069102.463 3      -778.377          19.875    25131923.120   102911017.210 3      -606.527          19.875    25131923.100   102911021.217 6      -606.527          41.625
G10  22324248.120   117314712.472 7      3865.539          45.000    22324247.340   117314712.479 7      3865.539          45.937    22324254.280    91414091.468 7      3012.108          45.750    22324254.500    91414090.474 7      3012.108          46.750
G23  22998666.620   120858804.462 7      2011.885          43.875    22998666.100   120858804.472 5      2011.885          33.062    22998671.400    94175710.436 5      1567.703          33.125    22998671.400    94175712.443 7      1567.703          47.375
R09  22103897.500   118033539.709 7      6462.107          44.062    22103897.480   118033539.713 7      6462.107          43.062    22103904.880    91803928.556 7      5026.083          45.250    22103905.220    91803929.547 7      5026.083          45.625
R17  23294578.740   124653991.927 6      -703.930          41.312    23294579.000   124653991.956 6      -703.930          40.250    23294591.380    96953152.223 7      -547.501          42.500    23294590.920    96953150.219 7      -547.501          43.250
> 2024 05 06 11 55 49.0000000  0 13
G08  21763358.860   114367219.821 7      3945.982          45.750    21763357.980   114367219.818 5      3945.982          35.250    21763363.740    89117334.219 5      3074.791          35.187    21763364.580    89117338.234 7      3074.791          47.812
G21  21804520.960   114583544.386 7      5179.478          43.437    21804518.960   114583544.394 5      5179.478          31.625    21804525.760    89285889.309 5      4035.957          31.937
G27  20712732.200   108846131.671 8      2458.704          48.625    20712730.620   108846131.676 8      2458.704          49.875    20712735.840    84815187.594 8      1915.874          49.500    20712736.200    84815187.600 8      1915.874          49.812
R16  19053626.480   101781044.315 8      3134.991          50.062    19053626.060   101781044.313 8      3134.991          49.875    19053634.020    79163069.846 8      2438.327          51.687    19053634.060    79163068.850 8      2438.327          51.437
G16  20300861.800   106681743.300 7      2423.832          46.937    20300860.260   106681743.310 6      2423.832          40.437    20300863.080    83128636.273 6      1888.701          39.437
R18  20131268.960   107462071.485 8       509.612          49.562    20131269.140   107462071.483 8       509.612          48.812    20131276.820    83581644.611 8       396.365          50.625    20131276.540    83581645.615 8       396.365          50.500
G26  21493428.760   112948718.320 8       413.647          48.375    21493427.940   112948718.322 7       413.647          47.500    21493434.820    88012013.904 7       322.322          46.937    21493435.100    88012016.906 8       322.322          48.875
R15  20826409.280   111290005.765 8      -697.172          48.875    20826408.800   111290005.769 7      -697.172          47.687    20826419.360    86558930.822 8      -542.245          48.750    20826419.380    86558932.828 8      -542.245          49.125
G18  25132064.940   132069880.900 6      -778.496          36.750    25132064.160   132069880.905 3      -778.496          19.875    25132071.360   102911623.794 3      -606.620          19.875    25132071.060   102911627.786 6      -606.620          41.562
G10  22323512.420   117310847.138 7      3865.051          46.562    22323511.820   117310847.148 7      3865.051          45.937    22323518.800    91411079.528 7      3011.728          46.000    22323518.920    91411078.532 7      3011.728          47.375
G23  22998284.000   120856792.813 7      2011.372          43.625    22998283.340   120856792.818 5      2011.372          33.062    22998288.620    94174142.922 5      1567.303          32.687    22998288.620    94174144.920 7      1567.303          47.562
R09  22102687.460   118027077.613 7      6461.855          44.062    22102687.600   118027077.630 7      6461.855          43.937    22102694.940    91798902.496 7      5025.887          45.187    22102695.200    91798903.491 7      5025.887          45.937
R17  23294710.240   124654695.699 6      -703.644          41.312    23294710.680   124654695.705 6      -703.644          40.250    23294722.540    96953699.588 7      -547.278          42.687    23294722.540    96953697.587 7      -547.278          43.625
> 2024 05 06 11 55 50.0000000  0 13
G08  21762607.900   114363273.686 7      3946.293          45.687    21762607.020   114363273.686 5      3946.293          35.312    21762612.940    89114259.313 5      3075.033          35.062    21762613.820    89114263.324 8      3075.033          48.187
G21  21803535.620   114578364.845 7      5179.438          43.687    21803533.220   114578364.849 5      5179.438          32.000    21803540.180    89281853.313 5      4035.926          31.937
G27  20712264.440   108843672.905 7      2458.872          47.375    20712262.700   108843672.910 8      2458.872          49.625    20712268.060    84813271.671 8      1916.004          49.250    20712268.420    84813271.675 8      1916.004          49.812
R16  19053039.340   101777909.631 8      3134.407          49.562    19053039.200   101777909.629 8      3134.407          48.812    19053047.260    79160631.761 8      2437.872          51.250    19053047.100    79160630.762 8      2437.872          50.937
G16  20300400.660   106679319.422 7      2423.871          46.125    20300398.980   106679319.430 6      2423.871          40.812    20300401.720    83126747.538 6      1888.731          39.875
R18  20131173.300   107461561.785 8       509.739          48.062    20131173.840   107461561.783 8       509.739          48.062    20131181.400    83581248.178 8       396.464          49.812    20131181.240    83581249.177 8       396.464          50.625
G26  21493350.140   112948304.649 7       413.707          47.312    21493349.140   112948304.649 7       413.707          47.437    21493356.080    88011691.561 7       322.369          47.312    21493356.480    88011694.565 8       322.369          48.625
R15  20826540.020   111290702.888 7      -697.205          47.812    20826539.360   111290702.887 7      -697.205          47.125    20826549.800    86559473.018 8      -542.271          49.000    20826549.760    86559475.026 8      -542.271          48.812
G18  25132213.360   132070659.087 6      -777.940          36.750    25132212.220   132070659.094 3      -777.940          19.875    25132219.580   102912230.171 3      -606.187          19.875    25132219.040   102912234.159 6      -606.187          41.562
G10  22322776.960   117306982.067 7      3865.105          46.187    22322776.240   117306982.075 7      3865.105          45.562    22322783.300    91408067.789 7      3011.770          45.375    22322783.400    91408066.794 7      3011.770          47.250
G23  22997901.280   120854781.548 7      2011.166          43.750    22997900.520   120854781.558 5      2011.166          33.312    22997905.920    94172575.706 5      1567.142          32.687    22997905.900    94172577.711 7      1567.142          47.375
R09  22101476.920   118020615.653 7      6461.915          44.312    22101477.340   118020615.662 7      6461.915          43.375    22101484.800    91793876.527 7      5025.934          45.437    22101485.280    91793877.522 7      5025.934          45.937
R17  23294842.240   124655399.186 7      -703.429          42.000    23294842.340   124655399.204 6      -703.429          41.500    23294854.080    96954246.748 7      -547.112          42.812    23294854.300    96954244.744 7      -547.112          43.500
> 2024 05 06 11 55 51.0000000  0 13
G08  21761857.060   114359327.483 7      3946.454          45.750    21761855.960   114359327.483 5      3946.454          35.187    21761862.040    89111184.360 5      3075.159          34.812    21761862.760    89111188.369 7      3075.159          47.875
G21  21802550.080   114573185.579 7      5179.324          43.750    21802547.700   114573185.581 5      5179.324          32.000    21802554.640    89277817.534 5      4035.837          31.937
G27  20711796.460   108841214.095 7      2458.958          47.062    20711794.780   108841214.105 8      2458.958          48.875    20711800.120    84811355.723 8      1916.071          48.750    20711800.440    84811355.728 8      1916.071          50.250
R16  19052452.600   101774775.552 8      3133.938          48.625    19052452.560   101774775.556 7      3133.938          47.687    19052460.440    79158194.146 8      2437.507          51.375    19052460.780    79158193.150 8      2437.507          51.500
G16  20299939.240   106676895.816 7      2423.732          45.687    20299937.800   106676895.823 6      2423.732          40.625    20299940.540    83124859.017 6      1888.622          40.312
R18  20131078.020   107461052.146 8       509.759          48.125    20131078.060   107461052.150 8       509.759          48.312    20131085.880    83580851.801 8       396.479          50.062    20131085.680    83580852.802 8       396.479          50.375
G26  21493271.420   112947891.164 7       413.553          47.062    21493270.540   112947891.167 7       413.553          47.375    21493277.480    88011369.371 7       322.249          47.375    21493277.860    88011372.375 8       322.249          48.750
R15  20826670.280   111291400.326 7      -697.456          47.750    20826669.880   111291400.330 7      -697.456          46.750    20826680.480    86560015.474 8      -542.466          48.937    20826680.020    86560017.478 8      -542.466          48.687
G18  25132361.240   132071437.084 6      -777.814          36.500    25132360.360   132071437.089 3      -777.814          19.875    25132367.700   102912836.403 3      -606.089          19.875    25132367.340   102912840.405 6      -606.089          41.937
G10  22322041.660   117303117.294 7      3864.856          46.437    22322040.880   117303117.301 7      3864.856          45.437    22322047.800    91405056.283 7      3011.576          45.250    22322048.020    91405055.288 7      3011.576          47.000
G23  22997518.620   120852770.695 7      2010.782          44.375    22997517.760   120852770.706 5      2010.782          33.312    22997523.140    94171008.812 5      1566.843          33.125    22997523.280    94171010.811 7      1566.843          47.500
R09  22100267.220   118014153.792 7      6461.951          42.812    22100267.540   118014153.793 7      6461.951          43.375    22100274.880    91788850.639 7      5025.962          45.687    22100275.060    91788851.632 7      5025.962          46.125
R17  23294973.720   124656102.267 7      -702.703          42.000    23294973.520   124656102.280 6      -702.703          41.500    23294985.140    96954793.591 7      -546.547          42.687    23294985.500    96954791.589 7      -546.547          43.375
> 2024 05 06 11 55 52.0000000  0 13
G08  21761106.040   114355381.254 7      3946.135          45.687    21761105.080   114355381.253 5      3946.135          35.187    21761111.020    89108109.376 5      3074.910          34.812    21761111.580    89108113.389 8      3074.910          48.000
G21  21801564.620   114568006.623 7      5178.598          43.250    21801562.160   114568006.628 5      5178.598          31.937    21801569.240    89273781.992 5      4035.271          31.937
G27  20711328.280   108838755.298 7      2458.596          47.375    20711326.920   108838755.306 8      2458.596          48.687    20711332.240    84809439.780 8      1915.789          48.687    20711332.720    84809439.788 8      1915.789          50.312
R16  19051866.020   101771642.171 8      3132.828          48.937    19051865.960   101771642.170 8      3132.828          48.000    19051873.860    79155757.072 8      2436.644          51.500    19051873.980    79155756.076 8      2436.644          51.687
G16  20299477.940   106674472.543 7      2422.894          45.625    20299476.580   106674472.550 6      2422.894          40.312    20299479.520    83122970.757 6      1887.970          39.500
R18  20130982.920   107460542.619 7       509.247          46.750    20130982.660   107460542.626 7       509.247          47.687    20130990.560    83580455.500 8       396.081          49.937    20130990.440    83580456.502 8       396.081          50.312
G26  21493192.960   112947477.940 7       412.777          47.125    21493191.920   112947477.942 7       412.777          47.000    21493198.780    88011047.374 7       321.645          47.250    21493199.440    88011050.380 8       321.645          48.625
R15  20826800.800   111292098.159 7      -698.301          47.062    20826800.660   111292098.155 7      -698.301          46.312    20826811.000    86560558.227 8      -543.123          48.875    20826810.720    86560560.231 8      -543.123          48.687
G18  25132509.040   132072214.937 6      -778.111          36.500    25132508.320   132072214.939 3      -778.111          19.875    25132515.740   102913442.520 3      -606.320          20.625    25132515.800   102913446.519 6      -606.320          41.937
G10  22321306.100   117299252.846 7      3864.016          46.562    22321305.440   117299252.851 7      3864.016          45.687    22321312.480    91402045.029 7      3010.922          45.750    22321312.340    91402044.032 7      3010.922          46.937
G23  22997135.880   120850760.279 7      2009.948          43.687    22997135.300   120850760.281 5      2009.948          33.062    22997140.580    94169442.250 5      1566.194          33.125    22997140.680    94169444.247 7      1566.194          47.312
R09  22099057.020   118007692.075 7      6461.379          43.125    22099057.180   118007692.065 7      6461.379          43.062    22099065.000    91783824.857 7      5025.517          45.937    22099065.040    91783825.848 7      5025.517          46.562
R17  23295104.960   124656805.132 7      -703.020          42.000    23295104.980   124656805.141 6      -703.020          41.500    23295116.820    96955340.259 7      -546.793          43.000    23295117.040    96955338.261 7      -546.793          42.937
> 2024 05 06 11 55 53.0000000  0 13
G08  21760355.200   114351435.006 7      3946.586          45.375    21760354.120   114351435.000 5      3946.586          35.375    21760360.200    89105034.377 5      3075.262          35.062    21760360.540    89105038.391 7      3075.262          47.875
G21  21800579.220   114562827.972 7      5178.820          44.375    21800576.660   114562827.977 5      5178.820          31.937    21800583.520    89269746.690 5      4035.444          31.937
G27  20710860.300   108836296.522 7      2459.003          47.250    20710859.020   108836296.527 8      2459.003          49.125    20710864.320    84807523.850 8      1916.106          49.312    20710864.580    84807523.855 8      1916.106          50.125
R16  19051279.640   101768509.485 8      3132.565          48.875    19051279.580   101768509.481 7      3132.565          47.812    19051287.500    79153320.538 8      2436.439          51.562    19051287.680    79153319.540 8      2436.439          51.625
G16  20299016.960   106672049.564 7      2423.104          46.125    20299015.580   106672049.572 6      2423.104          40.125    20299018.500    83121082.722 6      1888.133          39.500
R18  20130887.220   107460033.178 8       509.665          48.312    20130887.300   107460033.182 7       509.665          47.750    20130895.040    83580059.268 8       396.406          50.375    20130894.840    83580060.268 8       396.406          50.312
G26  21493114.320   112947064.905 7       413.160          47.437    21493113.260   112947064.907 7       413.160          46.375    21493120.180    88010725.529 7       321.943          46.875    21493120.860    88010728.532 8       321.943          48.562
R15  20826931.360   111292796.356 7      -698.086          47.750    20826931.180   111292796.352 7      -698.086          46.687    20826941.640    86561101.267 8      -542.956          48.625    20826941.480    86561103.273 8      -542.956          48.312
G18  25132657.060   132072992.606 6      -777.394          36.937    25132656.140   132072992.608 3      -777.394          19.875    25132663.780   102914048.496 3      -605.761          20.625    25132663.640   102914052.505 6      -605.761          41.937
G10  22320570.820   117295388.708 7      3864.260          46.937    22320570.080   117295388.720 7      3864.260          45.250    22320577.100    91399034.019 7      3011.112          45.437    22320577.400    91399033.024 7      3011.112          47.125
G23  22996753.560   120848750.260 7      2010.102          43.750    22996752.900   120848750.259 5      2010.102          33.062    22996758.020    94167876.003 5      1566.313          32.937    22996758.020    94167878.006 7      1566.313          47.375
R09  22097846.980   118001230.465 7      6461.744          43.437    22097847.160   118001230.460 7      6461.744          42.625    22097854.900    91778799.171 7      5025.801          45.562    22097855.020    91778800.168 7      5025.801          46.062
R17  23295235.480   124657507.664 6      -702.132          40.312    23295235.840   124657507.679 6      -702.132          40.000    23295248.020    96955886.675 7      -546.102          42.562    23295248.000    96955884.677 7      -546.102          43.000
> 2024 05 06 11 55 54.0000000  0 13
G08  21759604.320   114347488.750 7      3946.359          46.312    21759603.160   114347488.750 5      3946.359          35.250    21759609.280    89101959.381 5      3075.085          35.125    21759609.760    89101963.396 7      3075.085          47.687
G21  21799593.620   114557649.663 7      5178.288          44.062    21799591.340   114557649.665 5      5178.288          31.937    21799598.260    89265711.654 5      4035.030          31.750
G27  20710392.580   108833837.773 7      2458.769          47.500    20710391.100   108833837.783 8      2458.769          48.875    20710396.460    84805607.950 8      1915.924          48.875    20710396.900    84805607.956 8      1915.924          50.000
R16  19050693.460   101765377.509 8      3131.715          48.687    19050693.420   101765377.515 8      3131.715          48.500    19050701.200    79150884.567 8      2435.779          51.062    19050701.380    79150883.571 8      2435.779          52.062
G16  20298555.760   106669626.932 7      2422.498          45.187    20298554.520   106669626.940 6      2422.498          40.250    20298557.300    83119194.961 6      1887.661          40.062
R18  20130792.020   107459523.897 8       509.294          48.125    20130791.980   107459523.906 8       509.294          48.250    20130799.620    83579663.171 8       396.117          50.000    20130799.480    83579664.170 8       396.117          50.437
G26  21493035.660   112946652.151 7       412.742          47.625    21493034.760   112946652.153 7       412.742          46.812    21493041.580    88010403.904 7       321.617          46.750    21493042.320    88010406.908 8       321.617          48.812
R15  20827062.440   111293494.988 7      -698.675          46.875    20827061.540   111293494.982 7      -698.675          47.000    20827072.320    86561644.641 8      -543.414          48.437    20827072.240    86561646.651 8      -543.414          48.625
G18  25132804.920   132073770.141 6      -777.243          36.937    25132804.080   132073770.143 3      -777.243          19.875    25132811.740   102914654.369 3      -605.644          20.625    25132811.420   102914658.360 7      -605.644          42.062
G10  22319835.660   117291524.930 7      3863.700          46.812    22319834.860   117291524.932 7      3863.700          45.062    22319841.840    91396023.285 7      3010.675          45.187    22319842.180    91396022.290 7      3010.675          47.437
G23  22996371.120   120846740.724 7      2009.387          44.437    22996370.580   120846740.726 5      2009.387          33.000    22996375.640    94166310.137 5      1565.756          32.937    22996375.880    94166312.142 7      1565.756          47.687
R09  22096636.980   117994769.015 7      6461.489          43.125    22096637.100   117994769.013 7      6461.489          42.625    22096644.900    91773773.609 7      5025.603          45.375    22096644.900    91773774.602 7      5025.603          46.125
R17  23295366.960   124658209.937 6      -701.967          40.312    23295367.160   124658209.942 6      -701.967          40.000    23295379.460    96956432.885 7      -545.974          42.437    23295379.180    96956430.884 7      -545.974          42.937
> 2024 05 06 11 55 55.0000000  0 13
G08  21758853.280   114343542.355 7      3946.631          45.750    21758852.120   114343542.357 5      3946.631          35.187    21758858.180    89098884.272 5      3075.297          34.875    21758858.780    89098888.289 8      3075.297          48.062
G21  21798608.360   114552471.559 7      5178.175          44.000    21798605.980   114552471.566 5      5178.175          31.500    21798613.120    89261676.782 5      4034.941          31.750
G27  20709924.800   108831378.936 7      2459.077          47.562    20709923.240   108831378.941 8      2459.077          48.875    20709928.520    84803691.969 8      1916.164          48.875    20709929.120    84803691.974 8      1916.164          49.437
R16  19050107.200   101762246.163 8      3131.190          48.812    19050107.180   101762246.164 8      3131.190          48.187    19050115.040    79148449.074 8      2435.370          51.125    19050115.020    79148448.075 8      2435.370          51.312
G16  20298095.020   106667204.495 7      2422.495          44.437    20298093.460   106667204.505 6      2422.495          40.312    20298096.400    83117307.349 6      1887.659          39.687
R18  20130696.220   107459014.659 7       509.345          47.625    20130696.460   107459014.662 8       509.345          48.187    20130704.200    83579267.091 8       396.157          50.187    20130704.140    83579268.090 8       396.157          50.437
G26  21492957.260   112946239.530 7       412.715          47.125    21492956.220   112946239.530 7       412.715          47.187    21492963.140    88010082.378 7       321.596          46.750    21492963.860    88010085.380 8       321.596          48.375
R15  20827192.940   111294193.864 7      -698.841          46.937    20827192.140   111294193.860 7      -698.841          46.187    20827202.960    86562188.209 8      -543.543          48.875    20827203.000    86562190.215 8      -543.543          48.500
G18  25132953.180   132074547.421 6      -776.946          36.812    25132951.900   132074547.421 3      -776.946          19.875    25132959.620   102915260.040 3      -605.413          20.625    25132959.700   102915264.047 7      -605.413          42.062
G10  22319100.660   117287661.351 7      3863.675          46.562    22319099.620   117287661.356 7      3863.675          44.937    22319106.680    91393012.708 7      3010.656          44.875    22319106.740    91393011.709 7      3010.656          47.000
G23  22995988.900   120844731.526 7      2009.086          44.312    22995988.260   120844731.534 5      2009.086          33.000    22995993.320    94164744.529 5      1565.521          32.687    22995993.520    94164746.532 7      1565.521          47.562
R09  22095426.980   117988307.642 7      6461.454          43.125    22095427.080   117988307.646 7      6461.454          43.000    22095435.060    91768748.105 7      5025.576          45.500    22095434.980    91768749.099 7      5025.576          46.312
R17  23295498.520   124658911.828 6      -701.499          40.625    23295497.960   124658911.829 6      -701.499          40.000    23295510.540    96956978.796 7      -545.610          42.562    23295510.420    96956976.802 7      -545.610          42.937
> 2024 05 06 11 55 56.0000000  0 13
G08  21758102.300   114339595.808 7      3946.504          45.875    21758101.340   114339595.812 5      3946.504          35.187    21758107.160    89095809.047 5      3075.198          34.875    21758107.520    89095813.062 8      3075.198          48.125
G21  21797623.180   114547293.643 7      5177.699          44.187    21797620.660   114547293.651 5      5177.699          31.500    21797627.740    89257642.053 5      4034.571          31.750
G27  20709456.940   108828919.974 7      2458.986          47.875    20709455.260   108828919.981 8      2458.986          49.125    20709460.560    84801775.903 8      1916.093          48.875    20709460.980    84801775.901 8      1916.093          49.500
R16  19049520.940   101759115.365 8      3130.420          49.375    19049521.000   101759115.366 8      3130.420          48.562    19049528.920    79146014.011 8      2434.771          51.500    19049529.100    79146013.010 8      2434.771          51.437
G16  20297634.220   106664782.234 7      2422.110          44.875    20297632.580   106664782.239 6      2422.110          40.375    20297635.440    83115419.871 6      1887.358          40.000
R18  20130601.060   107458505.386 7       509.180          47.500    20130601.060   107458505.387 7       509.180          47.687    20130608.740    83578870.991 8       396.029          50.312    20130608.660    83578871.989 8       396.029          50.250
G26  21492878.820   112945827.018 7       412.338          47.625    21492877.760   112945827.020 7       412.338          47.000    21492884.540    88009760.935 7       321.302          46.625    21492885.380    88009763.937 8       321.302          48.687
R15  20827323.840   111294892.958 7      -699.378          47.062    20827322.780   111294892.957 7      -699.378          46.437    20827333.760    86562731.947 8      -543.961          48.875    20827333.780    86562733.959 8      -543.961          48.250
G18  25133100.920   132075324.410 6      -776.827          36.875    25133099.720   132075324.410 3      -776.827          21.125    25133107.360   102915865.484 3      -605.319          20.625    25133107.740   102915869.474 6      -605.319          41.625
G10  22318365.280   117283797.957 7      3863.183          46.625    22318364.420   117283797.967 7      3863.183          45.187    22318371.540    91390002.279 7      3010.272          45.562    22318371.680    91390001.282 7      3010.272          47.062
G23  22995606.440   120842722.608 7      2008.636          44.812    22995605.840   120842722.613 5      2008.636          32.625    22995611.120    94163179.138 5      1565.171          32.687    22995611.560    94163181.140 7      1565.171          47.500
R09  22094216.800   117981846.262 7      6461.256          42.187    22094216.680   117981846.263 7      6461.256          42.875    22094224.740    91763722.593 7      5025.421          45.500    22094224.940    91763723.589 7      5025.421          46.312
R17  23295629.880   124659613.309 6      -701.269          40.625    23295629.760   124659613.302 6      -701.269          40.250    23295641.460    96957524.382 7      -545.432          42.687    23295641.380    96957522.390 7      -545.432          43.000
> 2024 05 06 11 55 57.0000000  0 13
G08  21757351.160   114335649.176 7      3946.379          45.937    21757350.320   114335649.176 5      3946.379          35.375    21757356.140    89092733.749 5      3075.101          35.250    21757356.680    89092737.767 7      3075.101          47.750
G21  21796637.880   114542115.978 7      5177.380          44.062    21796635.480   114542115.980 5      5177.380          31.500    21796642.400    89253607.518 5      4034.322          31.562
G27  20708988.940   108826460.988 7      2458.803          47.750    20708987.320   108826460.993 8      2458.803          49.000    20708992.680    84799859.810 8      1915.951          48.375    20708993.100    84799859.810 8      1915.951          50.000
R16  19048934.900   101755985.218 8      3129.570          48.937    19048935.100   101755985.211 8      3129.570          48.125    19048942.960    79143579.452 8      2434.110          51.250    19048943.060    79143578.449 8      2434.110          51.437
G16  20297173.240   106662360.251 7      2421.563          45.562    20297171.740   106662360.258 6      2421.563          40.250    20297174.640    83113532.611 6      1886.932          39.562
R18  20130505.680   107457996.172 7       508.974          47.812    20130505.600   107457996.170 7       508.974          47.750    20130513.320    83578474.932 8       395.869          50.312    20130513.280    83578475.933 8       395.869          50.375
G26  21492800.240   112945414.674 7       412.033          47.625    21492799.240   112945414.676 7       412.033          46.937    21492806.120    88009439.632 7       321.065          46.750    21492806.920    88009442.632 8       321.065          48.812
R15  20827454.700   111295592.381 7      -699.829          46.500    20827453.780   111295592.377 7      -699.829          46.687    20827464.840    86563275.937 8      -544.312          48.687    20827464.640    86563277.947 8      -544.312          48.375
G18  25133249.000   132076101.178 6      -776.866          36.875    25133247.520   132076101.177 3      -776.866          21.125    25133255.240   102916470.757 3      -605.351          20.625    25133255.520   102916474.768 6      -605.351          41.750
G10  22317630.020   117279934.857 7      3862.760          46.625    22317629.260   117279934.859 7      3862.760          44.812    22317636.360    91386992.067 7      3009.943          45.125    22317636.360    91386991.070 7      3009.943          47.437
G23  22995224.280   120840714.070 7      2008.197          45.562    22995223.560   120840714.075 5      2008.197          32.625    22995228.840    94161614.046 5      1564.829          32.625    22995228.960    94161616.044 7      1564.829          47.437
R09  22093007.120   117975384.945 7      6461.063          43.000    22093007.100   117975384.949 7      6461.063          42.750    22093014.340    91758697.133 7      5025.271          45.875    22093014.900    91758698.135 7      5025.271          45.937
R17  23295760.540   124660314.431 6      -701.126          40.625    23295760.460   124660314.441 6      -701.126          40.250    23295772.480    96958069.718 7      -545.321          42.750    23295772.900    96958067.723 7      -545.321          43.062
> 2024 05 06 11 55 58.0000000  0 13
G08  21756600.240   114331702.671 7      3946.436          45.875    21756599.220   114331702.676 5      3946.436          35.562    21756605.040    89089658.556 5      3075.145          35.437    21756605.780    89089662.572 8      3075.145          48.000
G21  21795652.760   114536938.790 7      5176.989          44.562    21795650.420   114536938.795 5      5176.989          31.500    21795657.220    89249573.357 5      4034.017          31.562
G27  20708520.920   108824002.172 7      2458.734          47.625    20708519.420   108824002.180 8      2458.734          48.125    20708524.780    84797943.854 8      1915.897          48.375    20708525.020    84797943.854 8      1915.897          50.625
R16  19048349.080   101752855.899 8      3128.891          48.312    19048349.220   101752855.898 7      3128.891          47.875    19048357.140    79141145.540 8      2433.582          51.375    19048357.480    79141144.537 8      2433.582          51.812
G16  20296712.640   106659938.702 7      2421.397          45.062    20296710.860   106659938.712 6      2421.397          40.062    20296713.900    83111645.692 6      1886.803          39.375
R18  20130410.440   107457487.213 7       508.776          47.125    20130410.340   107457487.212 7       508.776          47.250    20130418.000    83578079.075 8       395.714          50.312    20130418.000    83578080.077 8       395.714          50.500
G26  21492721.840   112945002.742 7       411.650          47.250    21492720.840   112945002.750 7       411.650          46.937    21492727.740    88009118.651 7       320.767          46.375    21492728.340    88009121.650 8       320.767          48.625
R15  20827585.500   111296292.368 7      -700.265          46.750    20827584.620   111296292.369 7      -700.265          46.000    20827595.860    86563820.369 8      -544.650          48.937    20827595.540    86563822.379 8      -544.650          48.625
G18  25133396.820   132076877.951 6      -776.643          37.250    25133395.320   132076877.953 3      -776.643          21.125    25133403.060   102917076.035 3      -605.177          20.625    25133403.180   102917080.036 6      -605.177          41.750
G10  22316894.900   117276072.238 7      3862.379          46.437    22316894.220   117276072.240 7      3862.379          45.500    22316901.240    91383982.238 7      3009.646          45.375    22316901.500    91383981.241 7      3009.646          47.125
G23  22994842.200   120838706.168 7      2007.580          44.562    22994841.440   120838706.171 5      2007.580          32.875    22994846.800    94160049.445 5      1564.348          32.625    22994847.100    94160051.445 7      1564.348          47.625
R09  22091797.320   117968923.978 7      6460.724          42.937    22091797.200   117968923.977 7      6460.724          42.750    22091804.640    91753671.941 7      5025.008          45.250    22091804.580    91753672.941 7      5025.008          45.875
R17  23295892.420   124661015.460 6      -700.949          39.875    23295891.240   124661015.456 6      -700.949          40.250    23295903.460    96958614.948 7      -545.183          42.750    23295903.720    96958612.955 7      -545.183          43.062
> 2024 05 06 11 55 59.0000000  0 13
G08  21755849.300   114327756.270 7      3946.312          46.437    21755848.340   114327756.275 5      3946.312          35.437    21755854.100    89086583.441 5      3075.048          35.187    21755854.940    89086587.459 7      3075.048          47.875
G21  21794667.700   114531762.065 7      5176.476          44.562    21794665.380   114531762.068 5      5176.476          31.500    21794672.140    89245539.553 5      4033.618          31.562
G27  20708052.900   108821543.491 7      2458.615          47.000    20708051.560   108821543.496 8      2458.615          48.687    20708056.880    84796028.000 8      1915.804          49.437    20708057.120    84796028.003 8      1915.804          50.187
R16  19047763.640   101749727.393 7      3128.118          47.812    19047763.600   101749727.394 8      3128.118          48.062    19047771.500    79138712.259 8      2432.980          50.937    19047771.660    79138711.256 8      2432.980          51.562
G16  20296251.780   106657517.633 7      2420.841          45.875    20296250.080   106657517.643 6      2420.841          40.312    20296253.160    83109759.153 6      1886.369          39.875
R18  20130315.120   107456978.498 7       508.550          45.687    20130314.860   107456978.496 7       508.550          47.875    20130322.720    83577683.412 8       395.539          50.625    20130322.480    83577684.414 8       395.539          50.000
G26  21492643.620   112944591.157 7       411.340          47.312    21492642.580   112944591.162 7       411.340          46.812    21492649.360    88008797.937 7       320.524          46.625    21492649.920    88008800.937 8       320.524          48.375
R15  20827716.900   111296992.900 7      -700.846          46.437    20827715.820   111296992.907 7      -700.846          46.500    20827726.880    86564365.229 8      -545.102          49.000    20827726.760    86564367.241 8      -545.102          48.375
G18  25133544.400   132077654.724 6      -776.782          37.250    25133543.220   132077654.721 3      -776.782          21.125    25133550.860   102917681.311 3      -605.285          20.625    25133550.820   102917685.303 6      -605.285          41.750
G10  22316160.100   117272210.055 7      3861.961          46.687    22316159.220   117272210.060 7      3861.961          45.625    22316166.400    91380972.755 7      3009.320          45.375    22316166.400    91380971.760 7      3009.320          47.312
G23  22994460.120   120836698.795 7      2007.035          44.500    22994459.520   120836698.797 5      2007.035          32.875    22994464.600    94158485.262 5      1563.923          32.812    22994465.140    94158487.268 8      1563.923          48.000
R09  22090587.340   117962463.244 7      6460.668          43.125    22090587.300   117962463.248 7      6460.668          42.562    22090594.700    91748646.932 7      5024.964          45.312    22090594.740    91748647.931 7      5024.964          45.375
R17  23296023.280   124661716.270 6      -700.849          39.875    23296022.220   124661716.274 6      -700.849          39.937    23296034.220    96959160.035 7      -545.105          43.000    23296034.540    96959158.041 7      -545.105          42.875
> 2024 05 06 11 56  0.0000000  0 13
G08  21755098.520   114323809.833 7      3946.637          46.187    21755097.260   114323809.833 5      3946.637          35.250    21755103.180    89083508.296 5      3075.301          35.125    21755103.720    89083512.309 8      3075.301          48.000
G21  21793682.480   114526585.614 7      5176.439          44.500    21793680.400   114526585.619 5      5176.439          31.625    21793687.020    89241505.971 5      4033.589          31.812
G27  20707585.240   108819084.823 7      2458.841          47.875    20707583.740   108819084.828 8      2458.841          49.250    20707589.080    84794112.155 8      1915.980          49.062    20707589.380    84794112.157 8      1915.980          49.812
R16  19047177.700   101746599.573 8      3127.645          48.562    19047177.960   101746599.579 7      3127.645          47.937    19047185.820    79136279.520 8      2432.613          51.250    19047186.120    79136278.515 8      2432.613          51.125
G16  20295791.060   106655096.833 7      2420.906          46.687    20295789.260   106655096.838 6      2420.906          39.875    20295792.460    83107872.813 6      1886.420          39.062
R18  20130219.540   107456469.906 7       508.704          47.250    20130219.700   107456469.904 7       508.704          47.625    20130227.380    83577287.844 8       395.659          50.437    20130227.360    83577288.846 8       395.659          50.625
G26  21492565.320   112944179.793 8       411.441          48.375    21492564.260   112944179.793 7       411.441          46.812    21492571.120    88008477.388 7       320.603          46.687    21492571.820    88008480.391 8       320.603          48.687
R15  20827847.840   111297693.745 7      -700.880          47.125    20827847.100   111297693.759 7      -700.880          45.812    20827858.060    86564910.337 8      -545.129          48.875    20827857.980    86564912.345 8      -545.129          49.000
G18  25133691.880   132078431.274 6      -776.234          37.062    25133691.000   132078431.271 3      -776.234          21.125    25133698.600   102918286.414 3      -604.858          20.625    25133698.960   102918290.417 6      -604.858          41.750
G10  22315425.180   117268348.187 7      3861.916          46.187    22315424.340   117268348.192 7      3861.916          45.312    22315431.540    91377963.514 7      3009.285          45.375    22315431.660    91377962.517 7      3009.285          47.062
G23  22994078.320   120834691.857 7      2006.827          43.437    22994077.540   120834691.857 5      2006.827          32.750    22994082.840    94156921.412 5      1563.762          32.812    22994083.260    94156923.413 7      1563.762          47.187
R09  22089377.040   117956002.667 7      6460.623          42.812    22089377.260   117956002.668 7      6460.623          42.562    22089384.760    91743622.040 7      5024.929          45.062    22089384.560    91743623.042 7      5024.929          45.125
R17  23296153.800   124662416.779 6      -700.291          39.875    23296152.820   124662416.784 6      -700.291          39.937    23296165.500    96959704.880 7      -544.671          42.750    23296165.540    96959702.888 7      -544.671          43.250
> 2024 05 06 11 56  1.0000000  0 13
G08  21754347.360   114319863.123 7      3946.911          45.375    21754346.100   114319863.125 5      3946.911          35.250    21754352.080    89080432.943 5      3075.515          35.125    21754352.560    89080436.967 7      3075.515          47.625
G21  21792697.560   114521409.241 7      5176.444          44.875    21792695.320   114521409.246 5      5176.444          31.625    21792701.900    89237472.440 5      4033.593          31.812
G27  20707117.120   108816625.929 7      2459.086          47.625    20707115.780   108816625.931 8      2459.086          49.312    20707121.100    84792196.138 8      1916.171          49.500    20707121.640    84792196.138 8      1916.171          49.750
R16  19046592.280   101743472.225 8      3127.232          48.875    19046592.660   101743472.229 8      3127.232          48.187    19046600.540    79133847.141 8      2432.291          50.750    19046600.680    79133846.140 8      2432.291          51.875
G16  20295330.440   106652676.138 7      2420.708          46.500    20295328.680   106652676.148 6      2420.708          40.250    20295331.900    83105986.561 6      1886.266          39.625
R18  20130124.560   107455961.191 7       508.921          47.500    20130124.400   107455961.192 7       508.921          47.187    20130132.000    83576892.177 8       395.827          50.437    20130132.200    83576893.183 8       395.827          50.750
G26  21492486.860   112943768.442 7       411.432          47.687    21492486.000   112943768.444 7       411.432          46.812    21492492.820    88008156.856 7       320.597          46.562    21492493.640    88008159.854 8       320.597          48.500
R15  20827979.120   111298394.742 7      -700.929          46.687    20827978.740   111298394.745 7      -700.929          46.250    20827989.400    86565455.542 8      -545.167          48.562    20827989.200    86565457.544 8      -545.167          49.562
G18  25133839.760   132079207.448 6      -775.771          37.062    25133838.680   132079207.445 3      -775.771          21.125    25133846.280   102918891.225 3      -604.497          21.250    25133846.840   102918895.230 7      -604.497          42.125
G10  22314690.440   117264486.403 7      3861.897          45.875    22314689.460   117264486.408 7      3861.897          45.125    22314696.640    91374954.338 7      3009.270          44.812    22314697.100    91374953.339 7      3009.270          47.687
G23  22993696.700   120832685.106 7      2006.639          44.000    22993695.540   120832685.109 5      2006.639          32.750    22993700.960    94155357.716 5      1563.615          33.000    22993701.380    94155359.727 7      1563.615          47.750
R09  22088167.540   117949541.954 7      6460.937          43.062    22088167.180   117949541.966 7      6460.937          42.562    22088174.260    91738597.054 7      5025.173          44.687    22088174.720    91738598.051 7      5025.173          45.062
R17  23296283.900   124663116.810 6      -699.684          40.625    23296284.740   124663116.806 6      -699.684          39.937    23296296.280    96960249.325 7      -544.199          42.937    23296296.280    96960247.332 7      -544.199          43.562
> 2024 05 06 11 56  2.0000000  0 13
G08  21753596.040   114315916.381 7      3946.700          45.562    21753595.220   114315916.381 5      3946.700          35.375    21753601.020    89077357.568 5      3075.351          35.062    21753601.660    89077361.579 7      3075.351          47.812
G21  21791712.860   114516233.181 7      5175.901          43.562    21791710.380   114516233.186 5      5175.901          31.625    21791716.840    89233439.158 5      4033.169          32.000
G27  20706649.180   108814167.019 7      2458.829          47.750    20706647.860   108814167.029 8      2458.829          48.875    20706653.160    84790280.114 8      1915.971          48.875    20706653.540    84790280.112 8      1915.971          49.500
R16  19046006.880   101740345.578 8      3126.252          49.250    19046007.260   101740345.576 7      3126.252          47.812    19046015.180    79131415.302 8      2431.530          51.375    19046015.520    79131414.303 8      2431.530          51.375
G16  20294869.620   106650255.716 7      2420.279          46.375    20294868.240   106650255.723 6      2420.279          40.375    20294871.180    83104100.520 6      1885.932          39.687
R18  20130028.920   107455452.569 7       508.525          47.687    20130029.080   107455452.570 7       508.525          47.562    20130036.880    83576496.584 8       395.519          50.000    20130037.100    83576497.592 8       395.519          50.437
G26  21492408.360   112943357.293 7       411.078          47.937    21492407.860   112943357.295 7       411.078          46.937    21492414.700    88007836.481 7       320.321          46.562    21492415.200    88007839.482 8       320.321          48.625
R15  20828110.020   111299096.078 7      -701.545          47.062    20828110.380   111299096.079 7      -701.545          46.062    20828120.880    86566001.019 8      -545.646          49.125    20828120.720    86566003.025 8      -545.646          48.812
G18  25133987.560   132079983.474 6      -776.007          36.937    25133986.540   132079983.469 3      -776.007          21.125    25133993.880   102919495.923 3      -604.681          21.250    25133993.900   102919499.912 6      -604.681          41.875
G10  22313955.660   117260624.951 7      3861.181          46.187    22313954.580   117260624.958 7      3861.181          45.562    22313961.820    91371945.418 7      3008.712          45.312    22313962.140    91371944.425 7      3008.712          47.437
G23  22993314.820   120830678.773 7      2006.034          43.875    22993313.820   120830678.778 5      2006.034          33.062    22993319.160    94153794.344 5      1563.144          33.000    22993319.640    94153796.351 7      1563.144          47.562
R09  22086957.440   117943081.396 7      6460.491          43.562    22086957.680   117943081.405 7      6460.491          42.312    22086964.240    91733572.177 7      5024.826          44.812    22086964.500    91733573.179 7      5024.826          45.500
R17  23296415.000   124663816.533 6      -699.608          40.625    23296414.920   124663816.538 6      -699.608          39.875    23296427.120    96960793.569 7      -544.139          42.937    23296426.700    96960791.576 7      -544.139          43.250
> 2024 05 06 11 56  3.0000000  0 13
G08  21752845.180   114311969.563 7      3946.682          45.562    21752844.220   114311969.563 5      3946.682          35.875    21752850.060    89074282.130 5      3075.337          35.625    21752850.680    89074286.141 8      3075.337          48.437
G21  21790727.940   114511057.402 7      5175.467          44.312    21790725.540   114511057.407 5      5175.467          32.062    21790731.800    89229406.094 5      4032.832          32.000
G27  20706181.080   108811708.114 8      2458.717          48.062    20706179.940   108811708.119 8      2458.717          48.437    20706185.260    84788364.080 8      1915.883          48.625    20706185.860    84788364.079 8      1915.883          50.187
R16  19045421.980   101737219.606 8      3125.359          48.687    19045422.000   101737219.609 8      3125.359          48.062    19045429.940    79128983.992 8      2430.835          51.187    19045430.220    79128982.998 8      2430.835          51.437
G16  20294409.320   106647835.590 7      2419.855          46.687    20294407.680   106647835.598 6      2419.855          40.375    20294410.580    83102214.710 6      1885.601          39.750
R18  20129933.940   107454944.024 7       508.327          47.812    20129934.000   107454944.023 7       508.327          47.312    20129941.380    83576101.052 8       395.366          50.250    20129941.740    83576102.058 8       395.366          49.937
G26  21492330.460   112942946.352 7       410.658          47.812    21492329.580   112942946.354 7       410.658          47.000    21492336.440    88007516.265 7       319.993          47.000    21492336.840    88007519.275 8       319.993          48.375
R15  20828241.980   111299797.732 7      -701.960          47.062    20828241.780   111299797.736 7      -701.960          46.500    20828251.960    86566546.750 8      -545.969          48.687    20828251.640    86566548.752 8      -545.969          49.062
G18  25134135.700   132080759.275 6      -775.955          37.187    25134134.240   132080759.272 3      -775.955          21.125    25134141.500   102920100.446 3      -604.641          21.250    25134141.820   102920104.449 6      -604.641          41.875
G10  22313220.800   117256763.763 7      3860.780          46.437    22313219.840   117256763.768 7      3860.780          45.687    22313227.080    91368936.709 7      3008.400          45.500    22313227.340    91368935.712 7      3008.400          47.062
G23  22992932.920   120828672.837 7      2005.642          43.312    22992932.080   120828672.842 5      2005.642          33.062    22992937.400    94152231.279 5      1562.838          32.625    22992938.000    94152233.283 7      1562.838          47.750
R09  22085747.980   117936620.918 7      6460.356          43.562    22085747.780   117936620.919 7      6460.356          42.250    22085754.380    91728547.363 7      5024.721          44.750    22085754.980    91728548.361 7      5024.721          45.000
R17  23296546.040   124664515.949 6      -699.537          40.687    23296545.460   124664515.961 6      -699.537          39.875    23296557.760    96961337.563 7      -544.085          43.125    23296557.720    96961335.570 7      -544.085          43.062
> 2024 05 06 11 56  4.0000000  0 13
G08  21752094.160   114308022.722 7      3946.704          45.437    21752093.040   114308022.724 5      3946.704          35.562    21752099.040    89071206.671 5      3075.354          35.375    21752099.960    89071210.682 7      3075.354          47.875
G21  21789742.760   114505881.922 7      5175.164          44.562    21789740.620   114505881.924 5      5175.164          32.062    21789746.960    89225373.261 5      4032.596          32.000
G27  20705713.300   108809249.186 7      2458.776          47.562    20705712.020   108809249.188 8      2458.776          49.000    20705717.340    84786448.032 8      1915.929          48.562    20705717.920    84786448.033 8      1915.929          50.125
R16  19044837.100   101734094.317 8      3124.742          48.750    19044837.180   101734094.319 8      3124.742          48.125    19044844.880    79126553.211 8      2430.355          51.312    19044844.920    79126552.218 8      2430.355          51.312
G16  20293948.900   106645415.752 7      2419.538          46.812    20293947.200   106645415.762 6      2419.538          40.437    20293950.140    83100329.126 6      1885.354          39.687
R18  20129838.780   107454435.582 7       508.290          47.750    20129838.400   107454435.580 7       508.290          47.875    20129846.240    83575705.594 8       395.337          50.250    20129846.260    83575706.602 8       395.337          50.375
G26  21492252.160   112942535.634 8       410.514          48.250    21492251.460   112942535.634 7       410.514          46.812    21492258.400    88007196.225 7       319.881          46.687    21492258.740    88007199.231 8       319.881          48.250
R15  20828373.500   111300499.779 7      -702.378          47.437    20828373.060   111300499.777 7      -702.378          46.687    20828383.180    86567092.776 8      -546.294          48.750    20828383.120    86567094.776 8      -546.294          48.375
G18  25134282.640   132081534.887 6      -775.605          37.187    25134281.800   132081534.881 3      -775.605          21.125    25134289.080   102920704.820 3      -604.368          21.250    25134289.480   102920708.823 6      -604.368          41.812
G10  22312485.920   117252902.894 7      3860.570          46.125    22312485.060   117252902.891 7      3860.570          45.500    22312492.320    91365928.237 7      3008.236          45.437    22312492.840    91365927.242 7      3008.236          47.312
G23  22992551.260   120826667.345 7      2005.050          44.250    22992550.460   120826667.352 5      2005.050          32.812    22992555.680    94150668.562 5      1562.377          32.625    22992556.140    94150670.564 7      1562.377          47.375
R09  22084537.840   117930160.603 7      6460.129          42.562    22084537.780   117930160.614 7      6460.129          42.250    22084545.020    91723522.680 7      5024.545          44.937    22084545.200    91723523.679 7      5024.545          45.312
R17  23296676.420   124665215.019 6      -699.087          40.687    23296676.180   124665215.015 6      -699.087          39.875    23296688.180    96961881.270 7      -543.735          42.500    23296688.160    96961879.281 7      -543.735          42.562
> 2024 05 06 11 56  5.0000000  0 13
G08  21751343.080   114304075.932 7      3946.876          45.437    21751342.120   114304075.929 5      3946.876          35.625    21751347.860    89068131.252 5      3075.488          35.375    21751349.040    89068135.268 8      3075.488          48.125
G21  21788758.120   114500706.837 7      5174.900          44.562    21788755.780   114500706.844 5      5174.900          32.375    21788762.240    89221340.733 5      4032.390          32.187
G27  20705245.460   108806790.370 7      2458.878          47.500    20705244.220   108806790.370 7      2458.878          47.750    20705249.420    84784532.072 8      1916.009          48.125    20705250.040    84784532.073 8      1916.009          49.375
R16  19044252.260   101730969.777 8      3124.241          48.937    19044252.300   101730969.781 8      3124.241          48.562    19044259.940    79124123.021 8      2429.965          51.187    19044260.040    79124122.024 8      2429.965          51.187
G16  20293488.300   106642996.297 7      2419.483          45.687    20293486.900   106642996.307 6      2419.483          39.812    20293489.680    83098443.836 6      1885.311          39.312
R18  20129743.640   107453927.363 7       508.184          47.000    20129743.220   107453927.366 7       508.184          47.562    20129750.840    83575310.319 8       395.254          50.312    20129751.100    83575311.325 8       395.254          50.562
G26  21492174.380   112942125.255 7       410.253          46.437    21492173.340   112942125.260 7       410.253          46.375    21492180.300    88006876.453 7       319.678          46.500    21492180.800    88006879.459 8       319.678          48.562
R15  20828504.920   111301202.285 8      -702.621          48.062    20828504.640   111301202.289 7      -702.621          46.750    20828514.600    86567639.174 8      -546.483          48.562    20828514.460    86567641.180 7      -546.483          47.687
G18  25134430.460   132082310.441 6      -775.267          37.187    25134429.500   132082310.438 3      -775.267          21.875    25134436.540   102921309.152 3      -604.104          21.250    25134436.780   102921313.153 7      -604.104          42.125
G10  22311751.220   117249042.427 7      3860.291          46.187    22311750.440   117249042.432 7      3860.291          45.312    22311757.640    91362920.091 7      3008.019          45.125    22311757.960    91362919.094 7      3008.019          47.187
G23  22992169.660   120824662.357 7      2004.830          43.000    22992168.820   120824662.364 5      2004.830          32.812    22992174.220    94149106.235 5      1562.205          32.875    22992174.760    94149108.238 7      1562.205          47.125
R09  22083328.160   117923700.536 7      6460.054          42.125    22083328.040   117923700.539 7      6460.054          42.562    22083335.400    91718498.177 7      5024.487          44.312    22083335.680    91718499.175 7      5024.487          45.187
R17  23296807.420   124665913.870 6      -698.754          40.687    23296806.280   124665913.877 6      -698.754          39.750    23296818.760    96962424.835 7      -543.475          42.937    23296818.580    96962422.842 7      -543.475          42.562
> 2024 05 06 11 56  6.0000000  0 13
G08  21750592.080   114300128.972 7      3947.118          45.937    21750591.040   114300128.975 5      3947.118          35.625    21750596.780    89065055.703 5      3075.676          35.562    21750597.980    89065059.717 8      3075.676          48.500
G21  21787773.240   114495531.930 7      5174.927          44.500    21787771.140   114495531.938 5      5174.927          32.375    21787777.340    89217308.343 5      4032.411          32.187
G27  20704777.540   108804331.437 7      2458.998          47.000    20704776.260   108804331.442 8      2458.998          48.375    20704781.520    84782616.026 8      1916.102          48.625    20704782.280    84782616.027 8      1916.102          49.750
R16  19043667.560   101727845.787 8      3123.787          48.062    19043667.700   101727845.788 8      3123.787          48.312    19043675.100    79121693.251 8      2429.612          51.125    19043675.240    79121692.254 8      2429.612          51.687
G16  20293028.140   106640577.052 7      2419.335          46.687    20293026.500   106640577.057 6      2419.335          40.312    20293029.380    83096558.708 6      1885.196          39.750
R18  20129648.060   107453419.131 7       508.287          46.312    20129648.220   107453419.137 7       508.287          47.437    20129655.700    83574915.028 8       395.334          49.687    20129655.700    83574916.031 8       395.334          50.000
G26  21492096.180   112941714.961 7       410.269          46.875    21492095.120   112941714.963 7       410.269          47.000    21492102.120    88006556.741 7       319.690          46.812    21492102.440    88006559.747 8       319.690          48.437
R15  20828636.420   111301905.067 7      -702.807          47.187    20828635.820   111301905.071 7      -702.807          46.687    20828646.080    86568185.780 8      -546.627          48.562    20828645.940    86568187.786 7      -546.627          47.875
G18  25134578.120   132083085.703 6      -774.920          37.187    25134577.040   132083085.705 3      -774.920          21.875    25134584.020   102921913.253 3      -603.834          21.250    25134584.840   102921917.262 7      -603.834          42.125
G10  22311016.720   117245182.133 7      3860.316          45.312    22311015.740   117245182.138 7      3860.316          44.937    22311023.120    91359912.072 7      3008.038          44.937    22311023.300    91359911.079 7      3008.038          47.187
G23  22991788.280   120822657.655 7      2004.731          43.250    22991787.220   120822657.660 5      2004.731          32.937    22991792.900    94147544.130 5      1562.128          32.875    22991793.120    94147546.139 7      1562.128          47.812
R09  22082118.380   117917240.421 7      6460.156          43.250    22082118.500   117917240.422 7      6460.156          42.375    22082125.840    91713473.647 7      5024.566          45.062    22082125.840    91713474.641 7      5024.566          45.125
R17  23296937.760   124666612.325 6      -698.127          41.125    23296937.360   124666612.332 6      -698.127          39.750    23296949.340    96962968.072 7      -542.988          42.937    23296948.940    96962966.074 7      -542.988          42.500
> 2024 05 06 11 56  7.0000000  0 13
G08  21749840.840   114296181.963 7      3947.033          46.312    21749839.960   114296181.965 5      3947.033          35.437    21749845.500    89061980.111 5      3075.610          35.312    21749847.080    89061984.124 7      3075.610          47.750
G21  21786788.220   114490357.297 7      5174.524          44.687    21786786.480   114490357.302 5      5174.524          32.375    21786792.540    89213276.171 5      4032.096          32.875
G27  20704309.660   108801872.477 7      2458.849          47.562    20704308.320   108801872.482 8      2458.849          48.250    20704313.720    84780699.960 8      1915.986          48.562    20704314.300    84780699.962 8      1915.986          50.187
R16  19043082.780   101724722.419 8      3123.052          48.937    19043082.800   101724722.415 7      3123.052          47.750    19043090.320    79119263.965 8      2429.041          51.437    19043090.820    79119262.966 8      2429.041          51.562
G16  20292567.780   106638158.075 7      2418.894          47.125    20292566.140   106638158.082 6      2418.894          40.250    20292569.100    83094673.793 6      1884.852          39.687
R18  20129552.980   107452910.955 8       508.126          48.062    20129552.800   107452910.961 7       508.126          47.312    20129560.440    83574519.784 8       395.209          49.937    20129560.600    83574520.789 8       395.209          50.062
G26  21492018.240   112941304.855 7       409.988          46.687    21492017.080   112941304.863 7       409.988          46.687    21492024.100    88006237.182 7       319.471          46.500    21492024.380    88006240.180 8       319.471          48.437
R15  20828767.960   111302608.201 7      -703.298          47.937    20828767.200   111302608.200 7      -703.298          46.437    20828777.700    86568732.652 7      -547.010          47.875    20828777.440    86568734.658 7      -547.010          47.875
G18  25134725.040   132083860.813 6      -775.054          36.437    25134724.520   132083860.818 3      -775.054          21.875    25134731.540   102922517.232 3      -603.938          21.250    25134732.540   102922521.221 6      -603.938          41.687
G10  22310282.020   117241322.149 7      3859.809          46.437    22310281.160   117241322.157 7      3859.809          45.187    22310288.580    91356904.304 7      3007.643          45.000    22310288.720    91356903.316 7      3007.643          46.750
G23  22991406.620   120820653.398 7      2003.983          43.937    22991405.920   120820653.400 5      2003.983          32.937    22991411.560    94145982.371 5      1561.545          32.875    22991411.680    94145984.374 7      1561.545          47.250
R09  22080908.460   117910780.412 7      6459.966          43.562    22080908.260   117910780.403 7      6459.966          42.375    22080916.160    91708449.205 7      5024.418          45.437    22080916.320    91708450.202 7      5024.418          45.562
R17  23297068.280   124667310.515 6      -698.051          41.125    23297067.940   124667310.522 6      -698.051          39.750    23297080.320    96963511.104 7      -542.929          43.250    23297079.760    96963509.105 7      -542.929          43.250
> 2024 05 06 11 56  8.0000000  0 13
G08  21749089.680   114292234.940 7      3947.062          45.312    21749088.760   114292234.934 5      3947.062          35.562    21749094.560    89058904.511 5      3075.632          35.437    21749095.720    89058908.524 8      3075.632          48.437
G21  21785803.520   114485182.997 7      5174.185          44.187    21785801.740   114485183.002 5      5174.185          32.812    21785807.740    89209244.263 5      4031.833          32.875
G27  20703841.820   108799413.538 7      2458.982          47.312    20703840.540   108799413.540 8      2458.982          48.250    20703845.840    84778783.902 8      1916.090          48.750    20703846.420    84778783.906 8      1916.090          50.125
R16  19042498.120   101721599.759 8      3122.372          48.875    19042498.160   101721599.758 8      3122.372          48.750    19042505.840    79116835.229 8      2428.512          51.187    19042506.140    79116834.231 8      2428.512          51.562
G16  20292107.600   106635739.424 7      2418.589          46.750    20292105.940   106635739.431 6      2418.589          39.687    20292108.860    83092789.132 6      1884.615          39.312
R18  20129457.720   107452402.891 8       508.097          48.437    20129457.760   107452402.897 7       508.097          47.937    20129465.420    83574124.617 8       395.187          50.312    20129465.340    83574125.624 8       395.187          50.437
G26  21491940.120   112940895.004 7       409.870          46.375    21491939.160   112940895.007 7       409.870          46.562    21491946.120    88005917.810 7       319.380          46.562    21491946.640    88005920.810 8       319.380          48.562
R15  20828899.660   111303311.685 7      -703.600          47.687    20828898.780   111303311.684 7      -703.600          46.500    20828909.300    86569279.806 8      -547.244          49.187    20828909.280    86569281.815 8      -547.244          48.437
G18  25134872.660   132084635.713 6      -774.777          36.437    25134872.100   132084635.718 3      -774.777          21.875    25134879.020   102923121.050 3      -603.722          21.250    25134879.700   102923125.053 6      -603.722          41.687
G10  22309547.740   117237462.510 7      3859.477          46.187    22309546.780   117237462.517 7      3859.477          44.750    22309554.060    91353896.793 7      3007.384          44.812    22309554.420    91353895.798 7      3007.384          46.750
G23  22991025.460   120818649.553 7      2003.572          43.687    22991024.540   120818649.558 5      2003.572          33.000    22991030.140    94144420.936 5      1561.225          32.875    22991030.360    94144422.945 7      1561.225          47.312
R09  22079698.660   117904320.607 7      6459.655          43.750    22079698.940   117904320.608 7      6459.655          42.250    22079706.600    91703424.916 7      5024.176          45.750    22079706.520    91703425.911 7      5024.176          46.375
R17  23297198.460   124668008.438 6      -697.741          40.875    23297198.080   124668008.450 6      -697.741          39.812    23297210.320    96964053.937 7      -542.688          43.187    23297209.820    96964051.933 7      -542.688          42.687
> 2024 05 06 11 56  9.0000000  0 13
G08  21748338.540   114288287.896 7      3946.942          45.687    21748337.620   114288287.895 5      3946.942          35.687    21748343.660    89055828.896 5      3075.540          35.437    21748344.580    89055832.908 8      3075.540          48.500
G21  21784818.920   114480009.020 7      5173.826          44.500    21784817.100   114480009.020 5      5173.826          32.812    21784823.080    89205212.602 5      4031.553          32.875
G27  20703374.060   108796954.631 7      2458.888          47.250    20703372.600   108796954.636 8      2458.888          48.750    20703377.860    84776867.872 8      1916.017          48.937    20703378.740    84776867.872 8      1916.017          49.937
R16  19041913.760   101718477.836 8      3121.516          48.375    19041913.560   101718477.835 8      3121.516          48.312    19041921.380    79114407.069 8      2427.846          50.937    19041921.680    79114406.068 8      2427.846          51.812
G16  20291647.340   106633321.096 7      2418.142          46.312    20291645.700   106633321.106 6      2418.142          40.125    20291648.660    83090904.725 6      1884.266          39.500
R18  20129362.320   107451894.965 7       507.840          46.562    20129362.960   107451894.969 7       507.840          47.375    20129370.200    83573729.574 8       394.986          49.812    20129370.260    83573730.578 8       394.986          50.500
G26  21491862.140   112940485.416 7       409.408          46.500    21491861.240   112940485.416 7       409.408          46.812    21491868.160    88005598.651 7       319.019          46.687    21491868.400    88005601.654 8       319.019          48.000
R15  20829031.400   111304015.565 7      -704.137          47.562    20829030.560   111304015.556 7      -704.137          46.187    20829041.060    86569827.262 8      -547.662          48.750    20829040.920    86569829.272 7      -547.662          47.875
G18  25135020.300   132085410.505 6      -774.654          36.750    25135019.480   132085410.512 3      -774.654          21.875    25135026.500   102923724.782 3      -603.627          21.250    25135026.960   102923728.760 6      -603.627          41.500
G10  22308813.460   117233603.185 7      3859.139          46.312    22308812.260   117233603.187 7      3859.139          44.875    22308819.700    91350889.531 7      3007.121          44.937    22308820.040    91350888.545 7      3007.121          47.062
G23  22990644.400   120816646.165 7      2003.087          43.562    22990643.360   120816646.168 5      2003.087          33.000    22990648.900    94142859.857 5      1560.847          32.875    22990649.240    94142861.867 7      1560.847          47.375
R09  22078488.960   117897860.925 6      6459.587          41.812    22078489.440   117897860.926 7      6459.587          42.250    22078497.000    91698400.729 7      5024.123          45.750    22078496.960    91698401.724 7      5024.123          46.062
R17  23297328.900   124668706.020 6      -697.416          40.875    23297327.800   124668706.035 6      -697.416          39.812    23297340.720    96964596.507 7      -542.435          43.062    23297340.340    96964594.506 7      -542.435          43.062
> 2024 05 06 11 56 10.0000000  0 13
G08  21747587.760   114284340.883 7      3946.955          45.312    21747586.540   114284340.878 6      3946.955          36.125    21747592.500    89052753.306 5      3075.549          35.437    21747593.620    89052757.326 8      3075.549          48.062
G21  21783834.600   114474835.428 7      5173.387          43.750    21783832.660   114474835.427 5      5173.387          32.250    21783838.580    89201181.245 5      4031.210          32.500
G27  20702906.100   108794495.810 8      2458.779          48.312    20702904.820   108794495.815 8      2458.779          48.687    20702909.920    84774951.910 8      1915.932          49.062    20702910.760    84774951.910 8      1915.932          50.562
R16  19041329.740   101715356.693 8      3120.760          49.500    19041329.380   101715356.689 7      3120.760          47.937    19041337.020    79111979.516 8      2427.257          51.187    19041337.360    79111978.517 8      2427.257          51.500
G16  20291187.300   106630903.170 7      2417.794          46.687    20291185.660   106630903.172 6      2417.794          39.937    20291188.560    83089020.623 6      1883.996          39.500
R18  20129267.340   107451387.240 8       507.655          48.500    20129267.560   107451387.244 8       507.655          48.000    20129274.940    83573334.677 8       394.843          50.187    20129275.140    83573335.685 8       394.843          50.562
G26  21491784.040   112940076.123 7       409.094          47.125    21491783.460   112940076.122 7       409.094          46.875    21491790.240    88005279.720 7       318.775          46.562    21491790.560    88005282.720 8       318.775          48.500
R15  20829163.320   111304719.859 7      -704.589          47.437    20829162.360   111304719.858 7      -704.589          46.687    20829172.680    86570375.051 8      -548.014          48.437    20829172.800    86570377.057 8      -548.014          48.500
G18  25135168.100   132086185.207 6      -774.741          36.750    25135166.860   132086185.212 3      -774.741          21.875    25135173.960   102924328.446 3      -603.694          21.625    25135174.260   102924332.441 6      -603.694          41.562
G10  22308079.140   117229744.263 7      3858.661          46.187    22308077.900   117229744.268 7      3858.661          45.312    22308085.440    91347882.587 7      3006.749          45.375    22308085.640    91347881.594 7      3006.749          47.375
G23  22990263.040   120814643.272 7      2002.580          43.687    22990262.220   120814643.274 5      2002.580          32.750    22990267.760    94141299.166 5      1560.452          32.625    22990267.860    94141301.183 7      1560.452          47.187
R09  22077278.980   117891401.453 7      6459.279          43.437    22077280.100   117891401.459 7      6459.279          42.250    22077287.480    91693376.704 7      5023.884          46.062    22077287.620    91693377.699 7      5023.884          46.000
R17  23297458.680   124669403.357 6      -697.124          40.875    23297458.440   124669403.380 6      -697.124          39.812    23297471.060    96965138.882 7      -542.207          43.250    23297470.640    96965136.877 7      -542.207          43.187
> 2024 05 06 11 56 11.0000000  0 13
G08  21746836.380   114280393.745 7      3947.136          46.375    21746835.560   114280393.739 6      3947.136          36.125    21746841.420    89049677.620 6      3075.691          36.062    21746842.680    89049681.635 8      3075.691          48.187
G21  21782849.980   114469662.034 7      5173.189          43.875    21782847.920   114469662.037 5      5173.189          32.250    21782854.080    89197150.039 5      4031.056          32.500
G27  20702438.240   108792036.911 8      2458.764          48.437    20702436.800   108792036.918 8      2458.764          49.000    20702442.040    84773035.891 8      1915.920          49.250    20702442.920    84773035.889 8      1915.920          50.125
R16  19040745.380   101712236.178 8      3120.110          48.937    19040745.120   101712236.171 8      3120.110          48.312    19040752.960    79109552.450 8      2426.753          51.062    19040753.340    79109551.448 8      2426.753          50.937
G16  20290727.140   106628485.465 7      2417.469          46.625    20290725.500   106628485.475 6      2417.469          40.375    20290728.440    83087136.703 6      1883.742          39.875
R18  20129172.060   107450879.534 8       507.571          48.750    20129172.340   107450879.540 8       507.571          48.125    20129179.920    83572939.794 8       394.778          49.812    20129179.920    83572940.800 8       394.778          50.500
G26  21491706.360   112939666.968 7       408.968          47.062    21491705.640   112939666.968 7       408.968          46.750    21491712.340    88004960.895 7       318.676          46.937    21491712.840    88004963.890 8       318.676          48.062
R15  20829295.020   111305424.452 7      -704.890          47.250    20829294.240   111305424.448 7      -704.890          46.687    20829304.380    86570923.055 8      -548.247          48.250    20829304.540    86570925.065 8      -548.247          48.125
G18  25135316.040   132086959.618 6      -774.524          36.500    25135314.160   132086959.623 3      -774.524          21.875    25135321.380   102924931.886 3      -603.525          21.625    25135321.780   102924935.893 6      -603.525          41.562
G10  22307344.840   117225885.559 7      3858.487          46.312    22307343.660   117225885.569 7      3858.487          44.687    22307351.180    91344875.809 7      3006.613          44.562    22307351.520    91344874.818 7      3006.613          47.437
G23  22989882.140   120812640.730 7      2002.308          43.812    22989881.260   120812640.732 5      2002.308          32.750    22989886.520    94139738.751 5      1560.240          32.625    22989887.180    94139740.749 7      1560.240          47.562
R09  22076069.300   117884942.040 7      6459.181          43.562    22076070.240   117884942.041 7      6459.181          42.750    22076077.620    91688352.729 7      5023.808          45.500    22076077.760    91688353.720 7      5023.808          45.937
R17  23297589.400   124670100.340 6      -696.889          40.750    23297589.380   124670100.361 6      -696.889          39.812    23297601.500    96965680.976 7      -542.025          43.437    23297601.100    96965678.971 7      -542.025          42.937
> 2024 05 06 11 56 12.0000000  0 13
G08  21746085.500   114276446.590 7      3947.229          46.125    21746084.500   114276446.585 5      3947.229          35.875    21746090.240    89046601.917 5      3075.763          35.875    21746091.280    89046605.933 8      3075.763          48.375
G21  21781865.760   114464488.977 7      5172.859          43.687    21781863.580   114464488.982 5      5172.859          32.250    21781869.700    89193119.098 5      4030.799          32.500
G27  20701970.300   108789578.001 8      2458.879          48.125    20701968.880   108789578.011 8      2458.879          49.000    20701974.080    84771119.865 8      1916.010          49.000    20701974.880    84771119.863 8      1916.010          50.812
R16  19040161.480   101709116.363 8      3119.511          49.000    19040161.280   101709116.353 8      3119.511          48.312    19040168.860    79107125.923 8      2426.286          51.000    19040169.160    79107124.922 8      2426.286          51.250
G16  20290267.180   106626068.062 7      2417.284          46.125    20290265.720   106626068.072 6      2417.284          39.625    20290268.340    83085253.016 6      1883.598          39.125
R18  20129076.960   107450371.959 7       507.538          47.687    20129077.260   107450371.960 7       507.538          47.750    20129084.840    83572545.013 8       394.752          49.562    20129084.760    83572546.013 8       394.752          49.812
G26  21491628.540   112939258.040 7       408.815          47.937    21491627.780   112939258.042 7       408.815          47.062    21491634.640    88004642.253 7       318.557          47.125    21491634.840    88004645.255 8       318.557          48.500
R15  20829426.780   111306129.419 7      -705.184          47.125    20829426.320   111306129.418 7      -705.184          46.562    20829436.340    86571471.363 7      -548.476          47.812    20829436.620    86571473.375 8      -548.476          48.500
G18  25135463.020   132087733.879 6      -774.117          36.500    25135461.600   132087733.884 3      -774.117          21.875    25135468.620   102925535.202 3      -603.208          21.625    25135469.180   102925539.205 6      -603.208          41.625
G10  22306610.480   117222027.193 7      3858.196          46.000    22306609.460   117222027.198 7      3858.196          44.812    22306616.940    91341869.297 7      3006.386          44.750    22306617.040    91341868.302 7      3006.386          47.625
G23  22989501.220   120810638.609 7      2001.972          44.125    22989500.260   120810638.608 5      2001.972          32.687    22989505.400    94138178.656 5      1559.978          32.375    22989506.000    94138180.661 7      1559.978          47.187
R09  22074859.680   117878482.780 7      6459.124          43.875    22074860.640   117878482.791 7      6459.124          43.125    22074868.360    91683328.867 7      5023.763          46.125    22074868.260    91683329.863 7      5023.763          46.500
R17  23297719.720   124670797.067 6      -696.535          40.750    23297719.500   124670797.079 6      -696.535          39.812    23297731.580    96966222.873 7      -541.750          43.125    23297731.020    96966220.871 7      -541.750          43.187
> 2024 05 06 11 56 13.0000000  0 13
G08  21745333.960   114272499.449 7      3947.008          45.750    21745333.300   114272499.443 5      3947.008          35.750    21745339.280    89043526.223 5      3075.591          35.625    21745340.180    89043530.236 8      3075.591          48.500
G21  21780881.360   114459316.244 7      5172.454          43.687    21780879.080   114459316.249 5      5172.454          31.687    21780885.340    89189088.407 5      4030.484          31.875
G27  20701502.460   108787119.141 7      2458.788          47.812    20701501.060   108787119.149 8      2458.788          49.062    20701506.220    84769203.870 8      1915.939          48.875    20701507.000    84769203.868 8      1915.939          50.250
R16  19039577.520   101705997.239 8      3118.653          49.125    19039577.180   101705997.240 8      3118.653          48.437    19039585.160    79104699.942 8      2425.619          50.937    19039585.260    79104698.943 8      2425.619          50.937
G16  20289807.200   106623650.998 7      2416.793          46.750    20289805.680   106623651.008 6      2416.793          39.750    20289808.440    83083369.592 6      1883.216          39.312
R18  20128981.840   107449864.501 8       507.243          48.125    20128982.160   107449864.507 7       507.243          47.562    20128989.720    83572150.319 8       394.522          49.875    20128989.840    83572151.321 8       394.522          49.562
G26  21491550.660   112938849.379 7       408.363          47.312    21491549.900   112938849.384 7       408.363          47.250    21491556.720    88004323.816 7       318.205          47.187    21491557.260    88004326.822 8       318.205          48.375
R15  20829558.660   111306834.801 7      -705.689          46.937    20829558.380   111306834.799 7      -705.689          47.187    20829568.460    86572019.989 8      -548.869          48.500    20829568.880    86572021.997 8      -548.869          48.062
G18  25135610.140   132088508.009 6      -774.056          36.750    25135608.940   132088508.014 3      -774.056          21.875    25135616.060   102926138.422 3      -603.160          21.625    25135616.000   102926142.423 6      -603.160          41.625
G10  22305876.420   117218169.183 7      3857.644          45.875    22305875.260   117218169.188 7      3857.644          45.437    22305882.700    91338863.057 7      3005.956          44.875    22305882.940    91338862.062 7      3005.956          47.062
G23  22989120.180   120808636.963 7      2001.339          44.687    22989119.600   120808636.965 5      2001.339          32.687    22989124.400    94136618.936 5      1559.485          32.375    22989124.860    94136620.943 7      1559.485          47.250
R09  22073650.380   117872023.714 7      6458.853          43.875    22073650.780   117872023.728 7      6458.853          43.125    22073658.680    91678305.148 7      5023.552          45.875    22073658.680    91678306.141 7      5023.552          46.125
R17  23297849.780   124671493.577 6      -696.549          41.000    23297849.700   124671493.589 6      -696.549          39.812    23297861.440    96966764.600 7      -541.760          43.187    23297861.100    96966762.595 7      -541.760          42.875
> 2024 05 06 11 56 14.0000000  0 13
G08  21744583.020   114268552.321 7      3947.213          45.937    21744582.160   114268552.315 5      3947.213          35.875    21744587.980    89040450.547 5      3075.751          35.875    21744588.760    89040454.570 7      3075.751          47.812
G21  21779897.060   114454143.891 7      5172.297          43.500    21779894.880   114454143.893 5      5172.297          31.687    21779901.100    89185058.008 5      4030.361          31.875
G27  20701034.560   108784660.381 8      2458.871          48.000    20701033.160   108784660.391 8      2458.871          48.812    20701038.320    84767287.953 8      1916.004          48.937    20701039.160    84767287.951 8      1916.004          50.687
R16  19038993.740   101702878.874 8      3118.116          49.062    19038993.620   101702878.872 8      3118.116          48.500    19039001.260    79102274.551 8      2425.201          51.312    19039001.600    79102273.548 8      2425.201          51.375
G16  20289347.240   106621234.322 7      2416.541          46.437    20289345.860   106621234.333 6      2416.541          40.250    20289348.460    83081486.468 6      1883.019          39.812
R18  20128887.080   107449357.211 7       507.285          47.250    20128886.960   107449357.211 7       507.285          47.750    20128894.780    83571755.767 8       394.555          50.062    20128894.820    83571756.766 8       394.555          50.312
G26  21491472.920   112938441.021 7       408.316          47.750    21491472.140   112938441.023 7       408.316          47.125    21491479.080    88004005.613 7       318.168          47.000    21491479.600    88004008.617 8       318.168          48.312
R15  20829690.780   111307540.610 7      -705.922          47.687    20829690.380   111307540.613 7      -705.922          46.375    20829700.620    86572568.959 8      -549.050          48.500    20829700.960    86572570.967 8      -549.050          48.312
G18  25135757.280   132089282.026 6      -773.604          36.750    25135756.340   132089282.031 3      -773.604          20.562    25135763.400   102926741.554 3      -602.808          21.625    25135763.100   102926745.555 6      -602.808          41.375
G10  22305142.460   117214311.545 7      3857.569          45.687    22305141.120   117214311.548 7      3857.569          44.875    22305148.720    91335857.109 7      3005.898          44.625    22305149.140    91335856.115 7      3005.898          47.375
G23  22988739.660   120806635.801 7      2001.141          45.125    22988738.600   120806635.806 5      2001.141          33.000    22988743.660    94135059.591 5      1559.331          32.812    22988743.960    94135061.602 7      1559.331          47.312
R09  22072441.140   117865564.835 7      6458.882          43.625    22072441.300   117865564.834 7      6458.882          43.125    22072448.900    91673281.581 7      5023.575          45.062    22072449.080    91673282.575 7      5023.575          45.812
R17  23297979.720   124672189.827 6      -696.025          41.000    23297980.080   124672189.831 6      -696.025          39.875    23297991.600    96967306.120 7      -541.353          42.750    23297991.020    96967304.116 7      -541.353          43.062
> 2024 05 06 11 56 15.0000000  0 13
G08  21743832.040   114264604.993 7      3947.207          46.687    21743830.940   114264604.988 5      3947.207          35.937    21743836.920    89037374.707 5      3075.745          35.750    21743837.460    89037378.726 7      3075.745          47.937
G21  21778912.600   114448971.677 7      5171.861          44.000    21778910.600   114448971.680 5      5171.861          31.875    21778916.820    89181027.726 5      4030.022          31.875
G27  20700566.600   108782201.437 8      2458.752          48.125    20700565.280   108782201.439 8      2458.752          49.125    20700570.380    84765371.895 8      1915.911          49.000    20700571.140    84765371.895 8      1915.911          49.937
R16  19038410.060   101699760.976 8      3117.384          48.000    19038409.740   101699760.972 8      3117.384          48.000    19038417.640    79099849.521 8      2424.632          51.187    19038417.780    79099848.523 8      2424.632          51.062
G16  20288887.360   106618817.750 7      2416.276          46.437    20288886.000   106618817.755 6      2416.276          39.625    20288888.720    83079603.426 6      1882.813          39.187
R18  20128792.260   107448849.833 7       507.127          47.375    20128792.140   107448849.836 8       507.127          48.187    20128799.740    83571361.139 8       394.432          49.750    20128799.600    83571362.145 8       394.432          50.125
G26  21491395.260   112938032.684 7       408.108          47.500    21491394.520   112938032.689 7       408.108          46.812    21491401.380    88003687.432 7       318.006          46.687    21491401.800    88003690.436 8       318.006          48.312
R15  20829822.640   111308246.584 7      -706.346          46.937    20829822.200   111308246.591 7      -706.346          46.500    20829832.820    86573118.046 8      -549.380          48.312    20829833.000    86573120.052 8      -549.380          48.937
G18  25135904.400   132090055.743 6      -773.759          36.375    25135903.540   132090055.745 3      -773.759          20.562    25135910.740   102927344.453 3      -602.929          21.625    25135910.040   102927348.456 6      -602.929          41.375
G10  22304408.540   117210454.045 7      3857.200          46.250    22304407.100   117210454.049 7      3857.200          45.312    22304414.740    91332851.273 7      3005.610          45.125    22304415.380    91332850.280 7      3005.610          46.875
G23  22988358.980   120804634.899 7      2000.600          44.187    22988357.740   120804634.904 5      2000.600          33.000    22988363.000    94133500.447 5      1558.909          32.812    22988363.320    94133502.453 7      1558.909          46.812
R09  22071231.400   117859105.906 7      6458.720          43.625    22071232.020   117859105.915 7      6458.720          42.562    22071239.240    91668257.978 7      5023.449          45.500    22071239.320    91668258.973 7      5023.449          46.250
R17  23298109.660   124672885.555 6      -695.710          41.000    23298109.440   124672885.562 6      -695.710          39.875    23298121.820    96967847.248 7      -541.107          42.812    23298121.420    96967845.245 7      -541.107          42.812
> 2024 05 06 11 56 16.0000000  0 13
G08  21743080.880   114260657.770 7      3947.284          45.750    21743079.940   114260657.767 5      3947.284          35.937    21743085.740    89034298.951 5      3075.806          35.750    21743086.520    89034302.971 8      3075.806          48.125
G21  21777928.980   114443799.921 7      5171.646          44.187    21777926.580   114443799.926 5      5171.646          31.875    21777932.620    89176997.797 5      4029.854          32.000
G27  20700098.680   108779742.640 7      2458.916          47.875    20700097.400   108779742.642 8      2458.916          48.687    20700102.500    84763455.947 8      1916.039          48.687    20700103.060    84763455.948 8      1916.039          49.875
R16  19037826.640   101696643.928 8      3116.826          49.375    19037826.140   101696643.921 7      3116.826          47.562    19037834.220    79097425.148 8      2424.198          50.125    19037834.380    79097424.150 8      2424.198          50.250
G16  20288427.680   106616401.655 7      2415.937          46.500    20288426.120   106616401.663 6      2415.937          39.937    20288429.000    83077720.755 6      1882.548          39.375
R18  20128697.140   107448342.759 7       507.111          47.875    20128697.200   107448342.754 8       507.111          48.250    20128704.580    83570966.743 8       394.419          49.812    20128704.740    83570967.748 8       394.419          49.500
G26  21491317.840   112937624.764 7       407.888          47.312    21491316.840   112937624.772 7       407.888          46.187    21491323.700    88003369.577 7       317.835          46.125    21491324.280    88003372.581 8       317.835          48.312
R15  20829954.780   111308953.085 7      -706.550          47.250    20829954.420   111308953.083 7      -706.550          46.562    20829964.900    86573667.539 8      -549.539          48.062    20829965.120    86573669.538 7      -549.539          47.937
G18  25136052.260   132090829.421 6      -773.427          36.375    25136050.520   132090829.421 3      -773.427          20.562    25136057.920   102927947.314 3      -602.670          21.625    25136057.800   102927951.321 6      -602.670          41.187
G10  22303674.280   117206597.019 7      3856.999          46.562    22303673.200   117206597.027 7      3856.999          44.687    22303680.620    91329845.801 7      3005.454          44.500    22303681.220    91329844.804 7      3005.454          47.312
G23  22987977.980   120802634.586 7      2000.267          43.875    22987977.140   120802634.588 5      2000.267          32.750    22987982.420    94131941.761 5      1558.649          32.750    22987982.900    94131943.768 7      1558.649          47.125
R09  22070021.840   117852647.299 7      6458.704          43.187    22070022.320   117852647.308 7      6458.704          42.437    22070029.740    91663234.622 7      5023.436          44.875    22070030.280    91663235.615 7      5023.436          45.687
R17  23298239.640   124673581.166 6      -695.418          41.187    23298239.900   124673581.170 6      -695.418          39.875    23298251.520    96968388.271 7      -540.881          42.875    23298251.440    96968386.269 7      -540.881          43.187
> 2024 05 06 11 56 17.0000000  0 13
G08  21742329.720   114256710.432 7      3947.283          46.125    21742328.800   114256710.427 5      3947.283          35.250    21742334.680    89031223.105 5      3075.805          34.937    21742335.160    89031227.116 7      3075.805          47.750
G21  21776944.620   114438628.370 7      5171.426          43.687    21776942.480   114438628.377 5      5171.426          31.875    21776948.480    89172968.023 5      4029.682          32.000
G27  20699630.720   108777283.761 8      2458.845          48.187    20699629.520   108777283.766 8      2458.845          48.687    20699634.600    84761539.944 8      1915.983          49.062    20699635.220    84761539.945 8      1915.983          50.375
R16  19037243.180   101693527.480 8      3116.086          48.250    19037242.840   101693527.479 8      3116.086          48.125    19037250.740    79095001.251 8      2423.622          51.250    19037250.960    79095000.248 8      2423.622          51.375
G16  20287967.740   106613985.737 7      2415.713          45.812    20287966.440   106613985.744 6      2415.713          40.562    20287969.180    83075838.222 6      1882.374          39.562
R18  20128602.340   107447835.690 7       506.890          47.937    20128602.520   107447835.691 8       506.890          48.062    20128609.820    83570572.364 8       394.248          50.000    20128609.700    83570573.370 8       394.248          50.312
G26  21491240.560   112937216.950 7       407.652          47.125    21491239.120   112937216.955 7       407.652          46.750    21491246.300    88003051.793 7       317.651          46.687    21491246.940    88003054.797 8       317.651          48.562
R15  20830087.280   111309659.896 7      -707.119          47.562    20830086.640   111309659.894 7      -707.119          46.000    20830096.940    86574217.274 8      -549.981          48.500    20830097.400    86574219.274 8      -549.981          48.625
G18  25136200.080   132091602.826 6      -773.425          36.125    25136197.540   132091602.828 3      -773.425          20.562    25136205.120   102928549.969 3      -602.669          21.625    25136204.940   102928553.976 6      -602.669          41.375
G10  22302940.460   117202740.228 7      3856.547          46.125    22302939.320   117202740.238 7      3856.547          44.812    22302946.640    91326840.521 7      3005.102          44.625    22302947.060    91326839.522 7      3005.102          47.687
G23  22987597.560   120800634.611 7      1999.550          44.000    22987596.480   120800634.616 5      1999.550          32.750    22987601.800    94130383.343 5      1558.091          32.750    22987601.860    94130385.354 7      1558.091          47.062
R09  22068811.940   117846188.680 7      6458.508          42.875    22068812.560   117846188.694 7      6458.508          42.437    22068819.980    91658211.259 7      5023.284          45.375    22068820.460    91658212.254 7      5023.284          45.750
R17  23298369.320   124674276.322 6      -694.934          41.187    23298370.360   124674276.332 6      -694.934          39.875    23298381.440    96968928.950 7      -540.504          43.062    23298381.260    96968926.948 7      -540.504          43.062
> 2024 05 06 11 56 18.0000000  0 13
G08  21741578.360   114252763.236 7      3947.223          46.562    21741577.640   114252763.228 5      3947.223          35.750    21741583.520    89028147.372 5      3075.758          35.312    21741584.140    89028151.385 7      3075.758          47.937
G21  21775960.900   114433457.349 7      5170.803          43.625    21775958.300   114433457.354 5      5170.803          31.687    21775964.500    89168938.664 5      4029.197          32.000
G27  20699162.720   108774825.109 8      2458.551          48.187    20699161.760   108774825.117 8      2458.551          48.437    20699166.660    84759624.115 8      1915.754          48.625    20699167.440    84759624.116 8      1915.754          50.312
R16  19036660.180   101690411.970 8      3115.028          48.875    19036659.760   101690411.971 7      3115.028          47.875    19036667.520    79092578.081 8      2422.799          51.062    19036667.460    79092577.080 8      2422.799          51.437
G16  20287508.240   106611570.349 7      2415.194          46.125    20287506.800   106611570.356 6      2415.194          40.125    20287509.700    83073956.107 6      1881.970          39.562
R18  20128507.340   107447328.916 8       506.688          48.000    20128507.100   107447328.908 7       506.688          47.750    20128514.880    83570178.198 8       394.091          49.750    20128514.660    83570179.206 8       394.091          50.312
G26  21491162.900   112936809.585 7       407.214          47.500    21491161.620   112936809.592 7       407.214          46.375    21491168.680    88002734.368 7       317.309          46.562    21491169.400    88002737.366 8       317.309          48.687
R15  20830219.780   111310367.281 7      -707.586          47.562    20830219.200   111310367.282 7      -707.586          46.375    20830229.500    86574767.463 8      -550.345          48.500    20830229.660    86574769.467 8      -550.345          48.750
G18  25136347.460   132092376.251 6      -773.265          36.125    25136344.900   132092376.256 3      -773.265          20.562    25136352.200   102929152.641 3      -602.544          21.625    25136352.100   102929156.650 6      -602.544          41.375
G10  22302206.660   117198883.954 7      3856.065          47.187    22302205.520   117198883.959 7      3856.065          44.687    22302212.980    91323835.632 7      3004.726          44.687    22302213.460    91323834.635 7      3004.726          47.562
G23  22987217.140   120798635.238 7      1999.087          44.312    22987216.020   120798635.238 5      1999.087          32.875    22987221.520    94128825.388 5      1557.730          32.812    22987221.240    94128827.389 7      1557.730          47.125
R09  22067602.620   117839730.450 7      6458.034          42.500    22067602.980   117839730.456 7      6458.034          42.562    22067610.880    91653188.195 7      5022.915          45.625    22067611.180    91653189.187 7      5022.915          45.875
R17  23298499.740   124674971.457 6      -695.012          41.000    23298499.820   124674971.466 6      -695.012          39.875    23298511.440    96969469.618 7      -540.565          43.375    23298511.260    96969467.612 7      -540.565          43.187
> 2024 05 06 11 56 19.0000000  0 13
G08  21740827.400   114248816.231 7      3946.700          46.187    21740826.660   114248816.226 6      3946.700          36.062    21740832.380    89025071.788 5      3075.351          35.812    21740833.060    89025075.801 8      3075.351          48.250
G21  21774977.000   114428286.799 7      5170.066          44.562    21774974.420   114428286.806 5      5170.066          31.687    21774980.580    89164909.676 5      4028.623          31.750
G27  20698694.760   108772366.633 7      2458.178          47.375    20698693.900   108772366.640 8      2458.178          48.812    20698698.860    84757708.422 8      1915.463          49.000    20698699.480    84757708.424 8      1915.463          50.187
R16  19036076.820   101687297.347 8      3113.979          48.312    19036076.720   101687297.340 7      3113.979          47.687    19036084.340    79090155.590 8      2421.984          51.375    19036084.540    79090154.589 8      2421.984          51.062
G16  20287048.700   106609155.439 7      2414.490          46.625    20287047.340   106609155.450 6      2414.490          39.812    20287050.020    83072074.362 6      1881.420          39.250
R18  20128412.400   107446822.410 7       506.204          46.500    20128412.280   107446822.409 7       506.204          47.687    20128419.940    83569784.256 8       393.714          50.125    20128420.140    83569785.263 8       393.714          50.437
G26  21491085.280   112936402.640 7       406.558          47.000    21491084.280   112936402.640 7       406.558          46.812    21491091.180    88002417.262 7       316.799          46.875    21491091.840    88002420.262 8       316.799          48.312
R15  20830352.200   111311075.219 7      -708.412          47.750    20830351.860   111311075.218 7      -708.412          47.000    20830362.000    86575318.075 8      -550.987          48.625    20830362.320    86575320.077 8      -550.987          48.812
G18  25136493.800   132093149.761 6      -773.754          36.437    25136492.180   132093149.766 3      -773.754          20.562    25136499.480   102929755.376 3      -602.925          21.625    25136499.700   102929759.370 6      -602.925          41.250
G10  22301472.960   117195028.187 7      3855.293          46.625    22301471.680   117195028.192 7      3855.293          45.375    22301479.140    91320831.143 7      3004.124          45.062    22301479.440    91320830.148 7      3004.124          47.187
G23  22986836.660   120796636.491 7      1998.266          44.250    22986835.720   120796636.493 5      1998.266          32.875    22986841.120    94127267.929 5      1557.090          32.812    22986841.140    94127269.938 7      1557.090          47.312
R09  22066393.560   117833272.527 7      6457.575          42.750    22066393.580   117833272.538 7      6457.575          42.687    22066401.080    91648165.368 7      5022.559          45.062    22066401.740    91648166.362 7      5022.559          46.000
R17  23298630.160   124675666.503 6      -695.167          41.000    23298629.500   124675666.512 6      -695.167          39.875    23298641.620    96970010.201 7      -540.686          43.062    23298641.140    96970008.189 7      -540.686          42.812
> 2024 05 06 11 56 20.0000000  0 13
G08  21740076.300   114244869.129 7      3947.051          46.187    21740075.580   114244869.124 6      3947.051          36.125    21740081.360    89021996.130 5      3075.624          35.625    21740081.900    89022000.142 8      3075.624          48.375
G21  21773992.900   114423116.525 7      5170.060          45.125    21773990.600   114423116.522 5      5170.060          31.687    21773996.620    89160880.901 5      4028.618          31.750
G27  20698226.840   108769908.114 8      2458.469          48.125    20698226.180   108769908.122 8      2458.469          49.000    20698231.060    84755792.695 8      1915.690          48.937    20698231.620    84755792.699 8      1915.690          49.750
R16  19035493.860   101684183.351 8      3113.598          48.375    19035493.820   101684183.350 8      3113.598          48.125    19035501.420    79087733.599 8      2421.688          51.062    19035501.520    79087732.601 8      2421.688          51.375
G16  20286589.240   106606740.808 7      2414.361          46.125    20286587.820   106606740.819 6      2414.361          40.062    20286590.500    83070192.835 6      1881.320          39.437
R18  20128317.560   107446316.015 7       506.243          47.187    20128317.220   107446316.018 7       506.243          47.812    20128325.160    83569390.400 8       393.744          49.750    20128325.220    83569391.404 8       393.744          50.375
G26  21491007.900   112935995.863 7       406.581          46.687    21491006.760   112935995.874 7       406.581          47.125    21491013.760    88002100.302 7       316.816          47.000    21491014.440    88002103.303 8       316.816          48.125
R15  20830485.000   111311783.459 8      -708.489          48.000    20830484.440   111311783.458 7      -708.489          46.500    20830494.700    86575868.925 8      -551.047          48.687    20830494.620    86575870.928 7      -551.047          47.750
G18  25136641.080   132093923.016 6      -773.283          36.437    25136639.240   132093923.021 3      -773.283          20.562    25136646.740   102930357.910 3      -602.558          20.187    25136646.960   102930361.915 6      -602.558          41.250
G10  22300739.100   117191172.681 7      3855.308          46.312    22300738.160   117191172.686 7      3855.308          44.687    22300745.420    91317826.858 7      3004.136          44.562    22300745.860    91317825.861 7      3004.136          47.375
G23  22986456.500   120794638.145 7      1998.036          43.750    22986455.320   120794638.150 5      1998.036          33.062    22986460.740    94125710.779 5      1556.911          32.812    22986460.480    94125712.783 7      1556.911          47.125
R09  22065184.160   117826814.718 7      6457.691          42.937    22065184.200   117826814.727 7      6457.691          42.687    22065192.280    91643142.635 7      5022.649          45.625    22065192.320    91643143.626 7      5022.649          45.812
R17  23298760.100   124676361.188 6      -694.450          41.000    23298759.560   124676361.189 6      -694.450          39.937    23298771.200    96970550.504 7      -540.128          43.187    23298771.100    96970548.502 7      -540.128          43.000
> 2024 05 06 11 56 21.0000000  0 13
G08  21739325.140   114240921.991 7      3947.132          45.687    21739324.520   114240921.980 5      3947.132          35.750    21739330.280    89018920.438 5      3075.687          35.750    21739330.940    89018924.453 7      3075.687          47.937
G21  21773008.940   114417946.558 7      5169.837          44.812    21773006.820   114417946.557 5      5169.837          31.875    21773012.880    89156852.360 5      4028.444          31.937
G27  20697759.120   108767449.619 8      2458.442          48.125    20697758.380   108767449.627 8      2458.442          48.312    20697763.180    84753876.991 8      1915.669          48.562    20697763.920    84753876.993 8      1915.669          49.875
R16  19034911.020   101681070.042 8      3112.933          49.000    19034910.860   101681070.041 8      3112.933          48.437    19034918.600    79085312.141 8      2421.170          51.312    19034918.740    79085311.140 8      2421.170          51.500
G16  20286129.640   106604326.464 7      2414.213          46.000    20286128.440   106604326.474 6      2414.213          40.562    20286131.160    83068311.528 6      1881.205          39.875
R18  20128222.720   107445809.744 7       506.232          47.062    20128222.600   107445809.742 7       506.232          47.500    20128230.280    83568996.633 8       393.736          49.937    20128230.340    83568997.634 8       393.736          50.500
G26  21490930.420   112935589.323 7       406.478          46.937    21490929.480   112935589.326 7       406.478          47.000    21490936.480    88001783.515 7       316.736          46.875    21490936.860    88001786.515 8       316.736          48.750
R15  20830617.660   111312492.042 7      -708.786          47.062    20830617.420   111312492.051 7      -708.786          45.875    20830627.240    86576420.052 8      -551.278          48.875    20830627.380    86576422.060 8      -551.278          48.437
G18  25136788.520   132094696.102 6      -773.096          36.312    25136786.360   132094696.107 3      -773.096          20.562    25136793.940   102930960.319 3      -602.413          20.187    25136794.080   102930964.328 6      -602.413          41.187
G10  22300005.460   117187317.511 7      3854.935          46.562    22300004.420   117187317.516 7      3854.935          45.187    22300011.820    91314822.834 7      3003.846          45.187    22300012.340    91314821.837 7      3003.846          47.250
G23  22986076.140   120792640.199 7      1997.780          43.625    22986075.240   120792640.204 5      1997.780          33.062    22986080.640    94124153.940 5      1556.712          32.875    22986080.660    94124155.948 7      1556.712          47.687
R09  22063974.760   117820357.020 7      6457.683          42.937    22063974.240   117820357.026 7      6457.683          42.500    22063982.720    91638119.989 7      5022.642          45.562    22063982.900    91638120.980 7      5022.642          46.000
R17  23298889.820   124677055.560 6      -694.165          40.500    23298889.360   124677055.567 6      -694.165          39.937    23298900.960    96971090.577 7      -539.906          43.375    23298900.720    96971088.573 7      -539.906          43.562
> 2024 05 06 11 56 22.0000000  0 13
G08  21738574.100   114236974.723 7      3947.225          46.437    21738573.200   114236974.718 5      3947.225          35.750    21738579.100    89015844.649 5      3075.760          35.750    21738579.860    89015848.665 8      3075.760          48.000
G21  21772025.020   114412776.822 7      5169.442          44.500    21772023.120   114412776.819 5      5169.442          31.875    21772029.320    89152824.002 5      4028.136          31.937
G27  20697291.240   108764991.046 7      2458.474          47.750    20697290.620   108764991.051 8      2458.474          49.437    20697295.380    84751961.217 8      1915.694          49.500    20697295.820    84751961.226 8      1915.694          50.125
R16  19034328.120   101677957.318 8      3112.275          48.687    19034328.120   101677957.316 8      3112.275          48.000    19034335.860    79082891.137 8      2420.659          51.250    19034336.300    79082890.135 8      2420.659          51.375
G16  20285670.220   106601912.356 7      2413.907          47.437    20285669.060   106601912.363 6      2413.907          40.062    20285671.700    83066430.405 6      1880.967          39.125
R18  20128127.740   107445303.519 7       506.072          47.750    20128127.620   107445303.517 8       506.072          48.250    20128135.260    83568602.900 8       393.611          49.937    20128135.660    83568603.899 8       393.611          50.562
G26  21490853.140   112935182.933 7       406.173          46.812    21490852.100   112935182.938 7       406.173          46.625    21490859.060    88001466.845 7       316.498          46.750    21490859.420    88001469.847 8       316.498          48.562
R15  20830750.240   111313200.939 8      -709.200          48.375    20830750.140   111313200.946 7      -709.200          47.125    20830760.040    86576971.409 8      -551.600          48.437    20830760.140    86576973.415 8      -551.600          48.937
G18  25136935.200   132095468.947 6      -772.884          36.312    25136933.500   132095468.955 3      -772.884          20.562    25136940.940   102931562.536 3      -602.247          20.187    25136940.620   102931566.535 6      -602.247          41.187
G10  22299271.980   117183462.566 7      3854.675          46.000    22299270.840   117183462.569 7      3854.675          45.125    22299278.220    91311818.979 7      3003.643          45.000    22299278.260    91311817.980 7      3003.643          47.312
G23  22985696.240   120790642.626 7      1997.222          44.375    22985694.980   120790642.634 5      1997.222          32.500    22985700.480    94122597.397 5      1556.277          32.875    22985700.620    94122599.404 7      1556.277          47.062
R09  22062765.520   117813899.388 7      6457.421          43.062    22062765.160   117813899.384 7      6457.421          42.312    22062773.840    91633097.386 7      5022.438          45.437    22062773.600    91633098.380 7      5022.438          46.000
R17  23299019.460   124677749.589 6      -693.957          40.500    23299019.000   124677749.585 6      -693.957          39.937    23299030.680    96971630.382 7      -539.744          43.125    23299030.760    96971628.382 7      -539.744          43.125
> 2024 05 06 11 56 23.0000000  0 13
G08  21737822.800   114233027.464 7      3947.311          45.687    21737822.100   114233027.458 5      3947.311          35.812    21737827.900    89012768.865 5      3075.826          35.875    21737828.840    89012772.884 8      3075.826          48.562
G21  21771041.400   114407607.380 7      5169.327          44.000    21771039.560   114407607.383 5      5169.327          32.312    21771045.720    89148795.874 5      4028.047          31.937
G27  20696823.420   108762532.483 8      2458.615          48.687    20696822.780   108762532.482 8      2458.615          49.125    20696827.520    84750045.456 8      1915.804          49.125    20696827.980    84750045.458 8      1915.804          50.062
R16  19033745.640   101674845.286 8      3111.795          48.937    19033745.500   101674845.284 8      3111.795          48.625    19033753.280    79080470.668 8      2420.285          51.250    19033753.520    79080469.663 8      2420.285          51.437
G16  20285211.080   106599498.568 7      2413.710          46.687    20285209.600   106599498.576 6      2413.710          39.562    20285212.420    83064549.533 6      1880.813          39.187
R18  20128033.040   107444797.364 8       506.169          48.000    20128033.080   107444797.354 7       506.169          47.937    20128040.580    83568209.217 8       393.687          49.812    20128040.640    83568210.219 8       393.687          49.937
G26  21490775.780   112934776.787 7       406.002          46.812    21490774.840   112934776.792 7       406.002          46.625    21490781.900    88001150.368 7       316.365          46.687    21490782.480    88001153.372 8       316.365          48.500
R15  20830882.880   111313910.203 8      -709.294          48.312    20830882.720   111313910.201 7      -709.294          46.875    20830892.780    86577523.050 8      -551.673          48.687    20830893.040    86577525.054 8      -551.673          49.000
G18  25137081.760   132096241.645 5      -772.667          35.875    25137080.520   132096241.653 3      -772.667          20.562    25137087.860   102932164.640 3      -602.078          20.187    25137087.980   102932168.645 6      -602.078          41.125
G10  22298538.300   117179607.938 7      3854.475          46.125    22298537.400   117179607.945 7      3854.475          45.000    22298544.800    91308815.380 7      3003.487          44.500    22298545.100    91308814.387 7      3003.487          47.187
G23  22985316.040   120788645.468 7      1997.064          44.250    22985314.880   120788645.476 5      1997.064          32.500    22985320.460    94121041.175 5      1556.154          32.812    22985320.500    94121043.179 7      1556.154          47.125
R09  22061556.560   117807441.876 7      6457.579          42.500    22061555.840   117807441.869 7      6457.579          42.312    22061564.720    91628074.877 7      5022.561          45.562    22061564.460    91628075.875 7      5022.561          45.625
R17  23299149.480   124678443.340 6      -693.613          40.687    23299148.740   124678443.347 6      -693.613          40.000    23299160.500    96972169.970 7      -539.477          43.312    23299160.360    96972167.971 7      -539.477          43.187
> 2024 05 06 11 56 24.0000000  0 13
G08  21737071.780   114229080.057 7      3947.419          45.687    21737070.960   114229080.052 6      3947.419          36.000    21737076.740    89009692.972 6      3075.911          36.062    21737077.840    89009696.985 8      3075.911          48.750
G21  21770057.600   114402438.170 7      5169.105          43.812    21770055.880   114402438.175 5      5169.105          32.312    21770062.140    89144767.926 5      4027.874          32.375
G27  20696355.640   108760073.838 8      2458.632          48.125    20696354.980   108760073.843 8      2458.632          49.437    20696359.580    84748129.633 8      1915.817          49.187    20696360.060    84748129.637 8      1915.817          49.750
R16  19033163.260   101671733.875 8      3111.049          48.375    19033163.160   101671733.874 8      3111.049          48.125    19033170.900    79078050.682 8      2419.705          51.375    19033170.980    79078049.681 8      2419.705          51.437
G16  20284751.700   106597084.996 7      2413.357          46.750    20284750.280   106597085.009 6      2413.357          40.500    20284753.160    83062668.836 6      1880.538          40.187
R18  20127938.180   107444291.181 7       506.169          46.562    20127938.240   107444291.177 7       506.169          47.812    20127945.800    83567815.528 8       393.687          50.312    20127945.740    83567816.530 8       393.687          50.375
G26  21490698.600   112934370.757 7       405.877          47.062    21490697.520   112934370.759 7       405.877          46.875    21490704.560    88000833.981 7       316.268          46.625    21490704.880    88000836.985 8       316.268          48.312
R15  20831015.800   111314619.784 7      -709.749          47.687    20831015.320   111314619.783 7      -709.749          46.125    20831025.600    86578074.938 8      -552.027          48.750    20831025.580    86578076.946 8      -552.027          48.875
G18  25137228.220   132097014.067 5      -772.448          35.875    25137227.620   132097014.072 3      -772.448          20.187    25137234.800   102932766.529 3      -601.907          20.187    25137234.920   102932770.518 6      -601.907          41.125
G10  22297804.680   117175753.548 7      3854.246          45.937    22297803.820   117175753.553 7      3854.246          44.625    22297811.200    91305811.966 7      3003.309          44.437    22297811.640    91305810.971 7      3003.309          47.375
G23  22984936.160   120786648.689 7      1996.522          43.687    22984935.020   120786648.696 5      1996.522          32.500    22984940.480    94119485.236 5      1555.731          32.812    22984940.620    94119487.235 7      1555.731          47.000
R09  22060347.220   117800984.445 7      6457.278          42.125    22060347.080   117800984.443 7      6457.278          42.250    22060355.300    91623052.445 7      5022.327          45.937    22060355.280    91623053.440 7      5022.327          46.312
R17  23299278.100   124679136.688 6      -693.194          40.687    23299277.960   124679136.692 6      -693.194          40.000    23299289.820    96972709.228 7      -539.151          43.125    23299289.900    96972707.226 7      -539.151          43.250
> 2024 05 06 11 56 25.0000000  0 13
G08  21736320.700   114225132.874 7      3947.213          46.187    21736319.760   114225132.863 5      3947.213          35.875    21736325.640    89006617.245 5      3075.750          35.812    21736326.920    89006621.262 8      3075.750          48.125
G21  21769074.280   114397269.509 7      5168.583          44.437    21769072.340   114397269.517 5      5168.583          32.312    21769078.400    89140740.409 5      4027.468          32.375
G27  20695887.940   108757615.451 8      2458.498          48.562    20695887.220   108757615.453 8      2458.498          49.562    20695891.820    84746214.007 8      1915.713          49.625    20695892.260    84746214.009 8      1915.713          49.625
R16  19032581.120   101668623.406 8      3110.196          48.750    19032580.820   101668623.404 8      3110.196          48.187    19032588.660    79075631.430 8      2419.041          50.937    19032588.620    79075630.427 8      2419.041          51.375
G16  20284292.220   106594671.976 7      2412.836          46.687    20284291.140   106594671.991 6      2412.836          40.625    20284294.060    83060788.564 6      1880.132          39.812
R18  20127843.520   107443785.383 8       505.783          48.000    20127843.380   107443785.382 8       505.783          48.000    20127850.960    83567422.130 8       393.387          49.875    20127850.900    83567423.131 8       393.387          49.812
G26  21490621.520   112933965.215 7       405.412          47.062    21490620.300   112933965.220 7       405.412          46.812    21490627.560    88000517.976 7       315.905          46.375    21490627.600    88000520.978 8       315.905          48.375
R15  20831148.680   111315329.983 7      -710.405          47.625    20831147.840   111315329.976 7      -710.405          46.437    20831158.460    86578627.313 8      -552.537          48.687    20831158.480    86578629.315 8      -552.537          48.750
G18  25137375.540   132097786.570 6      -772.380          36.062    25137374.520   132097786.573 3      -772.380          20.187    25137381.740   102933368.478 3      -601.854          20.187    25137382.220   102933372.464 6      -601.854          41.375
G10  22297071.440   117171899.725 7      3853.706          46.375    22297070.440   117171899.730 7      3853.706          44.500    22297077.900    91302808.991 7      3002.888          44.437    22297077.880    91302807.996 7      3002.888          46.750
G23  22984556.520   120784652.545 7      1996.000          44.062    22984555.100   120784652.555 5      1996.000          32.812    22984560.480    94117929.806 5      1555.325          32.562    22984560.660    94117931.811 7      1555.325          47.250
R09  22059138.040   117794527.392 7      6456.948          43.000    22059137.920   117794527.393 7      6456.948          42.937    22059146.080    91618030.299 7      5022.071          45.312    22059146.040    91618031.297 7      5022.071          46.250
R17  23299407.560   124679829.973 6      -692.978          40.687    23299407.740   124679829.961 6      -692.978          40.000    23299419.620    96973248.440 7      -538.983          43.125    23299419.400    96973246.442 7      -538.983          43.375
> 2024 05 06 11 56 26.0000000  0 13
G08  21735569.460   114221185.825 7      3946.984          46.250    21735568.700   114221185.817 6      3946.984          36.312    21735574.540    89003541.628 5      3075.572          35.875    21735575.460    89003545.643 8      3075.572          48.750
G21  21768090.880   114392101.326 7      5168.011          43.687    21768088.780   114392101.331 5      5168.011          32.250    21768094.940    89136713.263 5      4027.021          32.312
G27  20695420.180   108755157.248 8      2458.100          48.875    20695419.400   108755157.248 8      2458.100          48.437    20695424.100    84744298.528 8      1915.403          48.125    20695424.320    84744298.530 8      1915.403          50.125
R16  19031998.780   101665513.812 8      3109.183          48.250    19031998.720   101665513.810 8      3109.183          48.000    19032006.460    79073212.863 8      2418.254          50.062    19032006.620    79073211.862 8      2418.254          50.562
G16  20283833.340   106592259.431 7      2412.313          46.812    20283832.080   106592259.444 6      2412.313          39.687    20283834.900    83058908.657 6      1879.725          39.125
R18  20127748.700   107443279.903 8       505.292          48.312    20127748.800   107443279.899 7       505.292          47.687    20127756.180    83567028.978 8       393.005          49.000    20127756.240    83567029.980 8       393.005          49.687
G26  21490544.460   112933560.086 7       404.782          46.312    21490543.200   112933560.088 7       404.782          46.250    21490550.340    88000202.285 7       315.415          46.187    21490550.700    88000205.287 8       315.415          48.375
R15  20831281.580   111316040.702 7      -711.013          47.125    20831280.840   111316040.693 7      -711.013          46.062    20831291.420    86579180.087 8      -553.010          48.437    20831291.560    86579182.090 8      -553.010          48.125
G18  25137522.700   132098559.079 6      -772.648          36.062    25137521.520   132098559.084 3      -772.648          20.187    25137528.760   102933970.429 3      -602.064          20.187    25137529.260   102933974.446 6      -602.064          41.375
G10  22296338.240   117168046.400 7      3853.012          46.687    22296337.240   117168046.405 7      3853.012          44.875    22296344.540    91299806.408 7      3002.347          45.062    22296344.640    91299805.413 7      3002.347          47.062
G23  22984176.860   120782657.003 7      1995.279          43.562    22984175.440   120782657.011 5      1995.279          32.812    22984180.780    94116374.844 5      1554.763          32.562    22984180.600    94116376.853 7      1554.763          47.125
R09  22057928.940   117788070.657 7      6456.553          43.750    22057928.840   117788070.655 7      6456.553          42.937    22057936.980    91613008.396 7      5021.763          45.812    22057937.060    91613009.394 7      5021.763          46.625
R17  23299537.360   124680523.149 6      -693.149          41.000    23299537.000   124680523.145 6      -693.149          39.937    23299549.140    96973787.583 7      -539.116          43.125    23299548.800    96973785.585 7      -539.116          42.937
> 2024 05 06 11 56 27.0000000  0 13
G08  21734818.440   114217238.815 7      3947.271          45.062    21734817.660   114217238.812 6      3947.271          36.062    21734823.600    89000466.042 5      3075.795          35.500    21734824.140    89000470.059 8      3075.795          48.687
G21  21767107.320   114386933.530 7      5167.868          44.125    21767105.440   114386933.535 5      5167.868          32.250    21767111.340    89132686.423 5      4026.910          32.312
G27  20694952.460   108752699.111 8      2458.429          48.250    20694951.640   108752699.116 8      2458.429          48.437    20694956.240    84742383.100 8      1915.659          48.875    20694956.760    84742383.104 8      1915.659          50.500
R16  19031417.080   101662404.992 8      3108.761          48.812    19031416.720   101662404.991 8      3108.761          48.250    19031424.620    79070794.888 8      2417.925          51.625    19031424.720    79070793.888 8      2417.925          51.812
G16  20283374.360   106589847.265 7      2412.280          46.812    20283373.120   106589847.275 6      2412.280          39.875    20283375.780    83057029.049 6      1879.699          39.562
R18  20127654.000   107442774.596 8       505.452          49.062    20127654.060   107442774.597 7       505.452          47.625    20127661.700    83566635.968 8       393.129          50.000    20127661.560    83566636.974 8       393.129          49.812
G26  21490467.320   112933155.215 7       405.035          46.750    21490466.260   112933155.220 7       405.035          46.312    21490473.260    87999886.805 7       315.612          46.625    21490473.580    87999889.807 8       315.612          48.000
R15  20831414.460   111316751.852 7      -711.133          47.125    20831413.700   111316751.856 7      -711.133          45.812    20831424.380    86579733.214 8      -553.103          48.812    20831424.660    86579735.215 8      -553.103          48.812
G18  25137669.700   132099331.485 6      -772.049          36.062    25137668.620   132099331.487 3      -772.049          20.187    25137675.720   102934572.301 3      -601.596          20.187    25137675.820   102934576.310 6      -601.596          41.125
G10  22295605.060   117164193.452 7      3853.064          46.125    22295604.100   117164193.455 7      3853.064          44.375    22295611.460    91296804.115 7      3002.388          44.250    22295611.580    91296803.121 7      3002.388          47.062
G23  22983797.200   120780661.995 7      1995.019          44.250    22983795.860   120780662.002 5      1995.019          32.812    22983801.100    94114820.296 5      1554.560          32.750    22983801.180    94114822.299 7      1554.560          47.187
R09  22056720.100   117781614.128 7      6456.741          43.750    22056719.940   117781614.132 7      6456.741          42.562    22056727.820    91607986.657 7      5021.910          45.750    22056728.040    91607987.659 7      5021.910          46.375
R17  23299666.880   124681216.093 6      -692.528          41.000    23299666.660   124681216.097 6      -692.528          39.937    23299678.580    96974326.555 7      -538.633          43.062    23299678.200    96974324.554 7      -538.633          42.875
> 2024 05 06 11 56 28.0000000  0 13
G08  21734067.400   114213291.766 7      3947.011          44.875    21734066.440   114213291.768 6      3947.011          36.125    21734072.420    88997390.423 6      3075.593          36.062    21734073.120    88997394.447 8      3075.593          48.375
G21  21766124.140   114381766.038 7      5167.283          43.562    21766122.120   114381766.043 5      5167.283          32.000    21766128.080    89128659.825 5      4026.454          32.312
G27  20694484.580   108750240.999 8      2457.995          48.437    20694483.860   108750241.007 8      2457.995          49.187    20694488.500    84740467.695 8      1915.321          49.312    20694488.760    84740467.693 8      1915.321          50.375
R16  19030835.320   101659296.817 8      3107.825          48.875    19030834.860   101659296.818 8      3107.825          48.125    19030842.780    79068377.426 8      2417.197          51.187    19030842.680    79068376.428 8      2417.197          51.125
G16  20282915.260   106587435.411 7      2411.645          46.750    20282914.140   106587435.424 6      2411.645          40.500    20282916.900    83055149.687 6      1879.204          39.375
R18  20127559.640   107442269.372 8       505.092          48.437    20127559.500   107442269.373 7       505.092          47.500    20127567.100    83566243.020 8       392.849          50.312    20127566.740    83566244.030 8       392.849          50.000
G26  21490389.980   112932750.608 7       404.488          46.875    21490389.180   112932750.611 7       404.488          46.812    21490396.300    87999571.523 7       315.185          46.687    21490396.900    87999574.525 8       315.185          48.437
R15  20831547.900   111317463.408 7      -711.850          46.750    20831546.720   111317463.393 7      -711.850          45.937    20831557.600    86580286.623 8      -553.661          48.562    20831558.040    86580288.625 8      -553.661          48.500
G18  25137816.700   132100103.741 6      -772.247          36.062    25137815.680   132100103.744 3      -772.247          20.187    25137822.580   102935174.062 3      -601.751          20.187    25137822.660   102935178.073 6      -601.751          41.375
G10  22294872.360   117160340.839 7      3852.390          46.312    22294870.940   117160340.838 7      3852.390          44.625    22294878.360    91293802.085 7      3001.863          44.812    22294878.300    91293801.094 7      3001.863          47.250
G23  22983417.520   120778667.391 7      1994.303          44.750    22983416.380   120778667.398 5      1994.303          32.812    22983421.660    94113266.060 5      1554.003          32.750    22983422.020    94113268.062 7      1554.003          47.750
R09  22055511.120   117775157.767 7      6456.281          43.250    22055510.680   117775157.768 7      6456.281          42.875    22055518.900    91602965.050 7      5021.552          45.812    22055519.100    91602966.047 7      5021.552          46.625
R17  23299796.140   124681908.760 6      -692.676          40.437    23299795.900   124681908.788 6      -692.676          39.937    23299808.140    96974865.305 7      -538.748          43.125    23299807.680    96974863.312 7      -538.748          43.062
> 2024 05 06 11 56 29.0000000  0 13
G08  21733316.240   114209344.672 7      3947.105          45.875    21733315.400   114209344.671 6      3947.105          36.062    21733321.360    88994314.770 6      3075.666          36.062    21733322.020    88994318.777 8      3075.666          48.000
G21  21765141.160   114376598.822 7      5167.072          44.187    21765138.580   114376598.827 5      5167.072          32.000    21765144.680    89124633.433 5      4026.290          31.875
G27  20694016.960   108747782.849 8      2458.204          48.312    20694016.200   108747782.854 8      2458.204          49.375    20694020.720    84738552.251 8      1915.484          49.625    20694021.140    84738552.247 8      1915.484          49.750
R16  19030253.360   101656189.293 8      3107.261          49.187    19030253.080   101656189.299 8      3107.261          48.437    19030261.040    79065960.463 8      2416.758          51.562    19030260.980    79065959.465 8      2416.758          51.437
G16  20282456.520   106585023.836 7      2411.423          46.562    20282455.240   106585023.843 6      2411.423          40.062    20282457.920    83053270.537 6      1879.031          39.125
R18  20127464.880   107441764.225 8       505.130          48.250    20127464.860   107441764.224 8       505.130          48.187    20127472.460    83565850.126 8       392.879          50.125    20127472.220    83565851.136 8       392.879          49.937
G26  21490313.300   112932346.186 7       404.361          47.187    21490312.320   112932346.194 7       404.361          47.000    21490319.420    87999256.389 7       315.087          46.500    21490319.720    87999259.393 8       315.087          48.062
R15  20831680.820   111318175.248 7      -712.080          47.812    20831679.960   111318175.246 7      -712.080          46.062    20831690.680    86580840.290 8      -553.840          48.437    20831690.960    86580842.292 8      -553.840          48.375
G18  25137963.000   132100875.785 6      -771.931          36.062    25137962.620   132100875.792 3      -771.931          20.187    25137969.600   102935775.656 3      -601.504          20.187    25137970.180   102935779.661 6      -601.504          41.375
G10  22294139.180   117156488.506 7      3852.115          46.375    22294137.760   117156488.508 7      3852.115          44.812    22294145.240    91290800.276 7      3001.648          44.750    22294145.780    91290799.283 7      3001.648          46.875
G23  22983037.680   120776673.197 7      1993.977          44.500    22983036.920   120776673.202 5      1993.977          33.062    22983042.080    94111712.140 5      1553.748          32.812    22983042.500    94111714.143 7      1553.748          47.687
R09  22054302.040   117768701.518 7      6456.170          42.750    22054301.580   117768701.527 7      6456.170          42.812    22054309.780    91597943.537 7      5021.466          45.750    22054309.720    91597944.537 7      5021.466          46.687
R17  23299925.700   124682601.101 6      -692.208          40.437    23299925.980   124682601.111 6      -692.208          39.375    23299937.380    96975403.776 7      -538.384          42.937    23299937.200    96975401.772 7      -538.384          43.187
> 2024 05 06 11 56 30.0000000  0 13
G08  21732565.080   114205397.478 7      3947.278          45.937    21732564.340   114205397.475 6      3947.278          36.062    21732570.200    88991239.041 5      3075.801          35.937    21732570.760    88991243.056 8      3075.801          48.875
G21  21764157.740   114371431.879 7      5166.880          44.812    21764155.380   114371431.881 5      5166.880          32.000    21764161.380    89120607.252 5      4026.140          31.875
G27  20693549.160   108745324.677 8      2458.279          49.250    20693548.400   108745324.680 8      2458.279          49.062    20693552.960    84736636.791 8      1915.542          49.250    20693553.500    84736636.791 8      1915.542          49.812
R16  19029671.720   101653082.439 8      3106.607          49.000    19029671.380   101653082.440 7      3106.607          47.687    19029679.220    79063544.022 8      2416.250          51.312    19029679.620    79063543.023 8      2416.250          51.625
G16  20281997.840   106582612.510 7      2411.308          46.187    20281996.360   106582612.520 6      2411.308          39.937    20281999.080    83051391.586 6      1878.942          38.937
R18  20127370.120   107441259.145 7       505.129          47.875    20127370.140   107441259.152 8       505.129          48.000    20127377.920    83565457.292 8       392.878          50.312    20127377.720    83565458.304 8       392.878          49.687
G26  21490236.560   112931941.958 7       404.290          47.062    21490235.340   112931941.961 7       404.290          46.937    21490242.460    87998941.402 7       315.031          46.562    21490242.860    87998944.406 8       315.031          49.250
R15  20831814.040   111318887.431 7      -712.280          47.437    20831813.380   111318887.422 7      -712.280          46.187    20831823.920    86581394.199 8      -553.996          48.437    20831824.040    86581396.200 8      -553.996          48.250
G18  25138111.020   132101647.637 6      -771.630          36.062    25138109.560   132101647.647 3      -771.630          20.187    25138116.480   102936377.099 3      -601.270          19.937    25138117.260   102936381.104 6      -601.270          41.125
G10  22293405.700   117152636.436 7      3851.981          46.062    22293404.780   117152636.441 7      3851.981          45.000    22293412.240    91287798.671 7      3001.543          44.812    22293412.580    91287797.676 7      3001.543          47.187
G23  22982658.400   120774679.384 7      1993.663          44.062    22982657.500   120774679.389 5      1993.663          33.062    22982662.740    94110158.522 5      1553.504          32.812    22982663.320    94110160.528 7      1553.504          47.250
R09  22053092.820   117762245.336 7      6456.229          43.750    22053092.080   117762245.340 7      6456.229          42.812    22053100.660    91592922.064 7      5021.511          45.812    22053100.620    91592923.068 7      5021.511          46.375
R17  23300054.660   124683293.071 6      -691.749          40.437    23300054.960   124683293.085 6      -691.749          39.375    23300066.840    96975941.985 7      -538.027          43.687    23300066.320    96975939.981 7      -538.027          43.000
> 2024 05 06 11 56 31.0000000  0 13
G08  21731814.180   114201450.345 7      3946.994          46.062    21731813.300   114201450.339 6      3946.994          36.000    21731819.140    88988163.350 5      3075.579          35.750    21731819.700    88988167.355 8      3075.579          48.062
G21  21763174.800   114366265.323 7      5166.243          44.437    21763172.120   114366265.320 5      5166.243          31.750    21763178.100    89116581.370 5      4025.644          31.875
G27  20693081.360   108742866.590 8      2457.944          48.625    20693080.640   108742866.595 8      2457.944          49.062    20693085.220    84734721.404 8      1915.281          49.000    20693085.660    84734721.402 8      1915.281          50.062
R16  19029090.160   101649976.357 8      3105.622          48.937    19029089.920   101649976.356 8      3105.622          48.625    19029097.860    79061128.180 8      2415.484          51.000    19029098.260    79061127.184 8      2415.484          50.937
G16  20281539.060   106580201.573 7      2410.722          46.312    20281537.480   106580201.581 6      2410.722          39.375    20281540.300    83049512.934 6      1878.485          39.000
R18  20127275.600   107440754.287 8       504.627          48.375    20127275.540   107440754.293 7       504.627          47.812    20127283.240    83565064.627 8       392.487          49.625    20127283.240    83565065.635 8       392.487          49.562
G26  21490159.680   112931538.041 7       403.663          46.812    21490158.380   112931538.043 7       403.663          46.500    21490165.700    87998626.661 7       314.543          46.437    21490166.080    87998629.663 7       314.543          47.937
R15  20831947.860   111319600.061 7      -712.989          47.625    20831946.720   111319600.055 7      -712.989          46.250    20831957.300    86581948.464 8      -554.547          48.375    20831957.580    86581950.464 8      -554.547          48.062
G18  25138257.540   132102419.412 6      -771.942          36.062    25138256.420   132102419.420 3      -771.942          20.187    25138263.120   102936978.480 3      -601.513          19.937    25138263.800   102936982.477 6      -601.513          41.125
G10  22292672.940   117148784.782 7      3851.317          46.312    22292671.780   117148784.792 7      3851.317          45.000    22292679.320    91284797.390 7      3001.027          44.875    22292679.440    91284796.387 7      3001.027          47.125
G23  22982279.020   120772686.057 7      1993.060          43.937    22982278.460   120772686.062 5      1993.060          32.812    22982283.400    94108605.280 5      1553.034          32.500    22982283.900    94108607.289 7      1553.034          47.625
R09  22051883.620   117755789.426 7      6455.788          42.812    22051883.780   117755789.416 7      6455.788          42.375    22051891.500    91587900.797 7      5021.169          45.250    22051891.620    91587901.797 7      5021.169          46.062
R17  23300184.180   124683984.885 6      -691.891          40.500    23300184.200   124683984.897 6      -691.891          39.375    23300195.980    96976480.058 7      -538.138          43.125    23300195.700    96976478.059 7      -538.138          43.125
> 2024 05 06 11 56 32.0000000  0 13
G08  21731063.020   114197503.267 7      3947.137          46.312    21731062.200   114197503.269 5      3947.137          35.812    21731068.020    88985087.711 6      3075.691          36.000    21731068.480    88985091.716 8      3075.691          48.437
G21  21762191.580   114361099.179 7      5165.944          44.250    21762188.920   114361099.178 5      5165.944          31.750    21762194.920    89112555.813 5      4025.411          31.937
G27  20692613.380   108740408.605 7      2458.075          47.937    20692612.800   108740408.607 8      2458.075          48.687    20692617.560    84732806.091 8      1915.383          49.375    20692618.000    84732806.087 8      1915.383          50.375
R16  19028508.680   101646871.090 8      3104.993          48.375    19028508.760   101646871.083 7      3104.993          47.812    19028516.520    79058712.975 8      2414.995          51.125    19028516.780    79058711.976 8      2414.995          51.562
G16  20281080.540   106577791.065 7      2410.437          46.437    20281078.760   106577791.075 6      2410.437          39.937    20281081.600    83047634.616 6      1878.263          39.625
R18  20127180.860   107440249.610 7       504.672          47.062    20127180.960   107440249.622 7       504.672          46.875    20127188.700    83564672.100 8       392.523          49.875    20127188.880    83564673.108 8       392.523          50.250
G26  21490082.980   112931134.449 7       403.465          46.875    21490081.660   112931134.453 7       403.465          46.125    21490088.920    87998312.176 7       314.388          46.375    21490088.980    87998315.176 8       314.388          48.375
R15  20832080.980   111320313.167 7      -713.259          47.125    20832080.540   111320313.168 7      -713.259          46.000    20832090.700    86582503.100 8      -554.757          48.375    20832091.080    86582505.106 8      -554.757          48.000
G18  25138404.100   132103191.096 5      -771.623          35.687    25138403.180   132103191.103 3      -771.623          20.187    25138410.020   102937579.794 3      -601.264          19.937    25138411.020   102937583.787 6      -601.264          41.312
G10  22291940.140   117144933.553 7      3851.136          46.312    22291938.940   117144933.560 7      3851.136          44.500    22291946.400    91281796.432 7      3000.885          45.062    22291946.500    91281795.431 7      3000.885          46.812
G23  22981899.740   120770693.300 7      1992.627          44.250    22981899.220   120770693.302 5      1992.627          32.812    22981904.280    94107052.482 5      1552.696          32.500    22981904.620    94107054.487 7      1552.696          47.625
R09  22050674.560   117749333.754 7      6455.585          42.812    22050674.400   117749333.755 7      6455.585          42.312    22050682.500    91582879.727 7      5021.011          45.250    22050682.500    91582880.731 7      5021.011          46.375
R17  23300313.400   124684676.498 6      -691.447          40.500    23300313.240   124684676.513 6      -691.447          39.375    23300325.580    96977017.982 7      -537.792          43.000    23300325.040    96977015.978 7      -537.792          42.812
> 2024 05 06 11 56 33.0000000  0 13
G08  21730312.060   114193556.241 7      3947.052          46.500    21730311.020   114193556.241 6      3947.052          36.062    21730316.960    88982012.111 5      3075.625          35.750    21730317.520    88982016.114 8      3075.625          48.500
G21  21761208.360   114355933.411 7      5165.536          44.687    21761206.040   114355933.413 5      5165.536          32.312    21761211.960    89108530.550 5      4025.093          31.937
G27  20692145.640   108737950.717 8      2457.877          49.437    20692145.040   108737950.719 8      2457.877          49.875    20692149.720    84730890.852 8      1915.229          49.500    20692150.100    84730890.852 8      1915.229          49.875
R16  19027927.480   101643766.590 8      3104.139          50.000    19027927.480   101643766.588 8      3104.139          49.000    19027935.400    79056298.365 8      2414.331          51.625    19027935.720    79056297.367 8      2414.331          51.812
G16  20280621.840   106575380.938 7      2409.993          47.062    20280620.020   106575380.945 6      2409.993          39.812    20280623.140    83045756.595 6      1877.917          39.250
R18  20127086.220   107439745.107 8       504.472          48.937    20127086.380   107439745.110 8       504.472          48.187    20127094.260    83564279.700 8       392.367          50.250    20127094.480    83564280.708 8       392.367          50.437
G26  21490006.100   112930731.159 7       403.138          47.500    21490004.940   112930731.164 7       403.138          47.187    21490012.100    87997997.922 7       314.134          46.812    21490012.260    87998000.926 8       314.134          48.000
R15  20832215.000   111321026.719 8      -713.752          48.500    20832214.040   111321026.723 7      -713.752          47.687    20832224.400    86583058.085 8      -555.141          49.000    20832224.800    86583060.087 8      -555.141          49.000
G18  25138550.920   132103962.690 5      -771.436          35.687    25138549.960   132103962.695 3      -771.436          20.187    25138556.860   102938181.035 3      -601.119          19.937    25138557.660   102938185.029 6      -601.119          41.312
G10  22291207.520   117141082.734 7      3850.543          47.312    22291206.260   117141082.739 7      3850.543          45.187    22291213.600    91278795.798 7      3000.423          45.000    22291213.940    91278794.801 7      3000.423          46.625
G23  22981520.620   120768701.037 7      1992.007          44.687    22981519.820   120768701.042 5      1992.007          32.750    22981525.180    94105500.072 5      1552.213          32.500    22981525.440    94105502.079 7      1552.213          47.250
R09  22049465.360   117742878.266 7      6455.426          42.500    22049465.440   117742878.264 7      6455.426          42.312    22049473.380    91577858.798 7      5020.887          45.437    22049473.680    91577859.800 7      5020.887          46.375
R17  23300442.560   124685367.892 6      -691.266          40.500    23300442.560   124685367.902 6      -691.266          39.375    23300454.660    96977555.733 7      -537.652          43.312    23300454.280    96977553.725 7      -537.652          43.187
> 2024 05 06 11 56 34.0000000  0 13
G08  21729560.900   114189609.173 7      3947.202          46.750    21729559.980   114189609.170 6      3947.202          36.125    21729565.880    88978936.476 6      3075.742          36.125    21729566.740    88978940.474 8      3075.742          49.000
G21  21760225.440   114350767.942 7      5165.392          44.875    21760223.000   114350767.942 5      5165.392          32.312    21760228.920    89104505.517 5      4024.981          32.125
G27  20691678.080   108735492.819 8      2457.930          49.312    20691677.260   108735492.826 8      2457.930          50.250    20691682.040    84728975.614 8      1915.270          49.812    20691682.540    84728975.614 8      1915.270          50.187
R16  19027346.600   101640662.768 8      3103.573          50.125    19027346.460   101640662.764 8      3103.573          49.437    19027354.440    79053884.286 8      2413.890          51.500    19027354.400    79053883.283 8      2413.890          51.812
G16  20280163.060   106572971.091 7      2409.809          47.062    20280161.560   106572971.101 6      2409.809          40.125    20280164.560    83043878.799 6      1877.773          39.437
R18  20126991.900   107439240.704 8       504.414          49.187    20126992.180   107439240.708 8       504.414          48.187    20126999.760    83563887.394 8       392.322          50.187    20126999.820    83563888.400 8       392.322          50.562
G26  21489929.380   112930328.100 8       402.973          48.062    21489928.100   112930328.100 7       402.973          46.937    21489935.440    87997683.846 7       314.005          47.000    21489935.540    87997686.850 8       314.005          48.125
R15  20832348.240   111321740.658 8      -714.100          48.750    20832347.740   111321740.662 7      -714.100          47.875    20832358.100    86583613.367 8      -555.411          48.625    20832358.220    86583615.369 8      -555.411          48.500
G18  25138697.300   132104734.111 6      -771.195          36.562    25138696.800   132104734.113 3      -771.195          20.187    25138703.800   102938782.144 3      -600.931          19.937    25138704.200   102938786.126 6      -600.931          41.375
G10  22290474.760   117137232.175 7      3850.510          46.812    22290473.420   117137232.185 7      3850.510          45.312    22290480.820    91275795.373 7      3000.397          45.000    22290480.960    91275794.374 7      3000.397          47.062
G23  22981141.380   120766709.187 7      1991.703          45.125    22981140.860   120766709.192 5      1991.703          32.750    22981146.120    94103947.983 5      1551.976          32.500    22981146.260    94103949.992 7      1551.976          47.312
R09  22048256.440   117736422.898 7      6455.429          44.312    22048256.720   117736422.899 7      6455.429          42.812    22048264.620    91572837.963 7      5020.890          45.312    22048264.760    91572838.967 7      5020.890          45.812
R17  23300571.700   124686058.946 6      -690.729          40.312    23300571.020   124686058.961 6      -690.729          39.375    23300583.620    96978093.215 7      -537.234          43.000    23300583.120    96978091.216 7      -537.234          43.187
> 2024 05 06 11 56 35.0000000  0 13
G08  21728809.900   114185661.898 7      3947.217          46.812    21728808.900   114185661.895 6      3947.217          36.187    21728814.680    88975860.681 6      3075.753          36.062    21728815.580    88975864.686 8      3075.753          49.250
G21  21759242.440   114345602.615 7      5164.994          44.687    21759240.200   114345602.620 5      5164.994          32.312    21759245.960    89100480.600 5      4024.671          32.125
G27  20691210.280   108733034.747 8      2457.993          49.125    20691209.600   108733034.757 8      2457.993          50.312    20691214.300    84727060.236 8      1915.319          49.750    20691214.700    84727060.240 8      1915.319          50.187
R16  19026765.660   101637559.456 8      3102.881          50.000    19026765.440   101637559.449 8      3102.881          49.125    19026773.440    79051470.597 8      2413.352          51.437    19026773.620    79051469.596 8      2413.352          51.437
G16  20279704.380   106570561.390 7      2409.527          47.250    20279703.080   106570561.400 6      2409.527          40.500    20279705.960    83042001.111 6      1877.554          40.000
R18  20126897.480   107438736.244 8       504.324          49.312    20126897.460   107438736.245 8       504.324          48.625    20126905.280    83563495.036 8       392.252          50.250    20126905.420    83563496.039 8       392.252          50.937
G26  21489852.560   112929925.068 8       402.878          48.062    21489851.360   112929925.065 7       402.878          47.187    21489858.740    87997369.795 7       313.931          46.937    21489859.120    87997372.797 8       313.931          48.437
R15  20832482.040   111322454.771 8      -714.398          48.500    20832481.460   111322454.770 7      -714.398          47.625    20832491.680    86584168.784 8      -555.643          48.437    20832491.900    86584170.788 8      -555.643          48.875
G18  25138844.620   132105505.201 6      -771.280          36.562    25138843.400   132105505.200 3      -771.280          20.187    25138850.240   102939382.991 3      -600.997          19.937    25138851.180   102939386.994 6      -600.997          41.375
G10  22289742.040   117133381.818 7      3850.149          47.000    22289740.800   117133381.818 7      3850.149          44.812    22289748.140    91272795.089 7      3000.116          44.500    22289748.440    91272794.088 7      3000.116          46.937
G23  22980762.760   120764717.605 7      1991.199          44.437    22980762.020   120764717.610 5      1991.199          32.625    22980767.100    94102396.103 5      1551.583          32.500    22980767.340    94102398.109 7      1551.583          46.937
R09  22047048.040   117729967.485 7      6455.252          44.062    22047047.940   117729967.483 7      6455.252          43.437    22047055.600    91567817.088 7      5020.752          45.562    22047056.040    91567818.090 7      5020.752          45.375
R17  23300700.560   124686749.548 6      -690.396          40.312    23300701.000   124686749.561 6      -690.396          40.500    23300712.440    96978630.352 7      -536.975          43.000    23300712.220    96978628.344 7      -536.975          42.875
> 2024 05 06 11 56 36.0000000  0 13
G08  21728058.620   114181714.597 7      3947.328          46.500    21728057.860   114181714.596 6      3947.328          36.062    21728063.400    88972784.861 6      3075.840          36.000    21728064.520    88972788.871 8      3075.840          48.812
G21  21758259.640   114340437.591 7      5164.895          45.312    21758257.340   114340437.598 5      5164.895          31.875    21758263.080    89096455.916 5      4024.593          32.125
G27  20690742.480   108730576.701 8      2458.066          48.875    20690741.760   108730576.712 8      2458.066          49.625    20690746.480    84725144.880 8      1915.376          49.125    20690746.980    84725144.880 8      1915.376          50.000
R16  19026184.960   101634456.796 8      3102.401          49.875    19026184.640   101634456.789 8      3102.401          49.250    19026192.660    79049057.416 8      2412.979          50.812    19026192.860    79049056.418 8      2412.979          51.062
G16  20279246.000   106568152.016 7      2409.261          46.812    20279244.720   106568152.029 6      2409.261          40.062    20279247.440    83040123.679 6      1877.346          39.500
R18  20126803.060   107438231.903 8       504.373          48.812    20126803.000   107438231.901 8       504.373          48.875    20126810.800    83563102.769 8       392.290          49.625    20126810.960    83563103.772 8       392.290          50.312
G26  21489775.700   112929522.288 7       402.759          47.187    21489774.760   112929522.287 7       402.759          46.875    21489782.120    87997055.941 7       313.838          46.375    21489782.480    87997058.942 8       313.838          48.125
R15  20832615.680   111323169.242 8      -714.566          48.625    20832614.960   111323169.238 7      -714.566          47.562    20832625.600    86584724.475 7      -555.773          47.937    20832625.500    86584726.475 7      -555.773          47.937
G18  25138991.220   132106276.093 6      -770.847          36.312    25138989.900   132106276.095 3      -770.847          20.187    25138996.940   102939983.686 3      -600.660          19.937    25138997.560   102939987.689 6      -600.660          41.062
G10  22289009.440   117129531.753 7      3849.978          46.687    22289008.140   117129531.756 7      3849.978          44.562    22289015.460    91269795.048 7      2999.983          44.187    22289015.720    91269794.047 7      2999.983          47.312
G23  22980383.860   120762726.430 7      1991.020          44.250    22980383.060   120762726.435 5      1991.020          32.625    22980388.180    94100844.538 5      1551.445          32.500    22980388.240    94100846.549 7      1551.445          47.000
R09  22045838.980   117723512.206 7      6455.257          44.375    22045839.060   117723512.217 7      6455.257          43.437    22045846.780    91562796.331 7      5020.755          45.312    22045847.040    91562797.335 7      5020.755          45.687
R17  23300830.180   124687439.867 6      -690.183          40.312    23300829.920   124687439.887 6      -690.183          40.500    23300841.600    96979167.275 7      -536.809          42.750    23300841.120    96979165.269 7      -536.809          42.875
> 2024 05 06 11 56 37.0000000  0 13
G08  21727307.320   114177767.290 7      3947.150          46.125    21727306.720   114177767.287 6      3947.150          36.062    21727312.300    88969709.040 5      3075.701          35.687    21727313.380    88969713.053 8      3075.701          49.000
G21  21757276.720   114335272.902 7      5164.455          44.812    21757274.480   114335272.905 5      5164.455          31.875    21757280.180    89092431.491 5      4024.251          32.062
G27  20690274.880   108728118.685 8      2457.860          48.437    20690273.960   108728118.695 8      2457.860          50.062    20690278.780    84723229.542 8      1915.216          49.312    20690279.280    84723229.544 8      1915.216          49.500
R16  19025604.400   101631354.854 8      3101.422          49.687    19025604.040   101631354.855 8      3101.422          49.625    19025611.940    79046644.805 8      2412.217          51.812    19025611.980    79046643.807 8      2412.217          51.375
G16  20278787.720   106565742.977 7      2408.752          46.000    20278786.220   106565742.984 6      2408.752          40.250    20278789.080    83038246.505 6      1876.950          39.375
R18  20126708.580   107437727.693 8       504.036          49.562    20126708.640   107437727.691 8       504.036          48.375    20126716.400    83562710.609 8       392.028          49.937    20126716.460    83562711.611 8       392.028          50.812
G26  21489699.400   112929119.768 7       402.304          46.562    21489698.200   112929119.770 7       402.304          46.812    21489705.560    87996742.287 7       313.483          46.687    21489705.680    87996745.293 8       313.483          48.875
R15  20832749.140   111323884.117 8      -715.143          49.125    20832748.820   111323884.120 7      -715.143          47.500    20832759.520    86585280.489 8      -556.223          48.875    20832759.380    86585282.490 8      -556.223          48.312
G18  25139137.420   132107046.865 6      -770.719          36.312    25139136.620   132107046.870 3      -770.719          20.187    25139143.700   102940584.290 3      -600.561          19.937    25139144.660   102940588.285 6      -600.561          41.312
G10  22288276.760   117125682.040 7      3849.500          46.062    22288275.400   117125682.048 7      3849.500          45.062    22288283.020    91266795.280 7      2999.610          44.500    22288282.860    91266794.286 7      2999.610          46.937
G23  22980004.800   120760735.728 7      1990.391          44.875    22980004.160   120760735.730 5      1990.391          32.937    22980009.400    94099293.345 5      1550.954          32.500    22980009.740    94099295.354 7      1550.954          47.687
R09  22044630.140   117717057.142 7      6454.885          44.375    22044630.220   117717057.154 7      6454.885          43.625    22044638.100    91557775.727 7      5020.466          45.625    22044638.280    91557776.733 7      5020.466          46.250
R17  23300958.700   124688129.907 6      -690.020          41.625    23300958.220   124688129.925 6      -690.020          40.500    23300970.420    96979703.971 7      -536.683          43.000    23300970.060    96979701.967 7      -536.683          43.000
> 2024 05 06 11 56 38.0000000  0 13
G08  21726556.080   114173820.088 7      3947.190          46.250    21726555.400   114173820.088 6      3947.190          36.187    21726561.300    88966633.303 5      3075.732          35.687    21726562.400    88966637.314 8      3075.732          48.875
G21  21756294.160   114330108.698 7      5163.987          45.437    21756291.840   114330108.702 5      5163.987          31.937    21756297.560    89088407.444 5      4023.886          32.062
G27  20689806.940   108725660.850 8      2457.672          48.125    20689806.280   108725660.854 8      2457.672          49.500    20689811.080    84721314.348 8      1915.069          49.250    20689811.000    84721314.348 8      1915.069          49.937
R16  19025023.900   101628253.786 8      3100.630          49.687    19025023.600   101628253.781 8      3100.630          49.375    19025031.420    79044232.863 8      2411.601          51.500    19025031.600    79044231.863 8      2411.601          51.937
G16  20278329.180   106563334.384 7      2408.412          46.562    20278327.820   106563334.394 6      2408.412          40.125    20278330.740    83036369.686 6      1876.684          39.625
R18  20126614.340   107437223.742 8       503.797          48.937    20126614.220   107437223.740 8       503.797          48.562    20126621.980    83562318.646 8       391.842          50.187    20126622.140    83562319.649 8       391.842          50.375
G26  21489622.860   112928717.629 7       401.936          46.562    21489621.720   112928717.631 7       401.936          46.937    21489629.060    87996428.936 7       313.197          46.750    21489629.480    87996431.942 8       313.197          48.562
R15  20832883.440   111324599.549 8      -715.671          48.312    20832882.820   111324599.545 7      -715.671          46.562    20832893.200    86585836.932 8      -556.633          48.750    20832893.320    86585838.934 8      -556.633          48.625
G18  25139283.800   132107817.629 6      -770.767          36.375    25139283.300   132107817.637 3      -770.767          20.187    25139290.320   102941184.887 3      -600.598          19.937    25139291.120   102941188.884 6      -600.598          41.312
G10  22287544.320   117121832.822 7      3849.055          46.125    22287542.960   117121832.826 7      3849.055          45.187    22287550.500    91263795.893 7      2999.263          45.000    22287550.520    91263794.894 7      2999.263          47.187
G23  22979626.580   120758745.604 7      1989.871          43.875    22979625.440   120758745.611 5      1989.871          32.937    22979630.740    94097742.606 5      1550.549          32.750    22979631.200    94097744.616 7      1550.549          47.000
R09  22043421.340   117710602.402 7      6454.517          44.000    22043421.380   117710602.411 7      6454.517          43.562    22043429.100    91552755.377 7      5020.180          45.562    22043429.580    91552756.381 7      5020.180          46.187
R17  23301087.300   124688819.813 6      -689.752          41.625    23301087.240   124688819.842 6      -689.752          40.937    23301099.480    96980240.577 7      -536.474          43.062    23301099.160    96980238.571 7      -536.474          42.687
> 2024 05 06 11 56 39.0000000  0 13
G08  21725804.980   114169873.034 7      3946.945          46.625    21725804.200   114169873.036 5      3946.945          35.812    21725810.140    88963557.682 5      3075.541          35.750    21725811.100    88963561.695 8      3075.541          48.437
G21  21755311.520   114324944.937 7      5163.544          44.937    21755309.180   114324944.939 5      5163.544          31.937    21755314.940    89084383.742 5      4023.541          32.062
G27  20689339.260   108723203.143 8      2457.675          48.750    20689338.560   108723203.145 8      2457.675          49.875    20689343.460    84719399.252 8      1915.071          49.250    20689343.540    84719399.248 8      1915.071          50.000
R16  19024443.600   101625153.588 8      3099.746          50.312    19024443.200   101625153.586 8      3099.746          49.375    19024451.040    79041821.603 8      2410.914          51.375    19024451.100    79041820.602 8      2410.914          51.375
G16  20277870.980   106560926.279 7      2407.868          47.125    20277869.440   106560926.287 6      2407.868          39.937    20277872.460    83034493.239 6      1876.261          39.187
R18  20126519.960   107436720.042 8       503.556          49.062    20126519.660   107436720.038 8       503.556          48.062    20126527.620    83561926.881 8       391.655          49.750    20126527.800    83561927.884 8       391.655          50.687
G26  21489546.340   112928315.863 7       401.595          46.562    21489545.260   112928315.863 7       401.595          47.187    21489552.560    87996115.867 7       312.932          46.937    21489553.120    87996118.871 8       312.932          48.812
R15  20833017.300   111325315.487 7      -716.110          47.812    20833016.560   111325315.475 7      -716.110          47.625    20833027.320    86586393.760 8      -556.974          48.875    20833027.360    86586395.766 8      -556.974          48.437
G18  25139431.020   132108588.375 6      -770.665          36.375    25139429.720   132108588.382 3      -770.665          20.187    25139436.820   102941785.468 3      -600.518          19.937    25139437.460   102941789.467 6      -600.518          41.312
G10  22286811.840   117117984.070 7      3848.493          46.500    22286810.640   117117984.075 7      3848.493          45.125    22286818.220    91260796.868 7      2998.825          44.812    22286818.260    91260795.873 7      2998.825          46.812
G23  22979247.820   120756756.084 7      1989.180          44.937    22979246.720   120756756.094 5      1989.180          32.812    22979252.120    94096192.335 5      1550.011          32.750    22979252.360    94096194.339 7      1550.011          47.125
R09  22042212.920   117704147.944 7      6454.313          44.125    22042212.520   117704147.948 7      6454.313          43.562    22042220.460    91547735.252 7      5020.021          45.500    22042220.940    91547736.252 7      5020.021          46.500
R17  23301216.120   124689509.640 6      -689.773          41.625    23301216.400   124689509.649 6      -689.773          40.937    23301228.540    96980777.094 7      -536.490          43.312    23301228.340    96980775.086 7      -536.490          43.125
> 2024 05 06 11 56 40.0000000  0 13
G08  21725053.700   114165925.693 7      3947.655          45.812    21725053.100   114165925.690 5      3947.655          35.875    21725058.860    88960481.832 5      3076.095          35.875    21725059.920    88960485.839 8      3076.095          48.437
G21  21754328.860   114319781.268 7      5163.673          45.250    21754326.680   114319781.268 5      5163.673          31.937    21754332.320    89080360.115 5      4023.641          31.812
G27  20688871.640   108720745.237 8      2458.051          48.812    20688870.740   108720745.239 8      2458.051          49.687    20688875.640    84717484.002 8      1915.365          49.375    20688875.900    84717484.000 8      1915.365          50.062
R16  19023863.300   101622053.868 8      3099.570          49.875    19023862.940   101622053.869 8      3099.570          49.125    19023870.860    79039410.710 8      2410.777          51.187    19023870.780    79039409.711 8      2410.777          51.375
G16  20277412.860   106558518.228 7      2408.078          46.687    20277411.320   106558518.233 6      2408.078          40.437    20277414.180    83032616.837 6      1876.424          39.812
R18  20126425.780   107436216.225 8       503.959          49.312    20126425.380   107436216.225 8       503.959          48.562    20126433.180    83561535.029 8       391.968          50.375    20126433.100    83561536.030 8       391.968          50.687
G26  21489469.980   112927914.094 7       401.924          47.312    21489468.780   112927914.097 7       401.924          46.875    21489476.140    87995802.799 7       313.188          46.562    21489476.700    87995805.803 8       313.188          48.875
R15  20833151.500   111326031.532 8      -715.950          48.375    20833150.660   111326031.520 7      -715.950          47.687    20833161.280    86586950.680 8      -556.850          48.750    20833161.160    86586952.679 8      -556.850          48.687
G18  25139577.560   132109358.739 6      -770.174          36.687    25139576.320   132109358.747 3      -770.174          20.187    25139583.420   102942385.754 3      -600.136          20.125    25139583.840   102942389.749 6      -600.136          41.312
G10  22286079.540   117114135.401 7      3848.713          46.500    22286078.200   117114135.403 7      3848.713          44.562    22286085.820    91257797.905 7      2998.997          44.500    22286085.800    91257796.912 7      2998.997          47.125
G23  22978869.280   120754766.741 7      1989.359          44.812    22978868.140   120754766.748 5      1989.359          32.812    22978873.620    94094642.197 5      1550.150          33.062    22978873.760    94094644.197 7      1550.150          47.250
R09  22041004.280   117697693.391 7      6454.673          44.437    22041003.760   117697693.397 7      6454.673          43.437    22041011.860    91542715.048 7      5020.301          46.062    22041012.380    91542716.052 7      5020.301          46.000
R17  23301344.860   124690198.834 6      -688.758          41.562    23301344.860   124690198.833 6      -688.758          40.937    23301357.720    96981313.132 7      -535.701          43.375    23301356.800    96981311.124 7      -535.701          43.312
> 2024 05 06 11 56 41.0000000  0 13
G08  21724302.760   114161978.397 7      3947.275          46.562    21724301.900   114161978.391 5      3947.275          35.875    21724307.680    88957406.017 5      3075.799          35.687    21724308.700    88957410.026 8      3075.799          48.250
G21  21753346.520   114314617.946 7      5163.148          46.250    21753344.220   114314617.951 5      5163.148          32.125    21753349.980    89076336.757 5      4023.232          31.812
G27  20688404.080   108718287.375 8      2457.841          48.500    20688403.140   108718287.383 8      2457.841          49.875    20688407.900    84715568.790 8      1915.201          49.625    20688408.360    84715568.786 8      1915.201          50.250
R16  19023282.860   101618954.897 8      3098.581          50.125    19023282.580   101618954.890 8      3098.581          49.437    19023290.760    79037000.394 8      2410.008          51.062    19023290.960    79036999.396 8      2410.008          51.562
G16  20276954.500   106556110.549 7      2407.473          46.062    20276953.140   106556110.554 6      2407.473          40.687    20276955.960    83030740.726 6      1875.953          39.812
R18  20126331.160   107435712.567 8       503.660          48.937    20126330.940   107435712.565 8       503.660          48.562    20126338.920    83561143.289 8       391.735          49.937    20126339.040    83561144.293 8       391.735          50.312
G26  21489393.700   112927512.607 7       401.517          46.437    21489392.380   112927512.607 7       401.517          47.125    21489399.740    87995489.952 7       312.870          46.812    21489400.000    87995492.953 8       312.870          49.000
R15  20833285.380   111326747.985 8      -716.635          48.125    20833284.440   111326747.984 7      -716.635          47.687    20833295.280    86587507.921 8      -557.383          48.625    20833295.160    86587509.921 8      -557.383          49.187
G18  25139724.040   132110128.941 6      -769.982          36.687    25139722.820   132110128.951 3      -769.982          20.187    25139730.080   102942985.911 3      -599.986          20.125    25139730.780   102942989.908 6      -599.986          41.375
G10  22285347.180   117110287.107 7      3848.124          46.125    22285345.980   117110287.112 7      3848.124          45.125    22285353.380    91254799.242 7      2998.538          44.812    22285353.560    91254798.248 7      2998.538          47.000
G23  22978490.840   120752777.896 7      1988.583          43.875    22978489.720   120752777.901 5      1988.583          33.250    22978495.080    94093092.448 5      1549.545          33.062    22978494.960    94093094.455 7      1549.545          47.312
R09  22039795.340   117691239.035 7      6454.314          44.125    22039795.080   117691239.033 7      6454.314          43.687    22039803.180    91537694.995 7      5020.022          45.625    22039803.780    91537695.995 7      5020.022          46.125
R17  23301473.480   124690887.804 6      -688.978          41.562    23301474.180   124690887.832 6      -688.978          40.687    23301485.900    96981849.016 7      -535.872          43.312    23301485.740    96981847.013 7      -535.872          43.250
> 2024 05 06 11 56 42.0000000  0 13
G08  21723551.760   114158031.053 7      3947.281          46.187    21723550.700   114158031.047 6      3947.281          36.000    21723556.520    88954330.166 6      3075.803          36.125    21723557.360    88954334.180 8      3075.803          48.062
G21  21752364.000   114309454.971 7      5162.639          45.437    21752361.860   114309454.973 5      5162.639          32.125    21752367.700    89072313.670 5      4022.836          32.562
G27  20687936.440   108715829.524 8      2457.832          49.187    20687935.400   108715829.534 8      2457.832          50.250    20687940.260    84713653.587 8      1915.194          49.562    20687940.640    84713653.583 8      1915.194          50.250
R16  19022702.800   101615856.595 8      3097.822          50.250    19022702.680   101615856.594 8      3097.822          49.312    19022710.580    79034590.609 8      2409.417          51.375    19022710.800    79034589.608 8      2409.417          51.875
G16  20276496.560   106553703.173 7      2407.170          46.250    20276495.160   106553703.183 6      2407.170          40.062    20276498.020    83028864.848 6      1875.717          39.437
R18  20126237.020   107435209.019 8       503.377          49.312    20126236.860   107435209.015 8       503.377          48.500    20126244.480    83560751.641 8       391.516          50.187    20126244.520    83560752.646 8       391.516          50.562
G26  21489317.360   112927111.380 7       401.029          46.750    21489315.980   112927111.385 7       401.029          47.062    21489323.420    87995177.307 7       312.490          46.375    21489323.760    87995180.309 8       312.490          48.250
R15  20833419.540   111327464.834 8      -717.143          48.375    20833418.880   111327464.830 7      -717.143          47.250    20833429.300    86588065.466 8      -557.778          48.562    20833429.460    86588067.470 8      -557.778          48.375
G18  25139871.140   132110899.056 5      -770.095          35.875    25139869.300   132110899.063 3      -770.095          20.187    25139876.620   102943586.003 3      -600.074          20.125    25139877.180   102943589.986 6      -600.074          41.375
G10  22284614.980   117106439.149 7      3847.658          46.937    22284613.760   117106439.154 7      3847.658          45.125    22284621.220    91251800.838 7      2998.175          44.812    22284621.320    91251799.841 7      2998.175          47.000
G23  22978112.520   120750789.483 7      1988.093          43.625    22978111.420   120750789.488 5      1988.093          33.250    22978116.560    94091543.033 5      1549.163          32.687    22978116.700    94091545.042 7      1549.163          47.562
R09  22038586.440   117684784.858 7      6453.994          44.125    22038586.640   117684784.854 7      6453.994          43.750    22038594.420    91532675.080 7      5019.773          45.625    22038595.160    91532676.080 7      5019.773          46.562
R17  23301602.620   124691576.523 6      -688.734          41.937    23301603.100   124691576.532 6      -688.734          40.687    23301614.940    96982384.676 7      -535.682          43.375    23301614.300    96982382.668 7      -535.682          42.937
> 2024 05 06 11 56 43.0000000  0 13
G08  21722800.660   114154083.846 7      3946.921          47.437    21722799.520   114154083.840 5      3946.921          35.937    21722805.360    88951254.429 5      3075.523          35.687    21722806.220    88951258.442 8      3075.523          48.375
G21  21751381.500   114304292.442 7      5162.141          45.437    21751379.580   114304292.447 5      5162.141          32.312    21751385.320    89068290.926 5      4022.448          32.562
G27  20687468.800   108713371.878 8      2457.427          48.062    20687467.640   108713371.886 8      2457.427          49.875    20687472.460    84711738.542 8      1914.878          49.437    20687473.200    84711738.536 8      1914.878          49.875
R16  19022123.240   101612759.130 8      3096.854          49.875    19022122.760   101612759.126 8      3096.854          49.375    19022130.880    79032181.473 8      2408.664          51.375    19022130.920    79032180.470 8      2408.664          51.750
G16  20276038.380   106551296.282 7      2406.543          46.687    20276037.000   106551296.290 6      2406.543          40.500    20276039.960    83026989.353 6      1875.228          40.250
R18  20126142.820   107434705.722 8       502.977          49.312    20126142.240   107434705.726 8       502.977          48.312    20126150.100    83560360.198 8       391.204          49.812    20126150.120    83560361.202 8       391.204          50.312
G26  21489241.100   112926710.526 7       400.505          47.687    21489239.760   112926710.531 7       400.505          46.875    21489247.180    87994864.957 7       312.082          46.687    21489247.540    87994867.957 8       312.082          48.687
R15  20833553.840   111328182.215 8      -717.852          48.375    20833552.900   111328182.213 7      -717.852          47.187    20833563.560    86588623.431 8      -558.329          48.875    20833563.580    86588625.431 8      -558.329          48.375
G18  25140017.900   132111669.118 5      -770.173          35.875    25140015.840   132111669.123 3      -770.173          20.062    25140023.160   102944186.054 3      -600.135          20.125    25140024.000   102944190.040 6      -600.135          41.375
G10  22283882.560   117102591.672 7      3847.102          46.687    22283881.540   117102591.669 7      3847.102          45.000    22283889.080    91248802.810 7      2997.742          44.937    22283889.160    91248801.817 7      2997.742          47.062
G23  22977734.040   120748801.666 7      1987.335          43.750    22977733.180   120748801.668 5      1987.335          32.687    22977738.340    94089994.093 5      1548.573          32.687    22977738.560    94089996.099 7      1548.573          47.562
R09  22037378.220   117678330.991 7      6453.474          44.125    22037377.800   117678330.984 7      6453.474          43.750    22037385.900    91527655.416 7      5019.369          45.625    22037386.280    91527656.411 7      5019.369          46.062
R17  23301730.860   124692265.123 6      -688.775          41.937    23301731.720   124692265.122 6      -688.775          40.687    23301743.880    96982920.248 7      -535.714          43.312    23301743.020    96982918.240 7      -535.714          43.187
> 2024 05 06 11 56 44.0000000  0 13
G08  21722049.400   114150136.631 7      3947.169          46.125    21722048.360   114150136.628 5      3947.169          35.937    21722054.100    88948178.683 5      3075.716          35.687    21722055.180    88948182.695 7      3075.716          47.937
G21  21750399.260   114299130.266 7      5162.010          44.937    21750397.220   114299130.271 5      5162.010          32.312    21750403.000    89064268.453 5      4022.346          32.687
G27  20687001.040   108710914.245 8      2457.664          48.125    20686999.960   108710914.253 8      2457.664          50.250    20687004.960    84709823.504 8      1915.063          49.437    20687005.680    84709823.502 8      1915.063          50.062
R16  19021543.400   101609662.378 8      3096.401          49.937    19021543.060   101609662.371 8      3096.401          49.750    19021551.160    79029772.886 8      2408.312          51.437    19021551.240    79029771.885 8      2408.312          51.375
G16  20275580.620   106548889.720 7      2406.409          46.750    20275579.080   106548889.728 6      2406.409          40.750    20275581.940    83025114.110 6      1875.124          40.125
R18  20126048.640   107434202.580 8       503.164          49.062    20126048.060   107434202.581 8       503.164          48.375    20126055.860    83559968.863 8       391.350          50.062    20126055.780    83559969.867 8       391.350          50.062
G26  21489164.880   112926309.929 7       400.493          47.375    21489163.500   112926309.929 7       400.493          47.375    21489170.900    87994552.800 7       312.072          47.125    21489171.180    87994555.806 8       312.072          48.687
R15  20833688.060   111328899.988 8      -717.937          48.437    20833687.220   111328899.989 7      -717.937          47.312    20833698.000    86589181.699 8      -558.396          48.375    20833697.860    86589183.699 8      -558.396          48.687
G18  25140164.000   132112439.036 6      -769.796          36.125    25140162.500   132112439.043 3      -769.796          20.062    25140169.720   102944785.988 3      -599.841          20.125    25140171.240   102944789.987 6      -599.841          41.375
G10  22283150.540   117098744.534 7      3847.013          45.875    22283149.340   117098744.536 7      3847.013          45.437    22283157.000    91245805.051 7      2997.673          44.750    22283157.160    91245804.054 7      2997.673          46.750
G23  22977355.700   120746814.293 7      1987.206          43.437    22977354.920   120746814.293 5      1987.206          32.687    22977360.060    94088445.488 5      1548.472          32.937    22977360.640    94088447.499 7      1548.472          47.625
R09  22036169.360   117671877.241 7      6453.646          44.437    22036169.420   117671877.239 7      6453.646          43.812    22036177.420    91522635.839 7      5019.503          46.125    22036177.900    91522636.837 7      5019.503          46.125
R17  23301859.580   124692953.427 6      -688.212          41.937    23301860.240   124692953.450 6      -688.212          40.687    23301872.260    96983455.612 7      -535.276          43.625    23301871.600    96983453.604 7      -535.276          43.875
> 2024 05 06 11 56 45.0000000  0 13
G08  21721298.440   114146189.285 7      3947.262          45.500    21721297.260   114146189.282 5      3947.262          35.687    21721303.100    88945102.831 5      3075.788          35.687    21721304.020    88945106.840 8      3075.788          48.750
G21  21749417.020   114293968.297 7      5161.675          44.625    21749414.920   114293968.302 5      5161.675          33.187    21749420.840    89060246.152 5      4022.084          32.687
G27  20686533.260   108708456.523 8      2457.701          49.250    20686532.300   108708456.528 8      2457.701          49.562    20686537.200    84707908.393 8      1915.092          48.812    20686537.920    84707908.392 8      1915.092          50.000
R16  19020963.760   101606566.248 8      3095.675          50.062    19020963.500   101606566.241 8      3095.675          49.312    19020971.520    79027364.789 8      2407.747          51.687    19020971.700    79027363.791 8      2407.747          51.875
G16  20275122.820   106546483.371 7      2406.093          46.562    20275121.180   106546483.376 6      2406.093          40.437    20275124.040    83023239.035 6      1874.878          39.437
R18  20125954.380   107433699.480 8       502.901          48.625    20125953.900   107433699.481 8       502.901          48.375    20125961.660    83559577.568 8       391.146          49.875    20125961.480    83559578.573 8       391.146          50.125
G26  21489088.600   112925909.469 7       400.210          47.312    21489087.400   112925909.474 7       400.210          47.562    21489094.700    87994240.751 7       311.852          46.875    21489094.840    87994243.757 8       311.852          48.250
R15  20833822.400   111329618.037 8      -718.306          48.500    20833821.420   111329618.041 7      -718.306          47.375    20833832.240    86589740.177 8      -558.682          48.875    20833832.180    86589742.179 8      -558.682          48.312
G18  25140310.580   132113208.720 6      -769.702          36.125    25140309.100   132113208.725 3      -769.702          20.062    25140316.180   102945385.741 3      -599.768          20.125    25140317.840   102945389.734 6      -599.768          41.500
G10  22282418.800   117094897.643 7      3846.602          46.500    22282417.480   117094897.646 7      3846.602          45.562    22282424.960    91242807.475 7      2997.352          45.312    22282425.060    91242806.478 7      2997.352          47.000
G23  22976977.380   120744827.251 7      1986.753          44.250    22976976.900   120744827.253 5      1986.753          33.312    22976982.000    94086897.150 5      1548.119          32.937    22976982.720    94086899.163 7      1548.119          47.437
R09  22034960.920   117665423.577 7      6453.506          44.437    22034961.100   117665423.570 7      6453.506          43.625    22034968.620    91517616.324 7      5019.394          46.062    22034969.000    91517617.318 7      5019.394          46.562
R17  23301988.160   124693641.332 7      -687.836          42.187    23301988.780   124693641.360 6      -687.836          41.000    23302000.960    96983990.653 7      -534.984          43.562    23302000.640    96983988.643 7      -534.984          44.125
> 2024 05 06 11 56 46.0000000  0 13
G08  21720547.180   114142241.965 7      3947.217          46.062    21720546.060   114142241.965 5      3947.217          35.812    21720551.940    88942027.002 5      3075.754          35.375    21720552.940    88942031.011 8      3075.754          48.687
G21  21748434.900   114288806.694 7      5161.327          45.562    21748432.760   114288806.696 5      5161.327          33.187    21748438.780    89056224.132 5      4021.813          32.687
G27  20686065.620   108705998.882 7      2457.498          47.937    20686064.600   108705998.892 8      2457.498          49.062    20686069.520    84705993.353 8      1914.934          48.437    20686070.200    84705993.353 8      1914.934          49.875
R16  19020384.600   101603470.887 8      3094.863          49.500    19020383.960   101603470.883 8      3094.863          48.687    19020392.100    79024957.286 8      2407.115          50.000    19020392.300    79024956.284 8      2407.115          49.937
G16  20274664.800   106544077.385 7      2405.672          46.250    20274663.420   106544077.392 6      2405.672          40.125    20274666.280    83021364.241 6      1874.550          39.625
R18  20125860.160   107433196.509 8       502.816          48.875    20125859.640   107433196.502 8       502.816          48.500    20125867.340    83559186.357 8       391.079          49.125    20125867.300    83559187.361 8       391.079          49.125
G26  21489012.480   112925509.280 7       400.018          46.937    21489011.140   112925509.285 7       400.018          46.812    21489018.580    87993928.913 7       311.703          46.250    21489018.900    87993931.921 8       311.703          48.625
R15  20833956.920   111330336.524 8      -718.802          48.187    20833956.020   111330336.514 7      -718.802          47.562    20833966.800    86590298.982 7      -559.069          47.750    20833966.880    86590300.979 7      -559.069          47.562
G18  25140456.600   132113978.267 6      -769.597          36.375    25140455.580   132113978.275 3      -769.597          20.062    25140462.500   102945985.391 3      -599.686          20.125    25140463.280   102945989.392 6      -599.686          41.500
G10  22281686.840   117091051.126 7      3846.160          47.312    22281685.500   117091051.130 7      3846.160          45.187    22281692.940    91239810.193 7      2997.008          44.625    22281692.760    91239809.194 7      2997.008          46.875
G23  22976599.600   120742840.719 7      1986.245          43.250    22976598.800   120742840.724 5      1986.245          33.312    22976603.940    94085349.203 5      1547.724          32.812    22976604.580    94085351.210 7      1547.724          47.000
R09  22033752.280   117658970.118 7      6453.205          43.875    22033752.360   117658970.111 7      6453.205          43.625    22033760.360    91512596.970 7      5019.159          45.250    22033760.620    91512597.963 7      5019.159          46.125
R17  23302117.060   124694329.020 7      -687.650          42.187    23302117.220   124694329.041 6      -687.650          41.000    23302129.400    96984525.505 7      -534.839          43.250    23302129.200    96984523.504 7      -534.839          43.625
> 2024 05 06 11 56 47.0000000  0 13
G08  21719795.940   114138294.850 7      3947.129          46.250    21719794.960   114138294.853 5      3947.129          35.875    21719800.860    88938951.334 5      3075.685          35.875    21719802.240    88938955.353 8      3075.685          48.312
G21  21747452.500   114283645.645 7      5160.912          45.250    21747450.620   114283645.649 5      5160.912          33.250    21747456.540    89052202.547 5      4021.490          33.000
G27  20685597.940   108703541.486 8      2457.385          48.875    20685596.900   108703541.488 8      2457.385          50.000    20685601.920    84704078.498 8      1914.845          49.437    20685602.600    84704078.499 8      1914.845          50.062
R16  19019805.280   101600376.451 8      3094.095          50.000    19019804.820   101600376.447 8      3094.095          49.375    19019812.800    79022550.507 8      2406.518          51.875    19019812.920    79022549.506 8      2406.518          51.500
G16  20274206.920   106541671.948 7      2405.257          47.375    20274205.500   106541671.953 6      2405.257          40.000    20274208.460    83019489.878 6      1874.226          39.312
R18  20125766.000   107432693.866 8       502.626          49.250    20125765.620   107432693.869 8       502.626          48.250    20125773.240    83558795.419 8       390.931          49.562    20125773.340    83558796.424 8       390.931          50.125
G26  21488936.460   112925109.582 7       399.622          47.187    21488935.100   112925109.587 7       399.622          47.125    21488942.560    87993617.464 7       311.394          46.625    21488942.800    87993620.468 8       311.394          48.687
R15  20834091.400   111331055.598 8      -719.377          48.312    20834090.540   111331055.591 7      -719.377          47.562    20834101.460    86590858.262 8      -559.516          48.625    20834101.280    86590860.264 8      -559.516          48.250
G18  25140603.520   132114747.920 6      -769.506          36.375    25140602.080   132114747.930 3      -769.506          20.062    25140608.900   102946585.118 3      -599.615          20.125    25140609.660   102946589.096 6      -599.615          41.500
G10  22280954.800   117087205.170 7      3845.721          46.375    22280953.680   117087205.170 7      3845.721          45.875    22280961.100    91236813.350 7      2996.665          45.500    22280961.180    91236812.354 7      2996.665          46.875
G23  22976221.740   120740854.859 7      1985.620          44.500    22976220.940   120740854.862 5      1985.620          33.062    22976225.940    94083801.782 5      1547.237          32.812    22976226.940    94083803.787 7      1547.237          47.500
R09  22032543.860   117652517.047 7      6452.987          43.937    22032543.940   117652517.053 7      6452.987          43.875    22032551.600    91507577.931 7      5018.990          45.312    22032552.120    91507578.920 7      5018.990          46.437
R17  23302245.360   124695016.698 7      -687.634          42.437    23302245.680   124695016.705 6      -687.634          41.000    23302258.060    96985060.366 7      -534.826          43.312    23302257.600    96985058.362 7      -534.826          44.125
> 2024 05 06 11 56 48.0000000  0 13
G08  21719044.740   114134347.586 7      3947.139          46.687    21719043.680   114134347.583 5      3947.139          35.875    21719049.660    88935875.545 5      3075.693          35.625    21719051.200    88935879.562 8      3075.693          48.687
G21  21746470.260   114278484.774 7      5160.668          45.312    21746468.500   114278484.776 5      5160.668          33.250    21746474.420    89048181.096 5      4021.300          33.000
G27  20685130.480   108701083.953 8      2457.411          48.500    20685129.320   108701083.960 8      2457.411          49.250    20685134.240    84702163.542 8      1914.866          49.062    20685135.000    84702163.542 8      1914.866          50.312
R16  19019225.880   101597282.562 8      3093.419          49.937    19019225.460   101597282.560 8      3093.419          49.250    19019233.700    79020144.153 8      2405.993          51.500    19019233.960    79020143.150 8      2405.993          51.312
G16  20273749.200   106539266.686 7      2404.928          46.250    20273747.800   106539266.689 6      2404.928          40.062    20273750.840    83017615.648 6      1873.970          39.812
R18  20125671.600   107432191.217 8       502.480          49.062    20125671.300   107432191.216 8       502.480          48.500    20125679.060    83558404.470 8       390.818          50.062    20125679.100    83558405.475 8       390.818          50.437
G26  21488860.340   112924709.973 7       399.428          47.250    21488859.060   112924709.981 7       399.428          47.000    21488866.460    87993306.081 7       311.242          46.500    21488866.980    87993309.085 8       311.242          48.437
R15  20834226.200   111331774.873 7      -719.608          47.875    20834224.940   111331774.872 7      -719.608          47.687    20834236.060    86591417.698 8      -559.695          48.625    20834236.020    86591419.696 8      -559.695          48.750
G18  25140749.880   132115517.273 6      -769.585          36.187    25140748.500   132115517.283 3      -769.585          20.062    25140755.120   102947184.616 3      -599.676          20.125    25140756.320   102947188.606 6      -599.676          41.375
G10  22280222.980   117083359.385 7      3845.475          45.812    22280221.800   117083359.388 7      3845.475          45.000    22280229.360    91233816.643 7      2996.474          44.687    22280229.320    91233815.640 7      2996.474          47.250
G23  22975844.000   120738869.268 7      1985.239          44.750    22975843.080   120738869.273 5      1985.239          33.062    22975848.260    94082254.572 5      1546.939          33.000    22975848.860    94082256.581 7      1546.939          47.437
R09  22031335.440   117646064.004 7      6452.785          43.937    22031335.460   117646064.011 7      6452.785          43.687    22031343.320    91502558.904 7      5018.833          45.437    22031343.800    91502559.897 7      5018.833          46.812
R17  23302374.200   124695703.931 7      -687.383          42.437    23302373.980   124695703.944 6      -687.383          41.062    23302386.500    96985594.889 7      -534.631          43.812    23302386.060    96985592.877 7      -534.631          44.000
> 2024 05 06 11 56 49.0000000  0 13
G08  21718293.720   114130400.500 7      3946.972          46.312    21718292.400   114130400.499 6      3946.972          36.187    21718298.580    88932799.900 5      3075.563          35.937    21718299.780    88932803.915 8      3075.563          48.312
G21  21745488.400   114273324.458 7      5160.027          45.250    21745486.540   114273324.458 5      5160.027          33.062    21745492.480    89044160.079 5      4020.800          33.312
G27  20684662.880   108698626.661 8      2457.244          48.687    20684661.680   108698626.666 8      2457.244          50.062    20684666.620    84700248.769 8      1914.735          49.750    20684667.140    84700248.769 8      1914.735          50.125
R16  19018646.860   101594189.576 8      3092.471          49.937    19018646.420   101594189.572 8      3092.471          49.000    19018654.640    79017738.497 8      2405.255          51.125    19018654.720    79017737.496 8      2405.255          51.437
G16  20273291.620   106536861.959 7      2404.407          46.687    20273290.300   106536861.963 6      2404.407          39.687    20273293.200    83015741.837 6      1873.564          39.062
R18  20125577.480   107431688.921 8       502.059          49.187    20125577.240   107431688.917 8       502.059          48.250    20125584.880    83558013.797 8       390.490          50.125    20125585.080    83558014.799 8       390.490          49.687
G26  21488784.260   112924310.822 7       398.992          47.250    21488783.140   112924310.827 7       398.992          47.187    21488790.560    87992995.054 7       310.903          46.875    21488790.900    87992998.056 8       310.903          48.937
R15  20834360.860   111332494.784 8      -720.288          48.250    20834359.800   111332494.780 7      -720.288          47.687    20834370.700    86591977.624 8      -560.224          49.125    20834370.720    86591979.624 8      -560.224          48.375
G18  25140896.440   132116286.647 6      -769.297          36.187    25140894.820   132116286.652 3      -769.297          20.062    25140901.420   102947784.124 3      -599.452          20.187    25140902.480   102947788.104 6      -599.452          41.375
G10  22279491.280   117079514.179 7      3844.803          46.937    22279490.160   117079514.184 7      3844.803          45.250    22279497.620    91230820.382 7      2995.950          44.750    22279497.640    91230819.384 7      2995.950          46.812
G23  22975466.060   120736884.362 7      1984.586          44.500    22975465.300   120736884.367 5      1984.586          33.125    22975470.520    94080707.896 5      1546.430          33.000    22975471.060    94080709.901 7      1546.430          47.625
R09  22030126.880   117639611.322 7      6452.524          44.687    22030126.940   117639611.318 7      6452.524          43.937    22030134.840    91497540.145 7      5018.629          45.812    22030135.400    91497541.137 7      5018.629          46.375
R17  23302502.320   124696391.066 7      -687.136          42.437    23302502.760   124696391.081 6      -687.136          41.062    23302514.780    96986129.331 7      -534.439          43.500    23302514.780    96986127.321 7      -534.439          44.125
> 2024 05 06 11 56 50.0000000  0 13
G08  21717542.540   114126453.272 7      3947.211          45.812    21717541.340   114126453.271 6      3947.211          36.000    21717547.440    88929724.142 5      3075.749          35.937    21717548.400    88929728.159 8      3075.749          48.312
G21  21744506.460   114268164.318 7      5159.918          45.500    21744504.660   114268164.320 5      5159.918          33.062    21744510.600    89040139.198 5      4020.716          33.312
G27  20684195.200   108696169.267 8      2457.448          48.625    20684194.020   108696169.272 8      2457.448          49.937    20684199.000    84698333.923 8      1914.895          49.125    20684199.620    84698333.923 8      1914.895          49.875
R16  19018067.900   101591097.153 8      3092.055          50.062    19018067.580   101591097.149 8      3092.055          49.750    19018075.820    79015333.279 8      2404.932          51.500    19018075.760    79015332.279 8      2404.932          51.750
G16  20272834.040   106534457.420 7      2404.357          46.125    20272832.660   106534457.427 6      2404.357          40.375    20272835.540    83013868.176 6      1873.525          40.000
R18  20125483.220   107431186.577 8       502.278          49.250    20125483.080   107431186.575 8       502.278          48.937    20125490.800    83557623.089 8       390.660          49.750    20125490.980    83557624.095 8       390.660          50.500
G26  21488708.400   112923911.778 7       398.991          47.312    21488707.260   112923911.780 7       398.991          46.750    21488714.640    87992684.111 7       310.902          46.437    21488714.960    87992687.117 8       310.902          48.937
R15  20834495.640   111333214.903 7      -720.191          47.687    20834494.520   111333214.904 7      -720.191          47.562    20834505.480    86592537.715 8      -560.148          48.812    20834505.420    86592539.719 8      -560.148          49.000
G18  25141042.480   132117055.734 5      -768.872          35.187    25141041.440   132117055.742 3      -768.872          20.062    25141047.840   102948383.413 3      -599.121          20.187    25141049.140   102948387.408 6      -599.121          41.312
G10  22278759.660   117075669.148 7      3844.800          46.437    22278758.400   117075669.156 7      3844.800          45.312    22278765.840    91227824.265 7      2995.948          45.250    22278766.220    91227823.268 7      2995.948          46.812
G23  22975088.360   120734899.761 7      1984.346          44.750    22975087.640   120734899.769 5      1984.346          33.125    22975092.900    94079161.456 5      1546.244          33.062    22975093.500    94079163.465 7      1546.244          47.562
R09  22028918.300   117633158.633 7      6452.677          44.437    22028918.500   117633158.631 7      6452.677          43.937    22028926.520    91492521.399 7      5018.749          45.625    22028926.880    91492522.390 7      5018.749          46.312
R17  23302630.180   124697077.778 6      -686.552          41.812    23302630.940   124697077.798 6      -686.552          41.062    23302643.360    96986663.444 7      -533.985          43.437    23302642.980    96986661.436 7      -533.985          43.812
