     3.05           OBSERVATION DATA    MIXED               RINEX VERSION / TYPE
TPS2RIN 1.0.29.3920 TPS-USER            20240511 185459 UTC PGM / RUN BY / DATE
Win64 build Feb 23, 2024 (c) Topcon Positioning Systems     COMMENT
SRC: 20240506_GUI06.tps                                     COMMENT
OPT: -S -v 3.05                                             COMMENT
Observer            Agency                                  OBSERVER / AGENCY
O0M3X53SBGM         TPS HIPER_SR        4.8 HSR Jul,08,2022 REC # / TYPE / VERS
FW: 4.8 HSR Jul,08,2022 p3                                  COMMENT
SN: HiPer SR 1212-12575                                     COMMENT
000                 TPSHIPER_SR     NONE                    ANT # / TYPE
        1.8000        0.0000        0.0000                  ANTENNA: DELTA H/E/N
DELTA H stands for **SLANT** height here!                   COMMENT
GUI06                                                       MARKER NAME
  5389245.1125 -1591663.5577  3009607.8191                  APPROX POSITION XYZ
  2024     5     6    16    42   44.0000000     GPS         TIME OF FIRST OBS
  2024     5     6    16    58   29.0000000     GPS         TIME OF LAST OBS
     1.000                                                  INTERVAL
   946 EPOCHS                                               COMMENT
G   16 C1C L1C D1C S1C C1W L1W D1W S1W C2W L2W D2W S2W C2X  SYS / # / OBS TYPES
       L2X D2X S2X                                          SYS / # / OBS TYPES
R   16 C1C L1C D1C S1C C1P L1P D1P S1P C2P L2P D2P S2P C2C  SYS / # / OBS TYPES
       L2C D2C S2C                                          SYS / # / OBS TYPES
    11                                                      # OF SATELLITES
   G02   946   946   946   946   946   946   946   946   946PRN / # OF OBS
         946   946   946     0     0     0     0            PRN / # OF OBS
   G03   946   946   946   946   946   946   946   946   946PRN / # OF OBS
         946   946   946   946   946   946   946            PRN / # OF OBS
   G04   946   946   946   946   946   946   946   946   946PRN / # OF OBS
         946   946   946   946   946   946   946            PRN / # OF OBS
   G08   946   946   946   946   946   946   946   946   946PRN / # OF OBS
         946   946   946   946   946   946   946            PRN / # OF OBS
   G09   332   332   332   332   328   328   328   328   328PRN / # OF OBS
         328   328   328   323   323   323   323            PRN / # OF OBS
   G14   946   946   946   946   946   946   946   946   946PRN / # OF OBS
         946   946   946   946   946   946   946            PRN / # OF OBS
   G17   946   946   946   946   946   946   946   946   946PRN / # OF OBS
         946   946   946   946   946   946   946            PRN / # OF OBS
   G21   946   946   946   946   946   946   946   946   946PRN / # OF OBS
         946   946   946     0     0     0     0            PRN / # OF OBS
   R05   946   946   946   946   946   946   946   946   946PRN / # OF OBS
         946   946   946   946   946   946   946            PRN / # OF OBS
   R06   946   946   946   946   946   946   946   946     0PRN / # OF OBS
           0     0     0     0     0     0     0            PRN / # OF OBS
   R21   946   946   946   946   946   946   946   946   946PRN / # OF OBS
         946   946   946   946   946   946   946            PRN / # OF OBS
G L1C                                                       SYS / PHASE SHIFT
G L1W -0.25000                                              SYS / PHASE SHIFT
G L2W  0.00000                                              SYS / PHASE SHIFT
G L2X  0.25000                                              SYS / PHASE SHIFT
R L1C                                                       SYS / PHASE SHIFT
R L1P -0.25000                                              SYS / PHASE SHIFT
R L2P -0.25000                                              SYS / PHASE SHIFT
R L2C                                                       SYS / PHASE SHIFT
  3 R05  1 R06 -4 R21  4                                    GLONASS SLOT / FRQ #
                                                            GLONASS COD/PHS/BIS
    18    18  1929     7GPS                                 LEAP SECONDS
                                                            END OF HEADER
> 2024 05 06 16 42 44.0000000  0 10
G02  22148228.200   116389654.106 7      1835.817          47.500    22148226.020   116389654.116 6      1835.817          38.062    22148229.720    90693283.079 6      1430.507          37.875
G08  23606402.260   124052476.151 7      -647.420          44.312    23606401.720   124052476.148 6      -647.420          39.937    23606421.240    96664338.070 6      -504.483          39.875    23606422.120    96664341.065 7      -504.483          44.500
G21  23016122.580   120950422.224 7      1189.584          44.750    23016120.180   120950422.237 5      1189.584          32.750    23016126.780    94247188.550 5       926.949          32.875
R06  19964430.540   106534022.909 6      4982.447          37.625    19964430.080   106534022.913 6      4982.447          36.687
G17  22195526.880   116638292.065 7      5082.969          45.187    22195524.320   116638292.065 5      5082.969          35.625    22195528.720    90886982.490 5      3960.755          35.375    22195529.660    90886990.478 7      3960.755          45.687
G03  20261489.960   106474864.014 8      1599.866          49.562    20261489.540   106474864.019 8      1599.866          50.250    20261495.080    82967417.924 8      1246.649          50.875    20261495.520    82967445.921 8      1246.649          51.000
G04  22044889.060   115846685.743 7      5072.148          44.625    22044887.860   115846685.755 5      5072.148          35.500    22044898.660    90270184.686 5      3952.323          35.062    22044898.920    90270194.692 8      3952.323          49.437
R05  20630185.000   110280161.594 8        97.576          50.500    20630185.980   110280161.600 8        97.576          48.562    20630194.220    85773498.860 8        75.893          50.000    20630193.780    85773496.854 8        75.893          50.250
G14  22430694.440   117874149.953 7      1341.188          46.125    22430693.280   117874149.966 5      1341.188          34.187    22430701.940    91849954.521 5      1045.081          33.687    22430702.520    91850018.515 7      1045.081          47.750
R21  21618192.180   115683325.036 7      4963.556          46.875    21618192.660   115683325.056 7      4963.556          45.812    21618203.040    89975956.338 8      3860.544          48.500    21618202.860    89975956.346 8      3860.544          48.312
> 2024 05 06 16 42 45.0000000  0 10
G02  22147878.840   116387818.369 7      1835.929          46.062    22147876.500   116387818.380 6      1835.929          38.250    22147880.300    90691852.629 6      1430.594          38.250
G08  23606525.660   124053123.716 7      -647.464          43.437    23606525.140   124053123.715 6      -647.464          40.125    23606544.560    96664842.641 6      -504.518          40.000    23606545.240    96664845.637 7      -504.518          45.000
G21  23015896.360   120949232.628 7      1189.809          44.937    23015893.900   120949232.641 5      1189.809          33.062    23015900.600    94246261.591 5       927.124          33.000
R06  19963497.060   106529040.712 6      4982.100          37.625    19963497.240   106529040.708 6      4982.100          36.687
G17  22194559.680   116633209.174 7      5082.934          44.250    22194556.940   116633209.174 5      5082.934          35.625    22194561.900    90883021.802 5      3960.728          35.312    22194562.740    90883029.798 7      3960.728          45.500
G03  20261185.540   106473264.284 8      1599.681          48.937    20261185.180   106473264.289 8      1599.681          50.312    20261190.600    82966171.383 8      1246.505          50.687    20261191.220    82966199.384 8      1246.505          51.125
G04  22043923.860   115841613.816 7      5071.983          44.625    22043922.660   115841613.832 5      5071.983          35.500    22043933.440    90266232.542 5      3952.195          35.437    22043933.920    90266242.554 8      3952.195          49.812
R05  20630166.920   110280064.433 8        97.064          49.750    20630167.580   110280064.439 8        97.064          48.625    20630176.120    85773423.288 8        75.494          50.000    20630175.800    85773421.284 8        75.494          50.500
G14  22430439.140   117872809.083 7      1340.872          45.375    22430438.200   117872809.093 5      1340.872          34.187    22430446.740    91848909.685 5      1044.835          33.687    22430447.900    91848973.685 7      1044.835          47.812
R21  21617264.820   115678361.537 7      4963.700          46.937    21617265.360   115678361.546 7      4963.700          46.062    21617275.220    89972095.834 8      3860.656          48.625    21617275.140    89972095.838 7      3860.656          47.875
> 2024 05 06 16 42 46.0000000  0 10
G02  22147529.640   116385982.426 7      1835.868          46.312    22147527.340   116385982.430 6      1835.868          38.062    22147530.920    90690422.018 6      1430.547          37.812
G08  23606649.040   124053771.197 7      -647.640          44.500    23606648.560   124053771.202 6      -647.640          40.375    23606667.800    96665347.153 6      -504.654          40.312    23606668.360    96665350.142 7      -504.654          44.562
G21  23015670.060   120948042.799 7      1189.693          44.750    23015667.680   120948042.812 5      1189.693          33.062    23015674.040    94245334.449 5       927.034          33.000
R06  19962563.800   106524058.967 6      4981.329          37.625    19962563.640   106524058.975 6      4981.329          37.062
G17  22193592.720   116628126.215 7      5082.829          45.312    22193589.520   116628126.212 5      5082.829          35.375    22193594.880    90879061.059 5      3960.646          35.250    22193595.480    90879069.054 7      3960.646          46.312
G03  20260881.240   106471664.717 8      1599.295          49.000    20260880.700   106471664.725 8      1599.295          50.562    20260886.260    82964924.969 8      1246.204          50.812    20260886.880    82964952.968 8      1246.204          50.937
G04  22042958.960   115836541.932 7      5071.708          44.750    22042957.520   115836541.945 5      5071.708          35.500    22042968.420    90262280.434 5      3951.980          35.250    22042968.740    90262290.444 8      3951.980          49.812
R05  20630148.780   110279967.635 8        96.358          50.000    20630149.520   110279967.644 8        96.358          49.062    20630158.120    85773348.001 8        74.945          50.312    20630157.640    85773346.000 8        74.945          50.812
G14  22430183.960   117871468.387 7      1340.473          45.125    22430183.020   117871468.397 5      1340.473          34.000    22430191.760    91847864.983 5      1044.524          33.812    22430192.260    91847928.991 8      1044.524          48.062
R21  21616337.120   115673397.767 7      4963.680          46.812    21616337.420   115673397.777 7      4963.680          46.062    21616347.640    89968235.128 8      3860.640          49.375    21616347.840    89968235.129 8      3860.640          48.687
> 2024 05 06 16 42 47.0000000  0 10
G02  22147180.380   116384146.626 7      1835.597          46.375    22147178.060   116384146.634 6      1835.597          37.687    22147181.580    90688991.523 6      1430.335          38.000
G08  23606772.160   124054418.969 7      -648.071          43.625    23606771.940   124054418.977 6      -648.071          40.375    23606791.060    96665851.892 6      -504.990          39.937    23606792.080    96665854.878 7      -504.990          44.562
G21  23015443.340   120946853.054 7      1189.590          45.437    23015441.000   120946853.064 5      1189.590          32.875    23015447.640    94244407.377 5       926.953          33.000
R06  19961630.540   106519078.035 6      4980.318          38.812    19961629.600   106519078.043 6      4980.318          37.062
G17  22192625.480   116623043.563 7      5082.348          43.875    22192622.660   116623043.557 5      5082.348          35.812    22192627.780    90875100.555 5      3960.271          35.250    22192628.100    90875108.554 7      3960.271          46.375
G03  20260577.000   106470065.662 8      1598.697          49.812    20260576.500   106470065.667 8      1598.697          50.250    20260581.920    82963678.955 8      1245.738          51.125    20260582.840    82963706.953 8      1245.738          51.500
G04  22041993.720   115831470.437 7      5071.131          44.937    22041992.600   115831470.447 5      5071.131          35.312    22042003.380    90258328.626 5      3951.531          35.250    22042003.540    90258338.640 8      3951.531          49.687
R05  20630130.660   110279871.567 8        95.576          49.437    20630131.500   110279871.576 8        95.576          48.812    20630140.020    85773273.283 8        74.337          49.875    20630139.480    85773271.282 8        74.337          50.062
G14  22429928.880   117870128.266 7      1339.655          45.250    22429928.040   117870128.274 5      1339.655          34.125    22429936.760    91846820.729 5      1043.887          33.812    22429937.000    91846884.735 7      1043.887          47.937
R21  21615409.660   115668434.072 7      4963.546          45.187    21615410.080   115668434.093 7      4963.546          46.250    21615420.000    89964374.487 8      3860.536          48.625    21615419.920    89964374.488 8      3860.536          48.312
> 2024 05 06 16 42 48.0000000  0 10
G02  22146831.000   116382311.034 7      1835.549          46.625    22146828.800   116382311.039 6      1835.549          37.937    22146832.280    90687561.191 6      1430.298          38.062
G08  23606895.640   124055067.067 7      -648.283          43.750    23606895.340   124055067.070 6      -648.283          40.312    23606914.480    96666356.875 6      -505.156          40.375    23606915.400    96666359.861 7      -505.156          44.750
G21  23015216.900   120945663.479 7      1189.523          45.312    23015214.540   120945663.489 5      1189.523          32.875    23015221.360    94243480.431 5       926.901          32.875
R06  19960696.340   106514097.927 6      4979.813          38.812    19960697.380   106514097.923 6      4979.813          37.062
G17  22191658.220   116617961.218 7      5082.217          44.875    22191655.620   116617961.210 6      5082.217          36.562    22191660.800    90871140.293 6      3960.169          36.062    22191661.180    90871148.292 7      3960.169          46.562
G03  20260272.800   106468467.181 8      1598.230          49.875    20260272.420   106468467.180 8      1598.230          51.000    20260277.720    82962433.380 8      1245.374          51.187    20260278.440    82962461.381 8      1245.374          51.250
G04  22041028.740   115826399.377 7      5070.870          44.062    22041027.540   115826399.390 5      5070.870          35.625    22041038.220    90254377.163 5      3951.328          35.250    22041038.680    90254387.179 8      3951.328          49.562
R05  20630112.800   110279776.333 8        94.811          50.125    20630113.780   110279776.345 8        94.811          49.000    20630122.260    85773199.217 8        73.742          49.875    20630121.600    85773197.211 8        73.742          49.687
G14  22429674.240   117868788.721 7      1339.225          45.750    22429673.120   117868788.731 5      1339.225          34.125    22429681.800    91845776.927 5      1043.552          33.812    22429681.900    91845840.930 7      1043.552          47.937
R21  21614482.420   115663470.495 7      4963.569          46.875    21614482.320   115663470.516 7      4963.569          46.437    21614492.280    89960513.934 8      3860.554          49.062    21614492.520    89960513.936 8      3860.554          48.375
> 2024 05 06 16 42 49.0000000  0 10
G02  22146481.580   116380475.479 7      1835.535          46.937    22146479.540   116380475.484 6      1835.535          38.125    22146482.880    90686130.885 6      1430.287          38.062
G08  23607019.020   124055715.305 7      -648.394          44.187    23607018.760   124055715.307 6      -648.394          39.687    23607037.820    96666861.969 6      -505.242          39.875    23607038.900    96666864.964 7      -505.242          44.500
G21  23014990.720   120944473.899 7      1189.606          43.937    23014987.980   120944473.910 5      1189.606          32.500    23014994.920    94242553.486 5       926.965          32.875
R06  19959764.040   106509118.497 6      4979.066          38.812    19959763.360   106509118.514 6      4979.066          37.062
G17  22190691.000   116612879.071 7      5082.009          45.250    22190688.960   116612879.063 6      5082.009          36.750    22190693.860    90867180.182 6      3960.007          36.250    22190694.260    90867188.173 7      3960.007          46.687
G03  20259968.900   106466869.069 8      1597.874          49.687    20259968.260   106466869.074 8      1597.874          50.187    20259973.640    82961188.105 8      1245.096          50.875    20259974.360    82961216.112 8      1245.096          51.187
G04  22040064.060   115821328.610 7      5070.617          44.750    22040062.680   115821328.617 5      5070.617          35.687    22040073.260    90250425.922 5      3951.130          35.562    22040073.340    90250435.938 8      3951.130          49.250
R05  20630095.280   110279681.756 8        94.196          49.500    20630096.000   110279681.763 8        94.196          49.250    20630104.540    85773125.653 8        73.264          49.937    20630103.940    85773123.647 8        73.264          49.750
G14  22429419.440   117867449.612 7      1338.750          45.000    22429418.280   117867449.619 5      1338.750          34.000    22429426.700    91844733.459 5      1043.182          33.812    22429426.940    91844797.460 7      1043.182          47.375
R21  21613554.280   115658506.830 7      4963.649          46.312    21613554.360   115658506.842 7      4963.649          46.062    21613564.900    89956653.303 8      3860.616          48.812    21613565.100    89956653.303 8      3860.616          48.625
> 2024 05 06 16 42 50.0000000  0 10
G02  22146132.500   116378640.106 7      1835.417          47.375    22146130.220   116378640.113 6      1835.417          37.812    22146133.720    90684700.721 6      1430.195          37.812
G08  23607142.640   124056363.863 7      -648.583          44.250    23607142.280   124056363.865 6      -648.583          40.250    23607161.380    96667367.318 6      -505.389          40.312    23607162.320    96667370.312 7      -505.389          44.125
G21  23014764.500   120943284.488 7      1189.477          44.562    23014761.580   120943284.501 5      1189.477          32.500    23014768.780    94241626.672 5       926.865          32.750
R06  19958831.140   106504139.916 6      4978.311          39.375    19958830.660   106504139.925 6      4978.311          37.062
G17  22189724.000   116607797.220 7      5081.727          45.500    22189722.320   116607797.210 6      5081.727          37.437    22189726.940    90863220.304 6      3959.788          36.812    22189727.600    90863228.302 7      3959.788          47.125
G03  20259664.960   106465271.512 8      1597.431          49.437    20259664.240   106465271.517 8      1597.431          50.625    20259669.660    82959943.255 8      1244.751          50.750    20259670.220    82959971.258 8      1244.751          51.562
G04  22039098.880   115816258.268 7      5070.230          45.500    22039097.840   115816258.275 5      5070.230          35.875    22039108.480    90246475.014 5      3950.828          35.500    22039108.440    90246485.026 8      3950.828          49.437
R05  20630077.540   110279587.979 8        93.495          50.062    20630078.360   110279587.986 8        93.495          49.000    20630086.980    85773052.713 8        72.719          50.312    20630086.420    85773050.705 8        72.719          49.750
G14  22429164.800   117866111.062 7      1338.338          44.937    22429163.480   117866111.075 5      1338.338          34.000    22429172.060    91843690.434 5      1042.861          33.812    22429172.240    91843754.436 7      1042.861          47.062
R21  21612626.960   115653543.253 7      4963.578          46.500    21612626.760   115653543.268 7      4963.578          45.187    21612637.460    89952792.741 8      3860.561          48.875    21612637.260    89952792.741 8      3860.561          48.375
> 2024 05 06 16 42 51.0000000  0 10
G02  22145783.120   116376804.750 7      1835.349          47.562    22145781.000   116376804.758 6      1835.349          38.125    22145784.340    90683270.574 6      1430.142          38.062
G08  23607266.160   124057012.555 7      -648.804          44.187    23607265.580   124057012.557 6      -648.804          40.625    23607284.860    96667872.768 6      -505.561          40.500    23607285.740    96667875.764 7      -505.561          44.750
G21  23014538.320   120942095.016 7      1189.488          44.062    23014535.140   120942095.023 5      1189.488          32.937    23014542.300    94240699.806 5       926.873          32.750
R06  19957898.280   106499161.975 6      4977.356          39.375    19957897.340   106499161.992 6      4977.356          37.937
G17  22188757.220   116602715.509 7      5081.628          46.000    22188755.760   116602715.498 6      5081.628          37.500    22188759.880    90859260.538 6      3959.710          37.312    22188760.720    90859268.531 7      3959.710          47.062
G03  20259360.820   106463674.320 8      1596.958          49.687    20259360.380   106463674.328 8      1596.958          50.625    20259365.620    82958698.690 8      1244.383          50.937    20259366.540    82958726.691 8      1244.383          51.437
G04  22038134.180   115811188.175 7      5069.940          44.562    22038133.000   115811188.177 5      5069.940          35.875    22038143.560    90242524.299 5      3950.602          35.500    22038143.660    90242534.309 8      3950.602          49.250
R05  20630060.080   110279494.824 8        92.848          48.937    20630060.980   110279494.826 8        92.848          49.250    20630069.420    85772980.251 8        72.215          50.187    20630068.780    85772978.239 8        72.215          50.062
G14  22428909.960   117864772.936 7      1337.843          44.875    22428908.760   117864772.946 5      1337.843          33.562    22428917.180    91842647.736 5      1042.475          33.500    22428917.560    91842711.730 7      1042.475          46.937
R21  21611699.380   115648579.601 7      4963.669          46.000    21611698.860   115648579.611 7      4963.669          45.187    21611710.060    89948932.125 8      3860.632          48.375    21611709.820    89948932.123 8      3860.632          48.062
> 2024 05 06 16 42 52.0000000  0 10
G02  22145433.940   116374969.582 7      1835.178          47.250    22145431.700   116374969.587 6      1835.178          37.812    22145435.020    90681840.575 6      1430.009          37.750
G08  23607389.700   124057661.552 7      -648.953          44.000    23607388.980   124057661.557 6      -648.953          40.000    23607408.300    96668378.459 6      -505.678          40.187    23607409.200    96668381.459 7      -505.678          44.500
G21  23014312.060   120940905.704 7      1189.375          44.125    23014308.760   120940905.706 5      1189.375          32.937    23014315.780    94239773.066 5       926.786          32.687
R06  19956965.240   106494184.813 6      4976.916          39.375    19956964.200   106494184.816 6      4976.916          37.937
G17  22187790.180   116597634.139 7      5081.326          46.500    22187789.420   116597634.123 6      5081.326          38.562    22187793.000    90855301.033 6      3959.474          38.375    22187793.860    90855309.020 7      3959.474          47.812
G03  20259057.080   106462077.685 8      1596.477          50.187    20259056.620   106462077.690 8      1596.477          50.500    20259061.840    82957454.561 8      1244.008          50.437    20259062.460    82957482.562 8      1244.008          50.812
G04  22037169.580   115806118.516 7      5069.486          45.187    22037168.220   115806118.521 5      5069.486          35.500    22037178.740    90238573.928 5      3950.249          35.312    22037179.180    90238583.938 8      3950.249          49.500
R05  20630042.940   110279402.482 8        92.037          49.500    20630043.400   110279402.484 8        92.037          48.500    20630051.960    85772908.434 8        71.584          49.375    20630051.500    85772906.418 8        71.584          49.187
G14  22428655.800   117863435.387 7      1337.357          44.625    22428654.200   117863435.398 5      1337.357          33.250    22428662.700    91841605.484 5      1042.096          33.500    22428662.900    91841669.476 7      1042.096          47.062
R21  21610771.860   115643616.105 7      4963.566          45.625    21610771.440   115643616.111 7      4963.566          45.500    21610782.520    89945071.630 8      3860.551          48.437    21610782.200    89945071.626 8      3860.551          48.000
> 2024 05 06 16 42 53.0000000  0 10
G02  22145084.660   116373134.466 8      1835.239          48.000    22145082.440   116373134.476 6      1835.239          37.687    22145085.840    90680410.616 6      1430.056          38.000
G08  23607513.160   124058310.775 7      -649.264          43.312    23607512.240   124058310.769 6      -649.264          39.625    23607531.660    96668884.319 6      -505.920          39.312    23607532.360    96668887.316 7      -505.920          44.437
G21  23014086.120   120939716.400 7      1189.353          43.875    23014082.380   120939716.408 5      1189.353          32.937    23014089.620    94238846.340 5       926.768          32.687
R06  19956032.520   106489208.374 6      4976.271          39.375    19956031.220   106489208.383 6      4976.271          37.937
G17  22186823.240   116592552.951 7      5081.235          47.312    22186823.100   116592552.932 6      5081.235          38.625    22186826.220    90851341.671 6      3959.404          38.687    22186827.000    90851349.663 7      3959.404          47.312
G03  20258753.300   106460481.458 8      1596.197          49.937    20258752.860   106460481.463 8      1596.197          49.500    20258758.040    82956210.745 8      1243.790          49.750    20258758.520    82956238.746 8      1243.790          50.375
G04  22036204.900   115801049.152 7      5069.341          44.500    22036203.600   115801049.162 5      5069.341          35.250    22036213.980    90234623.790 5      3950.136          35.187    22036214.700    90234633.794 8      3950.136          48.437
R05  20630025.680   110279310.792 8        91.520          48.562    20630026.180   110279310.791 7        91.520          47.937    20630034.780    85772837.121 8        71.182          48.437    20630034.200    85772835.105 8        71.182          49.125
G14  22428401.080   117862098.280 7      1337.064          44.625    22428399.700   117862098.293 5      1337.064          33.250    22428408.380    91840563.582 5      1041.868          33.125    22428408.760    91840627.577 7      1041.868          46.937
R21  21609844.300   115638652.560 7      4963.753          45.062    21609844.000   115638652.564 7      4963.753          45.062    21609855.020    89941211.097 7      3860.697          47.250    21609854.640    89941211.091 7      3860.697          47.562
> 2024 05 06 16 42 54.0000000  0 10
G02  22144735.520   116371299.299 7      1835.052          47.375    22144733.220   116371299.310 6      1835.052          37.750    22144736.740    90678980.615 6      1429.911          37.687
G08  23607636.700   124058960.019 7      -649.488          42.312    23607635.720   124058960.016 6      -649.488          39.312    23607655.180    96669390.201 6      -506.094          39.187    23607656.120    96669393.200 7      -506.094          44.312
G21  23013859.620   120938526.986 7      1189.318          43.187    23013856.160   120938526.991 5      1189.318          32.562    23013863.320    94237919.519 5       926.741          32.687
R06  19955100.320   106484232.527 6      4975.387          38.812    19955099.060   106484232.523 6      4975.387          37.937
G17  22185856.320   116587471.842 7      5080.931          47.687    22185856.620   116587471.823 6      5080.931          39.375    22185859.500    90847382.365 6      3959.167          39.375    22185860.400    90847390.348 7      3959.167          47.937
G03  20258449.480   106458885.535 8      1595.569          49.250    20258449.220   106458885.545 8      1595.569          50.437    20258454.340    82954967.173 8      1243.300          50.625    20258454.640    82954995.174 8      1243.300          51.375
G04  22035240.140   115795979.979 7      5068.957          44.500    22035239.040   115795979.989 5      5068.957          35.500    22035249.280    90230673.793 5      3949.837          35.187    22035249.980    90230683.787 8      3949.837          49.125
R05  20630008.700   110279219.629 8        90.793          49.437    20630008.820   110279219.622 8        90.793          48.437    20630017.600    85772766.208 8        70.617          49.312    20630017.300    85772764.196 8        70.617          49.812
G14  22428146.700   117860761.518 7      1336.458          44.187    22428145.380   117860761.530 5      1336.458          33.187    22428153.920    91839521.943 5      1041.396          33.125    22428154.420    91839585.941 7      1041.396          46.812
R21  21608917.160   115633688.862 7      4963.647          45.062    21608916.180   115633688.880 7      4963.647          44.812    21608927.620    89937350.454 8      3860.614          48.625    21608926.880    89937350.448 8      3860.614          48.375
> 2024 05 06 16 42 55.0000000  0 10
G02  22144386.460   116369464.291 7      1834.964          47.437    22144383.920   116369464.298 6      1834.964          37.562    22144387.520    90677550.736 6      1429.842          38.000
G08  23607760.400   124059609.565 7      -649.699          42.937    23607759.080   124059609.567 6      -649.699          39.625    23607778.940    96669896.320 6      -506.259          39.250    23607779.740    96669899.317 7      -506.259          44.375
G21  23013633.140   120937337.695 7      1189.232          44.000    23013629.720   120937337.700 5      1189.232          32.562    23013637.060    94236992.797 5       926.675          32.687
R06  19954168.180   106479257.452 6      4974.748          38.812    19954166.440   106479257.439 6      4974.748          37.937
G17  22184889.540   116582391.037 8      5080.611          48.312    22184890.060   116582391.021 6      5080.611          39.500    22184892.960    90843423.303 6      3958.917          39.000    22184893.860    90843431.292 8      3958.917          48.437
G03  20258145.820   106457290.148 8      1595.119          50.562    20258145.680   106457290.153 8      1595.119          50.187    20258150.680    82953724.015 8      1242.949          50.500    20258151.120    82953752.011 8      1242.949          50.625
G04  22034275.640   115790911.216 7      5068.597          45.312    22034274.380   115790911.226 5      5068.597          35.687    22034284.680    90226724.114 5      3949.556          35.312    22034285.280    90226734.124 8      3949.556          48.875
R05  20629991.680   110279129.222 8        90.036          49.062    20629991.660   110279129.210 8        90.036          48.500    20630000.500    85772695.894 8        70.028          49.312    20630000.340    85772693.882 8        70.028          49.187
G14  22427892.500   117859425.314 7      1335.946          44.125    22427891.040   117859425.322 5      1335.946          33.187    22427899.600    91838480.740 5      1040.997          33.062    22427899.780    91838544.740 7      1040.997          47.125
R21  21607989.660   115628725.226 7      4963.629          43.625    21607989.280   115628725.244 7      4963.629          45.312    21607999.960    89933489.846 8      3860.600          48.687    21607999.580    89933489.842 8      3860.600          48.125
> 2024 05 06 16 42 56.0000000  0 10
G02  22144037.160   116367629.385 7      1834.810          47.187    22144034.680   116367629.390 6      1834.810          38.312    22144038.460    90676120.937 6      1429.722          38.562
G08  23607883.620   124060259.318 7      -649.937          42.375    23607882.540   124060259.318 6      -649.937          39.250    23607902.720    96670402.599 6      -506.445          39.062    23607903.320    96670405.596 7      -506.445          44.562
G21  23013406.800   120936148.420 7      1189.241          43.812    23013403.400   120936148.425 5      1189.241          32.750    23013410.920    94236066.094 5       926.682          32.750
R06  19953235.880   106474283.073 6      4974.085          38.812    19953234.580   106474283.084 6      4974.085          37.437
G17  22183922.700   116577310.432 8      5080.480          48.187    22183923.560   116577310.416 6      5080.480          39.625    22183926.360    90839464.390 6      3958.816          40.062    22183927.040    90839472.383 8      3958.816          48.312
G03  20257842.460   106455695.179 8      1594.725          50.062    20257842.260   106455695.187 8      1594.725          49.937    20257847.160    82952481.182 8      1242.643          50.500    20257847.820    82952509.178 8      1242.643          50.937
G04  22033311.040   115785842.795 7      5068.160          44.312    22033309.920   115785842.805 5      5068.160          35.687    22033320.260    90222774.705 5      3949.215          35.125    22033320.500    90222784.711 8      3949.215          49.375
R05  20629974.980   110279039.443 8        89.405          49.000    20629974.600   110279039.436 8        89.405          48.125    20629983.480    85772626.074 8        69.537          49.375    20629983.740    85772624.064 8        69.537          49.562
G14  22427638.160   117858089.576 7      1335.534          43.750    22427636.860   117858089.587 5      1335.534          33.562    22427645.360    91837439.905 5      1040.676          33.437    22427645.560    91837503.901 7      1040.676          46.625
R21  21607061.540   115623761.577 7      4963.664          45.750    21607061.640   115623761.592 7      4963.664          45.500    21607072.500    89929629.230 8      3860.628          48.937    21607071.680    89929629.226 8      3860.628          48.937
> 2024 05 06 16 42 57.0000000  0 10
G02  22143687.960   116365794.471 7      1834.985          46.437    22143685.380   116365794.479 6      1834.985          37.562    22143689.180    90674691.134 6      1429.859          37.625
G08  23608007.140   124060909.211 7      -649.860          42.375    23608006.060   124060909.213 6      -649.860          39.500    23608026.360    96670908.978 6      -506.384          39.250    23608027.020    96670911.984 7      -506.384          44.062
G21  23013180.720   120934959.138 7      1189.358          42.750    23013177.100   120934959.142 5      1189.358          32.750    23013184.600    94235139.376 5       926.772          32.750
R06  19952303.380   106469309.398 6      4973.396          38.812    19952301.840   106469309.409 6      4973.396          37.437
G17  22182955.940   116572229.982 8      5080.492          48.562    22182957.120   116572229.968 6      5080.492          41.125    22182959.860    90835505.602 6      3958.825          40.500    22182960.260    90835513.593 8      3958.825          48.625
G03  20257538.960   106454100.591 8      1594.514          50.562    20257538.800   106454100.596 8      1594.514          50.437    20257543.620    82951238.646 8      1242.478          50.687    20257544.220    82951266.644 8      1242.478          50.812
G04  22032346.860   115780774.571 7      5068.315          44.687    22032345.400   115780774.581 5      5068.315          35.062    22032355.760    90218825.454 5      3949.337          35.250    22032356.040    90218835.464 8      3949.337          49.375
R05  20629958.240   110278950.298 8        88.945          48.687    20629957.860   110278950.286 7        88.945          47.750    20629966.780    85772556.734 8        69.179          49.000    20629966.960    85772554.729 8        69.179          48.937
G14  22427384.060   117856754.251 7      1335.230          43.750    22427382.880   117856754.256 5      1335.230          33.687    22427391.300    91836399.387 5      1040.439          33.437    22427391.560    91836463.390 7      1040.439          46.562
R21  21606134.460   115618797.842 7      4963.824          45.312    21606133.960   115618797.863 7      4963.824          45.437    21606144.960    89925768.551 8      3860.752          48.812    21606144.020    89925768.552 8      3860.752          48.625
> 2024 05 06 16 42 58.0000000  0 10
G02  22143338.860   116363959.641 7      1834.788          46.937    22143336.280   116363959.649 6      1834.788          38.125    22143340.020    90673261.394 6      1429.705          38.125
G08  23608130.780   124061559.309 7      -650.266          42.312    23608129.680   124061559.306 6      -650.266          39.812    23608150.260    96671415.527 6      -506.701          39.500    23608150.820    96671418.535 7      -506.701          44.125
G21  23012954.280   120933769.860 7      1189.265          42.875    23012950.780   120933769.867 5      1189.265          32.500    23012958.260    94234212.664 5       926.700          32.750
R06  19951371.080   106464336.409 6      4972.628          38.375    19951369.680   106464336.412 6      4972.628          37.437
G17  22181989.280   116567149.747 8      5080.101          49.187    22181990.680   116567149.734 6      5080.101          41.062    22181993.200    90831546.979 6      3958.520          41.375    22181993.520    90831554.975 8      3958.520          48.812
G03  20257235.600   106452506.432 8      1593.972          50.125    20257235.460   106452506.439 8      1593.972          50.187    20257240.180    82949996.447 8      1242.056          50.812    20257241.040    82950024.444 8      1242.056          50.812
G04  22031382.240   115775706.735 7      5067.720          45.187    22031381.000   115775706.745 5      5067.720          35.062    22031391.500    90214876.504 5      3948.872          35.250    22031391.540    90214886.507 8      3948.872          48.687
R05  20629941.780   110278861.844 8        88.118          48.250    20629941.180   110278861.832 8        88.118          48.125    20629950.160    85772487.937 8        68.536          49.250    20629950.520    85772485.932 8        68.536          49.062
G14  22427129.980   117855419.398 7      1334.635          44.312    22427129.000   117855419.408 5      1334.635          33.687    22427137.520    91835359.244 5      1039.975          33.437    22427137.600    91835423.243 7      1039.975          47.187
R21  21605206.420   115613834.105 7      4963.676          45.312    21605206.840   115613834.136 7      4963.676          45.812    21605217.140    89921907.881 8      3860.637          49.062    21605216.780    89921907.877 8      3860.637          48.437
> 2024 05 06 16 42 59.0000000  0 10
G02  22142989.820   116362124.977 7      1834.573          46.750    22142987.060   116362124.985 6      1834.573          38.062    22142990.860    90671831.780 6      1429.537          39.000
G08  23608254.720   124062209.693 6      -650.558          41.875    23608253.060   124062209.685 6      -650.558          39.437    23608274.120    96671922.292 6      -506.928          39.125    23608274.420    96671925.306 7      -506.928          44.562
G21  23012728.140   120932580.698 7      1189.088          43.250    23012724.700   120932580.705 5      1189.088          32.500    23012731.780    94233286.046 5       926.562          32.625
R06  19950439.020   106459364.239 6      4971.725          38.375    19950437.580   106459364.256 6      4971.725          37.437
G17  22181022.660   116562069.799 8      5079.793          48.687    22181024.240   116562069.788 6      5079.793          41.875    22181026.640    90827588.582 6      3958.281          41.312    22181026.820    90827596.582 8      3958.281          49.187
G03  20256932.420   106450912.813 8      1593.340          49.750    20256932.140   106450912.816 8      1593.340          50.250    20256936.900    82948754.665 8      1241.563          51.062    20256937.760    82948782.663 8      1241.563          50.437
G04  22030417.860   115770639.273 7      5067.298          44.875    22030416.620   115770639.286 5      5067.298          35.375    22030427.180    90210927.842 5      3948.544          35.187    22030427.360    90210937.846 8      3948.544          48.875
R05  20629925.540   110278774.172 7        87.273          47.937    20629924.600   110278774.157 7        87.273          47.500    20629933.880    85772419.745 8        67.879          49.375    20629933.920    85772417.742 8        67.879          49.125
G14  22426876.320   117854085.100 7      1334.060          44.750    22426875.380   117854085.108 5      1334.060          34.062    22426883.680    91834319.527 5      1039.527          33.437    22426883.460    91834383.526 7      1039.527          47.062
R21  21604279.000   115608870.493 7      4963.421          45.125    21604279.160   115608870.521 7      4963.421          45.687    21604289.540    89918047.292 8      3860.439          49.000    21604288.880    89918047.288 8      3860.439          48.000
> 2024 05 06 16 43  0.0000000  0 10
G02  22142640.640   116360290.378 7      1834.483          47.312    22142637.940   116360290.389 6      1834.483          38.062    22142641.700    90670402.226 6      1429.467          37.812
G08  23608378.460   124062860.240 7      -650.626          43.125    23608376.980   124062860.237 6      -650.626          39.125    23608397.900    96672429.187 6      -506.981          39.062    23608397.400    96672432.207 7      -506.981          44.187
G21  23012501.380   120931391.573 7      1189.049          43.937    23012498.220   120931391.580 5      1189.049          32.625    23012505.400    94232359.451 5       926.531          32.625
R06  19949507.940   106454392.773 6      4971.207          38.375    19949506.920   106454392.763 6      4971.207          37.187
G17  22180055.980   116556990.058 8      5079.577          49.375    22180057.820   116556990.047 6      5079.577          41.812    22180060.260    90823630.345 6      3958.112          41.375    22180060.300    90823638.342 8      3958.112          49.375
G03  20256629.200   106449319.589 8      1592.964          50.187    20256629.020   106449319.591 8      1592.964          49.937    20256633.620    82947513.191 8      1241.270          50.500    20256634.500    82947541.188 8      1241.270          51.312
G04  22029453.720   115765572.126 7      5067.009          44.312    22029452.260   115765572.142 5      5067.009          35.375    22029462.840    90206979.426 5      3948.318          35.062    22029462.960    90206989.434 8      3948.318          48.937
R05  20629909.040   110278687.159 8        86.596          49.062    20629908.300   110278687.152 7        86.596          47.312    20629917.620    85772352.071 8        67.352          48.937    20629917.340    85772350.068 8        67.352          48.750
G14  22426622.260   117852751.254 7      1333.631          44.062    22426621.360   117852751.264 5      1333.631          34.375    22426629.880    91833280.171 5      1039.193          34.187    22426629.900    91833344.171 7      1039.193          47.125
R21  21603351.600   115603906.817 7      4963.548          46.000    21603351.280   115603906.843 7      4963.548          45.562    21603361.780    89914186.658 8      3860.537          48.625    21603361.160    89914186.656 7      3860.537          47.812
> 2024 05 06 16 43  1.0000000  0 10
G02  22142291.840   116358455.825 7      1834.773          46.875    22142288.780   116358455.829 6      1834.773          38.000    22142292.620    90668972.700 6      1429.693          37.937
G08  23608502.720   124063510.998 7      -650.673          42.375    23608500.800   124063511.003 6      -650.673          39.500    23608521.900    96672936.252 6      -507.018          38.625    23608521.740    96672939.264 7      -507.018          44.062
G21  23012275.180   120930202.421 7      1189.379          43.812    23012272.160   120930202.429 5      1189.379          32.625    23012279.120    94231432.841 5       926.789          32.562
R06  19948576.600   106449422.033 6      4970.429          38.375    19948575.420   106449422.034 6      4970.429          37.187
G17  22179089.500   116551910.496 8      5079.666          48.937    22179091.340   116551910.491 7      5079.666          42.375    22179093.620    90819672.251 7      3958.182          42.187    22179093.700    90819680.252 8      3958.182          49.625
G03  20256325.960   106447726.783 8      1592.815          50.000    20256325.860   106447726.787 8      1592.815          50.437    20256330.500    82946272.050 8      1241.154          50.750    20256331.280    82946300.044 8      1241.154          50.937
G04  22028489.660   115760505.284 7      5066.948          44.500    22028487.980   115760505.292 5      5066.948          35.250    22028498.660    90203031.245 5      3948.271          35.062    22028498.580    90203041.251 8      3948.271          48.875
R05  20629893.020   110278600.820 8        86.197          48.750    20629892.240   110278600.811 7        86.197          47.375    20629901.600    85772284.921 8        67.042          49.500    20629901.180    85772282.913 8        67.042          48.875
G14  22426368.720   117851417.881 7      1333.328          43.875    22426367.620   117851417.893 5      1333.328          34.375    22426376.060    91832241.177 5      1038.957          34.187    22426376.240    91832305.169 7      1038.957          47.375
R21  21602424.340   115598943.074 7      4964.009          46.187    21602423.860   115598943.089 7      4964.009          45.250    21602433.640    89910325.962 7      3860.896          47.875    21602433.280    89910325.961 7      3860.896          47.250
> 2024 05 06 16 43  2.0000000  0 10
G02  22141942.580   116356621.334 7      1834.562          46.312    22141939.720   116356621.336 6      1834.562          37.937    22141943.460    90667543.226 6      1429.528          38.125
G08  23608626.500   124064161.923 7      -650.950          42.375    23608624.740   124064161.933 6      -650.950          39.312    23608645.740    96673443.446 6      -507.234          39.062    23608645.380    96673446.456 7      -507.234          44.187
G21  23012048.840   120929013.283 7      1189.338          43.562    23012045.980   120929013.293 5      1189.338          32.562    23012052.660    94230506.242 5       926.757          32.562
R06  19947645.020   106444451.937 6      4969.805          38.500    19947644.480   106444451.929 6      4969.805          37.187
G17  22178122.900   116546831.116 8      5079.413          49.437    22178124.920   116546831.110 7      5079.413          42.250    22178126.980    90815714.292 7      3957.984          42.437    22178127.220    90815722.295 8      3957.984          49.250
G03  20256023.020   106446134.386 8      1592.237          50.250    20256022.860   106446134.391 8      1592.237          50.437    20256027.400    82945031.223 8      1240.704          50.312    20256028.240    82945059.218 8      1240.704          50.062
G04  22027525.560   115755438.726 7      5066.551          44.187    22027523.880   115755438.736 5      5066.551          35.375    22027534.440    90199083.290 5      3947.962          35.375    22027534.400    90199093.296 8      3947.962          48.687
R05  20629876.940   110278515.120 8        85.512          48.937    20629876.380   110278515.116 7        85.512          47.625    20629885.480    85772218.267 8        66.509          49.312    20629885.080    85772216.261 8        66.509          48.437
G14  22426115.400   117850084.917 7      1332.810          43.312    22426114.040   117850084.927 5      1332.810          34.000    22426122.640    91831202.498 5      1038.554          34.125    22426122.480    91831266.502 7      1038.554          47.375
R21  21601496.400   115593979.281 7      4963.927          46.000    21601495.900   115593979.295 7      4963.927          45.750    21601506.240    89906465.238 7      3860.832          47.750    21601505.700    89906465.230 7      3860.832          46.687
> 2024 05 06 16 43  3.0000000  0 10
G02  22141593.360   116354786.788 7      1834.665          46.375    22141590.700   116354786.795 6      1834.665          38.062    22141594.480    90666113.712 6      1429.609          37.812
G08  23608750.540   124064812.896 7      -650.826          42.437    23608748.680   124064812.895 6      -650.826          39.000    23608769.760    96673950.663 6      -507.137          38.562    23608769.300    96673953.679 7      -507.137          44.187
G21  23011822.560   120927824.079 7      1189.358          42.937    23011819.660   120927824.089 5      1189.358          32.562    23011826.200    94229579.586 5       926.772          32.437
R06  19946713.560   106439482.435 6      4969.308          38.500    19946712.400   106439482.414 6      4969.308          37.187
G17  22177156.180   116541751.832 8      5079.310          49.875    22177158.560   116541751.829 7      5079.310          42.250    22177160.460    90811756.409 7      3957.904          42.187    22177160.760    90811764.418 8      3957.904          49.062
G03  20255720.100   106444542.302 8      1591.983          50.187    20255719.900   106444542.302 8      1591.983          49.750    20255724.400    82943790.634 8      1240.506          49.937    20255725.020    82943818.631 8      1240.506          49.687
G04  22026561.480   115750372.370 7      5066.369          45.062    22026559.780   115750372.380 5      5066.369          35.500    22026570.400    90195135.491 5      3947.820          35.000    22026570.180    90195145.492 8      3947.820          48.250
R05  20629861.060   110278429.994 8        84.921          49.437    20629860.360   110278429.988 7        84.921          47.687    20629869.780    85772152.054 8        66.050          48.187    20629869.400    85772150.048 8        66.050          48.312
G14  22425861.420   117848752.306 7      1332.550          44.125    22425860.100   117848752.319 5      1332.550          34.000    22425869.060    91830164.097 5      1038.350          34.125    22425869.320    91830228.096 7      1038.350          47.187
R21  21600568.860   115589015.383 7      4964.016          45.875    21600568.400   115589015.397 7      4964.016          45.812    21600578.360    89902604.429 7      3860.902          47.875    21600578.100    89902604.429 7      3860.902          46.562
> 2024 05 06 16 43  4.0000000  0 10
G02  22141244.340   116352952.334 7      1834.509          46.375    22141241.660   116352952.344 6      1834.509          38.000    22141245.400    90664684.269 6      1429.487          37.750
G08  23608874.580   124065464.121 7      -651.266          42.187    23608872.760   124065464.126 6      -651.266          39.500    23608893.660    96674458.089 6      -507.480          39.625    23608893.320    96674461.096 7      -507.480          44.000
G21  23011596.280   120926634.906 7      1189.249          45.437    23011593.360   120926634.911 5      1189.249          32.500    23011600.240    94228652.954 5       926.688          32.437
R06  19945782.520   106434513.667 6      4968.386          38.500    19945780.760   106434513.657 6      4968.386          37.187
G17  22176189.760   116536672.764 8      5079.037          50.187    22176192.200   116536672.764 7      5079.037          43.062    22176193.860    90807798.697 7      3957.692          42.437    22176194.220    90807806.705 8      3957.692          49.375
G03  20255417.240   106442950.660 8      1591.435          50.375    20255417.000   106442950.662 8      1591.435          50.375    20255421.540    82942550.397 8      1240.079          50.500    20255422.380    82942578.396 8      1240.079          50.000
G04  22025597.240   115745306.350 7      5065.864          44.062    22025595.920   115745306.357 5      5065.864          35.500    22025606.280    90191187.951 5      3947.426          35.000    22025606.420    90191197.953 8      3947.426          48.562
R05  20629845.280   110278345.529 8        84.164          49.312    20629844.780   110278345.527 7        84.164          47.562    20629854.000    85772086.363 8        65.461          49.312    20629853.460    85772084.359 8        65.461          49.312
G14  22425607.780   117847420.189 7      1331.921          43.375    22425606.560   117847420.201 5      1331.921          33.750    22425615.620    91829126.080 5      1037.860          33.562    22425616.080    91829190.084 7      1037.860          47.875
R21  21599641.040   115584051.514 7      4963.855          45.875    21599640.400   115584051.521 7      4963.855          45.312    21599650.700    89898743.644 8      3860.776          48.062    21599650.100    89898743.646 7      3860.776          46.812
> 2024 05 06 16 43  5.0000000  0 10
G02  22140895.280   116351117.922 7      1834.396          46.562    22140892.580   116351117.921 6      1834.396          38.437    22140896.260    90663254.845 6      1429.399          37.875
G08  23608998.580   124066115.469 7      -651.425          42.250    23608996.760   124066115.474 6      -651.425          40.000    23609017.560    96674965.604 6      -507.604          39.687    23609017.380    96674968.608 7      -507.604          43.875
G21  23011370.040   120925445.705 7      1189.146          44.750    23011367.160   120925445.710 5      1189.146          32.500    23011373.940    94227726.301 5       926.608          32.437
R06  19944851.700   106429545.536 6      4967.941          38.500    19944849.640   106429545.502 6      4967.941          36.875
G17  22175223.280   116531593.859 8      5078.776          50.000    22175225.580   116531593.864 7      5078.776          42.500    22175227.320    90803841.113 7      3957.488          42.375    22175227.520    90803849.119 8      3957.488          49.187
G03  20255114.300   106441359.393 8      1591.037          49.625    20255114.380   106441359.403 8      1591.037          50.312    20255118.680    82941310.455 8      1239.769          50.812    20255119.360    82941338.456 8      1239.769          51.125
G04  22024633.160   115740240.582 7      5065.604          45.125    22024631.680   115740240.595 5      5065.604          35.437    22024642.240    90187240.612 5      3947.224          35.437    22024642.440    90187250.616 8      3947.224          48.812
R05  20629829.460   110278261.670 8        83.517          48.812    20629828.920   110278261.669 7        83.517          47.750    20629838.320    85772021.139 8        64.958          49.437    20629837.700    85772019.138 8        64.958          49.687
G14  22425354.500   117846088.479 7      1331.503          43.437    22425353.100   117846088.491 5      1331.503          33.750    22425362.260    91828088.379 5      1037.535          33.812    22425362.600    91828152.380 8      1037.535          48.312
R21  21598713.620   115579087.541 7      4963.913          46.375    21598712.880   115579087.553 7      4963.913          45.312    21598722.840    89894882.780 8      3860.821          48.062    21598722.660    89894882.783 7      3860.821          47.312
> 2024 05 06 16 43  6.0000000  0 10
G02  22140546.160   116349283.541 7      1834.316          45.500    22140543.400   116349283.541 6      1834.316          38.250    22140547.100    90661825.458 6      1429.337          38.250
G08  23609122.540   124066766.983 7      -651.558          42.000    23609120.860   124066766.986 6      -651.558          39.625    23609141.620    96675473.257 6      -507.708          39.312    23609141.220    96675476.259 7      -507.708          44.375
G21  23011143.540   120924256.514 7      1189.042          44.375    23011141.000   120924256.516 5      1189.042          33.062    23011147.520    94226799.655 5       926.527          33.000
R06  19943919.960   106424578.110 6      4967.022          38.312    19943918.880   106424578.106 6      4967.022          36.875
G17  22174256.880   116526515.130 8      5078.595          49.937    22174259.160   116526515.135 7      5078.595          42.000    22174260.740    90799883.664 7      3957.347          42.000    22174260.920    90799891.670 8      3957.347          49.312
G03  20254811.540   106439768.546 8      1590.586          50.375    20254811.560   106439768.554 8      1590.586          50.312    20254815.880    82940070.837 8      1239.418          50.750    20254816.580    82940098.837 8      1239.418          50.375
G04  22023669.100   115735175.125 7      5065.245          45.000    22023667.840   115735175.138 5      5065.245          35.625    22023678.380    90183293.512 5      3946.945          35.312    22023678.640    90183303.514 8      3946.945          48.875
R05  20629813.760   110278178.466 8        82.820          48.437    20629813.420   110278178.468 8        82.820          48.000    20629822.720    85771956.429 8        64.416          49.000    20629822.100    85771954.430 8        64.416          48.937
G14  22425101.200   117844757.223 7      1330.916          42.937    22425099.780   117844757.238 5      1330.916          33.750    22425108.980    91827051.033 5      1037.077          33.812    22425109.120    91827115.034 8      1037.077          48.125
R21  21597786.140   115574123.496 7      4964.003          45.312    21597784.880   115574123.503 7      4964.003          45.625    21597795.300    89891021.854 7      3860.891          47.937    21597795.040    89891021.858 7      3860.891          47.250
> 2024 05 06 16 43  7.0000000  0 10
G02  22140197.140   116347449.313 7      1834.192          45.500    22140194.500   116347449.315 6      1834.192          37.937    22140198.120    90660396.191 6      1429.241          38.062
G08  23609246.380   124067418.794 7      -651.916          42.687    23609244.880   124067418.794 6      -651.916          40.000    23609265.700    96675981.137 6      -507.986          39.375    23609265.440    96675984.141 7      -507.986          44.562
G21  23010917.500   120923067.410 7      1189.083          44.375    23010914.700   120923067.412 5      1189.083          33.062    23010921.160    94225873.078 5       926.558          33.000
R06  19942989.880   106419611.463 6      4966.328          38.312    19942987.980   106419611.461 6      4966.328          36.875
G17  22173290.520   116521436.695 8      5078.362          49.812    22173292.560   116521436.700 7      5078.362          42.750    22173294.260    90795926.442 7      3957.165          42.437    22173294.520    90795934.448 8      3957.165          49.312
G03  20254508.920   106438178.202 8      1590.126          49.937    20254508.920   106438178.209 8      1590.126          50.187    20254513.160    82938831.607 8      1239.059          50.687    20254514.000    82938859.612 8      1239.059          50.312
G04  22022705.240   115730110.054 7      5064.978          44.562    22022703.960   115730110.067 5      5064.978          35.312    22022714.340    90179346.712 5      3946.736          35.250    22022715.080    90179356.708 8      3946.736          49.125
R05  20629798.560   110278096.014 8        82.125          48.687    20629798.200   110278096.020 8        82.125          48.250    20629807.440    85771892.297 8        63.875          49.562    20629806.880    85771890.304 8        63.875          48.812
G14  22424847.940   117843426.475 7      1330.623          44.187    22424846.460   117843426.482 5      1330.623          33.625    22424855.580    91826014.080 5      1036.849          33.312    22424855.580    91826078.071 7      1036.849          47.750
R21  21596859.020   115569159.501 7      4964.008          45.875    21596857.220   115569159.511 7      4964.008          45.375    21596867.900    89887160.974 7      3860.895          47.812    21596867.560    89887160.980 7      3860.895          47.250
> 2024 05 06 16 43  8.0000000  0 10
G02  22139848.060   116345615.124 7      1834.180          46.500    22139845.400   116345615.127 6      1834.180          37.687    22139849.080    90658966.951 6      1429.231          37.625
G08  23609370.300   124068070.758 6      -652.073          41.875    23609368.980   124068070.760 6      -652.073          39.312    23609389.720    96676489.136 6      -508.108          39.500    23609389.740    96676492.138 7      -508.108          44.375
G21  23010691.220   120921878.316 7      1189.048          44.125    23010688.400   120921878.316 5      1189.048          32.750    23010694.880    94224946.509 5       926.531          32.812
R06  19942059.040   106414645.550 6      4965.419          38.312    19942056.940   106414645.532 6      4965.419          36.875
G17  22172324.220   116516358.413 8      5078.232          49.750    22172325.920   116516358.428 6      5078.232          41.687    22172327.920    90791969.347 6      3957.064          41.687    22172327.940    90791977.355 8      3957.064          49.500
G03  20254206.380   106436588.254 8      1589.711          50.187    20254206.360   106436588.262 8      1589.711          50.437    20254210.620    82937592.689 8      1238.736          50.562    20254211.540    82937620.694 8      1238.736          50.312
G04  22021741.680   115725045.269 7      5064.705          44.750    22021740.180   115725045.279 5      5064.705          35.250    22021750.740    90175400.135 5      3946.523          35.250    22021750.820    90175410.134 8      3946.523          49.187
R05  20629783.060   110278014.194 8        81.482          49.187    20629782.980   110278014.203 8        81.482          48.000    20629791.960    85771828.664 8        63.375          49.500    20629791.300    85771826.675 8        63.375          48.437
G14  22424594.840   117842096.194 7      1330.100          44.562    22424593.480   117842096.199 5      1330.100          33.625    22424602.200    91824977.490 5      1036.442          33.312    22424602.900    91825041.482 7      1036.442          47.812
R21  21595931.160   115564195.507 7      4963.906          46.000    21595929.680   115564195.500 7      4963.906          45.625    21595940.340    89883300.085 8      3860.816          48.125    21595939.780    89883300.089 7      3860.816          47.875
> 2024 05 06 16 43  9.0000000  0 10
G02  22139499.000   116343780.854 7      1834.426          47.437    22139496.360   116343780.859 6      1834.426          38.375    22139500.000    90657537.650 6      1429.423          38.312
G08  23609494.600   124068722.797 7      -652.060          42.250    23609493.080   124068722.789 6      -652.060          40.187    23609513.600    96676997.188 6      -508.099          39.937    23609513.440    96677000.181 7      -508.099          44.437
G21  23010464.980   120920689.078 7      1189.477          43.375    23010462.320   120920689.078 5      1189.477          32.750    23010468.520    94224019.824 5       926.865          32.812
R06  19941128.500   106409680.127 6      4965.163          38.312    19941126.800   106409680.123 6      4965.163          36.875
G17  22171357.700   116511280.212 8      5078.303          48.937    22171359.260   116511280.225 6      5078.303          41.875    22171361.500    90788012.312 6      3957.119          41.500    22171361.520    90788020.317 8      3957.119          49.375
G03  20253903.960   106434998.585 8      1589.657          50.125    20253903.880   106434998.587 8      1589.657          50.312    20253908.140    82936353.988 8      1238.694          50.625    20253909.080    82936381.986 8      1238.694          50.375
G04  22020777.840   115719980.652 7      5064.671          44.375    22020776.380   115719980.660 5      5064.671          35.250    22020786.980    90171453.688 5      3946.497          35.437    22020787.280    90171463.686 8      3946.497          49.625
R05  20629767.960   110277932.907 8        81.215          48.000    20629767.800   110277932.911 7        81.215          47.625    20629776.780    85771765.437 8        63.167          50.000    20629776.460    85771763.448 8        63.167          49.125
G14  22424341.780   117840766.221 7      1329.944          45.437    22424340.500   117840766.226 5      1329.944          33.750    22424349.000    91823941.145 5      1036.320          33.812    22424349.720    91824005.135 8      1036.320          48.062
R21  21595003.000   115559231.315 7      4964.405          46.062    21595001.720   115559231.324 7      4964.405          46.062    21595012.640    89879439.059 8      3861.204          48.187    21595012.380    89879439.063 7      3861.204          47.375
> 2024 05 06 16 43 10.0000000  0 10
G02  22139149.920   116341946.545 8      1834.426          48.625    22139147.440   116341946.547 6      1834.426          37.875    22139150.940    90656108.320 6      1429.423          38.125
G08  23609618.640   124069374.858 6      -652.163          41.625    23609617.200   124069374.857 6      -652.163          39.312    23609637.780    96677505.262 6      -508.179          39.625    23609637.640    96677508.272 7      -508.179          44.250
G21  23010238.920   120919499.777 7      1189.362          44.062    23010235.940   120919499.774 5      1189.362          33.187    23010242.160    94223093.096 5       926.775          33.250
R06  19940198.800   106404715.287 6      4964.652          38.312    19940195.740   106404715.304 6      4964.652          36.875
G17  22170391.220   116506202.087 8      5078.160          48.500    22170392.520   116506202.103 6      5078.160          40.875    22170395.140    90784055.331 6      3957.007          41.062    22170395.180    90784063.337 8      3957.007          49.312
G03  20253601.600   106433409.228 8      1589.261          50.875    20253601.360   106433409.228 8      1589.261          50.437    20253605.620    82935115.526 8      1238.385          51.062    20253606.860    82935143.527 8      1238.385          51.000
G04  22019814.120   115714916.246 7      5064.334          44.687    22019812.680   115714916.253 5      5064.334          35.312    22019823.400    90167507.408 5      3946.235          35.312    22019823.800    90167517.408 8      3946.235          49.187
R05  20629752.820   110277852.205 8        80.421          49.187    20629752.720   110277852.209 8        80.421          48.687    20629761.620    85771702.672 8        62.550          49.687    20629761.260    85771700.677 8        62.550          49.250
G14  22424089.020   117839436.584 7      1329.499          45.250    22424087.440   117839436.591 5      1329.499          33.500    22424095.960    91822905.062 5      1035.973          33.812    22424097.040    91822969.054 8      1035.973          48.500
R21  21594074.960   115554267.013 7      4964.489          45.812    21594074.020   115554267.019 7      4964.489          45.500    21594084.960    89875577.933 8      3861.269          48.562    21594084.780    89875577.940 7      3861.269          47.375
> 2024 05 06 16 43 11.0000000  0 10
G02  22138801.080   116340112.367 7      1834.015          47.937    22138798.460   116340112.371 6      1834.015          38.125    22138801.940    90654679.086 6      1429.102          38.000
G08  23609742.900   124070027.179 7      -652.549          42.687    23609741.280   124070027.181 6      -652.549          39.750    23609761.860    96678013.542 6      -508.480          39.562    23609761.940    96678016.556 7      -508.480          44.500
G21  23010012.660   120918310.515 7      1189.051          44.375    23010009.660   120918310.520 5      1189.051          33.187    23010015.780    94222166.398 5       926.533          33.250
R06  19939268.220   106399751.244 6      4963.557          37.750    19939265.720   106399751.263 6      4963.557          36.937
G17  22169424.920   116501124.220 8      5077.676          48.937    22169425.860   116501124.233 6      5077.676          41.000    22169428.800    90780098.554 6      3956.631          40.500    22169428.920    90780106.559 8      3956.631          49.000
G03  20253299.260   106431820.353 8      1588.548          50.187    20253298.920   106431820.350 8      1588.548          49.625    20253303.180    82933877.439 8      1237.829          50.562    20253304.260    82933905.440 8      1237.829          50.625
G04  22018850.540   115709852.194 7      5063.715          44.250    22018849.040   115709852.199 5      5063.715          35.437    22018859.840    90163561.404 5      3945.752          35.312    22018860.260    90163571.408 8      3945.752          49.875
R05  20629737.820   110277772.208 8        79.517          49.187    20629737.860   110277772.212 8        79.517          48.187    20629746.780    85771640.453 8        61.847          50.000    20629746.440    85771638.458 8        61.847          49.000
G14  22423836.000   117838107.464 7      1328.809          45.125    22423834.640   117838107.474 5      1328.809          33.500    22423842.900    91821869.383 5      1035.436          33.375    22423843.940    91821933.375 8      1035.436          48.562
R21  21593147.460   115549302.759 7      4964.145          44.562    21593146.500   115549302.768 7      4964.145          45.312    21593157.160    89871716.853 8      3861.002          48.312    21593157.060    89871716.857 7      3861.002          47.625
> 2024 05 06 16 43 12.0000000  0 10
G02  22138451.960   116338278.209 7      1834.144          47.937    22138449.500   116338278.212 6      1834.144          38.312    22138452.880    90653249.873 6      1429.203          38.125
G08  23609866.900   124070679.657 6      -652.511          41.312    23609865.540   124070679.659 6      -652.511          39.750    23609885.960    96678521.944 6      -508.450          39.625    23609886.260    96678524.952 7      -508.450          44.625
G21  23009786.380   120917121.266 7      1189.118          44.312    23009783.320   120917121.266 5      1189.118          33.125    23009789.420    94221239.707 5       926.585          33.125
R06  19938337.760   106394787.860 6      4963.175          37.750    19938336.360   106394787.866 6      4963.175          36.937
G17  22168458.760   116496046.508 8      5077.654          48.625    22168459.200   116496046.526 6      5077.654          40.562    22168462.680    90776141.905 6      3956.614          40.437    22168462.520    90776149.911 8      3956.614          48.750
G03  20252996.980   106430231.837 8      1588.356          50.187    20252996.620   106430231.842 8      1588.356          50.000    20253000.920    82932639.641 8      1237.680          50.875    20253002.000    82932667.639 8      1237.680          50.562
G04  22017886.980   115704788.413 7      5063.557          44.625    22017885.520   115704788.423 5      5063.557          35.500    22017896.240    90159615.615 5      3945.629          35.437    22017896.740    90159625.614 8      3945.629          49.750
R05  20629723.240   110277692.866 8        79.007          49.875    20629723.180   110277692.862 8        79.007          48.000    20629731.820    85771578.736 8        61.450          49.062    20629731.780    85771576.739 8        61.450          48.812
G14  22423583.000   117836778.773 7      1328.424          45.937    22423581.860   117836778.786 5      1328.424          33.562    22423590.020    91820834.033 5      1035.136          33.375    22423591.300    91820898.029 8      1035.136          48.000
R21  21592219.740   115544338.449 7      4964.384          46.187    21592219.080   115544338.450 7      4964.384          46.187    21592229.760    89867855.719 7      3861.188          47.875    21592229.160    89867855.715 8      3861.188          48.062
> 2024 05 06 16 43 13.0000000  0 10
G02  22138102.840   116336444.197 7      1833.801          47.812    22138100.500   116336444.202 6      1833.801          38.312    22138103.840    90651820.768 6      1428.936          38.437
G08  23609991.100   124071332.403 7      -652.989          43.000    23609989.640   124071332.408 6      -652.989          39.875    23610010.180    96679030.555 6      -508.823          39.750    23610010.540    96679033.567 7      -508.823          44.187
G21  23009560.000   120915932.068 7      1189.072          44.625    23009557.160   120915932.073 5      1189.072          33.125    23009563.200    94220313.055 5       926.550          33.125
R06  19937407.980   106389825.258 6      4962.075          37.750    19937406.020   106389825.288 6      4962.075          36.937
G17  22167492.500   116490969.069 8      5077.218          48.250    22167492.540   116490969.092 6      5077.218          39.687    22167496.420    90772185.463 6      3956.274          39.750    22167496.520    90772193.477 7      3956.274          47.937
G03  20252694.760   106428643.836 8      1587.658          50.125    20252694.420   106428643.841 8      1587.658          49.187    20252698.700    82931402.239 8      1237.136          49.437    20252699.700    82931430.238 8      1237.136          49.750
G04  22016923.260   115699725.005 7      5063.083          44.500    22016922.000   115699725.015 5      5063.083          35.500    22016932.800    90155670.112 5      3945.259          35.312    22016933.120    90155680.118 8      3945.259          49.000
R05  20629708.340   110277614.265 8        78.108          49.625    20629708.580   110277614.261 8        78.108          48.562    20629717.180    85771517.602 8        60.751          48.000    20629717.140    85771515.605 8        60.751          48.500
G14  22423330.200   117835450.602 7      1327.780          45.437    22423328.940   117835450.618 5      1327.780          33.562    22423337.340    91819799.091 5      1034.633          33.687    22423338.480    91819863.087 8      1034.633          48.000
R21  21591292.160   115539374.141 7      4964.242          45.250    21591291.340   115539374.143 7      4964.242          45.937    21591301.960    89863994.597 7      3861.077          47.250    21591301.540    89863994.587 7      3861.077          46.562
> 2024 05 06 16 43 14.0000000  0 10
G02  22137753.920   116334610.310 7      1833.792          47.875    22137751.560   116334610.315 6      1833.792          38.437    22137754.900    90650391.767 6      1428.929          38.187
G08  23610115.560   124071985.397 6      -653.106          41.812    23610114.000   124071985.404 6      -653.106          40.000    23610134.560    96679539.356 6      -508.913          39.312    23610134.980    96679542.368 7      -508.913          44.312
G21  23009333.720   120914742.990 7      1189.023          44.375    23009330.860   120914742.995 5      1189.023          32.937    23009336.860    94219386.502 5       926.511          33.000
R06  19936477.940   106384863.469 6      4961.198          37.750    19936477.380   106384863.491 6      4961.198          36.937
G17  22166526.280   116485891.901 8      5077.049          48.125    22166526.100   116485891.924 6      5077.049          39.875    22166530.260    90768229.232 6      3956.142          39.500    22166530.420    90768237.246 8      3956.142          49.000
G03  20252392.580   106427056.329 8      1587.223          49.937    20252392.260   106427056.337 8      1587.223          49.312    20252396.660    82930165.225 8      1236.797          49.812    20252397.680    82930193.222 8      1236.797          50.250
G04  22015959.720   115694661.989 7      5062.853          43.875    22015958.600   115694661.999 5      5062.853          35.562    22015969.240    90151724.915 5      3945.081          35.312    22015969.880    90151734.921 8      3945.081          49.937
R05  20629693.980   110277536.388 8        77.489          48.625    20629694.020   110277536.389 8        77.489          48.000    20629702.460    85771457.035 8        60.270          49.062    20629702.460    85771455.036 8        60.270          48.875
G14  22423077.500   117834122.955 7      1327.375          44.812    22423076.200   117834122.967 5      1327.375          33.812    22423084.740    91818764.556 5      1034.318          33.687    22423085.980    91818828.558 8      1034.318          48.687
R21  21590364.540   115534409.885 7      4964.232          46.437    21590363.720   115534409.894 7      4964.232          45.937    21590374.180    89860133.519 7      3861.069          47.750    21590374.020    89860133.513 7      3861.069          47.062
> 2024 05 06 16 43 15.0000000  0 10
G02  22137404.960   116332776.482 7      1833.976          47.437    22137402.760   116332776.486 6      1833.976          38.125    22137405.980    90648962.810 6      1429.072          38.062
G08  23610239.760   124072638.592 7      -653.071          42.437    23610238.220   124072638.592 6      -653.071          39.562    23610258.780    96680048.311 6      -508.886          39.687    23610259.320    96680051.319 7      -508.886          44.437
G21  23009107.320   120913553.920 7      1189.168          44.687    23009104.720   120913553.927 5      1189.168          32.937    23009110.540    94218459.956 5       926.625          33.000
R06  19935548.280   106379902.327 6      4960.856          37.750    19935547.180   106379902.341 6      4960.856          36.937
G17  22165560.120   116480814.932 7      5077.066          47.187    22165559.740   116480814.950 6      5077.066          39.875    22165564.080    90764273.157 6      3956.156          39.812    22165564.020    90764281.173 8      3956.156          49.000
G03  20252090.520   106425469.238 8      1587.022          50.125    20252090.120   106425469.242 8      1587.022          50.750    20252094.620    82928928.530 8      1236.640          51.000    20252095.660    82928956.525 8      1236.640          50.062
G04  22014996.360   115689599.277 7      5062.806          44.500    22014995.220   115689599.285 5      5062.806          35.812    22015005.900    90147779.953 5      3945.044          35.562    22015006.540    90147789.955 8      3945.044          50.437
R05  20629679.580   110277459.163 8        77.075          49.500    20629679.420   110277459.159 8        77.075          48.562    20629688.000    85771396.974 8        59.948          49.125    20629688.040    85771394.968 8        59.948          49.312
G14  22422825.000   117832795.764 7      1327.102          45.437    22422823.440   117832795.779 5      1327.102          34.000    22422832.280    91817730.381 5      1034.106          33.562    22422833.500    91817794.385 8      1034.106          48.562
R21  21589436.760   115529445.641 7      4964.371          45.562    21589435.920   115529445.651 7      4964.371          45.437    21589446.460    89856272.449 8      3861.178          48.062    21589446.200    89856272.439 7      3861.178          47.687
> 2024 05 06 16 43 16.0000000  0 10
G02  22137055.840   116330942.655 7      1833.884          47.625    22137053.980   116330942.658 6      1833.884          38.625    22137056.960    90647533.852 6      1429.000          38.375
G08  23610364.140   124073291.882 6      -653.279          41.937    23610362.420   124073291.874 6      -653.279          39.375    23610383.080    96680557.336 6      -509.048          39.250    23610383.920    96680560.352 7      -509.048          44.312
G21  23008880.900   120912364.784 7      1189.176          44.687    23008878.400   120912364.792 5      1189.176          33.312    23008884.180    94217533.355 5       926.631          33.250
R06  19934619.000   106374941.835 6      4960.079          38.000    19934617.780   106374941.849 6      4960.079          36.750
G17  22164594.220   116475738.079 7      5076.833          47.187    22164593.060   116475738.095 6      5076.833          39.312    22164597.620    90760317.174 6      3955.974          38.250    22164597.860    90760325.192 8      3955.974          49.000
G03  20251788.660   106423882.469 8      1586.704          50.250    20251788.080   106423882.474 8      1586.704          49.875    20251792.640    82927692.090 8      1236.393          50.500    20251793.420    82927720.086 8      1236.393          50.250
G04  22014032.780   115684536.807 7      5062.457          44.375    22014032.000   115684536.809 5      5062.457          35.625    22014042.740    90143835.177 5      3944.772          35.750    22014043.000    90143845.185 8      3944.772          50.062
R05  20629665.240   110277382.494 8        76.497          48.187    20629665.040   110277382.488 8        76.497          48.312    20629673.660    85771337.342 8        59.498          49.562    20629673.620    85771335.337 8        59.498          49.125
G14  22422572.640   117831468.957 7      1326.625          44.312    22422571.020   117831468.964 5      1326.625          34.000    22422580.060    91816696.501 5      1033.734          33.625    22422581.240    91816760.504 8      1033.734          49.000
R21  21588508.740   115524481.302 7      4964.332          45.875    21588508.220   115524481.306 7      4964.332          45.812    21588518.900    89852411.296 7      3861.147          47.812    21588518.440    89852411.290 7      3861.147          46.875
> 2024 05 06 16 43 17.0000000  0 10
G02  22136706.920   116329108.948 7      1833.752          47.062    22136705.040   116329108.950 6      1833.752          38.812    22136708.040    90646104.989 6      1428.898          38.812
G08  23610488.280   124073945.433 7      -653.633          42.437    23610486.740   124073945.430 6      -653.633          40.187    23610507.500    96681066.575 6      -509.325          39.312    23610508.160    96681069.589 7      -509.325          44.687
G21  23008654.660   120911175.730 7      1189.132          45.000    23008652.160   120911175.737 5      1189.132          33.312    23008658.060    94216606.815 5       926.597          33.250
R06  19933689.400   106369982.077 6      4959.570          38.000    19933688.820   106369982.086 6      4959.570          36.750
G17  22163628.160   116470661.473 7      5076.642          45.875    22163626.620   116470661.494 6      5076.642          39.125    22163631.480    90756361.379 6      3955.825          38.437    22163631.620    90756369.397 8      3955.825          48.562
G03  20251486.720   106422296.221 8      1586.148          50.250    20251486.120   106422296.220 8      1586.148          50.625    20251490.720    82926456.050 8      1235.959          50.625    20251491.460    82926484.044 8      1235.959          50.500
G04  22013069.600   115679474.708 7      5062.005          44.687    22013068.740   115679474.712 5      5062.005          35.625    22013079.580    90139890.696 5      3944.419          35.250    22013079.700    90139900.708 8      3944.419          50.187
R05  20629651.020   110277306.553 8        75.723          48.937    20629650.740   110277306.540 7        75.723          47.812    20629659.400    85771278.276 8        58.895          49.375    20629659.580    85771276.273 8        58.895          49.500
G14  22422320.240   117830142.659 7      1326.175          44.937    22422318.520   117830142.667 5      1326.175          33.937    22422327.540    91815663.015 5      1033.383          33.625    22422328.660    91815727.013 8      1033.383          48.750
R21  21587580.980   115519516.944 7      4964.545          46.500    21587580.400   115519516.950 7      4964.545          46.000    21587590.820    89848550.137 7      3861.313          47.875    21587590.600    89848550.133 7      3861.313          47.562
> 2024 05 06 16 43 18.0000000  0 10
G02  22136358.060   116327275.326 7      1833.391          46.750    22136355.980   116327275.331 6      1833.391          38.750    22136359.100    90644676.191 6      1428.617          38.250
G08  23610612.320   124074599.172 6      -653.940          41.187    23610611.100   124074599.164 6      -653.940          39.625    23610631.940    96681575.956 6      -509.564          39.812    23610632.720    96681578.960 7      -509.564          44.812
G21  23008428.020   120909986.739 7      1188.763          45.625    23008425.960   120909986.746 5      1188.763          33.437    23008431.720    94215680.323 5       926.309          33.687
R06  19932760.540   106365023.095 6      4958.420          38.000    19932758.920   106365023.104 6      4958.420          36.750
G17  22162662.140   116465585.098 7      5076.108          46.000    22162660.220   116465585.119 6      5076.108          38.562    22162665.360    90752405.773 6      3955.409          38.437    22162665.900    90752413.790 8      3955.409          48.312
G03  20251184.920   106420710.398 8      1585.427          49.500    20251184.340   106420710.401 8      1585.427          50.375    20251188.980    82925220.346 8      1235.398          50.750    20251189.540    82925248.341 8      1235.398          49.875
G04  22012106.660   115674412.934 7      5061.408          44.250    22012105.560   115674412.936 5      5061.408          35.375    22012116.280    90135946.465 5      3943.954          35.250    22012116.620    90135956.477 8      3943.954          49.750
R05  20629636.920   110277231.300 8        74.713          49.625    20629636.500   110277231.291 7        74.713          47.750    20629645.460    85771219.749 8        58.110          49.187    20629645.400    85771217.747 8        58.110          48.812
G14  22422067.820   117828816.840 7      1325.415          44.250    22422066.400   117828816.850 5      1325.415          33.937    22422075.220    91814629.907 5      1032.791          34.062    22422076.540    91814693.915 8      1032.791          48.187
R21  21586653.540   115514552.615 7      4964.190          46.000    21586652.720   115514552.622 7      4964.190          46.062    21586663.060    89844688.999 7      3861.036          47.375    21586663.080    89844688.997 7      3861.036          47.250
> 2024 05 06 16 43 19.0000000  0 10
G02  22136009.200   116325441.892 7      1833.513          47.562    22136007.100   116325441.897 6      1833.513          38.625    22136010.300    90643247.541 6      1428.711          38.625
G08  23610736.700   124075253.261 7      -654.179          42.437    23610735.660   124075253.258 6      -654.179          39.562    23610756.460    96682085.605 6      -509.750          39.312    23610757.020    96682088.605 7      -509.750          44.875
G21  23008201.900   120908797.866 7      1188.816          45.750    23008199.780   120908797.873 5      1188.816          33.437    23008205.500    94214753.926 5       926.350          33.687
R06  19931831.020   106360064.930 6      4957.816          38.000    19931829.980   106360064.939 6      4957.816          36.750
G17  22161695.840   116460509.047 7      5075.972          45.625    22161693.820   116460509.062 6      5075.972          37.687    22161699.180    90748450.410 6      3955.302          38.312    22161699.880    90748458.428 8      3955.302          48.062
G03  20250883.260   106419125.114 8      1585.093          50.062    20250882.640   106419125.119 8      1585.093          50.062    20250887.360    82923985.064 8      1235.138          50.312    20250888.020    82924013.059 8      1235.138          49.937
G04  22011143.480   115669351.583 7      5061.257          45.000    22011142.300   115669351.588 5      5061.257          35.500    22011153.180    90132002.568 5      3943.836          35.250    22011153.700    90132012.582 8      3943.836          49.562
R05  20629622.720   110277156.855 8        74.124          49.875    20629622.240   110277156.843 8        74.124          48.375    20629631.700    85771161.845 8        57.652          49.312    20629631.240    85771159.842 8        57.652          49.500
G14  22421815.800   117827491.610 7      1324.995          44.250    22421814.380   117827491.620 5      1324.995          34.062    22421822.960    91813597.255 5      1032.464          34.062    22421824.140    91813661.258 7      1032.464          47.875
R21  21585725.760   115509588.382 7      4964.281          46.000    21585725.280   115509588.389 7      4964.281          45.812    21585735.360    89840827.929 7      3861.107          47.875    21585735.100    89840827.921 7      3861.107          46.687
> 2024 05 06 16 43 20.0000000  0 10
G02  22135660.280   116323608.386 7      1833.804          47.562    22135658.080   116323608.389 6      1833.804          38.437    22135661.580    90641818.833 6      1428.939          38.187
G08  23610861.640   124075907.348 6      -653.971          41.687    23610860.140   124075907.342 6      -653.971          39.812    23610880.720    96682595.260 6      -509.588          39.562    23610882.340    96682598.270 7      -509.588          44.750
G21  23007975.700   120907608.864 7      1189.242          46.250    23007973.540   120907608.869 5      1189.242          33.250    23007979.200    94213827.429 5       926.682          33.375
R06  19930902.340   106355107.325 6      4957.357          38.062    19930900.400   106355107.350 6      4957.357          36.750
G17  22160729.980   116455433.027 7      5076.177          44.500    22160727.240   116455433.045 6      5076.177          37.562    22160732.840    90744495.078 6      3955.463          37.437    22160733.560    90744503.095 8      3955.463          48.125
G03  20250581.700   106417540.104 8      1585.015          49.187    20250580.980   106417540.106 8      1585.015          49.750    20250585.740    82922749.991 8      1235.076          50.437    20250586.280    82922777.987 8      1235.076          49.687
G04  22010180.400   115664290.401 7      5061.330          45.000    22010179.140   115664290.408 5      5061.330          35.312    22010189.980    90128058.804 5      3943.894          35.312    22010190.320    90128068.818 8      3943.894          49.687
R05  20629608.780   110277082.913 8        73.860          49.125    20629608.340   110277082.906 8        73.860          48.062    20629617.840    85771104.342 8        57.447          49.312    20629617.460    85771102.337 8        57.447          49.937
G14  22421563.600   117826166.673 7      1324.931          44.312    22421562.280   117826166.681 5      1324.931          33.375    22421570.760    91812564.833 5      1032.414          33.375    22421571.660    91812628.836 7      1032.414          47.812
R21  21584797.960   115504623.979 7      4964.725          45.937    21584797.620   115504623.975 7      4964.725          45.625    21584807.880    89836966.722 8      3861.453          48.125    21584807.400    89836966.716 7      3861.453          47.375
> 2024 05 06 16 43 21.0000000  0 10
G02  22135311.420   116321774.831 7      1833.287          47.937    22135309.220   116321774.833 6      1833.287          38.250    22135312.480    90640390.087 6      1428.535          38.187
G08  23610986.480   124076561.510 7      -654.497          42.625    23610984.580   124076561.510 6      -654.497          39.312    23611005.220    96683104.977 6      -509.998          39.375    23611006.860    96683107.981 7      -509.998          45.062
G21  23007749.680   120906419.778 7      1188.786          45.250    23007747.320   120906419.780 5      1188.786          33.250    23007753.020    94212900.865 5       926.327          33.375
R06  19929973.060   106350150.305 6      4956.267          38.062    19929972.180   106350150.319 6      4956.267          37.000
G17  22159764.440   116450357.099 7      5075.560          44.375    22159760.760   116450357.111 6      5075.560          37.062    22159766.880    90740539.815 6      3954.982          36.750    22159767.500    90740547.833 7      3954.982          47.312
G03  20250280.120   106415955.395 8      1584.242          49.125    20250279.440   106415955.400 8      1584.242          49.875    20250284.100    82921515.155 8      1234.474          50.312    20250285.060    82921543.152 8      1234.474          49.750
G04  22009217.080   115659229.410 7      5060.631          44.812    22009215.920   115659229.420 5      5060.631          35.562    22009226.720    90124115.185 5      3943.349          35.312    22009227.120    90124125.199 8      3943.349          49.562
R05  20629595.400   110277009.555 8        72.765          48.062    20629594.620   110277009.543 8        72.765          48.000    20629604.260    85771047.278 8        56.595          49.312    20629604.000    85771045.277 8        56.595          50.187
G14  22421311.480   117824842.078 7      1324.074          44.125    22421310.240   117824842.083 5      1324.074          33.375    22421318.760    91811532.675 5      1031.746          33.375    22421319.340    91811596.678 7      1031.746          47.875
R21  21583870.120   115499659.425 7      4964.311          46.750    21583869.780   115499659.435 7      4964.311          46.687    21583880.480    89833105.413 8      3861.131          48.375    21583879.800    89833105.409 7      3861.131          47.625
> 2024 05 06 16 43 22.0000000  0 10
G02  22134962.540   116319941.486 7      1833.287          47.562    22134960.420   116319941.493 6      1833.287          38.312    22134963.720    90638961.506 6      1428.536          38.187
G08  23611110.900   124077216.028 7      -654.664          42.125    23611109.140   124077216.033 6      -654.664          39.812    23611129.940    96683614.966 6      -510.128          38.937    23611131.300    96683617.968 7      -510.128          44.687
G21  23007523.340   120905230.853 7      1188.901          45.562    23007521.120   120905230.852 5      1188.901          33.312    23007526.780    94211974.427 5       926.416          33.375
R06  19929044.400   106345194.119 6      4955.959          38.062    19929043.620   106345194.123 6      4955.959          37.000
G17  22158798.640   116445281.528 7      5075.382          43.875    22158794.520   116445281.541 6      5075.382          36.750    22158800.740    90736584.827 6      3954.843          36.625    22158801.620    90736592.845 7      3954.843          47.437
G03  20249978.700   106414371.262 8      1583.919          49.000    20249977.920   106414371.264 8      1583.919          49.875    20249982.760    82920280.766 8      1234.223          50.687    20249983.780    82920308.766 8      1234.223          49.875
G04  22008254.100   115654168.890 7      5060.410          43.812    22008253.040   115654168.905 5      5060.410          35.562    22008263.880    90120171.935 5      3943.177          35.375    22008264.040    90120181.947 8      3943.177          49.187
R05  20629581.640   110276937.021 7        72.173          47.812    20629580.740   110276937.012 7        72.173          47.625    20629590.920    85770990.867 8        56.134          49.312    20629590.280    85770988.862 8        56.134          49.562
G14  22421059.540   117823518.101 7      1323.665          44.500    22421058.160   117823518.106 5      1323.665          33.687    22421066.860    91810500.997 5      1031.427          33.437    22421066.840    91810564.999 7      1031.427          47.500
R21  21582942.340   115494695.035 7      4964.371          45.875    21582942.260   115494695.041 7      4964.371          46.000    21582952.720    89829244.222 7      3861.178          47.875    21582952.420    89829244.219 7      3861.178          47.875
> 2024 05 06 16 43 23.0000000  0 10
G02  22134613.640   116318108.198 7      1833.225          47.500    22134611.440   116318108.208 6      1833.225          38.625    22134614.940    90637532.975 6      1428.487          38.312
G08  23611235.400   124077870.705 7      -654.746          42.562    23611233.660   124077870.707 6      -654.746          39.312    23611254.500    96684125.082 6      -510.192          39.375    23611255.680    96684128.077 7      -510.192          44.437
G21  23007297.220   120904041.927 7      1189.001          45.000    23007294.920   120904041.927 5      1189.001          33.312    23007300.580    94211047.986 5       926.494          33.375
R06  19928115.400   106340238.670 6      4955.034          38.062    19928115.240   106340238.666 6      4955.034          37.000
G17  22157832.840   116440206.123 7      5075.342          43.937    22157828.700   116440206.133 6      5075.342          36.375    22157834.440    90732629.974 6      3954.812          36.500    22157835.420    90732637.988 7      3954.812          46.812
G03  20249677.340   106412787.531 8      1583.553          49.562    20249676.580   106412787.536 8      1583.553          49.375    20249681.320    82919046.692 8      1233.938          49.187    20249682.480    82919074.692 8      1233.938          49.500
G04  22007291.060   115649108.674 7      5060.125          45.000    22007290.080   115649108.684 5      5060.125          35.312    22007300.740    90116228.916 5      3942.955          35.062    22007300.940    90116238.926 8      3942.955          48.750
R05  20629568.360   110276865.131 8        71.571          48.062    20629567.180   110276865.130 7        71.571          47.750    20629577.520    85770934.955 8        55.667          48.875    20629577.080    85770932.951 8        55.667          49.625
G14  22420807.560   117822194.557 7      1323.292          44.750    22420806.440   117822194.560 5      1323.292          33.687    22420814.880    91809469.660 5      1031.137          33.437    22420815.220    91809533.660 7      1031.137          47.375
R21  21582015.000   115489730.623 7      4964.502          47.375    21582014.960   115489730.632 7      4964.502          46.187    21582025.300    89825383.013 7      3861.279          47.437    21582024.680    89825383.014 7      3861.279          47.562
> 2024 05 06 16 43 24.0000000  0 10
G02  22134264.920   116316275.063 7      1833.299          47.875    22134262.520   116316275.076 6      1833.299          38.750    22134266.160    90636104.556 6      1428.545          38.500
G08  23611360.240   124078525.648 7      -654.748          43.500    23611358.320   124078525.650 6      -654.748          39.562    23611379.180    96684635.402 6      -510.193          39.687    23611380.280    96684638.400 7      -510.193          44.625
G21  23007070.980   120902853.125 7      1188.984          44.875    23007068.940   120902853.127 5      1188.984          33.000    23007074.480    94210121.648 5       926.481          33.187
R06  19927187.280   106335283.969 6      4954.528          38.812    19927186.380   106335283.956 6      4954.528          37.000
G17  22156867.060   116435131.028 7      5075.244          44.625    22156862.960   116435131.030 6      5075.244          36.125    22156868.660    90728675.356 5      3954.736          35.750    22156869.420    90728683.362 7      3954.736          46.937
G03  20249376.040   106411204.326 8      1583.146          50.250    20249375.300   106411204.328 8      1583.146          50.625    20249380.120    82917813.025 8      1233.621          50.437    20249381.180    82917841.028 8      1233.621          50.375
G04  22006328.300   115644048.871 7      5059.776          45.062    22006327.320   115644048.879 5      5059.776          35.125    22006337.860    90112286.224 5      3942.682          35.062    22006338.120    90112296.230 8      3942.682          49.500
R05  20629554.900   110276793.987 8        70.934          48.187    20629554.040   110276793.980 8        70.934          48.125    20629564.260    85770879.620 8        55.171          49.687    20629563.960    85770877.615 8        55.171          49.687
G14  22420556.060   117820871.547 7      1323.007          44.562    22420554.580   117820871.555 5      1323.007          33.812    22420562.940    91808438.738 5      1030.915          33.750    22420563.560    91808502.733 7      1030.915          47.250
R21  21581087.220   115484766.243 7      4964.594          46.312    21581087.280   115484766.253 7      4964.594          46.562    21581097.940    89821521.827 7      3861.351          47.937    21581096.960    89821521.829 7      3861.351          47.562
> 2024 05 06 16 43 25.0000000  0 10
G02  22133915.900   116314441.952 7      1832.863          47.437    22133913.880   116314441.965 6      1832.863          38.437    22133917.400    90634676.155 6      1428.205          38.250
G08  23611485.080   124079180.757 7      -655.334          42.812    23611483.040   124079180.764 6      -655.334          39.875    23611503.840    96685145.852 6      -510.650          39.625    23611504.940    96685148.843 7      -510.650          44.562
G21  23006844.580   120901664.279 7      1188.646          45.062    23006842.540   120901664.283 5      1188.646          33.000    23006848.280    94209195.274 5       926.218          33.187
R06  19926259.040   106330329.939 6      4953.490          38.812    19926256.960   106330329.910 6      4953.490          37.000
G17  22155901.280   116430056.072 7      5074.774          45.500    22155897.620   116430056.074 6      5074.774          36.125    22155902.600    90724720.845 6      3954.370          36.000    22155903.820    90724728.849 7      3954.370          46.812
G03  20249074.980   106409621.469 8      1582.551          49.875    20249074.080   106409621.472 8      1582.551          50.437    20249078.900    82916579.631 8      1233.156          50.625    20249080.360    82916607.635 8      1233.156          51.250
G04  22005365.660   115638989.294 7      5059.272          44.750    22005364.360   115638989.304 5      5059.272          35.375    22005375.020    90108343.703 5      3942.290          35.312    22005375.100    90108353.711 8      3942.290          49.437
R05  20629541.640   110276723.391 7        70.178          47.812    20629540.700   110276723.389 8        70.178          48.062    20629551.160    85770824.708 8        54.583          49.500    20629550.780    85770822.705 8        54.583          50.125
G14  22420304.420   117819548.955 7      1322.268          44.312    22420302.800   117819548.959 5      1322.268          33.312    22420311.200    91807408.141 5      1030.339          33.750    22420311.920    91807472.135 7      1030.339          47.250
R21  21580159.420   115479801.751 7      4964.330          47.812    21580159.780   115479801.761 7      4964.330          46.625    21580170.220    89817660.557 8      3861.146          48.562    21580169.260    89817660.558 7      3861.146          47.875
> 2024 05 06 16 43 26.0000000  0 10
G02  22133567.220   116312608.893 7      1833.034          46.750    22133564.980   116312608.898 6      1833.034          38.500    22133568.640    90633247.791 6      1428.338          38.437
G08  23611609.440   124079836.060 6      -655.453          41.937    23611607.860   124079836.059 6      -655.453          40.187    23611628.520    96685656.449 6      -510.743          39.937    23611629.500    96685659.436 7      -510.743          44.687
G21  23006618.420   120900475.477 7      1188.708          44.625    23006616.340   120900475.481 5      1188.708          33.500    23006622.120    94208268.933 5       926.266          33.437
R06  19925330.140   106325376.568 6      4953.081          38.812    19925329.020   106325376.558 6      4953.081          37.062
G17  22154935.520   116424981.326 7      5074.651          44.312    22154932.320   116424981.326 6      5074.651          36.250    22154936.920    90720766.502 6      3954.274          36.562    22154938.160    90720774.501 7      3954.274          46.500
G03  20248773.760   106408039.060 8      1582.169          50.187    20248772.940   106408039.062 8      1582.169          50.187    20248777.780    82915346.586 8      1232.859          50.562    20248779.460    82915374.595 8      1232.859          51.250
G04  22004402.940   115633930.056 7      5059.052          45.437    22004401.580   115633930.066 5      5059.052          35.375    22004412.160    90104401.452 5      3942.119          35.312    22004412.040    90104411.458 8      3942.119          49.062
R05  20629528.360   110276653.492 8        69.531          48.125    20629527.860   110276653.488 8        69.531          48.187    20629538.100    85770770.344 8        54.079          49.062    20629537.640    85770768.339 8        54.079          50.125
G14  22420052.820   117818226.830 7      1321.886          44.312    22420051.340   117818226.837 5      1321.886          33.312    22420059.580    91806377.909 5      1030.041          33.187    22420060.260    91806441.906 7      1030.041          47.125
R21  21579231.480   115474837.254 7      4964.517          46.125    21579231.940   115474837.266 7      4964.517          46.500    21579242.600    89813799.288 8      3861.291          48.375    21579241.400    89813799.280 8      3861.291          48.000
> 2024 05 06 16 43 27.0000000  0 10
G02  22133218.340   116310775.976 7      1832.926          46.812    22133216.040   116310775.986 6      1832.926          38.437    22133219.880    90631819.546 6      1428.254          38.312
G08  23611734.200   124080491.604 7      -655.645          43.062    23611732.660   124080491.604 6      -655.645          39.812    23611753.120    96686167.238 6      -510.892          39.625    23611754.340    96686170.228 7      -510.892          44.812
G21  23006392.260   120899286.743 7      1188.729          44.000    23006390.080   120899286.745 5      1188.729          33.500    23006395.800    94207342.643 5       926.283          33.437
R06  19924402.300   106320424.025 6      4952.266          38.812    19924400.820   106320424.015 6      4952.266          37.062
G17  22153969.880   116419906.854 7      5074.410          45.750    22153967.140   116419906.848 6      5074.410          36.375    22153971.160    90716812.366 6      3954.086          36.562    22153972.620    90716820.363 7      3954.086          46.812
G03  20248472.660   106406457.124 8      1581.694          49.125    20248471.900   106406457.128 8      1581.694          49.875    20248476.780    82914113.913 8      1232.489          50.687    20248478.480    82914141.923 8      1232.489          51.437
G04  22003440.260   115628871.191 7      5058.694          45.187    22003439.160   115628871.204 5      5058.694          35.687    22003449.400    90100459.489 5      3941.839          35.312    22003449.380    90100469.495 8      3941.839          49.187
R05  20629515.500   110276584.318 8        68.857          48.000    20629514.880   110276584.308 7        68.857          47.875    20629525.140    85770716.536 8        53.556          49.437    20629524.800    85770714.535 8        53.556          50.125
G14  22419801.240   117816905.225 7      1321.390          44.187    22419799.780   117816905.238 5      1321.390          33.312    22419808.080    91805348.082 5      1029.655          33.062    22419808.800    91805412.080 7      1029.655          46.937
R21  21578303.520   115469872.831 7      4964.453          46.687    21578304.260   115469872.846 7      4964.453          46.937    21578314.780    89809938.073 8      3861.241          48.187    21578313.620    89809938.062 7      3861.241          47.625
> 2024 05 06 16 43 28.0000000  0 10
G02  22132869.480   116308943.130 8      1832.770          48.062    22132867.200   116308943.140 6      1832.770          38.187    22132871.240    90630391.355 6      1428.132          38.125
G08  23611859.100   124081147.312 7      -655.870          42.312    23611857.700   124081147.319 6      -655.870          39.562    23611878.060    96686678.161 6      -511.067          39.187    23611879.100    96686681.163 7      -511.067          44.437
G21  23006165.820   120898098.049 7      1188.544          44.625    23006163.960   120898098.053 5      1188.544          33.187    23006169.520    94206416.386 5       926.139          33.250
R06  19923473.920   106315472.173 6      4951.505          38.687    19923473.040   106315472.179 6      4951.505          37.062
G17  22153004.320   116414832.594 7      5074.018          46.687    22153002.200   116414832.586 6      5074.018          36.937    22153005.620    90712858.397 6      3953.781          36.625    22153007.140    90712866.390 7      3953.781          46.687
G03  20248171.700   106404875.613 8      1581.247          49.562    20248170.940   106404875.612 8      1581.247          50.187    20248175.820    82912881.564 8      1232.140          50.687    20248177.360    82912909.579 8      1232.140          51.312
G04  22002477.420   115623812.631 7      5058.387          45.750    22002476.480   115623812.644 5      5058.387          35.312    22002486.800    90096517.766 5      3941.600          35.312    22002486.800    90096527.766 8      3941.600          48.937
R05  20629502.940   110276515.801 8        68.087          48.437    20629501.960   110276515.802 8        68.087          48.625    20629512.260    85770663.251 8        52.957          49.437    20629512.200    85770661.250 8        52.957          50.500
G14  22419549.680   117815584.083 7      1320.771          44.375    22419548.320   117815584.096 5      1320.771          33.312    22419556.700    91804318.616 5      1029.172          33.062    22419557.040    91804382.625 7      1029.172          46.625
R21  21577375.840   115464908.377 7      4964.414          47.250    21577376.300   115464908.389 7      4964.414          47.312    21577386.940    89806076.832 8      3861.211          48.375    21577386.100    89806076.816 7      3861.211          47.937
> 2024 05 06 16 43 29.0000000  0 10
G02  22132520.580   116307110.457 8      1832.814          48.437    22132518.420   116307110.468 6      1832.814          38.437    22132522.460    90628963.294 6      1428.167          38.125
G08  23611984.080   124081803.327 7      -655.850          42.625    23611982.700   124081803.340 6      -655.850          40.125    23612002.820    96687189.319 6      -511.052          39.375    23612003.860    96687192.315 7      -511.052          44.687
G21  23005939.620   120896909.462 7      1188.697          45.500    23005937.900   120896909.467 5      1188.697          33.187    23005943.340    94205490.210 5       926.257          33.250
R06  19922545.880   106310521.182 6      4950.859          38.687    19922544.840   106310521.183 6      4950.859          37.062
G17  22152038.840   116409758.626 7      5073.966          46.312    22152037.200   116409758.612 6      5073.966          37.937    22152040.140    90708904.652 6      3953.739          38.125    22152041.860    90708912.647 7      3953.739          47.062
G03  20247870.960   106403294.620 8      1580.961          49.875    20247869.980   106403294.627 8      1580.961          51.062    20247875.020    82911649.626 8      1231.917          50.875    20247876.700    82911677.647 8      1231.917          51.187
G04  22001515.080   115618754.499 7      5058.224          44.312    22001513.780   115618754.509 5      5058.224          35.625    22001524.240    90092576.371 5      3941.473          35.125    22001524.400    90092586.373 8      3941.473          48.812
R05  20629490.360   110276448.064 8        67.574          49.687    20629489.560   110276448.063 8        67.574          49.500    20629499.520    85770610.563 8        52.558          49.562    20629499.460    85770608.566 8        52.558          50.187
G14  22419298.520   117814263.487 7      1320.500          44.250    22419296.920   117814263.500 5      1320.500          33.375    22419305.200    91803289.580 5      1028.961          33.375    22419305.800    91803353.583 7      1028.961          46.812
R21  21576448.240   115459943.997 7      4964.576          47.500    21576448.480   115459944.017 7      4964.576          47.687    21576459.160    89802215.658 8      3861.337          48.562    21576458.760    89802215.640 8      3861.337          48.500
> 2024 05 06 16 43 30.0000000  0 10
G02  22132171.900   116305277.822 8      1832.784          48.187    22132169.600   116305277.829 6      1832.784          38.812    22132173.920    90627535.264 6      1428.143          38.812
G08  23612108.820   124082459.528 7      -656.083          43.062    23612107.600   124082459.538 6      -656.083          39.500    23612127.660    96687700.620 6      -511.233          39.375    23612129.140    96687703.610 7      -511.233          44.437
G21  23005713.340   120895720.873 7      1188.631          45.812    23005711.940   120895720.880 5      1188.631          33.312    23005717.180    94204564.033 5       926.206          33.437
R06  19921617.820   106305570.845 6      4950.005          38.687    19921618.180   106305570.862 6      4950.005          37.375
G17  22151073.260   116404684.826 7      5073.865          47.375    22151072.100   116404684.813 6      5073.865          37.625    22151074.760    90704951.041 6      3953.661          38.000    22151076.380    90704959.035 7      3953.661          47.500
G03  20247569.960   106401714.039 8      1580.499          50.312    20247569.220   106401714.044 8      1580.499          51.000    20247574.300    82910418.005 8      1231.558          50.687    20247575.680    82910446.028 8      1231.558          50.875
G04  22000552.500   115613696.667 7      5057.788          46.062    22000551.380   115613696.672 5      5057.788          35.875    22000561.540    90088635.213 6      3941.134          36.062    22000561.720    90088645.219 8      3941.134          49.125
R05  20629477.760   110276380.969 8        66.880          48.500    20629477.120   110276380.973 8        66.880          49.437    20629486.940    85770558.382 8        52.018          49.500    20629486.760    85770556.387 8        52.018          49.750
G14  22419047.120   117812943.322 7      1320.063          44.437    22419045.840   117812943.335 5      1320.063          33.375    22419053.800    91802260.883 5      1028.620          33.375    22419054.180    91802324.893 7      1028.620          46.250
R21  21575520.400   115454979.596 8      4964.457          48.125    21575520.420   115454979.624 7      4964.457          47.875    21575531.380    89798354.466 8      3861.245          48.437    21575531.020    89798354.458 8      3861.245          48.312
> 2024 05 06 16 43 31.0000000  0 10
G02  22131823.140   116303445.186 7      1832.601          47.000    22131820.740   116303445.193 6      1832.601          38.625    22131825.180    90626107.240 6      1428.001          38.250
G08  23612233.720   124083115.843 6      -656.368          41.750    23612232.560   124083115.842 6      -656.368          39.812    23612252.560    96688211.999 6      -511.455          39.687    23612254.160    96688214.991 7      -511.455          44.625
G21  23005487.380   120894532.223 7      1188.663          45.625    23005485.580   120894532.236 5      1188.663          33.312    23005491.120    94203637.812 5       926.231          33.437
R06  19920689.940   106300621.130 6      4949.285          38.687    19920690.280   106300621.141 6      4949.285          37.375
G17  22150107.920   116399611.187 7      5073.552          47.437    22150107.180   116399611.170 6      5073.552          38.187    22150109.400    90700997.556 6      3953.417          38.187    22150111.060    90701005.551 7      3953.417          47.250
G03  20247269.420   106400133.810 8      1579.922          49.375    20247268.480   106400133.813 8      1579.922          50.562    20247273.660    82909186.660 8      1231.108          51.062    20247274.660    82909214.683 8      1231.108          50.500
G04  21999589.880   115608639.060 7      5057.423          44.687    21999588.960   115608639.068 5      5057.423          35.875    21999599.400    90084694.233 5      3940.849          35.687    21999599.500    90084704.237 8      3940.849          49.750
R05  20629465.540   110276314.486 8        66.103          48.437    20629464.700   110276314.493 8        66.103          48.437    20629474.360    85770506.676 8        51.414          49.500    20629474.240    85770504.678 8        51.414          49.875
G14  22418796.120   117811623.557 7      1319.492          44.250    22418794.800   117811623.567 5      1319.492          33.312    22418802.700    91801232.490 5      1028.176          33.312    22418802.660    91801296.501 7      1028.176          46.062
R21  21574592.700   115450015.117 7      4964.491          46.875    21574592.800   115450015.135 7      4964.491          47.375    21574603.500    89794493.201 8      3861.270          48.125    21574603.240    89794493.197 7      3861.270          47.875
> 2024 05 06 16 43 32.0000000  0 10
G02  22131474.380   116301612.668 7      1832.542          47.125    22131472.040   116301612.673 6      1832.542          38.250    22131476.480    90624679.300 6      1427.955          38.250
G08  23612358.840   124083772.383 7      -656.599          43.000    23612357.520   124083772.386 6      -656.599          39.625    23612377.660    96688723.571 6      -511.635          39.750    23612379.000    96688726.562 7      -511.635          44.750
G21  23005261.120   120893343.668 7      1188.559          44.687    23005259.340   120893343.676 5      1188.559          33.562    23005264.700    94202711.665 5       926.150          33.312
R06  19919762.360   106295672.196 6      4948.490          38.750    19919763.480   106295672.197 6      4948.490          37.375
G17  22149142.460   116394537.802 7      5073.301          47.500    22149142.080   116394537.786 6      5073.301          38.937    22149144.040    90697044.269 6      3953.221          38.750    22149145.760    90697052.263 7      3953.221          47.312
G03  20246968.740   106398554.028 8      1579.603          49.125    20246967.880   106398554.039 8      1579.603          50.437    20246973.020    82907955.667 8      1230.860          50.500    20246973.820    82907983.686 8      1230.860          50.125
G04  21998627.680   115603581.811 7      5057.173          45.250    21998626.660   115603581.821 6      5057.173          36.000    21998637.100    90080753.530 5      3940.654          35.687    21998637.120    90080763.540 8      3940.654          49.437
R05  20629453.080   110276248.731 8        65.424          48.750    20629452.640   110276248.737 8        65.424          48.187    20629461.940    85770455.534 8        50.885          49.625    20629461.640    85770453.537 8        50.885          49.375
G14  22418545.060   117810304.293 7      1319.035          44.375    22418543.960   117810304.304 5      1319.035          33.312    22418551.600    91800204.490 5      1027.820          33.312    22418551.680    91800268.499 7      1027.820          45.937
R21  21573665.040   115445050.663 7      4964.545          46.000    21573664.980   115445050.678 7      4964.545          46.375    21573675.720    89790631.954 7      3861.313          47.750    21573675.320    89790631.952 7      3861.313          47.375
> 2024 05 06 16 43 33.0000000  0 10
G02  22131125.880   116299780.156 7      1832.337          47.875    22131123.100   116299780.163 6      1832.337          37.812    22131127.720    90623251.371 6      1427.795          37.937
G08  23612483.940   124084429.055 7      -656.943          43.375    23612482.640   124084429.065 6      -656.943          39.375    23612502.540    96689235.245 6      -511.904          39.187    23612503.840    96689238.234 7      -511.904          44.437
G21  23005034.920   120892155.058 7      1188.540          44.562    23005033.220   120892155.071 5      1188.540          33.187    23005038.840    94201785.476 5       926.135          33.312
R06  19918835.180   106290723.876 6      4947.759          38.750    19918835.740   106290723.872 6      4947.759          37.375
G17  22148177.020   116389464.543 7      5073.052          47.625    22148176.880   116389464.538 6      5073.052          38.375    22148178.900    90693091.081 6      3953.027          38.437    22148180.480    90693099.076 7      3953.027          47.125
G03  20246668.120   106396974.622 8      1579.068          49.062    20246667.320   106396974.632 8      1579.068          49.687    20246672.560    82906724.961 8      1230.442          50.375    20246673.000    82906752.980 8      1230.442          49.687
G04  21997665.380   115598524.828 7      5056.720          45.500    21997664.340   115598524.840 5      5056.720          35.562    21997674.700    90076813.033 5      3940.301          35.562    21997674.720    90076823.039 8      3940.301          48.937
R05  20629441.260   110276183.565 7        64.788          47.750    20629440.500   110276183.569 8        64.788          48.187    20629449.680    85770404.844 8        50.391          49.062    20629449.460    85770402.847 8        50.391          48.500
G14  22418294.280   117808985.408 7      1318.546          44.750    22418293.160   117808985.416 5      1318.546          33.000    22418300.480    91799176.784 5      1027.438          32.875    22418300.780    91799240.796 7      1027.438          46.375
R21  21572737.260   115440086.064 7      4964.545          46.375    21572736.960   115440086.087 7      4964.545          46.000    21572747.780    89786770.614 7      3861.313          47.312    21572747.460    89786770.612 7      3861.313          47.000
> 2024 05 06 16 43 34.0000000  0 10
G02  22130776.940   116297947.630 7      1832.450          46.750    22130774.320   116297947.641 6      1832.450          38.187    22130778.880    90621823.429 6      1427.883          38.062
G08  23612609.240   124085085.843 7      -656.942          43.437    23612607.660   124085085.845 6      -656.942          39.687    23612627.600    96689746.990 6      -511.903          39.375    23612629.300    96689749.984 7      -511.903          44.687
G21  23004808.860   120890966.403 7      1188.689          45.062    23004807.000   120890966.411 5      1188.689          33.187    23004812.460    94200859.247 5       926.251          33.437
R06  19917908.600   106285776.189 6      4947.319          38.750    19917907.900   106285776.182 6      4947.319          37.375
G17  22147211.400   116384391.443 8      5072.883          48.125    22147211.680   116384391.434 6      5072.883          39.312    22147213.740    90689138.011 6      3952.896          39.750    22147215.160    90689146.002 7      3952.896          47.625
G03  20246367.460   106395395.558 8      1578.896          49.187    20246366.800   106395395.568 8      1578.896          50.312    20246372.100    82905494.519 8      1230.309          50.000    20246372.500    82905522.532 8      1230.309          50.375
G04  21996703.200   115593468.088 7      5056.523          45.000    21996702.100   115593468.101 5      5056.523          35.625    21996712.400    90072872.727 5      3940.148          35.250    21996712.400    90072882.731 8      3940.148          49.500
R05  20629429.140   110276118.991 8        64.255          49.125    20629428.740   110276118.992 8        64.255          48.437    20629437.620    85770354.617 8        49.976          49.625    20629437.300    85770352.618 8        49.976          49.000
G14  22418043.200   117807666.925 7      1318.166          44.687    22418042.340   117807666.938 5      1318.166          33.125    22418049.700    91798149.392 5      1027.142          32.875    22418050.120    91798213.415 7      1027.142          46.812
R21  21571809.300   115435121.390 7      4964.691          46.125    21571809.480   115435121.418 7      4964.691          46.187    21571820.040    89782909.203 8      3861.426          48.062    21571819.440    89782909.201 7      3861.426          47.375
> 2024 05 06 16 43 35.0000000  0 10
G02  22130428.360   116296115.142 7      1832.244          46.562    22130425.620   116296115.152 6      1832.244          38.187    22130430.300    90620395.514 6      1427.723          38.312
G08  23612734.100   124085742.783 7      -657.322          42.375    23612732.660   124085742.785 6      -657.322          39.750    23612752.520    96690258.871 6      -512.199          39.312    23612753.800    96690261.869 7      -512.199          44.625
G21  23004582.740   120889777.738 7      1188.460          45.187    23004580.820   120889777.745 5      1188.460          33.187    23004586.320    94199933.010 5       926.073          33.437
R06  19916981.660   106280829.198 6      4946.289          38.750    19916981.380   106280829.188 6      4946.289          37.062
G17  22146245.960   116379318.470 8      5072.620          48.125    22146246.560   116379318.462 6      5072.620          40.000    22146248.760    90685185.044 6      3952.691          40.000    22146250.220    90685193.039 8      3952.691          48.000
G03  20246067.200   106393816.890 8      1578.227          48.500    20246066.400   106393816.900 8      1578.227          50.000    20246071.760    82904264.390 8      1229.787          50.312    20246072.000    82904292.401 8      1229.787          50.375
G04  21995741.140   115588411.609 7      5056.176          45.500    21995739.960   115588411.611 5      5056.176          35.625    21995750.380    90068932.620 5      3939.877          35.250    21995750.460    90068942.624 8      3939.877          49.437
R05  20629417.220   110276055.012 8        63.498          48.250    20629416.900   110276055.011 8        63.498          48.687    20629425.560    85770304.858 8        49.388          49.750    20629425.320    85770302.855 8        49.388          49.250
G14  22417792.600   117806348.857 7      1317.565          45.500    22417791.640   117806348.867 5      1317.565          33.125    22417799.140    91797122.318 5      1026.674          32.875    22417799.580    91797186.333 7      1026.674          46.750
R21  21570881.340   115430156.692 7      4964.487          47.187    21570882.040   115430156.707 7      4964.487          46.500    21570892.220    89779047.767 7      3861.268          47.812    21570891.740    89779047.759 7      3861.268          47.687
> 2024 05 06 16 43 36.0000000  0 10
G02  22130079.800   116294282.955 7      1832.185          46.375    22130076.880   116294282.968 6      1832.185          37.812    22130081.580    90618967.836 6      1427.677          38.062
G08  23612859.180   124086400.114 7      -657.325          43.062    23612857.740   124086400.114 6      -657.325          39.187    23612877.480    96690771.051 6      -512.201          39.000    23612878.920    96690774.046 7      -512.201          44.437
G21  23004356.680   120888589.327 7      1188.403          45.000    23004354.520   120888589.335 5      1188.403          33.187    23004360.160    94199006.976 5       926.028          33.250
R06  19916054.880   106275883.124 6      4945.725          38.250    19916053.820   106275883.114 6      4945.725          37.062
G17  22145280.820   116374245.953 8      5072.452          48.812    22145281.600   116374245.939 6      5072.452          40.375    22145283.620    90681232.431 6      3952.560          40.062    22145284.740    90681240.428 8      3952.560          48.125
G03  20245766.980   106392238.868 8      1577.869          49.500    20245766.060   106392238.876 8      1577.869          50.312    20245771.440    82903034.763 8      1229.508          50.562    20245771.700    82903062.770 8      1229.508          51.000
G04  21994778.960   115583355.700 7      5055.744          44.812    21994777.820   115583355.705 5      5055.744          35.375    21994788.100    90064992.961 5      3939.540          35.187    21994788.360    90065002.969 8      3939.540          49.312
R05  20629405.520   110275991.927 8        62.749          49.312    20629404.940   110275991.933 8        62.749          48.750    20629413.780    85770255.798 8        48.805          49.625    20629413.520    85770253.798 8        48.805          49.187
G14  22417541.860   117805031.472 7      1317.169          45.937    22417541.060   117805031.485 5      1317.169          33.375    22417548.540    91796095.782 5      1026.365          32.875    22417549.200    91796159.799 7      1026.365          47.312
R21  21569953.600   115425192.226 7      4964.509          47.000    21569954.100   115425192.233 7      4964.509          46.562    21569964.320    89775186.512 7      3861.285          47.875    21569963.980    89775186.506 8      3861.285          48.375
> 2024 05 06 16 43 37.0000000  0 10
G02  22129731.160   116292450.805 7      1832.341          46.062    22129728.020   116292450.818 6      1832.341          38.250    22129732.880    90617540.189 6      1427.798          38.250
G08  23612984.300   124087057.634 7      -657.303          43.187    23612982.940   124087057.626 6      -657.303          39.437    23613002.740    96691283.378 6      -512.184          39.312    23613004.160    96691286.367 7      -512.184          44.625
G21  23004130.420   120887400.885 7      1188.754          45.000    23004128.400   120887400.893 5      1188.754          32.937    23004134.060    94198080.915 5       926.302          33.250
R06  19915128.120   106270937.742 6      4945.202          38.250    19915127.060   106270937.738 6      4945.202          37.062
G17  22144315.640   116369173.593 8      5072.479          48.875    22144316.440   116369173.582 6      5072.479          41.000    22144318.680    90677279.944 6      3952.581          40.937    22144319.560    90677287.942 8      3952.581          48.750
G03  20245466.680   106390661.233 8      1577.697          49.625    20245465.840   106390661.235 8      1577.697          50.062    20245471.300    82901805.435 8      1229.374          50.437    20245471.720    82901833.437 8      1229.374          50.875
G04  21993816.720   115578300.048 7      5055.810          44.937    21993815.700   115578300.051 5      5055.810          35.687    21993826.140    90061053.500 5      3939.593          35.687    21993826.360    90061063.506 8      3939.593          49.625
R05  20629393.560   110275929.434 8        62.471          48.937    20629393.360   110275929.433 8        62.471          48.125    20629402.180    85770207.195 8        48.589          49.750    20629401.720    85770205.193 8        48.589          49.625
G14  22417291.280   117803714.513 7      1316.954          44.500    22417290.440   117803714.529 5      1316.954          33.375    22417298.120    91795069.576 5      1026.198          33.625    22417298.560    91795133.585 7      1026.198          47.125
R21  21569025.860   115420227.689 7      4964.743          47.250    21569026.700   115420227.698 7      4964.743          46.500    21569036.580    89771325.209 8      3861.467          48.062    21569036.540    89771325.207 8      3861.467          48.125
> 2024 05 06 16 43 38.0000000  0 10
G02  22129382.380   116290618.624 7      1831.996          46.250    22129379.240   116290618.634 6      1831.996          37.812    22129384.180    90616112.515 6      1427.529          37.875
G08  23613109.460   124087715.239 7      -657.913          42.125    23613108.180   124087715.233 6      -657.913          39.125    23613127.940    96691795.777 6      -512.659          39.062    23613129.020    96691798.776 7      -512.659          44.562
G21  23003904.120   120886212.393 7      1188.280          44.812    23003902.220   120886212.398 5      1188.280          32.937    23003907.860    94197154.816 5       925.933          33.250
R06  19914201.360   106265992.957 6      4944.311          38.250    19914200.540   106265992.956 6      4944.311          37.062
G17  22143350.440   116364101.338 8      5071.987          48.937    22143351.540   116364101.332 6      5071.987          41.062    22143353.800    90673327.540 6      3952.197          40.625    22143354.580    90673335.540 8      3952.197          48.437
G03  20245166.660   106389083.926 8      1576.948          49.187    20245165.680   106389083.929 8      1576.948          49.562    20245171.120    82900576.369 8      1228.791          50.312    20245171.640    82900604.369 8      1228.791          50.562
G04  21992854.720   115573244.623 7      5055.158          44.812    21992853.700   115573244.625 5      5055.158          35.250    21992864.160    90057114.220 5      3939.084          35.312    21992864.140    90057124.228 8      3939.084          49.125
R05  20629381.800   110275867.535 8        61.371          49.187    20629381.900   110275867.539 8        61.371          48.937    20629390.840    85770159.055 8        47.733          49.000    20629390.240    85770157.054 8        47.733          49.437
G14  22417040.700   117802397.922 7      1316.176          44.875    22417039.820   117802397.932 5      1316.176          33.812    22417047.820    91794043.657 5      1025.592          33.625    22417048.040    91794107.657 7      1025.592          47.250
R21  21568098.180   115415263.010 7      4964.566          47.062    21568098.660   115415263.022 7      4964.566          46.375    21568108.880    89767463.798 8      3861.329          48.250    21568108.840    89767463.800 7      3861.329          47.875
> 2024 05 06 16 43 39.0000000  0 10
G02  22129033.740   116288786.493 7      1832.067          45.750    22129030.480   116288786.503 6      1832.067          36.937    22129035.600    90614684.878 6      1427.585          37.250
G08  23613234.360   124088373.017 6      -657.931          41.875    23613233.360   124088373.011 6      -657.931          39.437    23613253.120    96692308.304 6      -512.673          39.000    23613254.260    96692311.302 7      -512.673          44.000
G21  23003677.860   120885023.896 7      1188.415          44.437    23003676.200   120885023.904 5      1188.415          33.187    23003681.660    94196228.714 5       926.038          33.125
R06  19913274.200   106261048.875 6      4943.850          38.250    19913274.200   106261048.870 6      4943.850          37.062
G17  22142385.220   116359029.265 8      5071.944          48.937    22142386.580   116359029.264 6      5071.944          40.625    22142388.900    90669375.279 6      3952.164          40.687    22142389.140    90669383.281 8      3952.164          49.062
G03  20244866.440   106387507.011 8      1576.675          49.375    20244865.620   106387507.021 8      1576.675          50.375    20244871.120    82899347.608 8      1228.578          50.312    20244871.740    82899375.608 8      1228.578          51.000
G04  21991892.880   115568189.499 7      5054.963          44.250    21991891.840   115568189.507 5      5054.963          35.687    21991902.300    90053175.173 5      3938.932          35.312    21991902.420    90053185.175 8      3938.932          49.750
R05  20629370.400   110275806.299 8        60.837          48.750    20629370.320   110275806.297 8        60.837          48.187    20629379.200    85770111.425 8        47.317          49.375    20629378.840    85770109.428 8        47.317          49.562
G14  22416790.180   117801081.759 7      1315.860          44.500    22416789.440   117801081.766 5      1315.860          33.812    22416797.740    91793018.069 5      1025.345          33.562    22416797.520    91793082.069 7      1025.345          47.687
R21  21567170.560   115410298.309 7      4964.755          45.875    21567170.880   115410298.324 7      4964.755          46.437    21567181.100    89763602.368 8      3861.476          48.375    21567180.900    89763602.371 7      3861.476          47.375
> 2024 05 06 16 43 40.0000000  0 10
G02  22128685.340   116286954.553 7      1831.961          45.375    22128681.920   116286954.564 6      1831.961          38.125    22128686.860    90613257.391 6      1427.502          37.812
G08  23613359.560   124089031.071 7      -658.007          43.500    23613358.820   124089031.065 6      -658.007          39.437    23613378.400    96692821.049 6      -512.733          39.625    23613379.240    96692824.055 7      -512.733          44.000
G21  23003451.640   120883835.522 7      1188.527          45.500    23003449.980   120883835.527 5      1188.527          33.187    23003455.560    94195302.702 5       926.125          33.125
R06  19912348.000   106256105.640 6      4943.024          38.500    19912348.600   106256105.644 6      4943.024          37.062
G17  22141420.020   116353957.514 8      5071.755          50.062    22141421.540   116353957.516 6      5071.755          41.375    22141423.940    90665423.270 6      3952.017          41.312    22141424.160    90665431.276 8      3952.017          48.687
G03  20244566.540   106385930.650 8      1576.207          50.062    20244565.620   106385930.655 8      1576.207          50.000    20244571.240    82898119.272 8      1228.213          50.375    20244572.040    82898147.269 8      1228.213          51.062
G04  21990930.860   115563134.802 7      5054.581          44.562    21990929.980   115563134.812 5      5054.581          35.687    21990940.280    90049236.460 5      3938.634          35.812    21990940.700    90049246.468 8      3938.634          49.562
R05  20629358.760   110275745.862 8        60.238          48.312    20629359.000   110275745.866 8        60.238          48.250    20629368.120    85770064.424 8        46.852          49.562    20629367.840    85770062.427 8        46.852          50.250
G14  22416539.960   117799766.176 7      1315.397          45.312    22416539.180   117799766.184 5      1315.397          33.562    22416547.740    91791992.934 5      1024.985          33.562    22416547.180    91792056.930 7      1024.985          47.812
R21  21566242.800   115405333.742 7      4964.696          45.312    21566242.940   115405333.746 7      4964.696          46.062    21566253.460    89759741.032 7      3861.430          47.937    21566253.280    89759741.037 7      3861.430          47.875
> 2024 05 06 16 43 41.0000000  0 10
G02  22128336.560   116285122.572 7      1832.077          45.937    22128333.200   116285122.579 6      1832.077          37.750    22128338.300    90611829.871 6      1427.592          37.625
G08  23613485.060   124089689.251 7      -658.150          43.375    23613483.960   124089689.243 6      -658.150          39.500    23613503.680    96693333.890 6      -512.844          39.312    23613504.320    96693336.894 7      -512.844          44.125
G21  23003225.660   120882647.093 7      1188.523          44.875    23003223.780   120882647.098 5      1188.523          33.062    23003229.460    94194376.654 5       926.122          32.937
R06  19911422.000   106251163.001 6      4942.566          38.500    19911420.920   106251162.977 6      4942.566          37.062
G17  22140454.960   116348885.879 8      5071.604          49.562    22140456.640   116348885.882 6      5071.604          41.250    22140458.960    90661471.347 6      3951.899          41.125    22140459.020    90661479.352 8      3951.899          49.000
G03  20244266.560   106384354.597 8      1575.939          49.687    20244265.740   106384354.602 8      1575.939          49.875    20244271.360    82896891.179 8      1228.004          50.062    20244272.200    82896919.173 8      1228.004          51.062
G04  21989969.000   115558080.322 7      5054.443          44.750    21989968.080   115558080.327 5      5054.443          35.687    21989978.420    90045297.914 5      3938.527          35.312    21989978.880    90045307.912 8      3938.527          49.562
R05  20629347.420   110275686.015 8        59.713          48.437    20629347.680   110275686.017 8        59.713          48.062    20629357.080    85770017.877 8        46.443          49.750    20629356.580    85770015.878 8        46.443          50.125
G14  22416289.560   117798450.936 7      1315.079          45.812    22416288.880   117798450.951 5      1315.079          34.062    22416297.660    91790968.071 5      1024.737          33.812    22416297.320    91791032.063 7      1024.737          47.812
R21  21565314.800   115400369.036 7      4964.886          46.000    21565315.080   115400369.040 7      4964.886          46.000    21565325.600    89755879.596 7      3861.578          47.937    21565325.420    89755879.601 7      3861.578          47.312
> 2024 05 06 16 43 42.0000000  0 10
G02  22127988.020   116283290.585 7      1831.865          45.625    22127984.620   116283290.593 6      1831.865          37.750    22127989.860    90610402.348 6      1427.427          37.625
G08  23613610.340   124090347.507 7      -658.370          44.187    23613609.260   124090347.504 6      -658.370          39.375    23613629.000    96693846.794 6      -513.015          38.937    23613629.740    96693849.796 7      -513.015          44.125
G21  23002999.520   120881458.607 7      1188.365          45.562    23002997.640   120881458.614 5      1188.365          33.062    23003003.380    94193450.558 5       925.999          32.937
R06  19910495.580   106246221.012 6      4941.595          38.500    19910494.440   106246220.978 6      4941.595          37.062
G17  22139489.960   116343814.355 8      5071.357          49.937    22139491.460   116343814.363 6      5071.357          41.062    22139494.120    90657519.510 6      3951.707          41.437    22139493.880    90657527.513 8      3951.707          49.250
G03  20243966.900   106382778.890 8      1575.421          49.250    20243965.840   106382778.900 8      1575.421          50.375    20243971.560    82895663.357 8      1227.601          50.812    20243972.320    82895691.354 8      1227.601          50.562
G04  21989007.260   115553026.079 7      5053.999          44.062    21989006.220   115553026.086 5      5053.999          35.375    21989016.780    90041359.553 5      3938.181          35.312    21989017.100    90041369.557 8      3938.181          49.812
R05  20629336.320   110275626.738 8        58.908          49.062    20629336.480   110275626.742 8        58.908          48.375    20629346.160    85769971.775 8        45.817          50.125    20629345.700    85769969.774 8        45.817          50.125
G14  22416039.400   117797136.089 7      1314.595          44.562    22416038.620   117797136.102 5      1314.595          34.062    22416047.360    91789943.509 5      1024.360          33.812    22416047.300    91790007.495 7      1024.360          47.437
R21  21564386.960   115395404.199 7      4964.781          46.250    21564387.300   115395404.208 7      4964.781          46.000    21564397.760    89752018.060 7      3861.496          47.687    21564397.400    89752018.067 8      3861.496          48.062
> 2024 05 06 16 43 43.0000000  0 10
G02  22127639.440   116281458.745 7      1831.691          44.562    22127636.000   116281458.753 6      1831.691          37.750    22127641.080    90608974.941 6      1427.291          37.625
G08  23613735.680   124091006.039 7      -658.590          43.750    23613734.560   124091006.034 6      -658.590          39.375    23613754.420    96694359.914 6      -513.187          39.062    23613755.180    96694362.911 7      -513.187          44.062
G21  23002773.380   120880270.207 7      1188.324          43.625    23002771.520   120880270.212 5      1188.324          32.875    23002777.160    94192524.528 5       925.966          33.000
R06  19909569.560   106241279.728 6      4940.807          38.500    19909569.120   106241279.745 6      4940.807          37.062
G17  22138524.860   116338743.104 8      5071.119          48.937    22138526.360   116338743.114 6      5071.119          40.812    22138529.060    90653567.887 6      3951.522          40.937    22138528.740    90653575.899 8      3951.522          48.312
G03  20243667.020   106381203.685 8      1574.917          48.625    20243666.080   106381203.693 8      1574.917          49.187    20243671.820    82894435.927 8      1227.208          49.062    20243672.660    82894463.920 8      1227.208          49.937
G04  21988045.480   115547972.224 7      5053.621          44.187    21988044.500   115547972.235 5      5053.621          35.375    21988055.040    90037421.497 5      3937.886          35.312    21988055.800    90037431.497 8      3937.886          49.000
R05  20629325.460   110275568.183 8        58.160          49.125    20629325.540   110275568.182 8        58.160          48.000    20629335.240    85769926.226 8        45.235          49.125    20629334.880    85769924.222 8        45.235          49.375
G14  22415789.280   117795821.765 7      1314.066          43.562    22415788.500   117795821.775 5      1314.066          33.375    22415797.240    91788919.350 5      1023.947          33.562    22415797.100    91788983.340 7      1023.947          46.875
R21  21563459.380   115390439.407 7      4964.696          45.062    21563459.680   115390439.414 7      4964.696          45.937    21563469.720    89748156.549 7      3861.430          47.250    21563469.400    89748156.558 7      3861.430          46.687
> 2024 05 06 16 43 44.0000000  0 10
G02  22127291.020   116279627.000 7      1831.619          45.750    22127287.400   116279627.005 6      1831.619          37.250    22127292.500    90607547.603 6      1427.236          37.250
G08  23613860.680   124091664.821 7      -658.848          43.500    23613859.880   124091664.808 6      -658.848          39.500    23613879.980    96694873.220 6      -513.388          39.312    23613880.320    96694876.215 7      -513.388          43.875
G21  23002547.220   120879081.865 7      1188.362          45.312    23002545.360   120879081.869 5      1188.362          32.875    23002551.000    94191598.545 5       925.997          33.000
R06  19908643.700   106236339.290 6      4940.020          37.750    19908642.180   106236339.269 6      4940.020          37.062
G17  22137559.900   116333672.097 8      5070.885          49.000    22137561.000   116333672.113 6      5070.885          40.687    22137564.040    90649616.458 6      3951.339          40.437    22137563.720    90649624.474 8      3951.339          48.750
G03  20243367.480   106379628.938 8      1574.580          49.125    20243366.500   106379628.943 8      1574.580          49.500    20243372.120    82893208.847 8      1226.945          50.000    20243372.820    82893236.842 8      1226.945          51.125
G04  21987083.640   115542918.722 7      5053.375          44.187    21987082.680   115542918.727 5      5053.375          35.375    21987093.360    90033483.713 5      3937.695          34.937    21987093.960    90033493.707 8      3937.695          49.750
R05  20629314.600   110275510.293 8        57.582          48.812    20629314.580   110275510.292 7        57.582          47.250    20629324.460    85769881.196 8        44.786          49.000    20629323.960    85769879.195 8        44.786          49.312
G14  22415539.160   117794507.935 7      1313.671          44.000    22415538.400   117794507.946 5      1313.671          33.875    22415547.180    91787895.580 5      1023.639          33.750    22415547.260    91787959.569 7      1023.639          47.375
R21  21562531.720   115385474.645 7      4964.786          45.437    21562532.300   115385474.654 7      4964.786          45.812    21562541.760    89744295.076 7      3861.500          47.000    21562541.600    89744295.087 7      3861.500          46.875
> 2024 05 06 16 43 45.0000000  0 10
G02  22126942.320   116277795.302 7      1831.637          45.312    22126938.780   116277795.307 6      1831.637          37.500    22126943.940    90606120.308 6      1427.249          37.250
G08  23613986.380   124092323.763 7      -659.152          43.000    23613985.260   124092323.752 6      -659.152          39.750    23614005.300    96695386.656 6      -513.625          39.500    23614005.620    96695389.652 7      -513.625          44.250
G21  23002321.100   120877893.535 7      1188.305          45.187    23002319.020   120877893.546 5      1188.305          32.937    23002324.920    94190672.574 5       925.952          33.062
R06  19907717.580   106231399.441 6      4939.556          37.750    19907717.060   106231399.445 6      4939.556          37.062
G17  22136594.840   116328601.280 7      5070.598          47.875    22136595.620   116328601.298 6      5070.598          40.375    22136598.980    90645665.177 6      3951.115          40.625    22136598.620    90645673.191 8      3951.115          48.312
G03  20243067.880   106378054.613 8      1574.014          49.812    20243067.000   106378054.618 8      1574.014          50.437    20243072.660    82891982.103 8      1226.505          50.750    20243073.180    82892010.097 8      1226.505          50.437
G04  21986122.020   115537865.541 7      5052.916          44.750    21986120.980   115537865.548 5      5052.916          35.250    21986131.700    90029546.177 5      3937.337          34.937    21986132.300    90029556.175 8      3937.337          50.062
R05  20629304.040   110275453.039 8        56.885          49.000    20629303.980   110275453.038 7        56.885          47.750    20629313.820    85769836.669 8        44.244          49.937    20629313.340    85769834.668 8        44.244          50.437
G14  22415289.340   117793194.550 7      1313.125          44.437    22415288.340   117793194.562 5      1313.125          33.875    22415297.240    91786872.163 5      1023.214          33.750    22415296.920    91786936.151 7      1023.214          47.750
R21  21561603.760   115380509.914 7      4964.683          46.375    21561604.620   115380509.927 7      4964.683          46.250    21561613.900    89740433.625 7      3861.420          47.687    21561613.760    89740433.636 7      3861.420          46.875
> 2024 05 06 16 43 46.0000000  0 10
G02  22126593.800   116275963.796 7      1831.338          46.250    22126590.220   116275963.804 6      1831.338          37.750    22126595.280    90604693.165 6      1427.016          37.500
G08  23614111.940   124092982.992 7      -659.456          43.062    23614110.660   124092982.981 6      -659.456          39.500    23614130.840    96695900.314 6      -513.862          39.375    23614130.880    96695903.308 7      -513.862          44.312
G21  23002095.160   120876705.340 7      1188.088          44.812    23002092.920   120876705.351 5      1188.088          32.937    23002098.880    94189746.710 5       925.782          33.062
R06  19906792.540   106226460.497 6      4938.247          37.750    19906791.680   106226460.511 6      4938.247          36.875
G17  22135630.080   116323530.762 7      5070.318          47.187    22135630.360   116323530.785 6      5070.318          40.250    22135633.700    90641714.129 6      3950.897          40.187    22135633.480    90641722.140 8      3950.897          48.125
G03  20242768.500   106376480.788 8      1573.509          50.000    20242767.480   106376480.798 8      1573.509          50.750    20242773.120    82890755.752 8      1226.111          50.937    20242773.500    82890783.752 8      1226.111          50.750
G04  21985160.660   115532812.758 7      5052.542          43.875    21985159.660   115532812.768 5      5052.542          35.937    21985170.160    90025608.955 5      3937.046          35.437    21985170.840    90025618.954 8      3937.046          50.375
R05  20629293.360   110275396.582 8        56.007          48.812    20629293.320   110275396.578 7        56.007          47.875    20629303.320    85769792.750 8        43.561          49.937    20629302.440    85769790.749 8        43.561          50.062
G14  22415039.520   117791881.721 7      1312.544          44.625    22415038.460   117791881.734 5      1312.544          33.875    22415047.320    91785849.175 5      1022.761          33.750    22415046.940    91785913.166 7      1022.761          47.375
R21  21560675.800   115375545.216 7      4964.594          46.437    21560677.240   115375545.239 7      4964.594          46.250    21560686.140    89736572.202 7      3861.351          47.937    21560685.760    89736572.213 7      3861.351          46.312
> 2024 05 06 16 43 47.0000000  0 10
G02  22126245.180   116274132.390 7      1831.236          45.937    22126241.680   116274132.398 6      1831.236          37.812    22126246.800    90603266.095 6      1426.937          37.562
G08  23614237.640   124093642.446 7      -659.685          43.562    23614235.960   124093642.438 6      -659.685          39.437    23614256.620    96696414.156 6      -514.040          39.187    23614256.800    96696417.150 7      -514.040          44.437
G21  23001869.240   120875517.201 7      1188.102          45.187    23001866.800   120875517.208 5      1188.102          32.500    23001872.680    94188820.885 5       925.794          32.500
R06  19905867.100   106221522.262 6      4937.655          37.750    19905865.820   106221522.279 6      4937.655          36.875
G17  22134665.100   116318460.509 7      5070.018          47.250    22134665.160   116318460.532 6      5070.018          40.250    22134668.760    90637763.286 6      3950.663          39.875    22134668.560    90637771.300 8      3950.663          48.750
G03  20242469.080   106374907.441 8      1573.058          49.812    20242468.160   106374907.448 8      1573.058          50.250    20242473.740    82889529.765 8      1225.759          50.812    20242474.200    82889557.763 8      1225.759          50.750
G04  21984199.120   115527760.354 7      5052.069          44.562    21984198.060   115527760.364 5      5052.069          35.187    21984208.840    90021672.027 5      3936.677          34.937    21984209.300    90021682.025 8      3936.677          49.937
R05  20629283.080   110275340.825 8        55.380          49.375    20629283.120   110275340.816 7        55.380          47.937    20629292.820    85769749.381 8        43.074          50.312    20629292.180    85769747.378 8        43.074          50.750
G14  22414789.880   117790569.389 7      1312.055          44.187    22414788.800   117790569.407 5      1312.055          33.875    22414797.360    91784826.579 5      1022.381          33.750    22414797.340    91784890.573 7      1022.381          47.062
R21  21559748.100   115370580.532 7      4964.611          47.250    21559749.580   115370580.552 7      4964.611          46.375    21559758.260    89732710.778 7      3861.364          47.375    21559757.900    89732710.779 7      3861.364          46.687
> 2024 05 06 16 43 48.0000000  0 10
G02  22125896.860   116272300.926 7      1831.447          45.937    22125893.300   116272300.934 6      1831.447          37.687    22125898.180    90601838.980 6      1427.101          37.500
G08  23614362.860   124094301.969 7      -659.624          43.312    23614361.180   124094301.961 6      -659.624          40.062    23614382.000    96696928.043 6      -513.993          39.187    23614382.740    96696931.025 7      -513.993          44.437
G21  23001642.700   120874328.977 7      1188.211          45.375    23001640.740   120874328.987 5      1188.211          32.500    23001646.760    94187894.990 5       925.879          32.500
R06  19904941.400   106216584.631 6      4937.333          37.750    19904940.560   106216584.640 6      4937.333          36.875
G17  22133700.560   116313390.319 7      5070.010          46.687    22133699.700   116313390.345 6      5070.010          39.625    22133703.840    90633812.495 6      3950.657          39.062    22133703.680    90633820.503 8      3950.657          48.125
G03  20242169.740   106373334.388 8      1572.836          49.375    20242168.820   106373334.393 8      1572.836          50.187    20242174.440    82888304.009 8      1225.586          50.875    20242174.820    82888332.010 8      1225.586          51.125
G04  21983237.820   115522708.105 7      5052.111          44.625    21983236.600   115522708.116 5      5052.111          35.187    21983247.240    90017735.222 5      3936.710          34.937    21983247.680    90017745.222 8      3936.710          50.250
R05  20629272.640   110275285.635 8        54.881          49.375    20629272.760   110275285.639 8        54.881          48.312    20629282.520    85769706.464 8        42.685          50.062    20629281.780    85769704.460 8        42.685          50.250
G14  22414540.020   117789257.406 7      1311.727          44.687    22414539.160   117789257.421 5      1311.727          33.375    22414547.360    91783804.253 5      1022.125          33.500    22414547.760    91783868.239 7      1022.125          47.125
R21  21558820.300   115365615.700 7      4964.881          47.125    21558822.160   115365615.725 7      4964.881          46.312    21558830.460    89728849.249 7      3861.574          47.500    21558830.000    89728849.239 7      3861.574          46.187
> 2024 05 06 16 43 49.0000000  0 10
G02  22125548.360   116270469.523 7      1831.434          46.875    22125544.780   116270469.528 6      1831.434          37.500    22125549.600    90600411.912 6      1427.091          37.562
G08  23614488.160   124094961.670 7      -659.808          43.375    23614486.520   124094961.662 6      -659.808          39.812    23614507.700    96697442.074 6      -514.136          39.250    23614508.740    96697445.055 7      -514.136          45.062
G21  23001416.600   120873140.745 7      1188.332          45.250    23001414.720   120873140.750 5      1188.332          32.187    23001420.600    94186969.097 5       925.973          32.500
R06  19904016.360   106211647.696 6      4936.819          38.000    19904014.640   106211647.697 6      4936.819          36.875
G17  22132735.880   116308320.319 7      5070.009          46.750    22132734.560   116308320.345 6      5070.009          38.875    22132738.900    90629861.844 6      3950.656          38.250    22132738.820    90629869.849 8      3950.656          48.250
G03  20241870.440   106371761.740 8      1572.516          49.937    20241869.680   106371761.742 8      1572.516          50.000    20241875.160    82887078.569 8      1225.337          50.562    20241875.400    82887106.574 8      1225.337          50.625
G04  21982276.620   115517656.182 7      5051.829          44.500    21982275.120   115517656.190 5      5051.829          35.250    21982285.720    90013798.666 5      3936.490          35.062    21982286.480    90013808.672 8      3936.490          50.250
R05  20629262.240   110275231.129 8        54.283          48.625    20629262.800   110275231.124 8        54.283          48.125    20629272.380    85769664.066 8        42.220          49.750    20629271.660    85769662.062 8        42.220          50.812
G14  22414290.480   117787945.854 7      1311.311          45.687    22414289.440   117787945.870 5      1311.311          33.375    22414297.500    91782782.258 5      1021.801          33.500    22414298.140    91782846.253 7      1021.801          47.312
R21  21557892.660   115360650.898 7      4964.799          47.687    21557894.600   115360650.923 7      4964.799          46.125    21557902.720    89724987.740 7      3861.510          47.625    21557902.200    89724987.732 7      3861.510          46.562
> 2024 05 06 16 43 50.0000000  0 10
G02  22125199.860   116268638.288 7      1831.239          46.312    22125196.380   116268638.292 6      1831.239          38.062    22125201.060    90598984.974 6      1426.939          38.187
G08  23614614.040   124095621.655 7      -660.118          42.750    23614611.940   124095621.650 6      -660.118          39.500    23614633.380    96697956.319 6      -514.378          38.937    23614634.140    96697959.301 7      -514.378          44.875
G21  23001190.320   120871952.644 7      1188.086          45.875    23001188.640   120871952.649 5      1188.086          32.187    23001194.560    94186043.302 5       925.781          32.437
R06  19903090.840   106206711.591 6      4935.906          38.000    19903089.720   106206711.599 6      4935.906          36.875
G17  22131771.020   116303250.634 7      5069.496          46.187    22131769.300   116303250.660 6      5069.496          38.500    22131773.980    90625911.444 6      3950.257          38.500    22131774.000    90625919.460 8      3950.257          48.125
G03  20241571.260   106370189.601 8      1571.988          49.937    20241570.540   106370189.609 8      1571.988          50.312    20241575.980    82885853.532 8      1224.925          50.062    20241576.420    82885881.535 8      1224.925          50.500
G04  21981315.400   115512604.685 7      5051.286          44.187    21981313.780   115512604.695 5      5051.286          35.437    21981324.620    90009862.447 5      3936.067          35.375    21981325.160    90009872.455 8      3936.067          49.250
R05  20629252.140   110275177.373 8        53.390          48.187    20629252.820   110275177.372 8        53.390          48.000    20629262.040    85769622.256 8        41.526          49.812    20629261.560    85769620.253 8        41.526          50.312
G14  22414041.080   117786634.841 7      1310.777          46.125    22414039.880   117786634.859 5      1310.777          33.375    22414047.960    91781760.692 5      1021.385          33.187    22414048.440    91781824.690 7      1021.385          46.937
R21  21556965.060   115355686.154 7      4964.749          46.500    21556966.820   115355686.180 7      4964.749          46.187    21556975.220    89721126.275 7      3861.472          47.187    21556974.700    89721126.271 7      3861.472          46.875
> 2024 05 06 16 43 51.0000000  0 10
G02  22124851.380   116266807.142 7      1831.032          45.750    22124847.980   116266807.144 6      1831.032          37.937    22124852.560    90597558.103 6      1426.778          37.812
G08  23614739.940   124096281.835 7      -660.326          42.062    23614737.420   124096281.835 6      -660.326          39.812    23614759.060    96698470.723 6      -514.540          39.437    23614760.020    96698473.700 7      -514.540          45.250
G21  23000964.660   120870764.562 7      1188.092          45.687    23000962.460   120870764.570 5      1188.092          32.187    23000968.400    94185117.520 5       925.786          32.437
R06  19902166.440   106201776.182 6      4935.208          38.000    19902165.000   106201776.188 6      4935.208          36.375
G17  22130806.340   116298181.148 7      5069.338          44.625    22130804.220   116298181.166 6      5069.338          37.687    22130809.240    90621961.202 6      3950.133          37.375    22130809.480    90621969.205 8      3950.133          48.000
G03  20241272.100   106368617.907 8      1571.470          49.750    20241271.520   106368617.917 8      1571.470          50.125    20241276.920    82884628.837 8      1224.522          50.875    20241277.400    82884656.842 8      1224.522          51.062
G04  21980354.060   115507553.503 7      5050.971          44.125    21980352.640   115507553.513 5      5050.971          35.312    21980363.460    90005926.471 5      3935.822          35.062    21980363.860    90005936.473 8      3935.822          49.750
R05  20629242.380   110275124.228 8        52.816          48.187    20629242.800   110275124.232 8        52.816          48.125    20629252.220    85769580.923 8        41.079          49.937    20629251.760    85769578.922 8        41.079          50.625
G14  22413791.720   117785324.319 7      1310.264          45.312    22413790.500   117785324.332 5      1310.264          33.375    22413798.520    91780739.502 5      1020.985          33.187    22413798.920    91780803.494 7      1020.985          47.187
R21  21556037.320   115350721.354 7      4964.795          47.187    21556038.940   115350721.388 7      4964.795          46.937    21556047.320    89717264.772 7      3861.507          46.937    21556047.160    89717264.773 7      3861.507          47.437
> 2024 05 06 16 43 52.0000000  0 10
G02  22124502.900   116264976.024 7      1830.829          44.625    22124499.580   116264976.029 6      1830.829          37.437    22124504.320    90596131.260 6      1426.620          37.562
G08  23614865.100   124096942.170 7      -660.558          42.125    23614863.040   124096942.167 6      -660.558          39.625    23614885.000    96698985.240 6      -514.721          39.125    23614885.800    96698988.211 7      -514.721          45.250
G21  23000738.520   120869576.491 7      1187.815          45.375    23000736.300   120869576.501 5      1187.815          32.375    23000742.200    94184191.750 5       925.570          32.125
R06  19901241.960   106196841.501 6      4934.084          38.000    19901240.140   106196841.499 6      4934.084          36.375
G17  22129841.480   116293111.831 7      5069.034          44.937    22129839.160   116293111.854 6      5069.034          38.125    22129844.760    90618011.090 6      3949.897          37.625    22129844.820    90618019.096 8      3949.897          48.187
G03  20240973.180   106367046.607 8      1570.888          49.062    20240972.540   106367046.614 8      1570.888          50.062    20240977.940    82883404.443 8      1224.069          50.437    20240978.480    82883432.450 8      1224.069          51.250
G04  21979392.820   115502502.597 7      5050.600          45.187    21979391.560   115502502.607 5      5050.600          35.312    21979402.140    90001990.710 5      3935.532          35.062    21979402.580    90002000.712 8      3935.532          49.125
R05  20629232.640   110275071.713 7        51.929          47.875    20629233.000   110275071.711 7        51.929          47.750    20629242.220    85769540.076 8        40.389          50.250    20629242.000    85769538.077 8        40.389          50.812
G14  22413542.220   117784014.208 7      1309.721          45.625    22413541.160   117784014.220 5      1309.721          33.375    22413549.220    91779718.631 5      1020.562          33.625    22413549.660    91779782.624 7      1020.562          47.125
R21  21555109.700   115345756.493 7      4964.637          46.812    21555110.960   115345756.529 7      4964.637          46.812    21555119.380    89713403.220 7      3861.384          46.750    21555119.480    89713403.220 7      3861.384          47.125
> 2024 05 06 16 43 53.0000000  0 10
G02  22124154.600   116263145.144 7      1830.881          45.250    22124151.380   116263145.149 6      1830.881          37.687    22124155.820    90594704.598 6      1426.660          37.625
G08  23614990.980   124097602.875 6      -660.716          41.187    23614988.700   124097602.872 6      -660.716          39.312    23615010.740    96699500.051 6      -514.844          39.125    23615011.500    96699503.024 7      -514.844          44.562
G21  23000512.500   120868388.595 7      1187.995          45.125    23000510.060   120868388.605 5      1187.995          32.375    23000516.260    94183266.117 5       925.711          32.125
R06  19900317.320   106191907.637 6      4933.561          38.000    19900314.720   106191907.630 6      4933.561          36.375
G17  22128876.780   116288042.911 7      5068.869          44.937    22128874.060   116288042.934 6      5068.869          37.500    22128880.280    90614061.288 6      3949.768          37.187    22128880.480    90614069.292 7      3949.768          47.625
G03  20240674.200   106365475.898 8      1570.467          49.125    20240673.580   106365475.905 8      1570.467          50.000    20240678.960    82882180.514 8      1223.741          50.000    20240679.660    82882208.521 8      1223.741          50.437
G04  21978431.500   115497452.190 7      5050.369          44.750    21978430.520   115497452.197 5      5050.369          35.125    21978440.920    89998055.334 5      3935.353          35.187    21978441.220    89998065.336 8      3935.353          48.625
R05  20629222.780   110275019.989 7        51.475          47.062    20629223.200   110275019.982 7        51.475          47.562    20629232.540    85769499.836 8        40.036          49.437    20629232.200    85769497.837 8        40.036          49.812
G14  22413293.220   117782704.734 7      1309.333          46.125    22413292.200   117782704.742 5      1309.333          33.750    22413300.120    91778698.256 5      1020.259          33.625    22413300.600    91778762.253 7      1020.259          46.875
R21  21554181.900   115340791.811 7      4964.722          46.937    21554183.000   115340791.839 7      4964.722          46.812    21554191.780    89709541.792 7      3861.450          46.562    21554191.660    89709541.792 7      3861.450          46.625
> 2024 05 06 16 43 54.0000000  0 10
G02  22123806.260   116261314.176 7      1831.013          45.812    22123802.980   116261314.184 6      1831.013          38.062    22123807.340    90593277.872 6      1426.763          37.875
G08  23615117.020   124098263.603 6      -660.750          41.875    23615114.460   124098263.598 6      -660.750          39.250    23615136.440    96700014.878 6      -514.870          38.937    23615137.520    96700017.847 7      -514.870          45.062
G21  23000286.420   120867200.563 7      1188.217          45.437    23000283.800   120867200.571 5      1188.217          32.062    23000290.100    94182340.370 5       925.884          32.125
R06  19899392.660   106186974.336 6      4933.046          37.875    19899390.460   106186974.331 6      4933.046          36.375
G17  22127912.040   116282974.024 7      5068.920          44.687    22127909.300   116282974.045 6      5068.920          37.375    22127915.900    90610111.511 6      3949.808          37.000    22127916.140    90610119.519 8      3949.808          48.562
G03  20240375.420   106363905.425 8      1570.437          49.062    20240374.760   106363905.432 8      1570.437          49.375    20240380.180    82880956.771 8      1223.717          49.562    20240380.900    82880984.778 8      1223.717          51.250
G04  21977470.720   115492401.953 7      5050.103          44.937    21977469.440   115492401.956 5      5050.103          35.625    21977479.840    89994120.091 5      3935.145          35.187    21977479.920    89994130.095 8      3935.145          49.125
R05  20629213.360   110274968.778 8        50.953          48.312    20629213.200   110274968.772 7        50.953          47.375    20629222.840    85769460.010 8        39.630          49.500    20629222.540    85769458.008 8        39.630          49.437
G14  22413043.940   117781395.550 7      1309.057          45.812    22413043.100   117781395.555 5      1309.057          33.750    22413050.960    91777678.111 5      1020.044          33.625    22413051.580    91777742.113 7      1020.044          47.312
R21  21553254.520   115335826.939 7      4965.009          47.250    21553254.740   115335826.962 7      4965.009          46.250    21553263.920    89705680.227 7      3861.673          46.437    21553263.960    89705680.223 7      3861.673          46.875
> 2024 05 06 16 43 55.0000000  0 10
G02  22123457.820   116259483.346 7      1830.501          45.625    22123454.720   116259483.351 6      1830.501          37.750    22123458.960    90591851.251 6      1426.364          37.687
G08  23615242.680   124098924.556 7      -661.210          42.500    23615240.240   124098924.555 6      -661.210          39.437    23615262.340    96700529.883 6      -515.229          38.937    23615262.960    96700532.858 7      -515.229          44.937
G21  23000060.280   120866012.607 7      1187.799          44.937    23000057.780   120866012.620 5      1187.799          32.062    23000063.980    94181414.692 5       925.558          32.062
R06  19898468.840   106182041.851 6      4931.912          37.875    19898466.440   106182041.825 6      4931.912          36.375
G17  22126947.680   116277905.432 7      5068.177          42.687    22126944.340   116277905.453 6      5068.177          37.375    22126951.360    90606161.969 6      3949.229          37.062    22126951.520    90606169.974 8      3949.229          48.687
G03  20240076.560   106362335.465 8      1569.470          49.312    20240075.900   106362335.472 8      1569.470          50.187    20240081.420    82879733.426 8      1222.964          50.437    20240082.140    82879761.433 8      1222.964          51.187
G04  21976509.600   115487352.069 7      5049.484          45.250    21976508.360   115487352.074 5      5049.484          35.625    21976518.840    89990185.129 5      3934.663          35.187    21976518.880    89990195.127 8      3934.663          49.062
R05  20629203.920   110274918.308 8        49.930          48.125    20629203.640   110274918.299 7        49.930          47.625    20629213.260    85769420.755 8        38.834          49.625    20629213.000    85769418.754 8        38.834          50.375
G14  22412794.880   117780086.873 7      1308.264          45.687    22412793.900   117780086.880 5      1308.264          33.750    22412801.980    91776658.358 5      1019.426          33.750    22412802.620    91776722.362 7      1019.426          47.312
R21  21552326.500   115330862.126 7      4964.633          46.562    21552326.500   115330862.146 7      4964.633          46.375    21552336.220    89701818.708 7      3861.381          47.187    21552335.980    89701818.702 7      3861.381          46.750
> 2024 05 06 16 43 56.0000000  0 10
G02  22123109.520   116257652.620 7      1830.829          46.312    22123106.300   116257652.630 6      1830.829          38.187    22123110.520    90590424.711 6      1426.620          37.500
G08  23615368.720   124099585.762 7      -661.170          42.312    23615366.120   124099585.767 6      -661.170          39.875    23615388.220    96701045.089 6      -515.198          39.812    23615389.080    96701048.060 7      -515.198          45.187
G21  22999834.540   120864824.746 7      1188.030          44.687    22999831.680   120864824.756 5      1188.030          32.250    22999837.740    94180489.083 5       925.738          32.062
R06  19897544.100   106177110.098 6      4931.439          37.875    19897542.200   106177110.080 6      4931.439          36.375
G17  22125983.100   116272837.064 7      5068.288          43.312    22125979.500   116272837.076 6      5068.288          37.125    22125987.040    90602212.595 6      3949.315          37.000    22125987.380    90602220.613 8      3949.315          48.687
G03  20239777.920   106360765.954 8      1569.397          49.125    20239777.280   106360765.961 8      1569.397          50.750    20239782.800    82878510.432 8      1222.907          51.062    20239783.260    82878538.439 8      1222.907          51.000
G04  21975548.720   115482302.548 7      5049.540          45.437    21975547.340   115482302.555 5      5049.540          35.562    21975557.900    89986250.449 5      3934.707          35.187    21975558.040    89986260.445 8      3934.707          49.187
R05  20629194.600   110274868.597 8        49.485          48.125    20629193.960   110274868.590 7        49.485          47.812    20629203.960    85769382.095 8        38.489          49.875    20629203.560    85769380.092 8        38.489          49.812
G14  22412546.100   117778778.713 7      1307.987          45.687    22412544.800   117778778.723 5      1307.987          33.875    22412553.380    91775639.011 5      1019.211          33.750    22412553.820    91775703.019 7      1019.211          47.875
R21  21551398.460   115325897.340 7      4964.979          46.687    21551398.600   115325897.362 7      4964.979          46.312    21551408.360    89697957.209 7      3861.651          47.000    21551408.120    89697957.206 7      3861.651          46.812
> 2024 05 06 16 43 57.0000000  0 10
G02  22122761.080   116255822.015 7      1830.520          46.562    22122757.920   116255822.023 6      1830.520          37.812    22122762.180    90588998.266 6      1426.379          37.312
G08  23615494.420   124100247.201 7      -661.623          42.687    23615492.260   124100247.208 6      -661.623          38.812    23615514.260    96701560.475 6      -515.550          38.812    23615514.900    96701563.444 7      -515.550          45.312
G21  22999608.400   120863636.932 7      1187.740          44.562    22999605.640   120863636.942 5      1187.740          32.250    22999611.740    94179563.514 5       925.511          32.375
R06  19896620.740   106172179.088 6      4930.393          37.875    19896617.940   106172179.092 6      4930.393          36.250
G17  22125018.640   116267768.931 7      5068.003          42.625    22125014.740   116267768.949 6      5068.003          36.500    22125022.680    90598263.417 6      3949.093          36.312    22125023.180    90598271.433 8      3949.093          49.062
G03  20239479.360   106359196.903 8      1568.831          49.125    20239478.640   106359196.905 8      1568.831          50.187    20239484.140    82877287.793 8      1222.466          50.625    20239484.780    82877315.800 8      1222.466          50.875
G04  21974587.840   115477253.407 7      5048.910          44.437    21974586.620   115477253.415 5      5048.910          35.125    21974597.140    89982316.064 5      3934.216          35.062    21974597.320    89982326.056 8      3934.216          49.187
R05  20629185.640   110274819.589 8        48.644          48.312    20629184.520   110274819.579 7        48.644          47.875    20629194.580    85769343.973 8        37.834          49.812    20629194.160    85769341.966 8        37.834          49.875
G14  22412297.320   117777471.032 7      1307.386          45.625    22412295.960   117777471.044 5      1307.386          33.875    22412304.640    91774620.038 5      1018.743          33.562    22412305.080    91774684.049 7      1018.743          47.750
R21  21550471.000   115320932.609 7      4964.595          47.125    21550470.860   115320932.627 7      4964.595          46.062    21550480.860    89694095.749 7      3861.352          47.000    21550480.280    89694095.740 7      3861.352          46.625
> 2024 05 06 16 43 58.0000000  0 10
G02  22122412.500   116253991.363 7      1830.613          46.500    22122409.620   116253991.368 6      1830.613          38.000    22122413.780    90587571.772 6      1426.451          37.562
G08  23615620.160   124100908.707 7      -661.607          43.687    23615618.220   124100908.712 6      -661.607          39.375    23615639.980    96702075.908 6      -515.538          39.375    23615640.840    96702078.877 7      -515.538          45.437
G21  22999382.280   120862449.013 7      1187.931          44.687    22999379.500   120862449.023 5      1187.931          32.250    22999385.640    94178637.861 5       925.661          32.375
R06  19895697.160   106167248.698 6      4929.933          37.875    19895694.400   106167248.688 6      4929.933          36.250
G17  22124054.600   116262700.922 7      5067.863          42.437    22124049.840   116262700.935 6      5067.863          36.250    22124058.200    90594314.328 5      3948.984          35.812    22124058.580    90594322.337 8      3948.984          48.750
G03  20239180.780   106357628.164 8      1568.543          49.687    20239180.080   106357628.169 8      1568.543          50.437    20239185.640    82876065.402 8      1222.241          50.812    20239186.300    82876093.408 8      1222.241          51.187
G04  21973627.340   115472204.435 7      5048.862          44.625    21973625.920   115472204.442 5      5048.862          35.437    21973636.360    89978381.814 5      3934.178          35.062    21973636.460    89978391.810 8      3934.178          49.687
R05  20629176.400   110274771.126 8        48.229          48.312    20629175.140   110274771.111 7        48.229          47.875    20629185.500    85769306.269 8        37.511          49.562    20629185.140    85769304.264 8        37.511          49.750
G14  22412048.640   117776163.700 7      1307.162          45.125    22412047.060   117776163.718 5      1307.162          34.062    22412056.140    91773601.336 5      1018.568          33.562    22412056.460    91773665.340 8      1018.568          48.125
R21  21549542.780   115315967.681 7      4965.000          46.437    21549542.900   115315967.693 7      4965.000          46.187    21549552.920    89690234.127 7      3861.667          47.000    21549552.260    89690234.123 7      3861.667          46.812
> 2024 05 06 16 43 59.0000000  0 10
G02  22122064.180   116252160.916 7      1830.327          47.562    22122061.260   116252160.918 6      1830.327          38.187    22122065.540    90586145.447 6      1426.229          37.937
G08  23615746.120   124101570.555 7      -662.009          42.375    23615744.200   124101570.557 6      -662.009          39.750    23615766.140    96702591.609 6      -515.851          38.625    23615766.860    96702594.572 7      -515.851          45.000
G21  22999156.300   120861261.288 7      1187.669          43.812    22999153.420   120861261.295 5      1187.669          32.250    22999159.640    94177712.361 5       925.456          32.375
R06  19894772.780   106162319.135 6      4929.097          37.875    19894771.220   106162319.136 6      4929.097          36.250
G17  22123090.020   116257633.255 6      5067.397          41.937    22123085.260   116257633.263 6      5067.397          36.125    22123093.740    90590365.496 5      3948.621          35.687    22123093.880    90590373.524 8      3948.621          48.687
G03  20238882.460   106356060.009 8      1567.783          49.312    20238881.640   106356060.009 8      1567.783          50.062    20238887.180    82874843.460 8      1221.649          50.500    20238888.080    82874871.465 8      1221.649          50.625
G04  21972666.540   115467155.972 7      5048.176          45.500    21972665.220   115467155.980 5      5048.176          35.437    21972675.780    89974447.958 5      3933.644          35.312    21972675.880    89974457.949 8      3933.644          48.562
R05  20629167.360   110274723.457 7        47.272          47.187    20629166.180   110274723.445 7        47.272          46.250    20629176.440    85769269.193 8        36.767          49.750    20629176.160    85769267.188 8        36.767          49.750
G14  22411799.920   117774856.990 7      1306.271          45.375    22411798.320   117774857.008 5      1306.271          34.000    22411807.520    91772583.117 5      1017.873          34.062    22411808.120    91772647.123 8      1017.873          48.062
R21  21548615.040   115311002.919 7      4964.694          47.187    21548615.340   115311002.928 7      4964.694          46.312    21548625.040    89686372.648 7      3861.429          46.625    21548624.460    89686372.646 7      3861.429          46.125
> 2024 05 06 16 44  0.0000000  0 10
G02  22121715.800   116250330.645 7      1829.982          47.562    22121713.020   116250330.655 6      1829.982          37.625    22121717.200    90584719.268 6      1425.960          37.625
G08  23615872.140   124102232.669 7      -662.376          42.937    23615870.580   124102232.671 6      -662.376          39.062    23615892.080    96703107.509 6      -516.137          39.187    23615892.760    96703110.478 7      -516.137          45.250
G21  22998930.640   120860073.668 7      1187.378          43.750    22998927.480   120860073.673 5      1187.378          32.250    22998933.560    94176786.935 5       925.229          32.187
R06  19893849.080   106157390.394 6      4928.207          36.562    19893847.500   106157390.400 6      4928.207          36.250
G17  22122125.300   116252565.867 6      5066.987          41.687    22122120.740   116252565.872 6      5066.987          36.125    22122129.060    90586416.894 5      3948.301          35.187    22122129.540    90586424.918 8      3948.301          48.062
G03  20238584.060   106354492.332 8      1567.215          49.062    20238583.280   106354492.334 8      1567.215          49.937    20238588.840    82873621.896 8      1221.206          50.687    20238589.620    82873649.901 8      1221.206          51.312
G04  21971705.760   115462107.901 7      5047.607          44.875    21971704.680   115462107.908 5      5047.607          35.312    21971715.080    89970514.406 5      3933.200          35.187    21971715.300    89970524.396 8      3933.200          48.937
R05  20629158.900   110274676.515 7        46.386          47.937    20629157.180   110274676.508 7        46.386          47.062    20629167.560    85769232.687 8        36.078          49.625    20629167.400    85769230.679 8        36.078          49.500
G14  22411551.420   117773550.796 7      1305.697          45.437    22411549.880   117773550.814 5      1305.697          34.000    22411558.980    91771565.301 5      1017.426          34.062    22411559.380    91771629.308 7      1017.426          47.625
R21  21547687.120   115306038.213 7      4964.483          45.937    21547687.080   115306038.222 7      4964.483          46.312    21547697.480    89682511.212 7      3861.264          47.125    21547696.900    89682511.212 7      3861.264          47.062
> 2024 05 06 16 44  1.0000000  0 10
G02  22121367.780   116248500.463 7      1829.977          46.812    22121364.700   116248500.468 6      1829.977          37.625    22121368.940    90583293.151 6      1425.956          37.500
G08  23615998.100   124102895.000 7      -662.568          42.812    23615996.820   124102895.008 6      -662.568          39.812    23616018.100    96703623.591 6      -516.287          39.125    23616018.820    96703626.556 7      -516.287          45.000
G21  22998704.620   120858886.088 7      1187.415          43.687    22998701.240   120858886.093 5      1187.415          31.875    22998707.580    94175861.544 5       925.258          32.187
R06  19892925.360   106152462.378 6      4927.557          36.562    19892923.940   106152462.395 6      4927.557          36.250
G17  22121161.280   116247498.725 7      5066.748          42.437    22121156.500   116247498.735 5      5066.748          35.500    22121164.700    90582468.482 5      3948.116          35.187    22121165.060    90582476.512 8      3948.116          48.000
G03  20238285.840   106352925.110 8      1566.876          50.000    20238285.060   106352925.117 8      1566.876          50.625    20238290.640    82872400.690 8      1220.943          50.875    20238291.220    82872428.691 8      1220.943          51.000
G04  21970745.400   115457060.158 7      5047.437          46.062    21970744.200   115457060.163 5      5047.437          35.687    21970754.660    89966581.108 5      3933.068          35.375    21970754.960    89966591.100 8      3933.068          48.750
R05  20629150.240   110274630.254 7        45.810          47.562    20629148.740   110274630.250 7        45.810          47.500    20629158.840    85769196.707 8        35.630          49.500    20629158.760    85769194.703 8        35.630          49.437
G14  22411302.840   117772245.085 7      1305.309          43.812    22411301.420   117772245.103 5      1305.309          34.000    22411310.680    91770547.860 5      1017.124          33.875    22411310.920    91770611.875 7      1017.124          47.812
R21  21546759.440   115301073.534 7      4964.562          47.125    21546759.520   115301073.540 7      4964.562          46.125    21546769.720    89678649.796 7      3861.326          47.187    21546769.060    89678649.801 7      3861.326          46.437
> 2024 05 06 16 44  2.0000000  0 10
G02  22121019.740   116246670.547 7      1829.817          47.000    22121016.540   116246670.552 6      1829.817          38.125    22121020.840    90581867.240 6      1425.831          37.875
G08  23616124.580   124103557.702 7      -662.804          42.625    23616123.160   124103557.712 6      -662.804          39.687    23616144.120    96704139.959 6      -516.471          39.125    23616145.020    96704142.926 7      -516.471          45.125
G21  22998478.660   120857698.747 7      1187.275          44.062    22998475.360   120857698.752 5      1187.275          31.875    22998481.360    94174936.343 5       925.149          32.125
R06  19892001.740   106147535.277 6      4926.815          36.562    19892001.200   106147535.292 6      4926.815          36.500
G17  22120197.180   116242431.980 6      5066.566          41.250    22120192.320   116242431.977 5      5066.566          35.437    22120200.220    90578520.371 5      3947.973          35.187    22120200.560    90578528.397 7      3947.973          47.062
G03  20237987.760   106351358.518 8      1566.301          49.687    20237986.860   106351358.520 8      1566.301          50.625    20237992.560    82871179.965 8      1220.494          51.125    20237993.160    82871207.968 8      1220.494          51.062
G04  21969784.760   115452012.936 7      5047.011          46.062    21969783.740   115452012.943 5      5047.011          35.750    21969794.120    89962648.218 5      3932.736          35.375    21969794.180    89962658.218 8      3932.736          48.937
R05  20629141.820   110274584.865 8        45.040          48.187    20629140.260   110274584.861 7        45.040          47.312    20629150.260    85769161.402 8        35.031          49.687    20629150.080    85769159.396 8        35.031          49.437
G14  22411054.640   117770940.042 7      1304.753          43.875    22411053.140   117770940.057 5      1304.753          34.000    22411062.400    91769530.941 5      1016.690          33.812    22411062.380    91769594.944 8      1016.690          48.000
R21  21545831.920   115296109.039 7      4964.508          46.625    21545831.680   115296109.038 7      4964.508          46.437    21545842.020    89674788.523 7      3861.284          46.375    21545841.320    89674788.523 7      3861.284          46.750
> 2024 05 06 16 44  3.0000000  0 10
G02  22120671.560   116244840.852 7      1829.565          47.187    22120668.460   116244840.856 6      1829.565          38.000    22120672.620    90580441.505 6      1425.635          37.937
G08  23616250.700   124104220.762 7      -663.211          42.562    23616249.520   124104220.772 6      -663.211          39.625    23616270.320    96704656.602 6      -516.788          39.312    23616271.200    96704659.573 7      -516.788          44.750
G21  22998252.680   120856511.548 7      1187.184          44.125    22998249.340   120856511.550 5      1187.184          31.875    22998255.560    94174011.252 5       925.078          32.125
R06  19891079.180   106142609.039 6      4926.033          36.562    19891078.200   106142609.042 6      4926.033          36.500
G17  22119233.320   116237365.590 7      5066.205          42.125    22119228.340   116237365.584 5      5066.205          35.437    22119235.700    90574572.537 5      3947.692          34.937    22119235.900    90574580.571 7      3947.692          47.125
G03  20237689.720   106349792.478 8      1565.757          49.062    20237688.760   106349792.483 8      1565.757          50.312    20237694.480    82869959.676 8      1220.070          50.125    20237695.380    82869987.677 8      1220.070          50.187
G04  21968824.480   115446966.173 7      5046.625          45.750    21968823.380   115446966.175 5      5046.625          35.500    21968833.880    89958715.686 5      3932.435          35.500    21968833.720    89958725.688 8      3932.435          48.000
R05  20629133.740   110274540.296 7        44.225          47.562    20629132.200   110274540.287 7        44.225          47.250    20629141.860    85769126.731 8        34.397          48.562    20629141.660    85769124.728 8        34.397          48.375
G14  22410806.120   117769635.577 7      1304.249          44.187    22410804.860   117769635.589 5      1304.249          34.000    22410814.140    91768514.466 5      1016.298          33.812    22410814.340    91768578.469 7      1016.298          47.500
R21  21544904.380   115291144.667 7      4964.382          47.187    21544903.820   115291144.674 7      4964.382          46.562    21544914.360    89670927.351 7      3861.186          46.687    21544913.560    89670927.351 7      3861.186          46.312
> 2024 05 06 16 44  4.0000000  0 10
G02  22120323.280   116243011.067 7      1829.915          47.500    22120320.140   116243011.071 6      1829.915          38.062    22120324.320    90579015.698 6      1425.908          38.187
G08  23616376.740   124104883.847 7      -663.011          42.500    23616375.740   124104883.852 6      -663.011          39.312    23616396.480    96705173.266 6      -516.632          39.125    23616397.360    96705176.229 7      -516.632          44.937
G21  22998026.780   120855324.241 7      1187.540          44.562    22998023.500   120855324.248 5      1187.540          32.062    22998029.500    94173086.078 5       925.356          32.125
R06  19890156.460   106137683.390 6      4925.382          37.812    19890155.040   106137683.404 6      4925.382          36.500
G17  22118269.240   116232299.255 7      5066.326          42.312    22118264.480   116232299.249 5      5066.326          35.375    22118271.320    90570624.749 5      3947.787          34.937    22118271.460    90570632.781 7      3947.787          45.875
G03  20237391.860   106348226.719 8      1565.706          49.250    20237390.840   106348226.719 8      1565.706          49.625    20237396.480    82868739.602 8      1220.031          50.187    20237397.480    82868767.601 8      1220.031          51.125
G04  21967864.040   115441919.589 7      5046.630          45.937    21967862.900   115441919.594 5      5046.630          35.500    21967873.480    89954783.293 5      3932.439          35.312    21967873.420    89954793.295 8      3932.439          48.687
R05  20629125.620   110274496.241 8        43.856          48.125    20629124.040   110274496.239 7        43.856          47.187    20629133.480    85769092.474 8        34.110          49.000    20629133.660    85769090.468 8        34.110          48.375
G14  22410558.060   117768331.416 7      1304.185          43.812    22410556.640   117768331.431 5      1304.185          33.875    22410566.060    91767498.235 5      1016.248          33.562    22410566.060    91767562.234 8      1016.248          48.187
R21  21543976.720   115286180.119 7      4964.772          46.625    21543976.120   115286180.126 7      4964.772          45.812    21543986.620    89667066.038 7      3861.490          47.437    21543985.980    89667066.040 7      3861.490          46.875
> 2024 05 06 16 44  5.0000000  0 10
G02  22119975.120   116241181.242 7      1829.714          47.437    22119972.020   116241181.244 6      1829.714          37.937    22119976.120    90577589.859 6      1425.751          37.875
G08  23616503.240   124105546.996 7      -663.270          42.812    23616502.000   124105546.998 6      -663.270          39.625    23616522.680    96705689.980 6      -516.834          39.312    23616523.320    96705692.945 7      -516.834          45.375
G21  22997800.900   120854136.844 7      1187.231          45.000    22997797.540   120854136.849 5      1187.231          32.062    22997803.640    94172160.832 5       925.115          31.750
R06  19889233.460   106132758.317 6      4924.425          37.812    19889231.600   106132758.342 6      4924.425          36.500
G17  22117305.160   116227233.012 7      5066.015          42.875    22117300.900   116227233.003 5      5066.015          35.562    22117306.900    90566677.029 5      3947.544          35.125    22117307.280    90566685.053 7      3947.544          45.875
G03  20237094.000   106346661.255 8      1565.183          49.687    20237092.920   106346661.254 8      1565.183          50.437    20237098.600    82867519.762 8      1219.623          50.375    20237099.520    82867547.760 8      1219.623          51.187
G04  21966903.920   115436873.200 7      5046.160          45.750    21966902.460   115436873.202 6      5046.160          36.000    21966913.160    89950851.051 5      3932.072          35.312    21966912.900    89950861.064 8      3932.072          49.375
R05  20629117.480   110274452.738 8        43.076          48.187    20629115.920   110274452.731 8        43.076          48.062    20629125.360    85769058.637 8        33.504          49.125    20629125.480    85769056.629 8        33.504          48.937
G14  22410310.040   117767027.626 7      1303.461          43.625    22410308.620   117767027.639 5      1303.461          33.875    22410318.120    91766482.291 5      1015.684          33.562    22410318.060    91766546.281 8      1015.684          48.687
R21  21543048.980   115281215.418 7      4964.622          47.312    21543048.220   115281215.436 7      4964.622          46.312    21543059.040    89663204.617 7      3861.373          47.125    21543058.420    89663204.629 7      3861.373          47.062
> 2024 05 06 16 44  6.0000000  0 10
G02  22119626.800   116239351.539 7      1829.734          47.250    22119623.820   116239351.536 6      1829.734          37.750    22119627.940    90576164.114 6      1425.767          37.625
G08  23616629.480   124106210.397 7      -663.506          42.187    23616628.260   124106210.396 6      -663.506          39.687    23616648.880    96706206.890 6      -517.018          39.187    23616649.180    96706209.855 7      -517.018          45.062
G21  22997574.980   120852949.524 7      1187.305          44.625    22997571.780   120852949.532 5      1187.305          32.000    22997577.640    94171235.650 5       925.173          31.750
R06  19888310.320   106127833.967 6      4924.179          37.812    19888309.920   106127833.973 6      4924.179          36.500
G17  22116341.100   116222167.021 7      5065.992          43.312    22116337.520   116222167.007 6      5065.992          36.062    22116342.580    90562729.510 5      3947.526          35.750    22116342.840    90562737.524 7      3947.526          45.937
G03  20236796.140   106345096.274 8      1564.818          48.875    20236795.140   106345096.273 8      1564.818          50.062    20236800.800    82866300.296 8      1219.338          50.500    20236801.680    82866328.295 8      1219.338          51.250
G04  21965943.620   115431827.194 7      5045.835          45.312    21965942.260   115431827.196 5      5045.835          35.187    21965953.040    89946919.109 5      3931.819          35.625    21965952.800    89946929.125 8      3931.819          48.812
R05  20629109.540   110274409.966 8        42.477          48.000    20629108.060   110274409.964 7        42.477          47.500    20629117.440    85769025.375 8        33.038          49.125    20629117.260    85769023.366 8        33.038          49.312
G14  22410061.960   117765724.330 7      1303.067          43.187    22410060.540   117765724.343 5      1303.067          33.687    22410070.260    91765466.729 5      1015.377          33.562    22410070.620    91765530.718 8      1015.377          48.562
R21  21542120.780   115276250.787 7      4964.651          45.625    21542120.320   115276250.799 7      4964.651          45.687    21542131.480    89659343.235 7      3861.395          47.250    21542130.800    89659343.252 7      3861.395          47.250
> 2024 05 06 16 44  7.0000000  0 10
G02  22119278.500   116237521.959 7      1829.490          47.500    22119275.720   116237521.964 6      1829.490          38.250    22119279.800    90574738.469 6      1425.576          37.937
G08  23616755.660   124106874.018 7      -663.740          42.750    23616754.580   124106874.018 6      -663.740          40.062    23616775.060    96706723.975 6      -517.200          39.687    23616775.740    96706726.932 7      -517.200          44.812
G21  22997349.040   120851762.270 7      1187.073          44.750    22997345.860   120851762.277 5      1187.073          32.000    22997351.680    94170310.512 5       924.992          32.500
R06  19887387.120   106122910.450 6      4923.006          37.812    19887386.860   106122910.448 6      4923.006          36.500
G17  22115377.040   116217101.311 7      5065.521          44.187    22115374.260   116217101.295 6      5065.521          36.500    22115378.820    90558782.202 6      3947.159          36.500    22115378.940    90558790.216 7      3947.159          45.500
G03  20236498.340   106343531.750 8      1564.242          48.625    20236497.480   106343531.755 8      1564.242          50.625    20236503.040    82865081.191 8      1218.890          51.000    20236504.000    82865109.189 8      1218.890          51.000
G04  21964983.400   115426781.540 7      5045.391          44.812    21964981.960   115426781.550 5      5045.391          35.687    21964992.840    89942987.443 5      3931.474          35.062    21964992.280    89942997.459 8      3931.474          48.437
R05  20629101.600   110274367.896 8        41.603          48.937    20629100.100   110274367.900 7        41.603          47.750    20629109.340    85768992.659 8        32.358          49.250    20629109.500    85768990.645 8        32.358          49.125
G14  22409814.320   117764421.520 7      1302.475          43.750    22409812.680   117764421.535 5      1302.475          33.687    22409822.360    91764451.549 5      1014.916          33.562    22409822.740    91764515.537 8      1014.916          49.125
R21  21541193.220   115271286.183 7      4964.449          45.937    21541192.260   115271286.195 7      4964.449          46.250    21541203.760    89655481.880 7      3861.238          47.500    21541203.000    89655481.891 7      3861.238          47.250
> 2024 05 06 16 44  8.0000000  0 10
G02  22118930.700   116235692.455 7      1829.517          47.250    22118927.600   116235692.460 6      1829.517          38.187    22118931.700    90573312.884 6      1425.597          38.062
G08  23616882.060   124107537.850 7      -663.837          42.812    23616881.000   124107537.845 6      -663.837          39.875    23616901.380    96707241.218 6      -517.275          39.187    23616901.980    96707244.174 7      -517.275          45.375
G21  22997123.320   120850575.029 7      1187.366          43.875    22997119.840   120850575.036 5      1187.366          32.750    22997125.820    94169385.389 5       925.220          32.500
R06  19886464.180   106117987.570 6      4922.655          38.437    19886463.920   106117987.579 6      4922.655          37.000
G17  22114413.200   116212035.788 7      5065.483          45.312    22114411.080   116212035.767 6      5065.483          37.312    22114414.900    90554835.043 6      3947.130          37.375    22114415.040    90554843.049 7      3947.130          45.687
G03  20236200.700   106341967.659 8      1563.938          49.562    20236199.860   106341967.662 8      1563.938          50.312    20236205.420    82863862.419 8      1218.653          50.937    20236206.580    82863890.418 8      1218.653          51.437
G04  21964023.440   115421736.207 7      5045.301          44.187    21964021.880   115421736.211 5      5045.301          35.687    21964032.720    89939056.025 5      3931.403          35.500    21964032.260    89939066.039 8      3931.403          48.812
R05  20629093.600   110274326.468 8        41.169          49.000    20629092.540   110274326.474 7        41.169          47.687    20629101.660    85768960.439 8        32.020          49.375    20629101.680    85768958.433 8        32.020          49.250
G14  22409566.320   117763119.191 7      1302.172          43.875    22409564.660   117763119.204 5      1302.172          33.687    22409574.680    91763436.739 5      1014.680          33.250    22409574.900    91763500.721 8      1014.680          49.000
R21  21540265.220   115266321.538 7      4964.772          45.500    21540264.440   115266321.556 7      4964.772          45.562    21540276.180    89651620.498 7      3861.489          47.125    21540275.140    89651620.502 7      3861.489          47.062
> 2024 05 06 16 44  9.0000000  0 10
G02  22118582.520   116233863.006 7      1829.460          47.187    22118579.620   116233863.011 6      1829.460          38.562    22118583.560    90571887.340 6      1425.553          38.500
G08  23617008.560   124108201.827 7      -663.965          43.312    23617007.380   124108201.824 6      -663.965          39.750    23617027.640    96707758.579 6      -517.375          39.687    23617028.540    96707761.548 7      -517.375          45.062
G21  22996897.000   120849387.827 7      1187.238          43.687    22996893.880   120849387.837 5      1187.238          32.750    22996900.080    94168460.297 5       925.120          32.687
R06  19885542.000   106113065.422 6      4921.981          38.437    19885541.600   106113065.420 6      4921.981          37.000
G17  22113449.120   116206970.459 7      5065.323          45.812    22113447.920   116206970.441 6      5065.323          37.687    22113451.080    90550888.040 6      3947.005          37.375    22113451.180    90550896.043 7      3947.005          45.750
G03  20235903.260   106340403.960 8      1563.610          49.437    20235902.400   106340403.963 8      1563.610          50.187    20235907.820    82862643.956 8      1218.397          50.687    20235908.960    82862671.953 8      1218.397          51.625
G04  21963063.300   115416691.194 7      5044.940          44.375    21963061.700   115416691.209 5      5044.940          35.312    21963072.780    89935124.862 5      3931.122          35.500    21963072.240    89935134.872 8      3931.122          48.937
R05  20629085.780   110274285.676 8        40.580          48.187    20629085.000   110274285.680 7        40.580          47.937    20629094.180    85768928.714 8        31.562          49.250    20629094.000    85768926.708 8        31.562          49.312
G14  22409318.400   117761817.285 7      1301.782          44.625    22409316.940   117761817.292 5      1301.782          33.937    22409326.960    91762422.260 5      1014.376          33.250    22409327.060    91762486.242 8      1014.376          49.000
R21  21539337.680   115261356.888 7      4964.742          46.500    21539336.640   115261356.900 7      4964.742          45.875    21539348.380    89647759.097 7      3861.466          47.625    21539347.200    89647759.098 7      3861.466          47.375
> 2024 05 06 16 44 10.0000000  0 10
G02  22118234.360   116232033.665 7      1829.146          47.000    22118231.400   116232033.668 6      1829.146          38.250    22118235.300    90570461.879 6      1425.308          38.500
G08  23617135.000   124108866.066 7      -664.527          42.937    23617133.760   124108866.063 6      -664.527          39.375    23617153.980    96708276.148 6      -517.813          38.937    23617154.940    96708279.107 7      -517.813          44.687
G21  22996671.320   120848200.685 7      1186.949          43.375    22996668.040   120848200.690 5      1186.949          32.625    22996674.180    94167535.248 5       924.896          32.687
R06  19884619.800   106108144.050 6      4920.814          38.437    19884619.200   106108144.045 6      4920.814          37.000
G17  22112485.400   116201905.378 7      5064.964          46.500    22112484.600   116201905.354 6      5064.964          37.875    22112487.540    90546941.219 6      3946.725          38.312    22112487.800    90546949.218 7      3946.725          46.437
G03  20235605.720   106338840.737 8      1562.869          49.562    20235604.840   106338840.742 8      1562.869          50.500    20235610.320    82861425.862 8      1217.820          50.562    20235611.300    82861453.861 8      1217.820          50.937
G04  21962103.340   115411646.536 7      5044.350          44.437    21962101.680   115411646.546 5      5044.350          35.375    21962112.660    89931193.964 5      3930.663          35.062    21962112.320    89931203.976 8      3930.663          48.750
R05  20629078.560   110274245.584 8        39.680          48.062    20629077.680   110274245.585 8        39.680          48.187    20629086.580    85768897.529 8        30.862          49.375    20629086.720    85768895.526 8        30.862          49.250
G14  22409070.780   117760515.883 7      1301.040          43.812    22409069.320   117760515.888 5      1301.040          33.937    22409079.280    91761408.175 5      1013.797          33.625    22409079.140    91761472.157 8      1013.797          48.625
R21  21538409.960   115256392.260 7      4964.514          46.500    21538408.960   115256392.267 7      4964.514          46.312    21538420.620    89643897.720 7      3861.289          47.687    21538419.760    89643897.718 8      3861.289          48.062
> 2024 05 06 16 44 11.0000000  0 10
G02  22117886.400   116230204.458 7      1829.100          46.750    22117883.440   116230204.461 6      1829.100          37.812    22117887.160    90569036.519 6      1425.273          37.687
G08  23617261.280   124109530.536 7      -664.774          42.125    23617260.180   124109530.536 6      -664.774          39.500    23617280.360    96708793.892 6      -518.006          39.312    23617281.380    96708796.859 7      -518.006          44.625
G21  22996445.460   120847013.610 7      1186.931          43.687    22996442.420   120847013.615 5      1186.931          32.625    22996448.280    94166610.252 5       924.881          32.687
R06  19883697.480   106103223.446 6      4920.207          38.437    19883696.640   106103223.426 6      4920.207          37.000
G17  22111521.460   116196840.580 7      5064.635          46.562    22111521.420   116196840.558 6      5064.635          39.062    22111524.140    90542994.629 6      3946.469          38.562    22111524.120    90543002.635 7      3946.469          46.562
G03  20235308.240   106337277.995 8      1562.380          49.937    20235307.480   106337278.000 8      1562.380          50.312    20235312.980    82860208.145 8      1217.439          50.750    20235313.800    82860236.142 8      1217.439          50.937
G04  21961143.820   115406602.264 7      5043.969          43.750    21961141.660   115406602.269 5      5043.969          35.250    21961152.660    89927263.369 5      3930.366          35.125    21961152.800    89927273.387 8      3930.366          48.937
R05  20629071.260   110274206.222 8        38.958          48.687    20629070.200   110274206.220 7        38.958          47.750    20629079.160    85768866.914 8        30.301          49.125    20629079.060    85768864.911 8        30.301          49.312
G14  22408823.360   117759214.994 7      1300.576          44.125    22408821.820   117759215.004 5      1300.576          33.937    22408831.700    91760394.493 5      1013.436          33.812    22408831.460    91760458.471 8      1013.436          48.250
R21  21537482.000   115251427.679 7      4964.483          46.812    21537481.240   115251427.678 7      4964.483          45.875    21537492.840    89640036.375 8      3861.264          48.000    21537492.120    89640036.380 8      3861.264          48.062
> 2024 05 06 16 44 12.0000000  0 10
G02  22117538.040   116228375.462 7      1828.975          46.750    22117535.620   116228375.461 6      1828.975          38.250    22117539.060    90567611.325 6      1425.175          38.437
G08  23617387.820   124110195.322 7      -664.951          42.812    23617386.620   124110195.324 6      -664.951          39.187    23617406.620    96709311.883 6      -518.144          38.812    23617407.580    96709314.854 7      -518.144          44.562
G21  22996219.620   120845826.707 7      1186.883          43.750    22996216.580   120845826.710 5      1186.883          32.625    22996222.500    94165685.389 5       924.844          32.562
R06  19882776.140   106098303.718 6      4919.126          38.062    19882775.160   106098303.716 6      4919.126          37.000
G17  22110557.940   116191776.118 7      5064.334          46.500    22110558.220   116191776.099 6      5064.334          39.562    22110560.640    90539048.300 6      3946.234          39.500    22110560.760    90539056.307 7      3946.234          46.750
G03  20235011.080   106335715.794 8      1562.016          49.812    20235010.140   106335715.796 8      1562.016          50.937    20235015.680    82858990.843 8      1217.156          50.562    20235016.440    82859018.838 8      1217.156          51.062
G04  21960183.540   115401558.423 7      5043.712          43.375    21960181.880   115401558.431 5      5043.712          35.250    21960192.720    89923333.118 5      3930.165          35.125    21960192.740    89923343.136 8      3930.165          49.187
R05  20629063.800   110274167.664 7        38.218          47.812    20629063.100   110274167.668 7        38.218          47.687    20629072.000    85768836.927 8        29.725          48.937    20629071.840    85768834.926 8        29.725          49.125
G14  22408575.980   117757914.698 7      1300.075          45.125    22408574.480   117757914.708 5      1300.075          33.937    22408584.100    91759381.271 5      1013.045          33.812    22408584.280    91759445.253 8      1013.045          48.125
R21  21536554.220   115246463.225 7      4964.459          45.812    21536553.520   115246463.232 7      4964.459          46.000    21536565.000    89636175.139 8      3861.246          48.312    21536564.280    89636175.143 7      3861.246          47.812
> 2024 05 06 16 44 13.0000000  0 10
G02  22117190.060   116226546.326 7      1829.036          47.500    22117187.440   116226546.328 6      1829.036          37.500    22117191.040    90566186.024 6      1425.223          37.875
G08  23617514.280   124110860.076 7      -664.859          42.437    23617513.060   124110860.083 6      -664.859          39.250    23617533.380    96709829.852 6      -518.072          39.062    23617534.000    96709832.827 7      -518.072          44.375
G21  22995993.500   120844639.605 7      1187.116          44.000    22995990.620   120844639.605 5      1187.116          32.937    22995996.660    94164760.370 5       925.026          32.562
R06  19881853.780   106093384.400 6      4919.263          38.062    19881853.480   106093384.395 6      4919.263          36.937
G17  22109594.160   116186711.646 7      5064.424          47.000    22109594.840   116186711.627 6      5064.424          39.437    22109597.060    90535101.956 6      3946.305          39.625    22109597.300    90535109.957 7      3946.305          46.937
G03  20234713.640   106334153.813 8      1561.757          49.687    20234712.960   106334153.815 8      1561.757          49.750    20234718.400    82857773.714 8      1216.953          49.437    20234718.840    82857801.714 8      1216.953          49.437
G04  21959223.780   115396514.722 7      5043.458          43.375    21959221.920   115396514.729 5      5043.458          35.375    21959232.900    89919402.971 5      3929.967          35.062    21959232.960    89919412.985 8      3929.967          48.562
R05  20629056.580   110274129.558 8        37.884          48.312    20629056.100   110274129.559 8        37.884          48.187    20629065.000    85768807.287 8        29.465          49.062    20629064.840    85768805.284 8        29.465          48.687
G14  22408328.400   117756614.637 7      1299.909          45.312    22408327.120   117756614.647 5      1299.909          33.750    22408336.500    91758368.232 5      1012.916          33.562    22408336.580    91758432.210 7      1012.916          47.500
R21  21535626.760   115241498.540 7      4964.727          45.500    21535625.880   115241498.542 7      4964.727          45.937    21535637.480    89632313.720 7      3861.455          47.687    21535636.740    89632313.722 7      3861.455          47.312
> 2024 05 06 16 44 14.0000000  0 10
G02  22116841.980   116224717.321 7      1829.002          47.812    22116839.460   116224717.321 6      1829.002          37.812    22116843.020    90564760.828 6      1425.196          37.812
G08  23617640.420   124111525.103 7      -665.059          43.500    23617639.560   124111525.108 6      -665.059          39.250    23617659.860    96710348.031 6      -518.228          38.875    23617660.720    96710351.008 7      -518.228          44.500
G21  22995767.700   120843452.601 7      1187.018          44.125    22995764.900   120843452.605 5      1187.018          32.937    22995770.680    94163835.431 5       924.949          32.562
R06  19880932.940   106088465.965 6      4918.245          38.062    19880931.720   106088465.964 6      4918.245          36.937
G17  22108630.700   116181647.455 8      5064.178          48.062    22108631.460   116181647.439 6      5064.178          40.250    22108633.420    90531155.837 6      3946.112          39.750    22108634.040    90531163.845 7      3946.112          47.000
G03  20234416.520   106332592.329 8      1561.251          49.937    20234415.780   106332592.329 8      1561.251          49.312    20234421.200    82856556.973 8      1216.559          48.875    20234421.600    82856584.972 8      1216.559          49.562
G04  21958264.120   115391471.398 7      5043.071          42.375    21958262.160   115391471.408 5      5043.071          35.000    21958273.180    89915473.121 5      3929.666          34.937    21958273.400    89915483.131 8      3929.666          48.312
R05  20629049.560   110274092.201 8        37.165          48.812    20629049.140   110274092.202 8        37.165          48.000    20629058.040    85768778.233 8        28.906          48.000    20629057.640    85768776.232 8        28.906          48.437
G14  22408081.260   117755315.116 7      1299.308          45.312    22408079.860   117755315.124 5      1299.308          33.937    22408089.280    91757355.613 5      1012.448          33.562    22408089.200    91757419.601 7      1012.448          47.312
R21  21534698.660   115236533.898 7      4964.687          46.937    21534698.340   115236533.911 7      4964.687          45.625    21534709.760    89628452.342 7      3861.423          47.312    21534708.820    89628452.340 7      3861.423          46.562
> 2024 05 06 16 44 15.0000000  0 10
G02  22116493.740   116222888.324 7      1828.920          47.500    22116491.540   116222888.319 6      1828.920          38.250    22116494.960    90563335.625 6      1425.133          38.062
G08  23617766.980   124112190.257 7      -665.361          43.250    23617766.120   124112190.259 6      -665.361          39.187    23617786.240    96710866.308 6      -518.463          39.125    23617787.760    96710869.283 7      -518.463          44.437
G21  22995541.580   120842265.549 7      1187.040          44.500    22995539.100   120842265.551 5      1187.040          32.187    22995544.840    94162910.453 5       924.966          32.562
R06  19880011.540   106083548.145 6      4917.459          38.062    19880010.120   106083548.129 6      4917.459          36.937
G17  22107666.860   116176583.401 7      5063.984          47.750    22107667.880   116176583.385 6      5063.984          40.375    22107669.680    90527209.821 6      3945.961          40.375    22107670.200    90527217.828 7      3945.961          47.250
G03  20234119.640   106331031.166 8      1560.901          50.000    20234118.620   106331031.166 8      1560.901          50.062    20234124.140    82855340.484 8      1216.287          50.625    20234124.640    82855368.483 8      1216.287          51.000
G04  21957304.460   115386428.325 7      5042.706          42.750    21957302.420   115386428.335 5      5042.706          35.000    21957313.280    89911543.459 5      3929.381          34.937    21957313.840    89911553.469 8      3929.381          49.437
R05  20629042.960   110274055.445 7        36.388          47.687    20629042.420   110274055.446 8        36.388          48.750    20629051.320    85768749.649 8        28.302          49.250    20629051.060    85768747.646 8        28.302          49.375
G14  22407833.740   117754015.972 7      1298.849          45.250    22407832.560   117754015.979 5      1298.849          33.937    22407841.980    91756343.288 5      1012.090          33.750    22407841.620    91756407.274 7      1012.090          47.937
R21  21533770.740   115231569.144 7      4964.717          45.875    21533770.440   115231569.151 7      4964.717          45.500    21533781.860    89624590.869 8      3861.447          48.375    21533780.940    89624590.865 7      3861.447          47.812
> 2024 05 06 16 44 16.0000000  0 10
G02  22116145.840   116221059.601 8      1828.826          48.562    22116143.660   116221059.595 6      1828.826          38.125    22116146.820    90561910.642 6      1425.059          37.937
G08  23617893.560   124112855.783 7      -665.511          43.562    23617892.660   124112855.783 6      -665.511          39.437    23617912.840    96711384.871 6      -518.580          39.187    23617914.180    96711387.853 7      -518.580          44.500
G21  22995315.840   120841078.730 7      1186.942          44.875    22995313.420   120841078.735 5      1186.942          32.187    22995319.120    94161985.656 5       924.889          32.562
R06  19879090.140   106078631.215 6      4916.854          38.062    19879089.320   106078631.189 6      4916.854          36.937
G17  22106703.380   116171519.762 8      5063.670          49.125    22106704.500   116171519.751 6      5063.670          39.937    22106706.000    90523264.132 6      3945.717          40.000    22106706.420    90523272.141 7      3945.717          47.437
G03  20233822.540   106329470.662 8      1560.362          50.187    20233821.700   106329470.664 8      1560.362          50.500    20233827.140    82854124.509 8      1215.866          50.687    20233827.600    82854152.508 8      1215.866          50.250
G04  21956345.000   115381385.758 7      5042.480          43.375    21956342.920   115381385.768 5      5042.480          35.375    21956353.680    89907614.199 5      3929.205          35.250    21956354.280    89907624.213 8      3929.205          49.625
R05  20629035.960   110274019.528 7        35.725          47.625    20629035.740   110274019.532 8        35.725          48.437    20629044.680    85768721.716 8        27.786          49.375    20629044.480    85768719.717 8        27.786          49.375
G14  22407586.760   117752717.500 7      1298.322          45.250    22407585.360   117752717.507 5      1298.322          33.812    22407594.680    91755331.490 5      1011.679          33.750    22407594.720    91755395.474 8      1011.679          48.312
R21  21532842.720   115226604.593 7      4964.628          45.875    21532842.980   115226604.600 7      4964.628          45.750    21532854.100    89620729.553 8      3861.377          48.250    21532853.440    89620729.549 7      3861.377          47.687
> 2024 05 06 16 44 17.0000000  0 10
G02  22115797.920   116219230.964 7      1828.825          47.437    22115795.860   116219230.959 6      1828.825          38.500    22115798.940    90560485.732 6      1425.059          38.312
G08  23618020.420   124113521.517 7      -665.657          42.062    23618019.440   124113521.522 6      -665.657          39.250    23618039.520    96711903.605 6      -518.693          39.000    23618040.820    96711906.588 7      -518.693          44.875
G21  22995089.920   120839891.967 7      1186.925          45.687    22995087.700   120839891.972 5      1186.925          32.500    22995093.320    94161060.905 5       924.877          32.625
R06  19878168.880   106073715.062 6      4915.806          38.125    19878168.280   106073715.054 6      4915.806          36.937
G17  22105739.700   116166456.340 8      5063.582          48.125    22105741.020   116166456.330 6      5063.582          40.312    22105742.300    90519318.611 6      3945.648          40.312    22105742.720    90519326.621 7      3945.648          47.000
G03  20233525.740   106327910.573 8      1560.086          49.750    20233524.860   106327910.570 8      1560.086          49.937    20233530.360    82852908.856 8      1215.651          50.000    20233530.880    82852936.854 8      1215.651          50.687
G04  21955385.540   115376343.539 7      5042.181          43.062    21955383.500   115376343.549 5      5042.181          35.250    21955394.340    89903685.207 5      3928.972          35.125    21955394.980    89903695.225 8      3928.972          49.437
R05  20629029.680   110273984.276 8        35.127          48.937    20629029.140   110273984.280 8        35.127          48.375    20629038.220    85768694.300 8        27.321          49.687    20629037.880    85768692.299 8        27.321          49.937
G14  22407339.760   117751419.469 7      1298.118          43.812    22407338.280   117751419.471 5      1298.118          33.812    22407347.620    91754320.029 5      1011.521          33.562    22407347.700    91754384.017 7      1011.521          47.812
R21  21531915.340   115221640.050 7      4964.752          46.000    21531915.200   115221640.063 7      4964.752          45.937    21531926.640    89616868.257 7      3861.474          47.875    21531925.640    89616868.249 8      3861.474          48.500
> 2024 05 06 16 44 18.0000000  0 10
G02  22115449.980   116217402.278 7      1828.729          47.812    22115448.040   116217402.280 6      1828.729          38.437    22115451.040    90559060.784 6      1424.984          38.562
G08  23618147.240   124114187.312 6      -665.738          41.812    23618146.080   124114187.317 6      -665.738          39.125    23618166.240    96712422.385 6      -518.757          38.812    23618167.920    96712425.364 7      -518.757          44.687
G21  22994864.020   120838705.078 7      1186.943          45.250    22994861.820   120838705.083 5      1186.943          32.500    22994867.600    94160136.057 5       924.890          32.625
R06  19877247.800   106068799.415 6      4915.320          38.125    19877247.020   106068799.416 6      4915.320          37.125
G17  22104776.320   116161393.006 8      5063.360          48.562    22104777.500   116161393.000 6      5063.360          39.812    22104778.420    90515373.158 6      3945.475          40.250    22104779.320    90515381.167 7      3945.475          46.562
G03  20233228.920   106326350.779 8      1559.679          49.875    20233227.980   106326350.784 8      1559.679          50.000    20233233.520    82851693.440 8      1215.334          50.625    20233234.160    82851721.438 8      1215.334          50.500
G04  21954425.980   115371301.524 7      5041.857          43.187    21954424.060   115371301.531 5      5041.857          35.250    21954434.900    89899756.372 5      3928.720          35.125    21954435.700    89899766.384 8      3928.720          49.375
R05  20629023.080   110273949.530 7        34.572          47.312    20629022.520   110273949.534 8        34.572          48.125    20629031.760    85768667.275 8        26.889          49.500    20629031.360    85768665.276 8        26.889          49.937
G14  22407092.880   117750121.783 7      1297.652          43.187    22407091.080   117750121.785 5      1297.652          33.812    22407100.680    91753308.839 5      1011.157          33.562    22407100.700    91753372.831 8      1011.157          48.312
R21  21530987.540   115216675.371 7      4964.832          45.937    21530987.620   115216675.375 7      4964.832          46.125    21530998.800    89613006.837 7      3861.536          47.937    21530998.300    89613006.831 8      3861.536          48.437
> 2024 05 06 16 44 19.0000000  0 10
G02  22115102.080   116215573.762 7      1828.415          47.250    22115100.060   116215573.764 6      1828.415          38.125    22115102.880    90557635.964 6      1424.739          38.625
G08  23618273.960   124114853.404 7      -666.240          42.437    23618272.840   124114853.406 6      -666.240          39.687    23618292.900    96712941.391 6      -519.148          39.062    23618294.480    96712944.378 7      -519.148          44.875
G21  22994638.200   120837518.328 7      1186.681          44.687    22994636.040   120837518.333 5      1186.681          32.750    22994641.720    94159211.314 5       924.687          33.000
R06  19876326.720   106063884.660 6      4914.201          38.125    19876326.040   106063884.669 6      4914.201          37.125
G17  22103812.700   116156329.995 8      5062.812          48.812    22103813.860   116156329.989 6      5062.812          39.750    22103814.640    90511427.954 6      3945.048          39.625    22103815.420    90511435.955 7      3945.048          46.562
G03  20232932.340   106324791.526 8      1558.901          50.000    20232931.200   106324791.531 8      1558.901          50.250    20232936.780    82850478.437 8      1214.728          50.062    20232937.400    82850506.438 8      1214.728          50.875
G04  21953466.460   115366259.943 7      5041.212          43.687    21953464.700   115366259.953 5      5041.212          35.250    21953475.440    89895827.880 5      3928.217          35.312    21953476.200    89895837.888 8      3928.217          49.375
R05  20629016.820   110273915.583 8        33.478          48.375    20629016.040   110273915.587 8        33.478          48.562    20629025.480    85768640.872 8        26.039          49.562    20629025.080    85768638.871 8        26.039          50.187
G14  22406845.880   117748824.667 7      1296.833          43.562    22406844.180   117748824.674 5      1296.833          33.812    22406853.740    91752298.099 5      1010.519          33.437    22406854.100    91752362.091 7      1010.519          47.812
R21  21530059.980   115211710.769 7      4964.526          47.125    21530060.220   115211710.779 7      4964.526          45.750    21530071.280    89609145.487 8      3861.298          48.062    21530070.880    89609145.487 8      3861.298          48.750
> 2024 05 06 16 44 20.0000000  0 10
G02  22114754.220   116213745.411 7      1828.448          46.562    22114752.260   116213745.408 6      1828.448          38.125    22114754.900    90556211.271 6      1424.764          38.375
G08  23618401.380   124115519.774 7      -666.376          42.812    23618399.900   124115519.778 6      -666.376          39.187    23618419.720    96713460.620 6      -519.254          38.812    23618421.000    96713463.611 7      -519.254          44.625
G21  22994412.300   120836331.686 7      1186.768          45.125    22994410.260   120836331.691 5      1186.768          32.750    22994415.800    94158286.656 5       924.754          33.000
R06  19875405.380   106058970.708 6      4913.557          38.125    19875405.280   106058970.709 6      4913.557          37.125
G17  22102849.460   116151267.260 8      5062.703          48.750    22102850.380   116151267.257 6      5062.703          40.000    22102850.860    90507482.963 6      3944.964          40.375    22102851.360    90507490.967 7      3944.964          46.062
G03  20232635.460   106323232.762 8      1558.617          49.500    20232634.480   106323232.764 8      1558.617          49.937    20232640.100    82849263.814 8      1214.507          50.250    20232640.620    82849291.816 8      1214.507          50.625
G04  21952507.020   115361218.719 7      5041.285          43.687    21952505.420   115361218.729 5      5041.285          35.312    21952516.160    89891899.660 5      3928.274          35.125    21952516.840    89891909.680 8      3928.274          49.562
R05  20629010.700   110273882.350 8        33.001          48.312    20629009.580   110273882.351 8        33.001          48.000    20629019.360    85768615.024 8        25.668          49.812    20629019.140    85768613.020 8        25.668          49.875
G14  22406599.360   117747528.076 7      1296.469          42.937    22406597.520   117747528.083 5      1296.469          33.562    22406607.040    91751287.763 5      1010.236          33.437    22406607.540    91751351.759 8      1010.236          48.437
R21  21529132.280   115206746.232 7      4964.679          46.125    21529132.520   115206746.241 7      4964.679          46.125    21529143.340    89605284.186 8      3861.417          48.375    21529143.120    89605284.188 8      3861.417          48.750
> 2024 05 06 16 44 21.0000000  0 10
G02  22114406.460   116211917.187 7      1828.235          46.750    22114404.320   116211917.184 6      1828.235          38.625    22114407.020    90554786.679 6      1424.599          38.250
G08  23618528.200   124116186.375 7      -666.594          42.625    23618526.880   124116186.377 6      -666.594          39.125    23618546.760    96713980.021 6      -519.424          39.125    23618548.020    96713983.004 7      -519.424          44.750
G21  22994186.180   120835145.141 7      1186.522          45.125    22994184.420   120835145.148 5      1186.522          32.750    22994190.100    94157362.074 5       924.563          32.625
R06  19874485.080   106054057.516 6      4912.678          38.812    19874484.160   106054057.528 6      4912.678          37.125
G17  22101886.120   116146204.795 8      5062.400          49.000    22101886.940   116146204.794 6      5062.400          39.812    22101887.160    90503538.182 6      3944.727          40.125    22101887.720    90503546.181 7      3944.727          45.625
G03  20232339.040   106321674.478 8      1558.057          49.562    20232338.020   106321674.480 8      1558.057          49.812    20232343.640    82848049.569 8      1214.071          50.312    20232344.200    82848077.569 8      1214.071          50.687
G04  21951547.580   115356177.934 7      5040.579          43.375    21951546.120   115356177.944 5      5040.579          34.812    21951557.020    89887971.785 5      3927.724          35.125    21951557.640    89887981.808 8      3927.724          49.562
R05  20629004.720   110273849.846 8        32.174          48.687    20629003.700   110273849.844 8        32.174          48.437    20629013.280    85768589.737 8        25.024          49.437    20629013.180    85768587.736 8        25.024          50.250
G14  22406352.520   117746232.024 7      1295.824          43.187    22406350.900   117746232.029 5      1295.824          33.437    22406360.420    91750277.844 5      1009.733          33.375    22406360.820    91750341.838 8      1009.733          48.500
R21  21528204.640   115201781.793 7      4964.452          47.187    21528204.500   115201781.800 7      4964.452          45.687    21528215.680    89601422.956 8      3861.240          48.437    21528215.340    89601422.963 8      3861.240          48.875
> 2024 05 06 16 44 22.0000000  0 10
G02  22114058.540   116210089.139 7      1827.869          46.562    22114056.500   116210089.136 6      1827.869          38.500    22114059.000    90553362.226 6      1424.314          38.187
G08  23618654.780   124116853.265 7      -667.053          43.125    23618653.860   124116853.278 6      -667.053          39.312    23618673.720    96714499.659 6      -519.782          38.937    23618674.920    96714502.653 7      -519.782          44.312
G21  22993960.400   120833958.704 7      1186.290          45.062    22993958.700   120833958.711 5      1186.290          32.750    22993964.300    94156437.575 5       924.382          32.625
R06  19873565.060   106049145.136 6      4911.913          38.812    19873562.760   106049145.128 6      4911.913          37.187
G17  22100922.740   116141142.651 8      5061.893          49.625    22100923.660   116141142.648 6      5061.893          39.375    22100923.720    90499593.652 6      3944.333          39.500    22100924.540    90499601.647 7      3944.333          45.125
G03  20232042.760   106320116.723 8      1557.376          49.562    20232041.420   106320116.725 8      1557.376          49.750    20232047.180    82846835.733 8      1213.540          50.187    20232047.940    82846863.734 8      1213.540          50.625
G04  21950588.380   115351137.540 7      5040.036          43.437    21950587.280   115351137.550 5      5040.036          34.812    21950597.920    89884044.218 5      3927.301          34.875    21950598.420    89884054.247 8      3927.301          49.187
R05  20628998.680   110273818.120 7        31.211          47.562    20628997.300   110273818.113 7        31.211          47.937    20629007.320    85768565.057 8        24.275          49.625    20629007.120    85768563.049 8        24.275          50.062
G14  22406105.980   117744936.503 7      1295.183          43.875    22406104.400   117744936.508 5      1295.183          33.437    22406113.960    91749268.343 5      1009.233          33.187    22406114.460    91749332.339 8      1009.233          48.750
R21  21527277.040   115196817.459 7      4964.117          46.187    21527277.140   115196817.469 7      4964.117          45.375    21527288.180    89597561.807 8      3860.980          48.750    21527287.460    89597561.810 8      3860.980          48.937
> 2024 05 06 16 44 23.0000000  0 10
G02  22113710.560   116208261.178 8      1828.074          48.312    22113708.680   116208261.177 6      1828.074          38.250    22113711.180    90551937.840 6      1424.473          38.437
G08  23618781.720   124117520.387 7      -667.104          42.875    23618780.860   124117520.399 6      -667.104          39.625    23618800.640    96715019.469 6      -519.822          39.312    23618801.900    96715022.457 7      -519.822          44.312
G21  22993734.740   120832772.316 7      1186.561          46.125    22993733.000   120832772.324 5      1186.561          32.812    22993738.620    94155513.115 5       924.593          32.875
R06  19872643.940   106044233.513 6      4911.342          38.812    19872643.020   106044233.535 6      4911.342          37.187
G17  22099959.560   116136080.722 8      5061.992          49.562    22099960.420   116136080.722 6      5061.992          39.250    22099960.280    90495649.292 6      3944.409          39.812    22099961.420    90495657.283 7      3944.409          45.500
G03  20231746.200   106318559.411 8      1557.215          50.062    20231745.160   106318559.414 8      1557.215          49.250    20231750.740    82845622.244 8      1213.414          49.687    20231751.720    82845650.245 8      1213.414          50.375
G04  21949629.320   115346097.491 7      5040.069          43.250    21949628.140   115346097.501 5      5040.069          34.750    21949638.800    89880116.915 5      3927.326          34.687    21949639.080    89880126.944 8      3927.326          48.812
R05  20628992.660   110273787.070 7        30.844          47.687    20628991.340   110273787.071 8        30.844          48.000    20629001.500    85768540.909 8        23.990          49.000    20629001.180    85768538.906 8        23.990          49.625
G14  22405859.820   117743641.465 7      1294.924          44.250    22405858.120   117743641.475 5      1294.924          33.750    22405867.440    91748259.220 5      1009.032          33.187    22405868.320    91748323.227 8      1009.032          48.250
R21  21526349.100   115191853.082 7      4964.553          46.250    21526349.460   115191853.094 7      4964.553          46.187    21526360.520    89593700.633 8      3861.319          48.625    21526359.600    89593700.634 8      3861.319          48.312
> 2024 05 06 16 44 24.0000000  0 10
G02  22113362.520   116206433.284 8      1827.583          48.375    22113360.760   116206433.287 6      1827.583          37.812    22113363.280    90550513.506 6      1424.091          38.312
G08  23618908.720   124118187.668 7      -667.560          42.750    23618907.700   124118187.676 6      -667.560          38.937    23618927.680    96715539.401 6      -520.177          38.687    23618928.540    96715542.386 7      -520.177          44.125
G21  22993509.080   120831585.934 7      1186.229          45.187    22993507.360   120831585.942 5      1186.229          32.812    22993512.760    94154588.664 5       924.334          32.875
R06  19871723.960   106039322.618 6      4910.327          38.750    19871723.140   106039322.614 6      4910.327          37.187
G17  22098996.400   116131019.004 8      5061.424          48.937    22098997.140   116131019.003 6      5061.424          39.500    22098997.080    90491705.089 6      3943.967          39.437    22098998.180    90491713.076 7      3943.967          45.187
G03  20231450.120   106317002.491 8      1556.567          49.875    20231448.760   106317002.491 8      1556.567          49.125    20231454.460    82844409.062 8      1212.910          49.187    20231455.580    82844437.056 8      1212.910          50.375
G04  21948670.500   115341057.759 7      5039.407          43.187    21948668.940   115341057.780 5      5039.407          35.062    21948679.700    89876189.874 5      3926.810          34.687    21948679.980    89876199.886 8      3926.810          49.125
R05  20628987.320   110273756.715 7        29.814          47.437    20628985.720   110273756.714 8        29.814          48.062    20628995.700    85768517.296 8        23.188          49.500    20628995.720    85768515.290 8        23.188          49.625
G14  22405613.440   117742346.866 7      1294.162          45.062    22405612.160   117742346.876 5      1294.162          33.750    22405621.240    91747250.440 5      1008.438          33.562    22405621.820    91747314.450 8      1008.438          48.375
R21  21525421.320   115186888.657 7      4964.303          47.000    21525421.640   115186888.672 7      4964.303          45.812    21525433.060    89589839.416 8      3861.125          48.562    21525432.240    89589839.418 8      3861.125          48.812
> 2024 05 06 16 44 25.0000000  0 10
G02  22113015.120   116204605.502 8      1827.501          48.875    22113012.960   116204605.504 6      1827.501          38.312    22113015.580    90549089.256 6      1424.026          38.375
G08  23619035.760   124118855.200 7      -667.911          43.000    23619034.720   124118855.207 6      -667.911          39.000    23619054.860    96716059.528 6      -520.450          38.750    23619055.540    96716062.524 7      -520.450          44.125
G21  22993283.300   120830399.642 7      1186.142          45.875    22993281.680   120830399.649 5      1186.142          32.937    22993287.100    94153664.274 5       924.266          32.875
R06  19870803.580   106034412.452 6      4909.400          38.750    19870802.580   106034412.466 6      4909.400          37.187
G17  22098033.120   116125957.529 8      5061.217          49.937    22098034.140   116125957.532 6      5061.217          39.250    22098033.780    90487761.077 6      3943.805          39.250    22098034.760    90487769.067 7      3943.805          45.125
G03  20231153.720   106315446.052 8      1556.061          49.062    20231152.560   106315446.055 8      1556.061          50.250    20231158.180    82843196.254 8      1212.515          50.375    20231159.280    82843224.251 8      1212.515          50.562
G04  21947711.680   115336018.401 7      5038.997          43.187    21947710.340   115336018.409 5      5038.997          35.000    21947720.720    89872263.098 5      3926.491          35.062    21947721.120    89872273.120 8      3926.491          49.125
R05  20628981.760   110273727.077 7        29.091          47.437    20628980.080   110273727.070 7        29.091          47.937    20628990.100    85768494.242 8        22.626          49.312    20628990.180    85768492.234 8        22.626          50.125
G14  22405367.400   117741052.763 7      1293.686          44.312    22405365.920   117741052.774 5      1293.686          33.687    22405374.840    91746242.048 5      1008.067          33.562    22405375.460    91746306.061 8      1008.067          48.625
R21  21524493.940   115181924.280 7      4964.139          46.937    21524494.120   115181924.292 7      4964.139          45.500    21524505.080    89585978.238 8      3860.997          49.187    21524504.600    89585978.242 8      3860.997          49.125
> 2024 05 06 16 44 26.0000000  0 10
G02  22112667.260   116202777.882 7      1827.643          47.812    22112665.200   116202777.881 6      1827.643          38.250    22112667.860    90547665.134 6      1424.137          38.125
G08  23619162.720   124119522.999 7      -667.882          42.500    23619161.800   124119523.004 6      -667.882          38.937    23619182.080    96716579.867 6      -520.427          38.812    23619182.600    96716582.858 7      -520.427          44.000
G21  22993057.680   120829213.483 7      1186.187          45.000    22993055.980   120829213.485 5      1186.187          32.937    22993061.440    94152739.990 5       924.302          33.062
R06  19869883.460   106029503.063 6      4909.274          38.750    19869882.680   106029503.066 6      4909.274          37.187
G17  22097070.140   116120896.368 8      5061.111          49.375    22097071.060   116120896.375 6      5061.111          39.312    22097070.820    90483817.319 6      3943.723          39.125    22097071.680    90483825.306 7      3943.723          45.312
G03  20230857.700   106313890.139 8      1555.688          48.750    20230856.440   106313890.141 8      1555.688          49.625    20230862.140    82841983.860 8      1212.224          49.875    20230863.260    82842011.855 8      1212.224          51.062
G04  21946752.700   115330979.432 7      5038.961          42.687    21946751.480   115330979.439 5      5038.961          35.000    21946761.640    89868336.640 5      3926.463          35.000    21946762.000    89868346.667 8      3926.463          49.125
R05  20628976.300   110273698.170 7        28.640          47.875    20628975.080   110273698.166 8        28.640          48.250    20628984.500    85768471.759 8        22.275          49.250    20628984.600    85768469.749 8        22.275          50.062
G14  22405121.140   117739759.229 7      1293.351          43.375    22405119.900   117739759.241 5      1293.351          33.687    22405128.700    91745234.097 5      1007.806          34.062    22405129.180    91745298.112 8      1007.806          48.375
R21  21523566.380   115176959.997 7      4964.286          45.937    21523566.340   115176960.014 7      4964.286          45.562    21523577.380    89582117.135 8      3861.112          48.812    21523576.920    89582117.144 8      3861.112          49.375
> 2024 05 06 16 44 27.0000000  0 10
G02  22112319.340   116200950.372 8      1827.477          48.250    22112317.340   116200950.375 6      1827.477          38.625    22112320.160    90546241.097 6      1424.008          38.750
G08  23619289.840   124120191.014 6      -668.207          41.625    23619288.880   124120191.019 6      -668.207          39.250    23619309.260    96717100.369 6      -520.681          38.937    23619309.940    96717103.369 7      -520.681          44.125
G21  22992832.040   120828027.382 7      1186.005          45.187    22992829.980   120828027.387 5      1186.005          33.125    22992835.780    94151815.754 5       924.160          33.062
R06  19868963.380   106024594.457 6      4908.275          38.750    19868963.160   106024594.469 6      4908.275          37.062
G17  22096107.040   116115835.440 8      5060.849          48.812    22096107.860   116115835.451 6      5060.849          39.062    22096107.800    90479873.733 6      3943.519          39.312    22096108.620    90479881.720 7      3943.519          45.187
G03  20230561.740   106312334.659 7      1555.178          47.937    20230560.440   106312334.664 8      1555.178          49.625    20230566.100    82840771.796 8      1211.827          50.062    20230567.240    82840799.792 8      1211.827          51.125
G04  21945794.080   115325940.872 7      5038.299          43.187    21945792.580   115325940.880 5      5038.299          35.000    21945802.880    89864410.500 5      3925.947          35.000    21945803.200    89864420.520 8      3925.947          49.187
R05  20628971.020   110273669.933 7        27.905          47.625    20628969.740   110273669.936 8        27.905          48.187    20628979.140    85768449.800 8        21.704          49.812    20628979.340    85768447.793 8        21.704          50.250
G14  22404874.840   117738466.159 7      1292.855          43.937    22404873.780   117738466.169 5      1292.855          33.687    22404882.620    91744226.508 5      1007.420          34.062    22404883.400    91744290.525 8      1007.420          48.812
R21  21522638.320   115171995.724 7      4964.202          45.937    21522638.440   115171995.752 7      4964.202          46.187    21522649.560    89578256.047 8      3861.046          49.312    21522649.100    89578256.053 8      3861.046          49.437
> 2024 05 06 16 44 28.0000000  0 10
G02  22111971.560   116199122.905 7      1827.550          47.562    22111969.640   116199122.912 6      1827.550          38.250    22111972.320    90544817.100 6      1424.065          38.375
G08  23619417.100   124120859.202 7      -668.196          42.625    23619416.140   124120859.199 6      -668.196          39.375    23619436.640    96717621.007 6      -520.672          39.250    23619437.300    96717624.004 7      -520.672          44.375
G21  22992606.500   120826841.273 7      1186.204          45.187    22992604.280   120826841.281 5      1186.204          33.125    22992609.960    94150891.515 5       924.315          32.875
R06  19868043.740   106019686.511 6      4907.665          38.812    19868043.100   106019686.541 6      4907.665          37.062
G17  22095144.160   116110774.699 8      5060.789          50.000    22095144.540   116110774.709 6      5060.789          38.812    22095145.040    90475930.297 6      3943.472          38.875    22095145.800    90475938.284 7      3943.472          45.500
G03  20230265.840   106310779.578 8      1555.011          48.750    20230264.480   106310779.578 8      1555.011          50.375    20230270.080    82839560.045 8      1211.697          50.000    20230271.300    82839588.043 8      1211.697          50.875
G04  21944835.260   115320902.565 7      5038.186          43.312    21944833.940   115320902.570 5      5038.186          35.125    21944843.920    89860484.557 5      3925.860          34.937    21944844.580    89860494.583 8      3925.860          49.125
R05  20628965.700   110273642.341 8        27.393          50.062    20628964.660   110273642.343 8        27.393          48.937    20628974.040    85768428.338 8        21.306          49.937    20628974.140    85768426.331 8        21.306          50.000
G14  22404628.940   117737173.523 7      1292.584          44.250    22404627.840   117737173.535 5      1292.584          33.625    22404636.580    91743219.261 5      1007.209          33.312    22404637.440    91743283.278 8      1007.209          48.500
R21  21521710.500   115167031.409 7      4964.466          47.250    21521710.820   115167031.434 7      4964.466          45.625    21521721.800    89574394.914 8      3861.251          49.437    21521721.500    89574394.923 8      3861.251          49.125
> 2024 05 06 16 44 29.0000000  0 10
G02  22111623.780   116197295.548 7      1827.290          47.937    22111621.760   116197295.553 6      1827.290          38.875    22111624.640    90543393.181 6      1423.862          38.625
G08  23619544.100   124121527.588 7      -668.510          42.625    23619543.160   124121527.587 6      -668.510          39.687    23619564.000    96718141.808 6      -520.917          39.000    23619564.540    96718144.810 7      -520.917          44.437
G21  22992380.700   120825655.220 7      1186.062          44.937    22992378.600   120825655.224 5      1186.062          33.000    22992384.060    94149967.317 5       924.204          32.875
R06  19867123.800   106014779.333 6      4906.706          38.812    19867123.240   106014779.358 6      4906.706          37.062
G17  22094181.100   116105714.211 8      5060.300          49.562    22094181.420   116105714.221 6      5060.300          38.687    22094182.180    90471987.058 6      3943.091          38.437    22094182.860    90471995.056 7      3943.091          45.687
G03  20229970.040   106309224.952 8      1554.340          49.625    20229968.740   106309224.954 8      1554.340          51.250    20229974.220    82838348.650 8      1211.174          50.687    20229975.420    82838376.644 8      1211.174          50.750
G04  21943876.420   115315864.610 7      5037.868          44.125    21943875.320   115315864.617 5      5037.868          35.375    21943885.440    89856558.887 5      3925.611          35.187    21943885.860    89856568.902 8      3925.611          48.812
R05  20628960.820   110273615.461 8        26.513          50.062    20628959.840   110273615.462 8        26.513          49.687    20628968.820    85768407.429 8        20.621          49.500    20628969.220    85768405.424 8        20.621          50.125
G14  22404383.180   117735881.388 7      1291.833          43.937    22404382.000   117735881.404 5      1291.833          33.625    22404390.760    91742212.403 5      1006.623          33.312    22404391.560    91742276.422 8      1006.623          48.687
R21  21520783.040   115162067.109 7      4964.273          47.937    21520783.080   115162067.129 7      4964.273          46.625    21520794.020    89570533.788 8      3861.101          48.875    21520793.880    89570533.801 8      3861.101          49.125
> 2024 05 06 16 44 30.0000000  0 10
G02  22111276.060   116195468.272 8      1827.094          48.187    22111273.920   116195468.279 6      1827.094          39.062    22111276.960    90541969.328 6      1423.709          38.437
G08  23619671.800   124122196.181 7      -668.737          42.687    23619670.340   124122196.185 6      -668.737          39.625    23619691.320    96718662.767 6      -521.094          39.312    23619692.100    96718665.761 7      -521.094          44.812
G21  22992155.000   120824469.216 7      1185.903          44.812    22992152.880   120824469.221 5      1185.903          33.000    22992158.340    94149043.155 5       924.080          33.187
R06  19866203.900   106009872.873 6      4906.080          38.812    19866203.640   106009872.879 6      4906.080          37.062
G17  22093218.220   116100653.924 8      5059.990          48.500    22093218.020   116100653.942 6      5059.990          38.687    22093219.480    90468043.982 6      3942.849          39.000    22093219.980    90468051.980 7      3942.849          46.062
G03  20229674.300   106307670.754 8      1553.850          49.750    20229672.920   106307670.757 8      1553.850          50.687    20229678.460    82837137.587 8      1210.792          50.562    20229679.660    82837165.587 8      1210.792          50.437
G04  21942917.800   115310827.014 7      5037.301          44.437    21942916.560   115310827.022 5      5037.301          35.375    21942926.820    89852633.501 5      3925.169          35.187    21942927.080    89852643.513 8      3925.169          49.000
R05  20628955.880   110273589.244 8        25.716          50.000    20628955.020   110273589.256 8        25.716          49.875    20628963.980    85768387.044 8        20.001          49.437    20628964.180    85768385.037 8        20.001          50.250
G14  22404137.440   117734589.711 7      1291.292          43.437    22404136.220   117734589.729 5      1291.292          33.812    22404144.980    91741205.899 5      1006.202          33.687    22404145.780    91741269.910 8      1006.202          48.750
R21  21519855.380   115157102.791 7      4964.265          47.562    21519855.180   115157102.801 7      4964.265          46.375    21519866.240    89566672.648 8      3861.095          49.437    21519866.100    89566672.657 8      3861.095          49.312
> 2024 05 06 16 44 31.0000000  0 10
G02  22110928.360   116193641.141 8      1827.320          48.250    22110926.340   116193641.148 6      1827.320          38.625    22110929.320    90540545.587 6      1423.886          38.687
G08  23619798.920   124122865.041 7      -668.725          42.562    23619797.760   124122865.046 6      -668.725          39.562    23619818.680    96719183.933 6      -521.084          39.250    23619819.500    96719186.933 7      -521.084          44.625
G21  22991929.240   120823283.299 7      1186.134          46.000    22991927.060   120823283.309 5      1186.134          33.250    22991932.740    94148119.065 5       924.260          33.187
R06  19865284.780   106004967.227 6      4905.678          38.812    19865284.220   106004967.222 6      4905.678          37.062
G17  22092255.160   116095593.927 7      5060.091          46.875    22092254.680   116095593.947 6      5060.091          38.375    22092256.840    90464101.127 6      3942.928          38.000    22092257.180    90464109.131 7      3942.928          46.250
G03  20229378.580   106306117.056 8      1553.687          48.625    20229377.240   106306117.056 8      1553.687          50.750    20229382.680    82835926.912 8      1210.665          50.500    20229383.840    82835954.911 8      1210.665          50.625
G04  21941959.360   115305789.816 7      5037.201          43.937    21941958.140   115305789.818 5      5037.201          35.062    21941968.020    89848708.415 5      3925.092          35.000    21941968.540    89848718.423 8      3925.092          49.250
R05  20628951.220   110273563.748 8        25.406          48.875    20628950.240   110273563.757 8        25.406          48.500    20628959.300    85768367.217 8        19.760          50.062    20628959.580    85768365.205 8        19.760          49.812
G14  22403891.660   117733298.567 7      1291.088          44.312    22403890.620   117733298.582 5      1291.088          34.187    22403899.360    91740199.807 5      1006.043          34.062    22403900.220    91740263.814 8      1006.043          48.187
R21  21518927.400   115152138.532 7      4964.532          45.875    21518927.240   115152138.549 7      4964.532          45.375    21518938.460    89562811.568 8      3861.303          48.875    21518938.120    89562811.576 8      3861.303          48.812
> 2024 05 06 16 44 32.0000000  0 10
G02  22110580.660   116191814.102 7      1826.817          47.937    22110578.600   116191814.109 6      1826.817          38.812    22110581.580    90539121.921 6      1423.494          38.562
G08  23619926.360   124123534.110 7      -669.377          43.187    23619925.000   124123534.115 6      -669.377          39.812    23619946.340    96719705.258 6      -521.592          39.375    23619946.400    96719708.264 7      -521.592          44.937
G21  22991703.620   120822097.442 7      1185.611          46.250    22991701.280   120822097.452 5      1185.611          33.250    22991707.200    94147195.019 5       923.853          33.187
R06  19864365.600   106000062.333 6      4904.370          38.750    19864365.720   106000062.334 6      4904.370          37.625
G17  22091292.200   116090534.160 7      5059.399          47.500    22091291.220   116090534.184 6      5059.399          37.875    22091294.160    90460158.458 6      3942.389          38.125    22091294.600    90460166.462 7      3942.389          46.312
G03  20229082.920   106304563.794 8      1552.843          49.375    20229081.660   106304563.793 8      1552.843          50.125    20229087.180    82834716.580 8      1210.007          50.250    20229087.980    82834744.581 8      1210.007          50.312
G04  21941000.820   115300752.935 7      5036.582          44.625    21940999.720   115300752.938 5      5036.582          35.125    21941009.560    89844783.581 5      3924.609          34.812    21941009.960    89844793.589 8      3924.609          49.187
R05  20628946.340   110273538.921 8        24.282          49.312    20628945.660   110273538.938 8        24.282          48.625    20628954.720    85768347.910 8        18.886          49.562    20628954.660    85768345.903 8        18.886          50.062
G14  22403645.860   117732007.899 7      1290.179          44.187    22403645.200   117732007.914 5      1290.179          34.187    22403653.740    91739194.087 5      1005.334          34.062    22403654.240    91739258.088 8      1005.334          48.625
R21  21517999.580   115147174.307 7      4964.012          44.812    21517999.920   115147174.319 7      4964.012          45.062    21518010.860    89558950.504 8      3860.898          49.187    21518010.460    89558950.511 8      3860.898          48.375
> 2024 05 06 16 44 33.0000000  0 10
G02  22110233.020   116189987.302 7      1826.645          47.000    22110230.820   116189987.312 6      1826.645          38.375    22110234.100    90537698.442 6      1423.359          38.062
G08  23620053.480   124124203.523 7      -669.695          42.750    23620052.620   124124203.535 6      -669.695          39.625    23620073.760    96720226.866 6      -521.840          39.312    23620073.900    96720229.872 7      -521.840          44.812
G21  22991478.160   120820911.757 7      1185.544          44.812    22991475.640   120820911.767 5      1185.544          32.937    22991481.600    94146271.108 5       923.801          33.187
R06  19863446.080   105995158.301 6      4903.471          38.750    19863446.740   105995158.302 6      4903.471          37.625
G17  22090329.380   116085474.772 7      5059.107          46.562    22090327.920   116085474.793 6      5059.107          38.125    22090331.620    90456216.082 6      3942.162          37.937    22090332.100    90456224.084 7      3942.162          46.437
G03  20228787.480   106303011.107 8      1552.384          49.250    20228786.300   106303011.109 8      1552.384          49.437    20228791.640    82833506.696 8      1209.649          49.750    20228792.560    82833534.695 8      1209.649          50.125
G04  21940042.360   115295716.551 7      5036.158          44.375    21940041.160   115295716.551 5      5036.158          35.125    21940051.320    89840859.137 5      3924.279          34.812    21940051.740    89840869.147 8      3924.279          49.000
R05  20628941.820   110273514.900 8        23.586          49.500    20628941.400   110273514.915 8        23.586          48.437    20628950.080    85768329.224 8        18.345          48.687    20628950.320    85768327.218 8        18.345          48.875
G14  22403400.340   117730717.824 7      1289.857          44.312    22403399.840   117730717.832 5      1289.857          33.687    22403408.400    91738188.826 5      1005.084          33.750    22403408.600    91738252.811 8      1005.084          48.375
R21  21517071.940   115142210.251 7      4963.931          46.187    21517072.120   115142210.269 7      4963.931          44.937    21517083.160    89555089.582 8      3860.835          48.062    21517082.920    89555089.587 7      3860.835          47.812
> 2024 05 06 16 44 34.0000000  0 10
G02  22109885.340   116188160.462 8      1826.874          48.000    22109883.100   116188160.469 6      1826.874          38.500    22109886.560    90536274.925 6      1423.538          38.375
G08  23620181.100   124124873.027 7      -669.652          43.250    23620180.100   124124873.043 6      -669.652          39.875    23620201.360    96720748.532 6      -521.806          39.625    23620201.380    96720751.531 7      -521.806          44.750
G21  22991252.580   120819725.989 7      1185.774          44.687    22991249.980   120819725.999 5      1185.774          32.937    22991256.000    94145347.132 5       923.980          32.750
R06  19862527.320   105990254.850 6      4903.260          38.750    19862527.100   105990254.848 6      4903.260          37.625
G17  22089366.680   116080415.477 7      5059.225          46.250    22089364.700   116080415.497 6      5059.225          37.500    22089369.140    90452273.778 6      3942.254          37.375    22089369.140    90452281.787 7      3942.254          46.812
G03  20228492.080   106301458.738 8      1552.160          49.000    20228490.760   106301458.740 8      1552.160          49.562    20228496.220    82832297.060 8      1209.476          49.625    20228497.220    82832325.059 8      1209.476          50.187
G04  21939083.900   115290680.391 7      5035.997          44.562    21939082.780   115290680.401 5      5035.997          35.062    21939092.920    89836934.868 5      3924.153          35.500    21939093.520    89836944.876 8      3924.153          49.375
R05  20628937.520   110273491.420 8        23.171          48.687    20628937.080   110273491.432 8        23.171          49.062    20628945.920    85768310.961 8        18.022          48.812    20628946.020    85768308.956 8        18.022          49.062
G14  22403154.920   117729428.115 7      1289.594          44.750    22403154.500   117729428.123 5      1289.594          33.687    22403163.000    91737183.850 5      1004.878          33.750    22403163.440    91737247.853 8      1004.878          48.562
R21  21516144.080   115137246.072 7      4964.256          45.000    21516144.540   115137246.090 7      4964.256          44.750    21516155.320    89551228.558 7      3861.088          47.875    21516155.100    89551228.567 7      3861.088          47.875
> 2024 05 06 16 44 35.0000000  0 10
G02  22109537.740   116186333.612 7      1826.802          47.312    22109535.420   116186333.614 6      1826.802          39.000    22109538.940    90534851.405 6      1423.482          38.875
G08  23620308.400   124125542.611 7      -669.718          43.375    23620307.660   124125542.621 6      -669.718          40.312    23620329.000    96721270.256 6      -521.858          39.875    23620329.060    96721273.260 7      -521.858          45.187
G21  22991026.820   120818540.143 7      1185.851          43.875    22991024.260   120818540.153 5      1185.851          32.687    22991030.380    94144423.092 5       924.040          32.750
R06  19861607.620   105985352.046 6      4902.349          38.750    19861608.920   105985352.062 6      4902.349          37.625
G17  22088403.980   116075356.315 7      5059.061          46.312    22088401.500   116075356.330 6      5059.061          37.750    22088406.660    90448331.580 6      3942.125          37.437    22088406.500    90448339.579 7      3942.125          46.937
G03  20228196.640   106299906.697 8      1551.759          49.125    20228195.440   106299906.705 8      1551.759          50.187    20228200.880    82831087.684 8      1209.163          50.125    20228201.700    82831115.685 8      1209.163          50.312
G04  21938125.880   115285644.451 7      5035.823          44.312    21938124.500   115285644.456 5      5035.823          35.312    21938134.560    89833010.769 5      3924.018          35.125    21938135.400    89833020.777 8      3924.018          49.750
R05  20628933.120   110273468.474 8        22.663          49.625    20628933.000   110273468.483 8        22.663          48.562    20628941.620    85768293.114 8        17.627          48.875    20628941.620    85768291.111 8        17.627          49.750
G14  22402909.680   117728138.774 7      1289.130          44.437    22402909.080   117728138.784 5      1289.130          33.875    22402917.740    91736179.166 5      1004.517          34.000    22402918.220    91736243.165 8      1004.517          48.812
R21  21515216.580   115132281.773 7      4964.258          46.062    21515217.100   115132281.788 7      4964.258          45.125    21515227.660    89547367.439 8      3861.089          48.312    21515227.500    89547367.447 7      3861.089          47.875
> 2024 05 06 16 44 36.0000000  0 10
G02  22109190.280   116184507.022 7      1826.468          47.500    22109187.820   116184507.027 6      1826.468          38.312    22109191.400    90533428.088 6      1423.222          38.500
G08  23620436.060   124126212.575 7      -670.194          42.812    23620435.480   124126212.585 6      -670.194          40.000    23620456.580    96721792.284 6      -522.229          40.062    23620456.600    96721795.290 7      -522.229          45.312
G21  22990801.080   120817354.534 7      1185.497          44.437    22990798.580   120817354.539 5      1185.497          32.687    22990804.720    94143499.236 5       923.764          32.750
R06  19860689.220   105980450.145 6      4901.418          38.500    19860690.480   105980450.159 6      4901.418          37.625
G17  22087441.180   116070297.560 7      5058.485          46.562    22087438.400   116070297.575 6      5058.485          38.000    22087444.080    90444389.697 6      3941.676          37.312    22087444.040    90444397.703 7      3941.676          47.687
G03  20227901.460   106298355.263 8      1551.132          48.687    20227900.180   106298355.266 8      1551.132          50.062    20227905.700    82829878.771 8      1208.674          50.062    20227906.760    82829906.775 8      1208.674          50.375
G04  21937167.640   115280609.039 7      5035.119          44.250    21937166.180   115280609.047 5      5035.119          35.437    21937176.600    89829087.084 5      3923.469          35.125    21937177.180    89829097.092 8      3923.469          49.875
R05  20628929.240   110273446.381 8        21.708          48.562    20628929.160   110273446.390 8        21.708          48.812    20628937.560    85768275.933 8        16.884          49.437    20628937.840    85768273.929 8        16.884          49.937
G14  22402664.480   117726850.068 7      1288.420          43.812    22402663.820   117726850.081 5      1288.420          34.062    22402672.640    91735174.976 5      1003.964          34.000    22402673.080    91735238.981 8      1003.964          49.000
R21  21514288.580   115127317.642 7      4964.126          45.750    21514289.300   115127317.654 7      4964.126          45.062    21514299.960    89543506.444 8      3860.987          48.562    21514299.680    89543506.451 8      3860.987          48.250
> 2024 05 06 16 44 37.0000000  0 10
G02  22108842.780   116182680.437 7      1826.365          47.562    22108840.220   116182680.445 6      1826.365          38.500    22108844.020    90532004.778 6      1423.142          38.187
G08  23620563.880   124126882.666 7      -670.308          43.375    23620563.240   124126882.671 6      -670.308          40.250    23620584.080    96722314.400 6      -522.318          40.000    23620584.440    96722317.404 7      -522.318          45.312
G21  22990575.360   120816168.864 7      1185.541          44.250    22990572.880   120816168.869 5      1185.541          32.687    22990579.140    94142575.333 5       923.799          33.000
R06  19859771.140   105975548.909 6      4900.722          38.500    19859771.180   105975548.918 6      4900.722          37.062
G17  22086478.520   116065238.916 7      5058.396          45.812    22086475.680   116065238.931 6      5058.396          37.187    22086481.420    90440447.903 6      3941.607          37.000    22086481.920    90440455.910 7      3941.607          47.625
G03  20227606.420   106296804.174 8      1550.762          48.750    20227604.940   106296804.182 8      1550.762          50.375    20227610.560    82828670.134 8      1208.386          50.562    20227611.640    82828698.138 8      1208.386          50.250
G04  21936209.600   115275573.867 7      5034.862          44.500    21936207.960   115275573.877 5      5034.862          35.437    21936218.460    89825163.585 5      3923.269          35.375    21936219.160    89825173.589 8      3923.269          49.937
R05  20628925.280   110273424.891 8        20.973          50.125    20628925.200   110273424.903 8        20.973          49.312    20628933.540    85768259.219 8        16.312          49.875    20628933.740    85768257.222 8        16.312          49.937
G14  22402419.340   117725561.752 7      1287.953          43.187    22402418.560   117725561.762 5      1287.953          34.062    22402427.500    91734171.087 5      1003.600          33.687    22402427.680    91734235.094 7      1003.600          47.937
R21  21513361.120   115122353.447 7      4964.045          46.312    21513361.540   115122353.459 7      4964.045          45.000    21513372.420    89539645.408 8      3860.924          48.687    21513371.880    89539645.410 7      3860.924          47.812
> 2024 05 06 16 44 38.0000000  0 10
G02  22108495.320   116180853.858 7      1826.461          47.562    22108492.560   116180853.863 6      1826.461          38.437    22108496.480    90530581.465 6      1423.216          38.062
G08  23620691.460   124127552.864 7      -670.373          44.250    23620691.040   124127552.874 6      -670.373          40.937    23620711.800    96722836.614 6      -522.369          40.625    23620711.580    96722839.609 7      -522.369          45.062
G21  22990349.780   120814983.170 7      1185.603          44.125    22990347.300   120814983.175 5      1185.603          32.812    22990353.400    94141651.416 5       923.847          33.000
R06  19858853.340   105970648.332 6      4900.190          38.500    19858852.960   105970648.336 6      4900.190          37.062
G17  22085515.980   116060180.448 7      5058.300          45.875    22085513.020   116060180.458 6      5058.300          36.812    22085518.820    90436506.243 6      3941.532          36.750    22085519.320    90436514.253 7      3941.532          47.125
G03  20227311.340   106295253.463 8      1550.442          49.562    20227309.880   106295253.468 8      1550.442          49.750    20227315.480    82827461.787 8      1208.137          49.937    20227316.200    82827489.792 8      1208.137          50.000
G04  21935251.420   115270538.959 7      5034.668          44.437    21935249.740   115270538.969 5      5034.668          35.812    21935260.560    89821240.293 5      3923.118          35.250    21935261.340    89821250.299 8      3923.118          50.250
R05  20628921.500   110273404.001 8        20.468          50.000    20628921.560   110273404.016 8        20.468          49.562    20628929.780    85768242.973 8        15.920          48.812    20628929.920    85768240.978 8        15.920          48.750
G14  22402174.200   117724273.816 7      1287.699          43.062    22402173.420   117724273.826 5      1287.699          33.562    22402182.320    91733167.499 5      1003.402          33.687    22402182.360    91733231.509 7      1003.402          47.500
R21  21512433.180   115117389.156 7      4964.215          46.000    21512433.780   115117389.173 7      4964.215          44.812    21512444.680    89535784.300 8      3861.056          48.000    21512444.320    89535784.301 7      3861.056          47.750
> 2024 05 06 16 44 39.0000000  0 10
G02  22108147.720   116179027.365 7      1826.369          47.250    22108145.040   116179027.376 6      1826.369          38.562    22108149.000    90529158.222 6      1423.145          38.437
G08  23620818.620   124128223.288 7      -670.591          43.937    23620818.680   124128223.296 6      -670.591          41.000    23620839.460    96723358.996 6      -522.538          40.375    23620839.400    96723361.989 7      -522.538          45.375
G21  22990124.020   120813797.511 7      1185.591          44.750    22990121.660   120813797.515 5      1185.591          32.812    22990127.700    94140727.526 5       923.837          32.812
R06  19857935.300   105965748.497 6      4899.300          38.500    19857934.840   105965748.511 6      4899.300          37.062
G17  22084553.460   116055122.195 7      5058.121          45.375    22084550.280   116055122.200 6      5058.121          37.000    22084556.240    90432564.749 6      3941.393          36.625    22084557.000    90432572.761 7      3941.393          47.937
G03  20227016.320   106293703.170 8      1550.076          48.500    20227014.860   106293703.172 8      1550.076          50.687    20227020.540    82826253.767 8      1207.851          50.750    20227021.300    82826281.771 8      1207.851          50.187
G04  21934293.400   115265504.404 7      5034.304          44.687    21934291.580   115265504.401 5      5034.304          35.375    21934302.560    89817317.263 5      3922.834          35.250    21934303.400    89817327.275 8      3922.834          50.437
R05  20628917.580   110273383.787 8        19.827          50.500    20628918.020   110273383.801 8        19.827          49.125    20628925.940    85768227.255 8        15.421          49.625    20628926.120    85768225.260 8        15.421          49.750
G14  22401929.260   117722986.346 7      1287.331          43.562    22401928.160   117722986.356 5      1287.331          33.562    22401937.220    91732164.271 5      1003.115          33.562    22401937.400    91732228.277 7      1003.115          47.875
R21  21511505.680   115112424.859 7      4964.243          45.625    21511506.160   115112424.871 7      4964.243          45.437    21511516.900    89531923.177 8      3861.078          48.687    21511516.500    89531923.183 8      3861.078          48.500
> 2024 05 06 16 44 40.0000000  0 10
G02  22107800.100   116177201.001 7      1826.275          47.500    22107797.360   116177201.009 6      1826.275          38.875    22107801.640    90527735.083 6      1423.072          38.812
G08  23620946.360   124128893.931 7      -670.745          43.687    23620946.540   124128893.930 6      -670.745          40.125    23620967.100    96723881.546 6      -522.659          40.062    23620967.140    96723884.541 7      -522.659          45.312
G21  22989898.380   120812611.938 7      1185.448          45.500    22989896.200   120812611.943 5      1185.448          33.250    22989902.160    94139803.699 5       923.726          32.812
R06  19857017.020   105960849.433 6      4898.629          38.500    19857017.040   105960849.420 6      4898.629          37.062
G17  22083591.040   116050064.213 7      5057.842          45.500    22083587.680   116050064.217 6      5057.842          37.187    22083593.720    90428623.471 6      3941.176          36.937    22083594.540    90428631.483 7      3941.176          47.687
G03  20226721.220   106292153.360 8      1549.594          49.750    20226719.840   106292153.360 8      1549.594          49.875    20226725.640    82825046.123 8      1207.476          50.250    20226726.240    82825074.129 8      1207.476          50.687
G04  21933335.420   115260470.227 7      5033.825          44.312    21933333.620   115260470.237 5      5033.825          35.500    21933344.600    89813394.550 5      3922.461          35.187    21933345.360    89813404.558 8      3922.461          50.312
R05  20628913.700   110273364.307 8        19.084          49.937    20628914.180   110273364.319 8        19.084          49.687    20628922.180    85768212.106 8        14.843          49.437    20628922.220    85768210.115 8        14.843          50.187
G14  22401684.340   117721699.429 7      1286.559          44.187    22401683.240   117721699.442 5      1286.559          33.437    22401692.240    91731161.477 5      1002.513          33.562    22401692.400    91731225.486 7      1002.513          47.875
R21  21510578.040   115107460.600 7      4964.215          45.437    21510578.560   115107460.623 7      4964.215          45.500    21510589.320    89528062.099 8      3861.056          48.437    21510588.720    89528062.107 8      3861.056          48.437
> 2024 05 06 16 44 41.0000000  0 10
G02  22107452.460   116175374.716 8      1826.179          48.437    22107449.660   116175374.724 6      1826.179          39.000    22107454.120    90526312.006 6      1422.996          38.937
G08  23621074.160   124129564.789 7      -671.070          43.562    23621074.320   124129564.786 6      -671.070          41.000    23621094.780    96724404.265 6      -522.912          40.625    23621094.860    96724407.261 7      -522.912          45.625
G21  22989673.020   120811426.383 7      1185.431          45.250    22989670.740   120811426.383 5      1185.431          33.250    22989676.620    94138879.888 5       923.712          33.250
R06  19856098.640   105955951.052 6      4897.964          38.187    19856098.680   105955951.042 6      4897.964          37.062
G17  22082628.400   116045006.433 7      5057.675          45.375    22082625.080   116045006.435 6      5057.675          36.937    22082631.240    90424682.350 6      3941.045          37.000    22082632.140    90424690.360 7      3941.045          47.562
G03  20226426.540   106290603.965 8      1549.126          48.625    20226425.020   106290603.973 8      1549.126          49.750    20226430.800    82823838.810 8      1207.111          50.250    20226431.480    82823866.813 8      1207.111          50.562
G04  21932377.620   115255436.350 7      5033.640          44.750    21932375.620   115255436.357 5      5033.640          35.500    21932386.560    89809472.055 5      3922.316          35.500    21932387.640    89809482.061 8      3922.316          50.062
R05  20628910.120   110273345.472 8        18.450          50.687    20628910.740   110273345.487 8        18.450          49.187    20628918.620    85768197.459 8        14.350          50.125    20628918.480    85768195.470 8        14.350          49.375
G14  22401439.240   117720412.928 7      1286.221          43.562    22401438.440   117720412.939 5      1286.221          33.437    22401447.200    91730159.005 5      1002.250          33.125    22401447.540    91730223.003 7      1002.250          47.375
R21  21509650.340   115102496.332 7      4964.191          46.875    21509651.160   115102496.350 7      4964.191          45.062    21509661.600    89524200.998 8      3861.038          48.437    21509661.040    89524201.008 8      3861.038          48.375
> 2024 05 06 16 44 42.0000000  0 10
G02  22107105.140   116173548.531 8      1826.153          48.000    22107102.220   116173548.541 6      1826.153          38.562    22107106.700    90524889.000 6      1422.977          38.500
G08  23621201.760   124130235.830 7      -671.155          44.812    23621202.080   124130235.827 6      -671.155          41.187    23621222.540    96724927.128 6      -522.978          40.750    23621222.640    96724930.126 7      -522.978          45.625
G21  22989447.220   120810240.882 7      1185.428          45.750    22989445.140   120810240.886 5      1185.428          33.000    22989450.980    94137956.118 5       923.710          33.250
R06  19855180.780   105951053.439 6      4897.253          38.187    19855181.080   105951053.427 6      4897.253          37.000
G17  22081666.060   116039948.903 7      5057.421          45.312    22081662.840   116039948.902 6      5057.421          37.500    22081668.720    90420741.421 6      3940.847          37.000    22081669.280    90420749.431 7      3940.847          47.687
G03  20226131.920   106289055.017 8      1548.759          49.000    20226130.240   106289055.022 8      1548.759          50.000    20226136.160    82822631.834 8      1206.825          50.187    20226136.920    82822659.839 8      1206.825          50.875
G04  21931419.580   115250402.840 7      5033.308          43.875    21931417.700   115250402.851 5      5033.308          35.312    21931428.640    89805549.852 5      3922.058          35.500    21931429.860    89805559.858 8      3922.058          50.312
R05  20628906.920   110273327.345 8        17.847          50.875    20628907.340   110273327.352 8        17.847          49.750    20628915.080    85768183.356 8        13.881          49.562    20628915.240    85768181.367 8        13.881          49.000
G14  22401194.620   117719126.919 7      1285.749          44.500    22401193.780   117719126.929 5      1285.749          32.687    22401202.600    91729156.909 5      1001.882          33.125    22401202.560    91729220.913 7      1001.882          47.125
R21  21508723.020   115097532.071 7      4964.249          46.437    21508723.400   115097532.085 7      4964.249          45.937    21508733.660    89520339.903 7      3861.082          47.875    21508733.560    89520339.907 8      3861.082          48.125
> 2024 05 06 16 44 43.0000000  0 10
G02  22106757.560   116171722.443 7      1825.972          47.937    22106754.480   116171722.451 6      1825.972          39.062    22106759.300    90523466.075 6      1422.835          38.687
G08  23621329.640   124130907.101 7      -671.460          43.687    23621329.940   124130907.095 6      -671.460          40.562    23621350.240    96725450.172 6      -523.216          40.062    23621350.560    96725453.159 7      -523.216          45.562
G21  22989221.620   120809055.424 7      1185.340          46.062    22989219.460   120809055.429 5      1185.340          33.000    22989225.520    94137032.383 5       923.642          33.125
R06  19854263.060   105946156.523 6      4896.465          38.187    19854263.080   105946156.518 6      4896.465          37.000
G17  22080703.940   116034891.585 7      5057.208          44.937    22080700.580   116034891.580 6      5057.208          37.062    22080706.280    90416800.661 6      3940.682          36.937    22080706.960    90416808.664 7      3940.682          47.250
G03  20225836.920   106287506.511 8      1548.227          49.125    20225835.540   106287506.513 8      1548.227          49.437    20225841.560    82821425.205 8      1206.410          49.375    20225842.380    82821453.208 8      1206.410          50.375
G04  21930461.680   115245369.680 7      5032.877          44.312    21930459.820   115245369.680 5      5032.877          35.187    21930471.000    89801627.911 5      3921.722          35.312    21930471.780    89801637.915 8      3921.722          49.687
R05  20628903.500   110273309.895 8        17.024          49.812    20628903.960   110273309.904 8        17.024          48.812    20628911.980    85768169.790 8        13.241          48.937    20628911.900    85768167.799 8        13.241          48.812
G14  22400950.000   117717841.364 7      1285.248          44.375    22400949.100   117717841.374 5      1285.248          32.687    22400958.000    91728155.172 5      1001.492          32.625    22400958.080    91728219.180 7      1001.492          47.187
R21  21507795.480   115092567.833 7      4964.111          45.000    21507795.480   115092567.853 7      4964.111          45.187    21507805.880    89516478.831 7      3860.975          47.250    21507805.700    89516478.833 7      3860.975          46.875
> 2024 05 06 16 44 44.0000000  0 10
G02  22106410.080   116169896.450 7      1825.900          47.875    22106407.260   116169896.460 6      1825.900          38.875    22106411.840    90522043.223 6      1422.779          38.625
G08  23621457.820   124131578.542 7      -671.491          44.187    23621457.560   124131578.539 6      -671.491          39.875    23621477.880    96725973.350 6      -523.240          39.312    23621478.500    96725976.335 7      -523.240          45.625
G21  22988996.320   120807870.001 7      1185.419          45.375    22988993.940   120807870.006 5      1185.419          33.062    22988999.860    94136108.673 5       923.703          33.125
R06  19853345.500   105941260.354 6      4895.837          38.187    19853346.320   105941260.357 6      4895.837          37.000
G17  22079741.480   116029834.515 7      5056.940          45.125    22079738.380   116029834.509 6      5056.940          36.750    22079743.980    90412860.090 6      3940.473          36.625    22079744.760    90412868.098 7      3940.473          47.250
G03  20225542.340   106285958.453 8      1547.746          48.625    20225540.900   106285958.458 8      1547.746          48.875    20225546.940    82820218.931 8      1206.036          49.000    20225548.000    82820246.934 8      1206.036          51.125
G04  21929504.000   115240336.846 7      5032.666          44.187    21929502.040   115240336.854 5      5032.666          35.187    21929513.400    89797706.238 5      3921.558          35.125    21929513.800    89797716.240 8      3921.558          49.500
R05  20628900.300   110273293.120 8        16.404          49.625    20628900.480   110273293.124 8        16.404          48.500    20628908.900    85768156.743 8        12.759          48.687    20628908.760    85768154.754 7        12.759          47.812
G14  22400705.580   117716556.297 7      1284.831          43.937    22400704.680   117716556.307 5      1284.831          33.125    22400713.240    91727153.815 5      1001.167          32.625    22400713.600    91727217.826 7      1001.167          47.062
R21  21506867.780   115087603.616 7      4964.188          44.812    21506867.920   115087603.639 7      4964.188          45.875    21506878.100    89512617.774 7      3861.035          47.312    21506877.940    89512617.772 7      3861.035          46.625
> 2024 05 06 16 44 45.0000000  0 10
G02  22106062.620   116168070.414 7      1826.120          47.562    22106059.700   116168070.419 6      1826.120          38.937    22106064.440    90520620.334 6      1422.951          38.437
G08  23621585.400   124132250.086 7      -671.438          44.312    23621585.220   124132250.080 6      -671.438          40.625    23621605.580    96726496.604 6      -523.198          40.437    23621606.220    96726499.592 7      -523.198          45.437
G21  22988770.660   120806684.510 7      1185.644          45.625    22988768.480   120806684.512 5      1185.644          33.062    22988774.340    94135184.914 5       923.879          33.437
R06  19852428.760   105936364.803 6      4895.276          38.500    19852428.760   105936364.815 6      4895.276          37.000
G17  22078779.180   116024777.552 7      5056.950          45.750    22078776.380   116024777.544 6      5056.950          37.937    22078781.560    90408919.606 6      3940.480          37.750    22078782.260    90408927.614 7      3940.480          47.187
G03  20225247.600   106284410.677 8      1547.712          48.812    20225246.460   106284410.682 8      1547.712          49.937    20225252.480    82819012.872 8      1206.009          49.625    20225253.780    82819040.872 8      1206.009          51.437
G04  21928546.360   115235304.225 7      5032.646          43.812    21928544.560   115235304.235 5      5032.646          35.312    21928555.780    89793784.725 5      3921.542          35.125    21928556.240    89793794.731 8      3921.542          49.812
R05  20628897.380   110273276.867 8        16.068          50.000    20628897.320   110273276.871 8        16.068          49.125    20628905.920    85768144.104 8        12.497          49.625    20628905.820    85768142.111 8        12.497          49.187
G14  22400461.120   117715271.586 7      1284.586          44.187    22400460.380   117715271.596 5      1284.586          33.125    22400468.760    91726152.733 5      1000.976          33.000    22400469.060    91726216.735 7      1000.976          47.375
R21  21505939.960   115082639.287 7      4964.456          45.375    21505939.900   115082639.316 7      4964.456          45.625    21505950.300    89508756.631 7      3861.243          47.187    21505950.300    89508756.632 7      3861.243          47.187
> 2024 05 06 16 44 46.0000000  0 10
G02  22105715.080   116166244.499 8      1825.698          48.062    22105712.240   116166244.502 6      1825.698          38.875    22105717.120    90519197.541 6      1422.622          39.125
G08  23621712.840   124132921.868 7      -672.115          43.312    23621712.920   124132921.863 6      -672.115          40.187    23621733.420    96727020.051 6      -523.726          40.187    23621734.280    96727023.034 7      -523.726          45.375
G21  22988545.160   120805499.092 7      1185.159          46.000    22988542.880   120805499.097 5      1185.159          33.062    22988548.700    94134261.211 5       923.500          33.437
R06  19851511.300   105931470.021 6      4894.328          38.500    19851511.620   105931470.036 6      4894.328          37.000
G17  22077817.000   116019720.818 7      5056.482          46.437    22077814.700   116019720.810 6      5056.482          38.187    22077819.320    90404979.296 6      3940.116          37.937    22077819.740    90404987.302 7      3940.116          47.437
G03  20224953.200   106282863.382 8      1546.882          49.562    20224952.020   106282863.387 8      1546.882          49.687    20224958.100    82817807.187 8      1205.362          50.125    20224959.440    82817835.188 8      1205.362          51.187
G04  21927588.760   115230271.990 7      5031.923          44.500    21927586.960   115230272.003 5      5031.923          35.437    21927598.120    89789863.514 5      3920.979          35.250    21927598.540    89789873.522 8      3920.979          49.937
R05  20628894.280   110273261.325 8        15.010          49.625    20628894.080   110273261.323 8        15.010          48.562    20628902.920    85768132.013 8        11.674          49.625    20628902.840    85768130.022 8        11.674          49.500
G14  22400216.840   117713987.350 7      1283.733          44.750    22400216.040   117713987.362 5      1283.733          32.625    22400224.300    91725152.023 5      1000.312          33.000    22400224.540    91725216.034 7      1000.312          47.187
R21  21505012.560   115077674.961 7      4964.156          45.812    21505012.360   115077674.984 7      4964.156          45.687    21505022.520    89504895.489 7      3861.010          47.625    21505022.480    89504895.487 7      3861.010          47.750
> 2024 05 06 16 44 47.0000000  0 10
G02  22105367.680   116164418.719 7      1825.707          47.437    22105364.880   116164418.726 6      1825.707          39.375    22105369.760    90517774.855 6      1422.629          39.187
G08  23621840.600   124133593.885 7      -672.115          43.187    23621840.620   124133593.879 6      -672.115          40.187    23621861.080    96727543.677 6      -523.726          40.000    23621862.100    96727546.657 7      -523.726          45.687
G21  22988319.460   120804313.756 7      1185.337          45.562    22988317.440   120804313.763 5      1185.337          33.062    22988323.120    94133337.573 5       923.639          33.312
R06  19850594.180   105926576.053 6      4893.642          38.500    19850594.500   105926576.060 6      4893.642          37.062
G17  22076854.980   116014664.389 7      5056.324          46.687    22076852.960   116014664.378 6      5056.324          38.500    22076857.160    90401039.221 6      3939.993          38.062    22076857.320    90401047.229 7      3939.993          47.750
G03  20224659.000   106281316.570 8      1546.523          49.437    20224657.720   106281316.575 8      1546.523          49.812    20224663.720    82816601.879 8      1205.083          50.000    20224665.100    82816629.882 8      1205.083          51.062
G04  21926631.300   115225240.138 7      5031.705          43.625    21926629.480   115225240.151 5      5031.705          35.125    21926640.580    89785942.603 5      3920.809          35.000    21926640.940    89785952.604 8      3920.809          49.750
R05  20628891.200   110273246.502 8        14.477          48.812    20628891.060   110273246.495 8        14.477          48.812    20628900.200    85768120.484 8        11.260          49.500    20628899.980    85768118.489 8        11.260          49.375
G14  22399972.800   117712703.634 7      1283.463          44.312    22399971.580   117712703.647 5      1283.463          32.625    22399980.000    91724151.719 5      1000.101          32.687    22399980.120    91724215.732 7      1000.101          47.375
R21  21504085.020   115072710.646 7      4964.316          45.125    21504085.000   115072710.666 7      4964.316          45.687    21504094.620    89501034.350 7      3861.134          47.750    21504094.800    89501034.355 7      3861.134          47.625
