     3.05           OBSERVATION DATA    MIXED               RINEX VERSION / TYPE
TPS2RIN 1.0.29.3920 TPS-USER            20240511 190913 UTC PGM / RUN BY / DATE
Win64 build Feb 23, 2024 (c) Topcon Positioning Systems     COMMENT
SRC: 20240508_GUI10.tps                                     COMMENT
OPT: -S -v 3.05                                             COMMENT
Observer            Agency                                  OBSERVER / AGENCY
O0M3X53SBGM         TPS HIPER_SR        4.8 HSR Jul,08,2022 REC # / TYPE / VERS
FW: 4.8 HSR Jul,08,2022 p3                                  COMMENT
SN: HiPer SR 1212-12575                                     COMMENT
000                 TPSHIPER_SR     NONE                    ANT # / TYPE
        1.8000        0.0000        0.0000                  ANTENNA: DELTA H/E/N
GUI10                                                       MARKER NAME
  5387562.3379 -1581842.4486  3016279.8303                  APPROX POSITION XYZ
  2024     5     8    10    28    4.0000000     GPS         TIME OF FIRST OBS
  2024     5     8    10    43   34.0000000     GPS         TIME OF LAST OBS
     1.000                                                  INTERVAL
   931 EPOCHS                                               COMMENT
G   16 C1C L1C D1C S1C C1W L1W D1W S1W C2W L2W D2W S2W C2X  SYS / # / OBS TYPES
       L2X D2X S2X                                          SYS / # / OBS TYPES
R   16 C1C L1C D1C S1C C1P L1P D1P S1P C2P L2P D2P S2P C2C  SYS / # / OBS TYPES
       L2C D2C S2C                                          SYS / # / OBS TYPES
    13                                                      # OF SATELLITES
   G08   932   932   932   932   932   932   932   932   932PRN / # OF OBS
         932   932   932   932   932   932   932            PRN / # OF OBS
   G10   932   932   932   932   932   932   932   932   932PRN / # OF OBS
         932   932   932   932   932   932   932            PRN / # OF OBS
   G16   932   932   932   932   932   932   932   932   932PRN / # OF OBS
         932   932   932     0     0     0     0            PRN / # OF OBS
   G18   932   932   932   932   932   932   932   932   932PRN / # OF OBS
         932   932   932   932   932   932   932            PRN / # OF OBS
   G23   932   932   932   932   932   932   932   932   932PRN / # OF OBS
         932   932   932   932   932   932   932            PRN / # OF OBS
   G26   932   932   932   932   932   932   932   932   932PRN / # OF OBS
         932   932   932   932   932   932   932            PRN / # OF OBS
   G27   932   932   932   932   932   932   932   932   932PRN / # OF OBS
         932   932   932   932   932   932   932            PRN / # OF OBS
   G28   932   932   932   932   932   932   932   932   932PRN / # OF OBS
         932   932   932   932   932   932   932            PRN / # OF OBS
   G31   932   932   932   932   932   932   932   932   932PRN / # OF OBS
         932   932   932   932   932   932   932            PRN / # OF OBS
   R09   932   932   932   932   932   932   932   932   932PRN / # OF OBS
         932   932   932   932   932   932   932            PRN / # OF OBS
   R10   932   932   932   932   932   932   932   932     0PRN / # OF OBS
           0     0     0     0     0     0     0            PRN / # OF OBS
   R16   932   932   932   932   932   932   932   932   932PRN / # OF OBS
         932   932   932   932   932   932   932            PRN / # OF OBS
   R21   932   932   932   932   932   932   932   932   932PRN / # OF OBS
         932   932   932   932   932   932   932            PRN / # OF OBS
G L1C                                                       SYS / PHASE SHIFT
G L1W -0.25000                                              SYS / PHASE SHIFT
G L2W  0.00000                                              SYS / PHASE SHIFT
G L2X  0.25000                                              SYS / PHASE SHIFT
R L1C                                                       SYS / PHASE SHIFT
R L1P -0.25000                                              SYS / PHASE SHIFT
R L2P -0.25000                                              SYS / PHASE SHIFT
R L2C                                                       SYS / PHASE SHIFT
  4 R09 -2 R10 -7 R16 -1 R21  4                             GLONASS SLOT / FRQ #
                                                            GLONASS COD/PHS/BIS
    18    18  1929     7GPS                                 LEAP SECONDS
                                                            END OF HEADER
> 2024 05 08 10 28  4.0000000  0 13
G26  20492900.380   107690918.164 8      2242.486          49.500    20492899.680   107690918.172 8      2242.486          49.437    20492904.160    83915016.150 8      1747.392          49.875    20492904.360    83915017.151 8      1747.392          49.250
G23  23719725.080   124647995.313 6      4233.215          41.000    23719723.740   124647995.320 4      4233.215          25.375    23719730.720    97128331.217 4      3298.609          25.125    23719731.420    97128339.233 6      3298.609          41.125
G28  23297548.120   122429440.732 7     -1050.500          43.250    23297547.100   122429440.729 5     -1050.500          32.000    23297554.060    95399576.231 5      -818.571          31.812    23297554.380    95399586.221 7      -818.571          47.062
G16  21084421.460   110799388.771 7      3977.916          45.812    21084419.680   110799388.781 6      3977.916          37.562    21084422.280    86337183.752 6      3099.675          37.437
G27  21123370.920   111004076.654 7      3429.736          47.875    21123369.860   111004076.658 6      3429.736          41.187    21123374.080    86496683.144 6      2672.522          41.250    21123374.700    86496683.146 8      2672.522          50.812
G10  24279986.720   127592188.707 7      4918.054          43.625    24279985.940   127592188.712 6      4918.054          37.750    24279997.360    99422536.826 6      3832.250          37.875    24279997.800    99422534.838 6      3832.250          40.250
G08  23413318.360   123037821.304 6      4624.344          37.062    23413316.380   123037821.298 4      4624.344          26.500    23413325.960    95873638.161 4      3603.385          26.187    23413326.740    95873658.172 7      3603.385          45.875
R21  22870507.280   122384712.060 6      6088.745          40.187    22870509.080   122384712.091 6      6088.745          40.937    22870521.720    95188162.488 7      4735.691          45.500    22870520.920    95188162.488 7      4735.691          45.937
R09  19198733.800   102520201.623 8      2603.480          48.750    19198733.820   102520201.630 7      2603.480          47.937    19198739.660    79737933.102 8      2024.929          52.000    19198739.680    79737951.097 8      2024.929          52.875
R10  20658917.260   110123655.613 7      5452.280          46.750    20658917.120   110123655.613 7      5452.280          45.062
G18  22433930.560   117891101.326 7        80.898          45.812    22433930.180   117891101.331 6        80.898          36.187    22433933.240    91863206.737 6        63.038          36.062    22433933.740    91863207.742 8        63.038          48.687
R16  22130994.280   118219791.343 7      -638.367          42.687    22130992.820   118219791.336 7      -638.367          43.562    22131006.340    91948781.785 7      -496.507          47.125    22131006.520    91948783.788 7      -496.507          47.500
G31  21534016.540   113162021.053 7        -5.059          47.187    21534015.680   113162021.061 7        -5.059          46.625    21534017.920    88178201.997 7        -3.942          46.312    21534020.220    88178210.997 7        -3.942          47.750
> 2024 05 08 10 28  5.0000000  0 13
G26  20492473.720   107688675.625 8      2242.390          48.687    20492472.880   107688675.630 8      2242.390          49.500    20492477.460    83913268.711 8      1747.317          49.625    20492477.800    83913269.714 8      1747.317          50.250
G23  23718919.280   124643762.208 6      4233.074          41.125    23718918.180   124643762.216 4      4233.074          25.375    23718925.340    97125032.698 4      3298.499          25.125    23718925.560    97125040.718 6      3298.499          41.125
G28  23297748.200   122430491.200 7     -1050.562          43.375    23297746.920   122430491.202 5     -1050.562          32.000    23297753.860    95400394.772 5      -818.620          31.812    23297754.380    95400404.765 7      -818.620          47.000
G16  21083664.320   110795410.869 7      3977.857          46.250    21083662.660   110795410.879 6      3977.857          37.000    21083665.220    86334084.088 6      3099.629          37.625
G27  21122718.180   111000646.868 8      3429.628          48.000    21122717.300   111000646.873 6      3429.628          41.187    21122721.380    86494010.583 6      2672.437          41.000    21122722.040    86494010.584 8      2672.437          50.375
G10  24279050.940   127587270.517 7      4918.228          43.250    24279049.960   127587270.517 6      4918.228          37.187    24279061.540    99418704.474 6      3832.386          38.250    24279061.800    99418702.492 6      3832.386          40.375
G08  23412438.640   123033196.941 6      4624.358          37.062    23412436.280   123033196.935 4      4624.358          26.500    23412446.060    95870034.763 4      3603.396          26.187    23412447.160    95870054.775 7      3603.396          46.062
R21  22869369.340   122378623.425 6      6088.325          40.812    22869371.160   122378623.443 6      6088.325          40.937    22869383.900    95183426.880 7      4735.364          45.437    22869383.080    95183426.877 7      4735.364          45.312
R09  19198246.360   102517598.299 8      2602.981          49.000    19198246.280   102517598.303 7      2602.981          47.625    19198252.120    79735908.290 8      2024.541          52.187    19198252.580    79735926.283 8      2024.541          52.687
R10  20657894.900   110118203.276 7      5452.267          46.500    20657894.060   110118203.271 7      5452.267          44.875
G18  22433915.060   117891020.435 7        80.616          44.937    22433914.900   117891020.442 6        80.616          36.250    22433917.920    91863143.707 6        62.818          36.062    22433918.300    91863144.704 8        62.818          48.937
R16  22131113.280   118220429.784 7      -638.648          43.187    22131112.200   118220429.780 7      -638.648          43.500    22131126.040    91949278.342 7      -496.726          46.437    22131125.960    91949280.341 7      -496.726          47.250
G31  21534017.360   113162026.169 7        -5.253          47.250    21534016.640   113162026.174 7        -5.253          46.437    21534018.840    88178205.979 7        -4.093          46.062    21534021.300    88178214.977 7        -4.093          47.875
> 2024 05 08 10 28  6.0000000  0 13
G26  20492047.180   107686433.525 8      2242.002          48.000    20492046.240   107686433.532 8      2242.002          49.187    20492050.820    83911521.622 8      1747.015          49.437    20492051.020    83911522.625 8      1747.015          49.875
G23  23718114.080   124639529.477 6      4232.765          40.812    23718112.540   124639529.482 4      4232.765          25.312    23718120.020    97121734.466 4      3298.258          25.250    23718120.220    97121742.471 6      3298.258          41.187
G28  23297947.800   122431541.879 7     -1050.655          43.562    23297947.060   122431541.873 5     -1050.655          32.000    23297953.980    95401213.474 5      -818.692          31.687    23297954.200    95401223.464 7      -818.692          46.875
G16  21082907.620   110791433.238 7      3977.645          45.437    21082905.640   110791433.251 6      3977.645          37.437    21082908.400    86330984.638 6      3099.464          37.250
G27  21122065.360   110997217.427 7      3429.396          46.812    21122064.720   110997217.431 6      3429.396          41.562    21122068.840    86491338.291 6      2672.257          41.062    21122069.380    86491338.296 8      2672.257          50.437
G10  24278115.280   127582352.377 7      4918.251          43.250    24278114.120   127582352.379 6      4918.251          37.875    24278125.540    99414872.167 6      3832.403          37.875    24278125.860    99414870.173 6      3832.403          40.375
G08  23411558.760   123028572.833 6      4624.218          37.062    23411556.320   123028572.825 4      4624.218          26.500    23411566.080    95866431.562 4      3603.286          26.187    23411567.260    95866451.576 7      3603.286          46.437
R21  22868231.460   122372535.207 6      6087.943          40.812    22868233.480   122372535.236 6      6087.943          40.937    22868246.200    95178691.613 7      4735.067          46.000    22868245.520    95178691.613 7      4735.067          45.875
R09  19197758.960   102514995.765 8      2602.298          48.437    19197758.960   102514995.766 8      2602.298          48.062    19197764.740    79733884.097 8      2024.010          52.250    19197764.720    79733902.090 8      2024.010          52.375
R10  20656872.160   110112751.342 7      5451.890          46.125    20656871.380   110112751.345 7      5451.890          45.062
G18  22433899.780   117890940.014 7        80.300          45.812    22433899.500   117890940.014 6        80.300          36.562    22433902.660    91863081.037 6        62.572          36.625    22433903.000    91863082.039 8        62.572          49.125
R16  22131233.440   118221068.725 7      -638.982          43.437    22131231.800   118221068.720 7      -638.982          43.250    22131245.500    91949775.291 7      -496.986          47.125    22131245.200    91949777.291 7      -496.986          47.500
G31  21534018.500   113162031.781 7        -5.749          46.500    21534017.760   113162031.784 7        -5.749          46.125    21534019.920    88178210.350 7        -4.480          46.375    21534022.440    88178219.345 7        -4.480          47.500
> 2024 05 08 10 28  7.0000000  0 13
G26  20491620.460   107684191.819 8      2241.383          48.812    20491619.720   107684191.826 8      2241.383          49.812    20491624.220    83909774.840 8      1746.532          49.812    20491624.460    83909775.841 8      1746.532          50.125
G23  23717308.560   124635297.048 6      4232.142          40.625    23717307.120   124635297.052 4      4232.142          25.312    23717314.660    97118436.473 4      3297.773          25.250    23717314.900    97118444.493 6      3297.773          41.187
G28  23298147.980   122432592.702 7     -1050.967          43.500    23298146.960   122432592.699 5     -1050.967          31.687    23298153.820    95402032.289 5      -818.935          31.687    23298154.220    95402042.289 7      -818.935          46.500
G16  21082150.500   110787455.849 7      3977.207          45.312    21082148.740   110787455.857 6      3977.207          37.187    21082151.540    86327885.375 6      3099.122          37.187
G27  21121412.960   110993788.308 7      3428.881          47.937    21121412.100   110993788.316 6      3428.881          41.187    21121416.380    86488666.255 6      2671.855          41.187    21121416.640    86488666.258 8      2671.855          50.562
G10  24277179.100   127577434.260 7      4917.952          42.375    24277178.300   127577434.262 6      4917.952          37.312    24277189.580    99411039.874 6      3832.170          37.625    24277189.620    99411037.885 6      3832.170          40.187
G08  23410678.540   123023948.956 6      4623.664          37.062    23410676.220   123023948.950 4      4623.664          26.500    23410686.260    95862828.545 4      3602.855          26.187    23410687.500    95862848.567 7      3602.855          46.812
R21  22867093.760   122366447.340 6      6087.614          40.125    22867095.220   122366447.377 6      6087.614          40.750    22867108.340    95173956.625 7      4734.811          45.750    22867108.000    95173956.626 7      4734.811          46.062
R09  19197271.860   102512393.952 8      2601.423          49.375    19197271.640   102512393.948 8      2601.423          48.250    19197277.440    79731860.458 8      2023.329          51.625    19197277.840    79731878.453 8      2023.329          53.500
R10  20655849.840   110107299.759 7      5451.315          46.500    20655848.780   110107299.760 7      5451.315          45.375
G18  22433884.480   117890860.051 7        79.755          46.250    22433884.320   117890860.056 6        79.755          36.562    22433887.520    91863018.726 6        62.147          36.062    22433887.560    91863019.724 8        62.147          49.062
R16  22131352.840   118221708.173 7      -639.734          43.437    22131351.760   118221708.168 7      -639.734          43.250    22131365.180    91950272.627 7      -497.571          46.812    22131365.320    91950274.629 7      -497.571          47.625
G31  21534019.880   113162037.812 7        -6.342          47.875    21534018.880   113162037.814 7        -6.342          46.250    21534021.200    88178215.045 7        -4.942          46.437    21534023.380    88178224.048 8        -4.942          48.000
> 2024 05 08 10 28  8.0000000  0 13
G26  20491193.900   107681950.609 8      2240.778          49.250    20491193.220   107681950.619 8      2240.778          50.000    20491197.740    83908028.447 8      1746.061          49.875    20491198.080    83908029.448 8      1746.061          50.187
G23  23716503.440   124631065.049 6      4231.603          41.312    23716501.800   124631065.057 4      4231.603          25.312    23716509.360    97115138.816 4      3297.353          25.250    23716509.040    97115146.832 6      3297.353          41.187
G28  23298347.920   122433643.838 7     -1051.470          42.687    23298346.900   122433643.840 5     -1051.470          31.687    23298353.820    95402851.352 5      -819.328          31.687    23298354.360    95402861.348 7      -819.328          46.937
G16  21081393.820   110783478.804 7      3976.709          46.562    21081392.160   110783478.809 6      3976.709          37.562    21081394.740    86324786.375 6      3098.735          36.937
G27  21120760.620   110990359.632 7      3428.249          47.437    21120759.740   110990359.642 6      3428.249          41.187    21120763.740    86485994.563 6      2671.363          41.000    21120764.380    86485994.563 8      2671.363          50.062
G10  24276243.280   127572516.230 6      4917.851          41.875    24276242.380   127572516.235 6      4917.851          37.687    24276253.800    99407207.649 6      3832.092          38.000    24276253.660    99407205.666 6      3832.092          40.187
G08  23409798.800   123019325.416 6      4623.187          37.125    23409796.300   123019325.407 4      4623.187          26.500    23409806.580    95859225.788 4      3602.483          26.187    23409807.680    95859245.810 7      3602.483          46.000
R21  22865956.340   122360359.976 6      6087.039          40.125    22865957.780   122360360.018 6      6087.039          40.750    22865970.940    95169222.019 7      4734.364          46.250    22865970.500    95169222.020 7      4734.364          45.937
R09  19196784.620   102509793.004 8      2600.383          49.062    19196784.600   102509793.000 8      2600.383          48.250    19196790.400    79729837.499 8      2022.520          52.187    19196790.880    79729855.494 8      2022.520          53.125
R10  20654827.640   110101848.643 7      5450.737          46.187    20654826.000   110101848.636 7      5450.737          45.875
G18  22433869.360   117890780.663 7        78.973          46.125    22433869.340   117890780.666 6        78.973          36.562    22433872.340    91862956.866 6        61.537          36.500    22433872.920    91862957.865 8        61.537          48.937
R16  22131472.820   118222348.208 7      -640.428          44.312    22131471.480   118222348.207 7      -640.428          43.687    22131485.060    91950770.427 7      -498.111          47.250    22131485.080    91950772.430 7      -498.111          47.500
G31  21534020.920   113162044.396 7        -7.027          47.812    21534020.220   113162044.396 7        -7.027          46.875    21534022.340    88178220.176 7        -5.476          46.875    21534024.440    88178229.176 7        -5.476          47.500
> 2024 05 08 10 28  9.0000000  0 13
G26  20490767.760   107679710.054 8      2240.329          48.875    20490766.800   107679710.053 8      2240.329          49.750    20490771.440    83906282.553 8      1745.711          49.875    20490771.840    83906283.553 8      1745.711          50.187
G23  23715698.180   124626833.640 6      4231.173          41.375    23715696.560   124626833.647 4      4231.173          25.312    23715704.060    97111841.618 4      3297.018          25.250    23715704.380    97111849.631 6      3297.018          41.437
G28  23298548.160   122434695.394 7     -1051.760          43.250    23298546.960   122434695.396 5     -1051.760          31.687    23298553.800    95403670.736 5      -819.554          31.500    23298554.280    95403680.738 7      -819.554          46.687
G16  21080637.100   110779502.258 7      3976.284          46.375    21080635.500   110779502.268 6      3976.284          37.562    21080638.040    86321687.774 6      3098.403          37.500
G27  21120108.380   110986931.512 7      3427.959          47.687    21120107.260   110986931.519 6      3427.959          41.437    21120111.480    86483323.299 6      2671.137          41.312    21120111.920    86483323.297 8      2671.137          50.312
G10  24275307.720   127567598.518 7      4917.645          42.812    24275306.660   127567598.523 6      4917.645          37.437    24275318.080    99403375.676 6      3831.931          37.500    24275317.700    99403373.674 6      3831.931          40.062
G08  23408919.220   123014702.356 6      4622.863          37.312    23408916.780   123014702.348 4      4622.863          26.687    23408926.800    95855623.406 4      3602.231          26.187    23408927.840    95855643.416 7      3602.231          45.937
R21  22864819.140   122354273.278 6      6086.408          40.125    22864820.480   122354273.317 6      6086.408          40.750    22864833.240    95164487.921 7      4733.873          46.437    22864832.740    95164487.923 7      4733.873          45.875
R09  19196297.720   102507193.041 8      2599.553          48.562    19196297.760   102507193.040 7      2599.553          47.750    19196303.440    79727815.306 8      2021.874          52.375    19196303.880    79727833.300 8      2021.874          53.062
R10  20653804.640   110096398.119 7      5450.295          45.750    20653803.360   110096398.127 7      5450.295          45.500
G18  22433854.480   117890701.977 7        78.430          46.062    22433854.360   117890701.979 6        78.430          36.125    22433857.360    91862895.548 6        61.114          36.250    22433857.880    91862896.549 8        61.114          49.062
R16  22131593.000   118222989.010 7      -641.138          44.250    22131591.300   118222989.014 7      -641.138          43.687    22131605.140    91951268.826 7      -498.663          47.062    22131605.000    91951270.827 7      -498.663          47.312
G31  21534022.500   113162051.672 8        -7.496          48.187    21534021.600   113162051.674 7        -7.496          46.375    21534023.660    88178225.843 7        -5.841          46.687    21534025.880    88178234.842 7        -5.841          47.687
> 2024 05 08 10 28 10.0000000  0 13
G26  20490341.340   107677469.998 8      2239.942          49.125    20490340.540   107677470.005 8      2239.942          49.375    20490345.120    83904537.057 8      1745.409          49.312    20490345.640    83904538.058 8      1745.409          49.125
G23  23714892.640   124622602.645 6      4230.901          41.500    23714891.460   124622602.655 4      4230.901          25.312    23714898.940    97108544.741 4      3296.806          25.250    23714898.920    97108552.755 6      3296.806          41.437
G28  23298748.160   122435747.224 7     -1051.807          43.000    23298747.220   122435747.226 5     -1051.807          31.687    23298754.060    95404490.336 5      -819.590          31.500    23298754.460    95404500.329 7      -819.590          46.562
G16  21079880.520   110775526.049 7      3976.145          45.312    21079878.840   110775526.054 6      3976.145          37.625    21079881.420    86318589.427 6      3098.295          37.312
G27  21119455.960   110983503.828 8      3427.650          48.000    21119455.020   110983503.828 6      3427.650          40.937    21119459.260    86480652.368 6      2670.896          40.687    21119459.920    86480652.373 8      2670.896          50.812
G10  24274371.920   127562680.879 6      4917.774          41.875    24274370.960   127562680.881 6      4917.774          37.687    24274382.160    99399543.754 6      3832.032          37.437    24274382.440    99399541.766 6      3832.032          40.062
G08  23408039.340   123010079.614 6      4622.692          37.312    23408037.260   123010079.601 4      4622.692          26.687    23408046.980    95852021.270 4      3602.098          26.312    23408047.880    95852041.288 7      3602.098          45.687
R21  22863681.800   122348187.072 6      6086.131          40.937    22863683.280   122348187.098 6      6086.131          40.750    22863696.200    95159754.199 7      4733.657          45.812    22863695.640    95159754.202 7      4733.657          45.625
R09  19195811.020   102504593.906 8      2598.886          48.187    19195811.040   102504593.910 8      2598.886          48.187    19195816.820    79725793.758 8      2021.356          51.312    19195817.240    79725811.755 8      2021.356          51.937
R10  20652782.100   110090948.093 7      5449.858          45.687    20652780.980   110090948.099 7      5449.858          45.000
G18  22433839.760   117890623.840 7        78.051          46.250    22433839.320   117890623.845 6        78.051          36.500    22433842.620    91862834.660 6        60.819          36.000    22433842.820    91862835.659 8        60.819          48.750
R16  22131713.060   118223630.373 7      -641.471          43.750    22131711.480   118223630.369 7      -641.471          43.187    22131725.060    91951767.647 7      -498.922          46.562    22131724.920    91951769.649 7      -498.922          47.625
G31  21534023.880   113162059.512 7        -7.983          46.312    21534023.140   113162059.509 7        -7.983          46.250    21534025.120    88178231.946 7        -6.221          45.750    21534027.420    88178240.951 7        -6.221          47.500
> 2024 05 08 10 28 11.0000000  0 13
G26  20489915.340   107675230.499 8      2239.368          49.125    20489914.400   107675230.506 8      2239.368          49.937    20489919.040    83902791.993 8      1744.962          50.187    20489919.600    83902792.990 8      1744.962          49.500
G23  23714087.860   124618372.123 6      4230.445          41.375    23714086.320   124618372.131 4      4230.445          25.312    23714093.800    97105248.232 4      3296.450          25.250    23714093.360    97105256.240 6      3296.450          41.000
G28  23298948.780   122436799.353 7     -1051.983          43.375    23298947.580   122436799.352 5     -1051.983          31.687    23298954.300    95405310.168 5      -819.727          31.562    23298954.780    95405320.162 7      -819.727          46.875
G16  21079123.860   110771550.226 7      3975.820          45.312    21079122.200   110771550.233 6      3975.820          38.000    21079124.820    86315491.387 6      3098.041          37.562
G27  21118804.040   110980076.602 8      3427.202          48.062    21118802.860   110980076.609 6      3427.202          41.312    21118807.000    86477981.811 6      2670.547          41.312    21118807.860    86477981.813 8      2670.547          50.437
G10  24273436.060   127557763.435 7      4917.653          42.937    24273435.180   127557763.432 6      4917.653          37.125    24273446.420    99395711.984 6      3831.937          37.625    24273446.700    99395709.988 6      3831.937          40.062
G08  23407159.460   123005457.238 6      4622.328          38.562    23407157.860   123005457.227 4      4622.328          26.687    23407167.320    95848419.424 4      3601.814          26.312    23407167.940    95848439.454 7      3601.814          45.937
R21  22862544.120   122342101.453 6      6085.595          40.937    22862545.720   122342101.492 6      6085.595          40.750    22862558.760    95155020.958 7      4733.241          46.062    22862558.480    95155020.963 7      4733.241          46.312
R09  19195324.540   102501995.649 7      2598.010          47.500    19195324.440   102501995.650 8      2598.010          48.062    19195330.200    79723772.892 8      2020.675          51.937    19195330.220    79723790.889 8      2020.675          53.000
R10  20651759.620   110085498.541 7      5449.570          46.000    20651758.680   110085498.544 7      5449.570          45.250
G18  22433824.880   117890546.328 7        77.322          46.062    22433824.540   117890546.336 6        77.322          36.375    22433827.600    91862774.261 6        60.251          36.375    22433828.120    91862775.256 8        60.251          48.812
R16  22131833.360   118224272.335 7      -642.010          44.000    22131831.780   118224272.341 7      -642.010          43.187    22131845.120    91952266.951 7      -499.341          47.187    22131844.860    91952268.952 7      -499.341          47.500
G31  21534025.500   113162067.931 7        -8.502          47.250    21534024.760   113162067.930 7        -8.502          46.437    21534026.840    88178238.506 7        -6.625          46.500    21534029.180    88178247.503 8        -6.625          48.187
> 2024 05 08 10 28 12.0000000  0 13
G26  20489489.000   107672991.312 8      2239.051          49.500    20489488.240   107672991.317 8      2239.051          49.375    20489492.800    83901047.170 8      1744.715          49.562    20489493.440    83901048.170 8      1744.715          49.875
G23  23713282.700   124614141.859 7      4230.184          42.562    23713281.380   124614141.875 4      4230.184          25.375    23713288.620    97101951.925 4      3296.247          25.312    23713289.080    97101959.941 6      3296.247          41.000
G28  23299148.900   122437851.618 7     -1052.286          42.375    23299147.920   122437851.618 5     -1052.286          31.937    23299154.560    95406130.105 5      -819.963          31.562    23299154.960    95406140.091 7      -819.963          46.750
G16  21078367.360   110767574.597 7      3975.521          46.250    21078365.600   110767574.610 6      3975.521          37.437    21078368.120    86312393.495 6      3097.808          37.500
G27  21118151.520   110976649.643 8      3426.831          48.375    21118150.760   110976649.651 6      3426.831          41.062    21118155.000    86475311.453 6      2670.258          41.125    21118155.640    86475311.454 8      2670.258          50.750
G10  24272499.960   127552845.917 7      4917.644          42.062    24272499.480   127552845.920 6      4917.644          37.375    24272510.700    99391880.160 6      3831.930          37.812    24272511.340    99391878.164 6      3831.930          40.062
G08  23406279.620   123000835.040 6      4622.260          38.125    23406278.300   123000835.026 4      4622.260          26.687    23406287.800    95844817.714 4      3601.761          26.312    23406288.280    95844837.723 7      3601.761          46.062
R21  22861408.080   122336016.216 6      6085.048          41.125    22861408.560   122336016.247 6      6085.048          41.312    22861421.400    95150287.992 7      4732.815          46.125    22861421.260    95150287.996 7      4732.815          46.375
R09  19194837.780   102499398.036 8      2597.288          48.312    19194837.920   102499398.035 7      2597.288          47.562    19194843.700    79721752.520 8      2020.113          52.062    19194844.160    79721770.515 8      2020.113          53.125
R10  20650737.800   110080049.296 7      5449.148          46.125    20650736.720   110080049.305 7      5449.148          45.312
G18  22433810.260   117890469.163 7        77.062          46.312    22433809.760   117890469.168 6        77.062          36.500    22433812.860    91862714.126 6        60.048          36.187    22433813.840    91862715.123 8        60.048          48.875
R16  22131953.420   118224914.686 7      -642.454          43.812    22131951.920   118224914.692 7      -642.454          42.875    22131965.180    91952766.543 7      -499.686          47.250    22131965.160    91952768.548 7      -499.686          47.250
G31  21534027.200   113162076.715 7        -8.912          47.875    21534026.440   113162076.717 7        -8.912          46.750    21534028.580    88178245.347 7        -6.944          46.750    21534030.580    88178254.345 7        -6.944          47.687
> 2024 05 08 10 28 13.0000000  0 13
G26  20489063.000   107670752.583 8      2238.474          48.875    20489062.200   107670752.588 8      2238.474          49.687    20489066.860    83899302.704 8      1744.266          49.937    20489067.480    83899303.705 8      1744.266          50.125
G23  23712477.500   124609912.002 7      4229.605          42.125    23712476.560   124609912.018 4      4229.605          25.375    23712483.560    97098655.937 4      3295.796          25.312    23712484.100    97098663.938 6      3295.796          40.875
G28  23299348.980   122438904.071 7     -1052.464          42.937    23299348.100   122438904.073 5     -1052.464          31.937    23299354.740    95406950.190 5      -820.101          31.562    23299355.460    95406960.175 7      -820.101          47.187
G16  21077610.800   110763599.252 7      3975.157          45.937    21077609.140   110763599.262 6      3975.157          37.875    21077611.580    86309295.823 6      3097.525          37.375
G27  21117499.560   110973223.045 8      3426.394          48.500    21117498.800   110973223.050 6      3426.394          41.375    21117502.900    86472641.375 6      2669.917          41.000    21117503.640    86472641.375 8      2669.917          50.875
G10  24271564.600   127547928.484 7      4917.473          43.312    24271563.660   127547928.483 6      4917.473          37.562    24271574.860    99388048.397 6      3831.797          37.562    24271574.940    99388046.408 6      3831.797          40.250
G08  23405400.040   122996213.107 6      4621.753          38.062    23405398.860   122996213.094 4      4621.753          26.687    23405408.300    95841216.208 4      3601.366          26.312    23405409.060    95841236.230 7      3601.366          46.187
R21  22860270.820   122329931.351 6      6084.767          41.125    22860271.740   122329931.365 6      6084.767          41.312    22860284.400    95145555.311 7      4732.597          46.437    22860283.940    95145555.313 7      4732.597          46.562
R09  19194351.660   102496801.227 8      2596.395          49.000    19194351.860   102496801.230 8      2596.395          48.562    19194357.440    79719732.779 8      2019.419          52.062    19194357.860    79719750.774 8      2019.419          53.000
R10  20649715.180   110074600.475 7      5448.563          46.250    20649714.260   110074600.483 7      5448.563          45.250
G18  22433795.620   117890392.540 7        76.304          46.437    22433795.260   117890392.544 6        76.304          36.562    22433798.440    91862654.417 6        59.457          36.437    22433799.180    91862655.415 8        59.457          49.062
R16  22132073.360   118225557.545 7      -643.103          43.812    22132072.200   118225557.540 7      -643.103          43.500    22132085.940    91953266.531 7      -500.191          46.437    22132085.640    91953268.537 7      -500.191          47.000
G31  21534028.880   113162086.005 7        -9.532          47.500    21534028.240   113162086.002 7        -9.532          46.500    21534030.220    88178252.580 7        -7.428          46.625    21534032.060    88178261.581 7        -7.428          47.687
> 2024 05 08 10 28 14.0000000  0 13
G26  20488637.060   107668514.251 8      2238.076          49.375    20488636.240   107668514.256 8      2238.076          49.625    20488640.900    83897558.549 8      1743.956          49.750    20488641.460    83897559.550 8      1743.956          49.812
G23  23711672.780   124605682.424 6      4229.358          41.687    23711671.720   124605682.434 4      4229.358          25.375    23711678.720    97095360.163 4      3295.603          25.312    23711679.640    97095368.173 6      3295.603          41.312
G28  23299549.340   122439956.736 7     -1052.795          42.437    23299548.500   122439956.735 5     -1052.795          31.937    23299555.260    95407770.438 5      -820.360          31.687    23299555.880    95407780.425 7      -820.360          46.750
G16  21076854.560   110759624.159 7      3974.848          46.750    21076852.740   110759624.167 6      3974.848          38.000    21076855.320    86306198.346 6      3097.285          37.562
G27  21116847.700   110969796.754 7      3426.131          47.875    21116846.760   110969796.764 6      3426.131          41.500    21116850.800    86469971.542 6      2669.713          41.250    21116851.480    86469971.544 8      2669.713          50.562
G10  24270628.940   127543011.063 7      4917.390          42.812    24270627.820   127543011.058 6      4917.390          37.312    24270639.120    99384216.649 6      3831.732          37.500    24270639.380    99384214.655 6      3831.732          40.250
G08  23404520.860   122991591.425 6      4621.443          38.062    23404519.460   122991591.408 4      4621.443          26.687    23404528.880    95837614.897 4      3601.125          26.312    23404530.040    95837634.906 7      3601.125          46.312
R21  22859133.860   122323846.855 6      6084.411          41.437    22859134.580   122323846.875 6      6084.411          41.687    22859147.460    95140822.931 7      4732.320          46.562    22859147.020    95140822.929 7      4732.320          46.312
R09  19193865.480   102494205.130 7      2595.727          47.750    19193865.480   102494205.136 8      2595.727          48.125    19193871.340    79717713.597 8      2018.899          51.875    19193871.740    79717731.592 8      2018.899          53.062
R10  20648692.760   110069152.022 7      5448.246          46.187    20648691.780   110069152.025 7      5448.246          45.500
G18  22433781.360   117890316.336 7        75.965          46.375    22433780.780   117890316.341 6        75.965          36.375    22433783.980    91862595.036 6        59.194          36.562    22433784.580    91862596.035 8        59.194          49.250
R16  22132194.220   118226200.849 7      -643.551          43.250    22132192.620   118226200.845 7      -643.551          43.125    22132206.380    91953766.869 7      -500.540          47.062    22132206.040    91953768.875 7      -500.540          47.437
G31  21534030.640   113162095.722 8        -9.992          48.312    21534030.060   113162095.727 7        -9.992          46.562    21534031.960    88178260.156 7        -7.786          46.750    21534034.260    88178269.150 7        -7.786          47.562
> 2024 05 08 10 28 15.0000000  0 13
G26  20488211.180   107666276.515 8      2237.563          49.125    20488210.340   107666276.522 8      2237.563          49.437    20488215.120    83895814.860 8      1743.556          49.437    20488215.340    83895815.860 8      1743.556          49.812
G23  23710868.040   124601453.424 6      4228.689          40.875    23710866.840   124601453.436 4      4228.689          25.375    23710874.140    97092064.844 4      3295.082          25.312    23710874.780    97092072.854 6      3295.082          41.312
G28  23299749.560   122441009.750 7     -1053.045          42.875    23299748.680   122441009.747 5     -1053.045          31.750    23299755.820    95408590.960 5      -820.555          31.687    23299756.480    95408600.950 7      -820.555          47.000
G16  21076098.160   110755649.497 7      3974.463          45.312    21076096.460   110755649.507 6      3974.463          37.875    21076098.840    86303101.211 6      3096.985          37.562
G27  21116195.760   110966371.007 8      3425.688          48.375    21116194.900   110966371.014 6      3425.688          41.937    21116198.940    86467302.126 6      2669.368          41.375    21116199.740    86467302.133 8      2669.368          50.750
G10  24269693.140   127538093.871 7      4917.156          44.187    24269692.240   127538093.868 6      4917.156          37.437    24269703.480    99380385.084 6      3831.550          37.500    24269704.360    99380383.092 6      3831.550          40.562
G08  23403641.400   122986970.144 6      4621.262          38.812    23403640.080   122986970.130 4      4621.262          26.812    23403649.540    95834013.899 4      3600.983          26.562    23403650.640    95834033.898 7      3600.983          46.187
R21  22857996.960   122317762.985 6      6083.641          41.437    22857997.440   122317763.016 6      6083.641          41.687    22858010.460    95136091.049 7      4731.721          46.625    22858010.120    95136091.043 7      4731.721          46.750
R09  19193379.680   102491609.984 8      2594.835          48.687    19193379.480   102491609.988 7      2594.835          47.875    19193385.300    79715695.148 8      2018.205          51.937    19193385.560    79715713.145 8      2018.205          52.687
R10  20647670.960   110063704.160 7      5447.739          45.812    20647670.280   110063704.166 7      5447.739          45.312
G18  22433766.900   117890240.814 7        75.272          46.500    22433766.500   117890240.821 6        75.272          36.562    22433769.620    91862536.187 6        58.654          36.187    22433770.200    91862537.189 8        58.654          48.625
R16  22132315.000   118226844.862 7      -644.261          43.500    22132313.120   118226844.860 7      -644.261          43.312    22132326.980    91954267.764 7      -501.092          46.687    22132326.940    91954269.769 7      -501.092          47.312
G31  21534032.840   113162106.095 8       -10.553          48.000    21534032.040   113162106.095 7       -10.553          46.750    21534034.100    88178268.235 7        -8.223          46.625    21534036.160    88178277.233 8        -8.223          48.062
> 2024 05 08 10 28 16.0000000  0 13
G26  20487785.380   107664039.196 8      2237.127          48.375    20487784.680   107664039.201 8      2237.127          49.687    20487789.340    83894071.496 8      1743.216          50.125    20487789.860    83894072.497 8      1743.216          49.812
G23  23710063.560   124597224.744 6      4228.387          41.000    23710062.080   124597224.751 4      4228.387          25.375    23710069.500    97088769.771 4      3294.847          25.312    23710070.380    97088777.775 6      3294.847          41.375
G28  23299950.060   122442062.967 7     -1053.282          43.187    23299949.120   122442062.964 5     -1053.282          31.750    23299956.280    95409411.639 5      -820.739          31.687    23299956.400    95409421.626 7      -820.739          46.562
G16  21075341.780   110751675.088 7      3974.317          45.812    21075340.060   110751675.093 6      3974.317          37.437    21075342.560    86300004.267 6      3096.870          37.312
G27  21115543.820   110962945.601 8      3425.235          48.187    21115543.020   110962945.609 6      3425.235          41.000    21115547.060    86464632.981 6      2669.014          40.875    21115547.920    86464632.979 8      2669.014          50.937
G10  24268757.420   127533176.695 7      4917.104          42.812    24268756.600   127533176.698 6      4917.104          38.062    24268767.820    99376553.528 6      3831.510          38.000    24268768.120    99376551.532 6      3831.510          40.562
G08  23402762.260   122982349.110 6      4620.984          38.875    23402760.980   122982349.096 4      4620.984          26.812    23402770.060    95830413.093 4      3600.767          26.562    23402771.160    95830433.101 7      3600.767          46.125
R21  22856859.900   122311679.556 6      6083.148          41.562    22856860.780   122311679.590 6      6083.148          41.812    22856873.500    95131359.502 7      4731.337          46.625    22856873.240    95131359.498 7      4731.337          46.687
R09  19192893.920   102489015.599 7      2594.014          47.875    19192893.740   102489015.594 8      2594.014          48.062    19192899.380    79713677.286 8      2017.566          51.937    19192899.600    79713695.279 8      2017.566          52.812
R10  20646648.880   110058256.684 7      5447.253          45.875    20646647.880   110058256.685 7      5447.253          45.562
G18  22433752.560   117890165.743 7        74.834          46.562    22433752.360   117890165.750 6        74.834          36.437    22433755.220    91862477.688 6        58.312          36.250    22433755.740    91862478.690 8        58.312          49.187
R16  22132435.520   118227489.358 7      -644.648          43.750    22132433.540   118227489.354 7      -644.648          43.312    22132447.560    91954769.032 7      -501.393          47.062    22132447.500    91954771.040 7      -501.393          47.187
G31  21534034.880   113162116.931 7       -11.101          47.750    21534034.040   113162116.931 7       -11.101          46.625    21534036.160    88178276.676 7        -8.650          46.437    21534038.320    88178285.679 7        -8.650          47.750
> 2024 05 08 10 28 17.0000000  0 13
G26  20487359.880   107661802.367 8      2236.585          48.687    20487359.020   107661802.372 8      2236.585          49.437    20487363.680    83892328.512 8      1742.794          49.562    20487364.080    83892329.509 8      1742.794          49.687
G23  23709258.800   124592996.453 7      4228.077          42.625    23709257.500   124592996.461 4      4228.077          25.375    23709264.820    97085475.003 4      3294.606          25.312    23709265.520    97085483.015 6      3294.606          41.500
G28  23300150.740   122443116.441 7     -1053.617          42.750    23300149.540   122443116.438 5     -1053.617          31.875    23300156.840    95410232.522 5      -821.000          31.625    23300157.000    95410242.515 7      -821.000          47.000
G16  21074585.600   110747701.020 7      3974.017          45.812    21074583.880   110747701.024 6      3974.017          37.625    21074586.420    86296907.588 6      3096.637          37.562
G27  21114892.120   110959520.603 7      3424.774          47.937    21114891.260   110959520.613 6      3424.774          41.812    21114895.240    86461964.151 6      2668.655          41.375    21114896.000    86461964.158 8      2668.655          50.250
G10  24267821.600   127528259.616 7      4917.002          43.000    24267820.860   127528259.619 6      4917.002          37.750    24267832.240    99372722.046 6      3831.430          37.437    24267831.760    99372720.065 6      3831.430          40.500
G08  23401882.880   122977728.394 6      4620.582          38.062    23401881.900   122977728.378 4      4620.582          26.812    23401890.800    95826812.535 4      3600.454          26.562    23401891.960    95826832.547 7      3600.454          46.062
R21  22855723.380   122305596.655 6      6082.646          41.562    22855723.820   122305596.683 6      6082.646          41.812    22855736.740    95126628.359 7      4730.947          46.500    22855736.360    95126628.359 7      4730.947          46.625
R09  19192408.120   102486422.031 8      2593.150          48.125    19192408.080   102486422.029 7      2593.150          47.687    19192413.700    79711660.069 8      2016.894          51.875    19192413.900    79711678.062 8      2016.894          52.687
R10  20645627.460   110052809.652 7      5446.834          45.937    20645626.180   110052809.657 7      5446.834          45.187
G18  22433738.300   117890091.232 7        74.257          46.375    22433738.200   117890091.236 6        74.257          36.875    22433741.060    91862419.626 6        57.862          36.437    22433741.620    91862420.625 8        57.862          49.062
R16  22132556.160   118228134.463 7      -645.366          43.750    22132554.940   118228134.453 7      -645.366          44.062    22132568.320    91955270.770 7      -501.951          47.000    22132568.480    91955272.773 7      -501.951          47.875
G31  21534036.920   113162128.290 7       -11.645          47.750    21534036.340   113162128.292 7       -11.645          46.500    21534038.320    88178285.527 7        -9.074          46.875    21534040.260    88178294.526 7        -9.074          47.625
> 2024 05 08 10 28 18.0000000  0 13
G26  20486934.300   107659565.966 8      2236.213          48.812    20486933.480   107659565.976 8      2236.213          49.750    20486938.160    83890585.861 8      1742.504          50.000    20486938.380    83890586.863 8      1742.504          50.000
G23  23708454.300   124588768.533 7      4227.857          42.437    23708453.080   124588768.540 4      4227.857          25.500    23708460.380    97082180.522 4      3294.434          25.312    23708461.200    97082188.540 6      3294.434          41.500
G28  23300351.020   122444170.113 7     -1053.721          43.562    23300350.140   122444170.110 5     -1053.721          31.875    23300357.280    95411053.554 5      -821.081          31.625    23300357.480    95411063.550 7      -821.081          46.562
G16  21073829.500   110743727.230 7      3973.735          44.937    21073827.560   110743727.238 6      3973.735          37.375    21073830.360    86293811.131 6      3096.417          37.562
G27  21114240.520   110956095.954 8      3424.524          48.312    21114239.580   110956095.964 6      3424.524          41.937    21114243.520    86459295.596 6      2668.460          41.562    21114244.260    86459295.598 8      2668.460          50.687
G10  24266885.800   127523342.601 7      4916.969          43.437    24266885.100   127523342.608 6      4916.969          38.125    24266896.500    99368890.620 6      3831.404          37.625    24266896.300    99368888.630 6      3831.404          40.500
G08  23401003.860   122973107.941 6      4620.321          39.562    23401002.600   122973107.927 4      4620.321          26.812    23401011.480    95823212.180 4      3600.250          26.562    23401012.400    95823232.206 7      3600.250          45.937
R21  22854586.620   122299514.161 6      6082.397          41.562    22854587.280   122299514.183 6      6082.397          41.812    22854600.360    95121897.529 7      4730.753          46.562    22854599.600    95121897.528 7      4730.753          46.500
R09  19191922.520   102483829.247 8      2592.477          49.375    19191922.540   102483829.248 8      2592.477          48.000    19191928.220    79709643.464 8      2016.371          51.812    19191928.160    79709661.453 8      2016.371          52.687
R10  20644605.520   110047363.021 7      5446.482          46.125    20644604.440   110047363.027 7      5446.482          44.750
G18  22433724.020   117890017.207 7        73.804          45.500    22433724.060   117890017.211 6        73.804          36.062    22433727.000    91862361.942 6        57.510          36.312    22433727.720    91862362.943 8        57.510          49.125
R16  22132677.400   118228780.054 7      -645.692          44.000    22132676.020   118228780.044 7      -645.692          43.625    22132689.260    91955772.882 7      -502.205          46.875    22132689.320    91955774.885 7      -502.205          47.312
G31  21534039.280   113162140.124 8       -12.015          48.000    21534038.580   113162140.127 7       -12.015          46.625    21534040.620    88178294.747 7        -9.362          46.562    21534042.860    88178303.739 7        -9.362          47.812
> 2024 05 08 10 28 19.0000000  0 13
G26  20486508.660   107657330.061 8      2235.591          49.062    20486508.040   107657330.069 8      2235.591          49.750    20486512.600    83888843.596 8      1742.019          49.875    20486513.000    83888844.597 8      1742.019          49.562
G23  23707649.900   124584541.083 7      4227.071          42.250    23707648.520   124584541.087 4      4227.071          25.500    23707655.840    97078886.411 4      3293.822          25.437    23707656.700    97078894.431 6      3293.822          41.375
G28  23300551.760   122445224.071 7     -1054.160          44.000    23300550.640   122445224.073 5     -1054.160          31.875    23300557.700    95411874.812 5      -821.423          31.625    23300558.200    95411884.805 7      -821.423          47.062
G16  21073073.400   110739753.803 7      3973.150          45.375    21073071.380   110739753.808 6      3973.150          37.437    21073074.000    86290714.956 6      3095.961          37.437
G27  21113588.960   110952671.731 7      3423.971          47.875    21113588.060   110952671.736 6      3423.971          41.437    21113591.940    86456627.366 6      2668.029          41.125    21113592.820    86456627.372 8      2668.029          50.750
G10  24265950.120   127518425.716 7      4916.874          43.500    24265949.560   127518425.713 6      4916.874          37.125    24265961.020    99365059.275 6      3831.331          37.687    24265960.720    99365057.281 6      3831.331          40.750
G08  23400124.740   122968487.803 6      4620.003          38.500    23400123.380   122968487.792 4      4620.003          26.812    23400132.320    95819612.073 4      3600.003          26.562    23400133.220    95819632.086 7      3600.003          45.875
R21  22853450.080   122293432.123 6      6081.691          41.062    22853450.700   122293432.152 6      6081.691          41.812    22853463.440    95117167.062 7      4730.204          46.187    22853462.880    95117167.061 7      4730.204          46.625
R09  19191437.200   102481237.316 8      2591.453          48.625    19191436.920   102481237.320 8      2591.453          48.000    19191442.760    79707627.519 8      2015.574          52.000    19191442.920    79707645.510 8      2015.574          52.250
R10  20643583.720   110041916.852 7      5445.933          46.187    20643582.700   110041916.858 7      5445.933          45.375
G18  22433710.220   117889943.720 7        73.173          46.312    22433709.980   117889943.728 6        73.173          36.562    22433713.040    91862304.678 6        57.018          36.312    22433713.720    91862305.677 8        57.018          49.187
R16  22132798.440   118229426.190 7      -646.363          44.000    22132796.760   118229426.183 7      -646.363          43.562    22132810.180    91956275.436 7      -502.727          46.437    22132810.040    91956277.442 7      -502.727          46.812
G31  21534041.460   113162152.497 7       -12.612          47.875    21534040.940   113162152.502 7       -12.612          46.437    21534042.900    88178304.388 7        -9.828          46.500    21534045.020    88178313.378 7        -9.828          47.500
> 2024 05 08 10 28 20.0000000  0 13
G26  20486083.340   107655094.679 8      2235.086          49.375    20486082.580   107655094.684 8      2235.086          49.375    20486087.240    83887101.740 8      1741.625          49.250    20486087.780    83887102.739 8      1741.625          49.500
G23  23706845.540   124580314.027 6      4226.775          40.187    23706844.140   124580314.034 4      4226.775          25.500    23706851.360    97075592.603 4      3293.591          25.437    23706852.160    97075600.617 6      3293.591          41.375
G28  23300752.540   122446278.304 7     -1054.374          42.812    23300751.200   122446278.309 5     -1054.374          31.625    23300758.180    95412696.284 5      -821.590          31.625    23300759.180    95412706.272 7      -821.590          46.875
G16  21072317.040   110735780.697 7      3972.989          44.937    21072315.300   110735780.702 6      3972.989          37.687    21072317.940    86287619.027 6      3095.836          37.437
G27  21112937.280   110949247.944 8      3423.542          48.250    21112936.460   110949247.949 6      3423.542          40.875    21112940.400    86453959.486 6      2667.695          41.000    21112941.280    86453959.492 8      2667.695          50.437
G10  24265014.380   127513508.945 7      4916.768          43.062    24265013.960   127513508.950 6      4916.768          37.437    24265025.360    99361228.033 6      3831.248          37.937    24265026.060    99361226.043 6      3831.248          40.750
G08  23399245.560   122963868.030 6      4619.660          38.500    23399244.040   122963868.022 4      4619.660          27.000    23399253.180    95816012.252 4      3599.735          26.562    23399254.140    95816032.255 7      3599.735          46.000
R21  22852313.660   122287350.533 6      6081.364          41.062    22852313.800   122287350.572 6      6081.364          41.812    22852327.340    95112436.947 7      4729.949          46.250    22852326.460    95112436.945 7      4729.949          46.250
R09  19190952.040   102478646.207 7      2590.689          47.562    19190951.620   102478646.208 8      2590.689          48.312    19190957.660    79705612.206 8      2014.980          50.875    19190957.500    79705630.199 8      2014.980          51.250
R10  20642562.060   110036471.181 7      5445.472          45.750    20642561.180   110036471.187 7      5445.472          45.125
G18  22433696.700   117889870.807 7        72.703          45.437    22433696.060   117889870.814 6        72.703          36.500    22433699.300    91862247.862 6        56.652          36.312    22433699.980    91862248.857 8        56.652          49.000
R16  22132919.460   118230072.913 7      -646.910          43.125    22132917.860   118230072.904 7      -646.910          43.562    22132931.280    91956778.433 7      -503.152          47.000    22132931.140    91956780.434 7      -503.152          46.937
G31  21534044.020   113162165.441 7       -13.185          47.312    21534043.420   113162165.440 7       -13.185          46.312    21534045.380    88178314.463 7       -10.274          46.500    21534047.360    88178323.464 7       -10.274          47.250
> 2024 05 08 10 28 21.0000000  0 13
G26  20485658.140   107652859.757 8      2234.875          49.687    20485657.320   107652859.757 8      2234.875          49.750    20485662.020    83885360.240 8      1741.461          49.875    20485662.540    83885361.240 8      1741.461          49.875
G23  23706041.120   124576087.391 6      4226.513          41.750    23706039.840   124576087.399 4      4226.513          25.500    23706047.000    97072299.125 4      3293.387          25.437    23706047.460    97072307.149 6      3293.387          41.375
G28  23300953.240   122447332.782 7     -1054.372          43.000    23300951.920   122447332.787 5     -1054.372          31.625    23300958.860    95413517.949 5      -821.589          31.625    23300959.600    95413527.935 7      -821.589          46.812
G16  21071560.960   110731807.943 7      3972.682          45.937    21071559.420   110731807.953 6      3972.682          36.812    21071561.920    86284523.381 6      3095.597          36.687
G27  21112285.700   110945824.551 8      3423.260          48.125    21112284.960   110945824.559 6      3423.260          41.375    21112288.900    86451291.905 6      2667.475          41.125    21112289.480    86451291.910 8      2667.475          50.500
G10  24264078.940   127508592.263 7      4916.743          43.437    24264078.200   127508592.262 6      4916.743          38.062    24264089.660    99357396.862 6      3831.228          37.625    24264089.780    99357394.876 6      3831.228          40.937
G08  23398366.260   122959248.539 6      4619.569          37.000    23398364.800   122959248.528 4      4619.569          27.000    23398374.180    95812412.650 4      3599.664          26.687    23398374.860    95812432.656 7      3599.664          46.312
R21  22851177.320   122281269.473 6      6080.967          41.875    22851177.980   122281269.501 6      6080.967          41.750    22851190.800    95107707.229 7      4729.641          46.187    22851190.260    95107707.229 7      4729.641          46.250
R09  19190466.860   102476055.893 8      2590.101          48.062    19190466.660   102476055.894 7      2590.101          47.875    19190472.460    79703597.520 8      2014.523          51.875    19190472.460    79703615.513 8      2014.523          52.625
R10  20641540.660   110031025.971 7      5445.017          46.312    20641539.740   110031025.980 7      5445.017          45.500
G18  22433682.860   117889798.418 7        72.345          46.625    22433682.160   117889798.423 6        72.345          36.812    22433685.760    91862191.456 6        56.373          36.687    22433685.940    91862192.457 8        56.373          49.312
R16  22133040.640   118230720.168 7      -647.397          43.937    22133039.080   118230720.159 7      -647.397          44.125    22133052.300    91957281.841 7      -503.531          46.375    22133052.340    91957283.840 7      -503.531          47.125
G31  21534046.340   113162178.912 7       -13.653          47.625    21534045.920   113162178.909 7       -13.653          46.562    21534047.940    88178324.956 7       -10.639          46.750    21534049.880    88178333.957 7       -10.639          47.937
> 2024 05 08 10 28 22.0000000  0 13
G26  20485232.960   107650625.211 8      2234.578          49.500    20485232.060   107650625.216 8      2234.578          49.500    20485236.800    83883619.040 8      1741.230          49.625    20485237.200    83883620.037 8      1741.230          50.062
G23  23705236.960   124571861.029 6      4226.528          41.937    23705235.600   124571861.039 4      4226.528          25.500    23705242.840    97069005.862 4      3293.398          25.437    23705243.800    97069013.866 6      3293.398          40.562
G28  23301153.780   122448387.407 7     -1054.440          43.687    23301152.840   122448387.415 5     -1054.440          31.562    23301159.440    95414339.727 5      -821.641          31.500    23301160.080    95414349.717 7      -821.641          46.750
G16  21070805.120   110727835.372 7      3972.802          45.687    21070803.480   110727835.377 6      3972.802          37.500    21070806.040    86281427.865 6      3095.690          37.625
G27  21111634.260   110942401.437 8      3423.203          48.500    21111633.680   110942401.439 6      3423.203          41.562    21111637.600    86448624.545 6      2667.431          41.250    21111638.020    86448624.550 8      2667.431          50.062
G10  24263143.460   127503675.570 6      4917.052          41.875    24263142.560   127503675.570 6      4917.052          38.062    24263153.940    99353565.681 6      3831.469          38.312    24263154.520    99353563.695 6      3831.469          40.937
G08  23397487.540   122954629.260 6      4619.376          38.062    23397485.680   122954629.249 4      4619.376          27.000    23397495.200    95808813.214 4      3599.514          26.687    23397496.180    95808833.226 7      3599.514          46.125
R21  22850041.220   122275188.851 6      6080.657          41.875    22850041.500   122275188.869 6      6080.657          41.750    22850054.560    95102977.853 7      4729.400          46.375    22850053.800    95102977.853 7      4729.400          46.062
R09  19189981.920   102473466.325 7      2589.498          47.812    19189981.600   102473466.323 7      2589.498          47.875    19189987.560    79701583.413 8      2014.054          51.875    19189987.760    79701601.406 8      2014.054          52.062
R10  20640519.380   110025581.052 7      5445.010          46.562    20640518.140   110025581.058 7      5445.010          45.062
G18  22433669.020   117889726.456 7        72.062          46.187    22433668.280   117889726.466 6        72.062          36.750    22433671.920    91862135.379 6        56.152          36.625    22433672.160    91862136.382 8        56.152          49.437
R16  22133161.500   118231367.832 7      -647.593          43.062    22133160.280   118231367.820 7      -647.593          44.125    22133173.860    91957785.567 7      -503.684          46.625    22133173.600    91957787.568 7      -503.684          47.125
G31  21534048.940   113162192.767 7       -13.838          47.937    21534048.540   113162192.764 7       -13.838          46.250    21534050.600    88178335.752 7       -10.783          46.375    21534052.680    88178344.755 7       -10.783          47.687
> 2024 05 08 10 28 23.0000000  0 13
G26  20484807.580   107648391.093 8      2233.939          49.125    20484806.900   107648391.098 8      2233.939          49.500    20484811.680    83881878.167 8      1740.731          49.812    20484812.080    83881879.166 8      1740.731          49.875
G23  23704432.640   124567635.045 6      4225.944          41.750    23704431.480   124567635.055 4      4225.944          25.500    23704438.660    97065712.890 4      3292.944          25.437    23704439.840    97065720.906 6      3292.944          40.562
G28  23301354.580   122449442.232 7     -1054.777          42.562    23301353.520   122449442.240 5     -1054.777          31.562    23301360.260    95415161.664 5      -821.904          31.500    23301360.640    95415171.658 7      -821.904          46.562
G16  21070049.060   110723863.083 7      3972.270          46.500    21070047.500   110723863.093 6      3972.270          37.500    21070050.140    86278332.581 6      3095.275          37.000
G27  21110982.980   110938978.693 8      3422.536          48.062    21110982.260   110938978.695 6      3422.536          41.187    21110986.140    86445957.474 6      2666.911          40.875    21110986.580    86445957.475 8      2666.911          50.000
G10  24262207.740   127498758.938 7      4916.663          42.875    24262206.940   127498758.937 6      4916.663          37.625    24262218.260    99349734.543 6      3831.166          37.937    24262219.320    99349732.553 6      3831.166          40.562
G08  23396608.600   122950010.242 6      4618.898          38.062    23396606.640   122950010.233 4      4618.898          27.000    23396616.320    95805213.977 4      3599.141          26.687    23396617.160    95805233.972 7      3599.141          46.250
R21  22848904.520   122269108.684 6      6079.925          41.875    22848905.460   122269108.694 6      6079.925          41.750    22848918.200    95098248.842 7      4728.831          46.500    22848917.840    95098248.843 7      4728.831          46.062
R09  19189497.260   102470877.509 8      2588.538          48.250    19189496.840   102470877.502 8      2588.538          48.250    19189502.820    79699569.877 8      2013.307          51.875    19189502.640    79699587.870 8      2013.307          52.312
R10  20639498.040   110020136.551 7      5444.343          46.000    20639496.880   110020136.562 7      5444.343          45.062
G18  22433655.440   117889654.985 7        71.343          46.625    22433654.820   117889654.995 6        71.343          36.812    22433658.260    91862079.683 6        55.592          36.625    22433658.560    91862080.680 8        55.592          49.187
R16  22133283.300   118232016.011 7      -648.409          43.687    22133281.440   118232016.002 7      -648.409          43.437    22133294.920    91958289.700 7      -504.318          46.687    22133294.740    91958291.701 7      -504.318          46.875
G31  21534051.920   113162207.102 7       -14.538          47.875    21534051.420   113162207.102 7       -14.538          46.437    21534053.380    88178346.921 7       -11.328          46.375    21534055.620    88178355.924 7       -11.328          47.937
> 2024 05 08 10 28 24.0000000  0 13
G26  20484382.860   107646157.572 8      2233.083          49.625    20484381.940   107646157.577 8      2233.083          49.875    20484386.620    83880137.762 8      1740.064          50.062    20484387.100    83880138.764 8      1740.064          50.125
G23  23703628.760   124563409.594 6      4225.112          41.187    23703627.340   124563409.604 4      4225.112          25.000    23703634.620    97062420.335 4      3292.295          25.437    23703635.040    97062428.359 6      3292.295          40.562
G28  23301555.400   122450497.446 7     -1055.474          42.500    23301554.280   122450497.448 5     -1055.474          31.562    23301561.020    95415983.901 5      -822.447          31.500    23301561.240    95415993.894 7      -822.447          46.937
G16  21069293.300   110719891.225 7      3971.695          46.312    21069291.700   110719891.232 6      3971.695          37.250    21069294.340    86275237.628 6      3094.827          37.375
G27  21110331.820   110935556.446 7      3421.856          47.875    21110331.120   110935556.453 6      3421.856          41.125    21110334.940    86443290.788 6      2666.381          41.062    21110335.400    86443290.786 8      2666.381          50.750
G10  24261272.280   127493842.511 7      4916.305          43.125    24261271.440   127493842.510 6      4916.305          38.000    24261282.720    99345903.567 6      3830.887          38.250    24261283.660    99345901.586 6      3830.887          40.562
G08  23395729.700   122945391.583 6      4618.533          37.625    23395727.860   122945391.575 4      4618.533          27.000    23395737.360    95801615.020 4      3598.857          26.687    23395738.160    95801635.032 7      3598.857          45.125
R21  22847768.340   122263029.045 6      6079.256          41.875    22847769.300   122263029.057 6      6079.256          41.750    22847781.880    95093520.234 7      4728.310          46.250    22847781.620    95093520.236 7      4728.310          46.500
R09  19189012.540   102468289.593 8      2587.424          48.375    19189012.280   102468289.592 7      2587.424          47.687    19189018.220    79697557.060 8      2012.441          51.562    19189018.220    79697575.055 8      2012.441          52.312
R10  20638476.680   110014692.615 7      5443.609          45.875    20638475.520   110014692.619 7      5443.609          45.062
G18  22433641.860   117889584.147 7        70.512          46.187    22433641.440   117889584.149 6        70.512          36.562    22433644.780    91862024.483 6        54.944          36.125    22433645.140    91862025.482 8        54.944          49.500
R16  22133404.500   118232664.885 7      -649.351          44.250    22133402.880   118232664.875 7      -649.351          43.750    22133416.560    91958794.375 7      -505.051          46.312    22133416.400    91958796.379 7      -505.051          46.562
G31  21534054.780   113162222.069 7       -15.342          47.625    21534054.180   113162222.066 7       -15.342          46.562    21534056.280    88178358.585 7       -11.955          46.500    21534058.440    88178367.584 8       -11.955          48.250
> 2024 05 08 10 28 25.0000000  0 13
G26  20483957.800   107643924.413 8      2232.836          49.000    20483956.900   107643924.413 8      2232.836          49.625    20483961.640    83878397.634 8      1739.872          49.375    20483962.060    83878398.636 8      1739.872          50.250
G23  23702825.100   124559184.420 6      4224.978          40.375    23702823.480   124559184.430 4      4224.978          25.000    23702830.560    97059127.999 4      3292.191          25.437    23702831.120    97059136.015 6      3292.191          40.562
G28  23301756.380   122451552.773 7     -1055.425          42.875    23301755.060   122451552.778 5     -1055.425          31.250    23301761.740    95416806.217 5      -822.409          31.062    23301762.340    95416816.210 7      -822.409          47.312
G16  21068537.700   110715919.611 7      3971.464          46.187    21068535.940   110715919.618 6      3971.464          37.625    21068538.500    86272142.866 6      3094.647          37.625
G27  21109680.680   110932134.495 8      3421.709          48.937    21109679.940   110932134.503 6      3421.709          41.500    21109683.600    86440624.333 6      2666.267          41.500    21109684.180    86440624.329 8      2666.267          49.937
G10  24260336.560   127488926.081 7      4916.224          43.312    24260335.820   127488926.083 6      4916.224          37.625    24260347.280    99342072.591 6      3830.824          37.750    24260347.780    99342070.609 6      3830.824          40.687
G08  23394850.600   122940773.151 6      4618.437          38.875    23394849.160   122940773.142 4      4618.437          27.125    23394858.420    95798016.248 4      3598.782          26.687    23394859.740    95798036.274 7      3598.782          45.750
R21  22846632.060   122256949.737 7      6078.971          42.125    22846633.160   122256949.754 6      6078.971          41.687    22846645.940    95088791.908 7      4728.089          45.875    22846645.620    95088791.908 7      4728.089          45.500
R09  19188527.760   102465702.385 7      2586.725          47.687    19188527.680   102465702.391 7      2586.725          47.750    19188533.720    79695544.795 8      2011.897          52.375    19188533.840    79695562.790 8      2011.897          52.625
R10  20637455.460   110009249.010 7      5443.346          45.812    20637454.620   110009249.019 7      5443.346          44.750
G18  22433628.540   117889513.743 7        70.141          46.750    22433627.980   117889513.750 6        70.141          36.500    22433631.500    91861969.620 6        54.656          36.562    22433631.800    91861970.623 8        54.656          49.562
R16  22133526.120   118233314.242 7      -649.757          43.812    22133524.760   118233314.230 7      -649.757          43.312    22133538.080    91959299.421 7      -505.367          47.187    22133537.900    91959301.422 7      -505.367          47.312
G31  21534057.640   113162237.463 8       -15.699          48.125    21534057.140   113162237.466 7       -15.699          46.187    21534059.240    88178370.577 7       -12.233          46.125    21534061.340    88178379.577 7       -12.233          47.750
> 2024 05 08 10 28 26.0000000  0 13
G26  20483533.000   107641691.722 8      2232.578          49.062    20483532.080   107641691.722 8      2232.578          50.250    20483536.920    83876657.875 8      1739.671          50.062    20483537.040    83876658.876 8      1739.671          49.937
G23  23702021.320   124554959.658 6      4224.777          40.812    23702019.660   124554959.665 4      4224.777          25.000    23702026.680    97055835.979 4      3292.034          25.250    23702027.080    97055844.001 6      3292.034          40.875
G28  23301957.040   122452608.341 7     -1055.480          42.937    23301956.040   122452608.349 5     -1055.480          31.250    23301962.680    95417628.734 5      -822.452          31.062    23301963.560    95417638.729 7      -822.452          46.750
G16  21067782.140   110711948.310 7      3971.310          46.125    21067780.380   110711948.317 6      3971.310          37.125    21067782.760    86269048.344 6      3094.528          36.937
G27  21109029.480   110928712.931 8      3421.636          48.687    21109028.760   110928712.936 6      3421.636          41.562    21109032.580    86437958.182 6      2666.210          41.437    21109033.060    86437958.178 8      2666.210          50.625
G10  24259400.720   127484009.716 7      4916.409          44.062    24259400.320   127484009.721 6      4916.409          37.812    24259411.720    99338241.670 6      3830.968          38.125    24259411.780    99338239.686 6      3830.968          40.687
G08  23393972.260   122936155.052 6      4618.242          39.500    23393970.320   122936155.043 4      4618.242          27.125    23393979.720    95794417.729 4      3598.630          27.062    23393980.460    95794437.743 7      3598.630          46.250
R21  22845496.560   122250870.873 7      6078.929          42.125    22845497.200   122250870.896 6      6078.929          41.687    22845510.020    95084063.905 7      4728.056          46.000    22845509.560    95084063.911 7      4728.056          46.250
R09  19188043.280   102463115.988 7      2586.197          47.750    19188043.680   102463115.992 8      2586.197          48.250    19188049.300    79693533.149 8      2011.487          51.875    19188049.400    79693551.144 8      2011.487          52.562
R10  20636434.660   110003805.861 7      5443.094          46.312    20636433.520   110003805.866 7      5443.094          45.375
G18  22433615.160   117889443.877 7        69.738          46.875    22433614.820   117889443.882 6        69.738          36.750    22433618.020    91861915.179 6        54.341          36.625    22433618.540    91861916.179 8        54.341          49.125
R16  22133647.520   118233964.136 7      -650.061          43.812    22133646.320   118233964.134 7      -650.061          43.937    22133659.600    91959804.894 7      -505.603          46.437    22133659.600    91959806.901 7      -505.603          46.687
G31  21534060.800   113162253.363 7       -16.004          47.937    21534060.160   113162253.362 7       -16.004          46.437    21534062.260    88178382.962 7       -12.471          46.937    21534064.400    88178391.958 8       -12.471          48.062
> 2024 05 08 10 28 27.0000000  0 13
G26  20483108.140   107639459.480 8      2231.935          48.875    20483107.360   107639459.485 8      2231.935          49.875    20483112.020    83874918.470 8      1739.170          49.750    20483112.400    83874919.471 8      1739.170          50.000
G23  23701217.460   124550735.261 6      4224.278          40.687    23701215.720   124550735.268 4      4224.278          25.000    23701222.820    97052544.245 4      3291.645          25.250    23701223.140    97052552.269 6      3291.645          40.875
G28  23302158.100   122453664.157 7     -1055.975          42.375    23302157.040   122453664.159 5     -1055.975          31.250    23302163.480    95418451.439 5      -822.837          31.062    23302164.400    95418461.432 7      -822.837          46.500
G16  21067026.120   110707977.297 7      3970.838          46.750    21067024.660   110707977.300 6      3970.838          36.812    21067027.200    86265954.047 6      3094.159          37.187
G27  21108378.680   110925291.756 7      3420.989          47.062    21108377.880   110925291.766 6      3420.989          41.250    21108381.640    86435292.329 6      2665.706          41.062    21108382.280    86435292.327 8      2665.706          50.312
G10  24258465.020   127479093.449 7      4916.128          42.375    24258464.840   127479093.454 6      4916.128          38.187    24258476.120    99334410.817 6      3830.749          38.375    24258475.620    99334408.839 6      3830.749          40.750
G08  23393093.220   122931537.216 6      4617.730          38.562    23393091.680   122931537.207 4      4617.730          27.125    23393101.060    95790819.419 4      3598.231          27.062    23393101.980    95790839.439 7      3598.231          46.250
R21  22844359.760   122244792.536 6      6077.975          41.750    22844361.600   122244792.570 6      6077.975          41.625    22844373.840    95079336.320 7      4727.314          46.187    22844373.860    95079336.320 7      4727.314          46.375
R09  19187559.140   102460530.414 8      2585.022          48.500    19187559.380   102460530.418 8      2585.022          48.000    19187565.160    79691522.149 8      2010.573          51.750    19187565.340    79691540.142 8      2010.573          52.437
R10  20635413.720   109998363.129 7      5442.406          46.062    20635412.400   109998363.141 7      5442.406          45.375
G18  22433601.980   117889374.495 7        69.032          45.562    22433601.520   117889374.500 6        69.032          36.187    22433604.840    91861861.113 6        53.791          36.437    22433605.200    91861862.117 8        53.791          48.750
R16  22133769.540   118234614.550 7      -650.716          44.500    22133768.180   118234614.549 7      -650.716          43.937    22133781.380    91960310.765 7      -506.113          46.437    22133781.620    91960312.769 7      -506.113          47.000
G31  21534064.040   113162269.756 7       -16.643          47.500    21534063.320   113162269.753 7       -16.643          46.375    21534065.400    88178395.731 7       -12.969          46.312    21534067.620    88178404.730 8       -12.969          48.187
> 2024 05 08 10 28 28.0000000  0 13
G26  20482683.520   107637227.688 8      2231.761          49.000    20482682.600   107637227.695 8      2231.761          49.312    20482687.380    83873179.411 8      1739.035          49.625    20482687.700    83873180.414 8      1739.035          50.000
G23  23700413.260   124546511.261 6      4224.024          41.500    23700411.920   124546511.268 4      4224.024          25.000    23700418.920    97049252.818 4      3291.447          25.250    23700419.260    97049260.840 6      3291.447          40.875
G28  23302359.220   122454720.182 7     -1056.028          42.812    23302357.980   122454720.185 5     -1056.028          31.562    23302364.580    95419274.310 5      -822.879          31.187    23302365.200    95419284.303 7      -822.879          46.437
G16  21066270.740   110704006.572 7      3970.698          45.750    21066268.960   110704006.579 6      3970.698          37.625    21066271.620    86262859.979 6      3094.051          37.250
G27  21107727.780   110921870.957 7      3420.742          47.562    21107726.880   110921870.964 6      3420.742          41.312    21107730.640    86432626.773 6      2665.513          41.312    21107731.340    86432626.767 8      2665.513          50.312
G10  24257529.400   127474177.235 7      4916.285          43.437    24257529.340   127474177.235 6      4916.285          37.875    24257540.620    99330580.007 6      3830.872          37.812    24257540.260    99330578.019 6      3830.872          40.750
G08  23392214.640   122926919.645 6      4617.666          37.937    23392213.040   122926919.637 4      4617.666          27.125    23392222.320    95787221.316 4      3598.181          27.062    23392223.340    95787241.342 7      3598.181          46.437
R21  22843224.260   122238714.678 6      6077.693          41.750    22843225.860   122238714.712 6      6077.693          41.625    22843238.080    95074609.099 7      4727.094          46.125    22843237.880    95074609.102 7      4727.094          46.250
R09  19187075.120   102457945.646 7      2584.550          47.562    19187075.300   102457945.642 8      2584.550          48.437    19187081.020    79689511.766 8      2010.206          52.062    19187081.260    79689529.758 8      2010.206          52.562
R10  20634392.240   109992920.817 7      5442.200          46.375    20634391.760   109992920.825 7      5442.200          45.062
G18  22433589.120   117889305.622 7        68.781          46.375    22433588.400   117889305.627 6        68.781          36.687    22433591.680    91861807.442 6        53.596          36.500    22433592.160    91861808.443 8        53.596          49.250
R16  22133891.400   118235265.481 7      -651.091          44.437    22133890.200   118235265.479 7      -651.091          43.625    22133903.280    91960817.036 7      -506.404          47.125    22133903.440    91960819.040 7      -506.404          47.125
G31  21534067.280   113162286.661 7       -17.082          47.375    21534066.500   113162286.663 7       -17.082          46.375    21534068.580    88178408.907 7       -13.311          46.375    21534070.720    88178417.905 7       -13.311          47.687
> 2024 05 08 10 28 29.0000000  0 13
G26  20482258.860   107634996.339 8      2231.224          49.250    20482258.060   107634996.341 8      2231.224          49.812    20482262.760    83871440.694 8      1738.616          49.562    20482263.140    83871441.697 8      1738.616          49.875
G23  23699609.540   124542287.592 6      4223.714          41.250    23699608.060   124542287.599 4      4223.714          25.000    23699615.060    97045961.654 4      3291.206          25.250    23699615.540    97045969.678 6      3291.206          40.875
G28  23302560.180   122455776.397 7     -1056.148          42.437    23302559.260   122455776.399 5     -1056.148          31.562    23302565.640    95420097.328 5      -822.972          31.187    23302565.820    95420107.320 7      -822.972          46.562
G16  21065515.000   110700036.106 7      3970.454          45.750    21065513.500   110700036.116 6      3970.454          37.562    21065516.080    86259766.111 6      3093.860          37.125
G27  21107076.720   110918450.488 8      3420.396          48.125    21107075.960   110918450.496 6      3420.396          41.562    21107079.740    86429961.473 6      2665.243          41.437    21107080.200    86429961.471 8      2665.243          50.875
G10  24256594.000   127469261.076 7      4916.234          44.312    24256593.840   127469261.073 6      4916.234          37.687    24256605.020    99326749.237 6      3830.831          37.812    24256604.940    99326747.243 6      3830.831          40.125
G08  23391335.680   122922302.339 6      4617.410          37.937    23391334.340   122922302.323 4      4617.410          27.125    23391343.620    95783623.420 4      3597.981          27.062    23391344.760    95783643.434 7      3597.981          46.437
R21  22842088.640   122232637.254 6      6077.335          41.062    22842089.820   122232637.277 6      6077.335          41.312    22842102.560    95069882.210 7      4726.816          45.937    22842102.120    95069882.206 7      4726.816          45.875
R09  19186591.140   102455361.636 8      2583.735          48.437    19186591.400   102455361.637 8      2583.735          48.500    19186597.100    79687501.989 8      2009.572          51.875    19186597.160    79687519.984 8      2009.572          52.437
R10  20633371.520   109987478.875 7      5441.869          46.125    20633370.640   109987478.888 7      5441.869          45.500
G18  22433575.960   117889237.220 7        68.315          46.187    22433575.380   117889237.225 6        68.315          36.562    22433578.700    91861754.140 6        53.232          36.562    22433579.120    91861755.141 8        53.232          48.875
R16  22134013.380   118235916.894 7      -651.607          44.000    22134012.060   118235916.879 7      -651.607          43.687    22134025.360    91961323.675 7      -506.805          46.625    22134025.300    91961325.674 7      -506.805          47.250
G31  21534070.340   113162304.005 7       -17.468          47.562    21534069.720   113162304.008 7       -17.468          46.562    21534071.840    88178422.415 7       -13.612          46.562    21534074.020    88178431.416 7       -13.612          47.562
> 2024 05 08 10 28 30.0000000  0 13
G26  20481834.140   107632765.287 8      2230.678          48.062    20481833.460   107632765.292 8      2230.678          49.375    20481838.180    83869702.212 8      1738.191          49.500    20481838.740    83869703.215 8      1738.191          49.875
G23  23698805.820   124538064.225 6      4223.033          41.187    23698804.440   124538064.229 4      4223.033          25.562    23698811.600    97042670.727 4      3290.675          25.250    23698811.960    97042678.735 6      3290.675          40.812
G28  23302761.140   122456832.722 7     -1056.580          43.625    23302760.420   122456832.725 5     -1056.580          31.562    23302766.760    95420920.428 5      -823.309          31.187    23302767.020    95420930.420 7      -823.309          46.250
G16  21064759.520   110696065.819 7      3970.011          45.500    21064758.000   110696065.832 6      3970.011          37.750    21064760.560    86256672.383 6      3093.515          37.750
G27  21106425.900   110915030.267 7      3419.857          47.250    21106425.080   110915030.274 6      3419.857          41.562    21106428.940    86427296.365 6      2664.823          41.250    21106429.480    86427296.363 8      2664.823          50.437
G10  24255658.740   127464344.851 7      4915.977          43.375    24255658.480   127464344.848 6      4915.977          37.687    24255669.640    99322918.419 6      3830.631          37.875    24255670.280    99322916.433 6      3830.631          40.125
G08  23390456.960   122917685.197 6      4616.816          37.937    23390455.620   122917685.183 4      4616.816          27.125    23390465.040    95780025.647 4      3597.519          27.062    23390465.960    95780045.675 7      3597.519          46.250
R21  22840953.320   122226560.119 6      6076.734          41.062    22840954.160   122226560.134 6      6076.734          41.312    22840966.780    95065155.545 7      4726.348          45.812    22840966.780    95065155.541 7      4726.348          46.312
R09  19186107.520   102452778.262 7      2582.847          46.687    19186107.580   102452778.258 7      2582.847          47.375    19186113.320    79685492.689 8      2008.881          51.812    19186113.260    79685510.686 8      2008.881          52.250
R10  20632350.580   109982037.234 7      5441.272          46.750    20632349.960   109982037.250 7      5441.272          45.562
G18  22433562.920   117889169.215 7        67.627          45.875    22433562.420   117889169.219 6        67.627          36.687    22433565.800    91861701.148 6        52.697          36.562    22433566.180    91861702.144 8        52.697          49.000
R16  22134135.280   118236568.661 7      -652.211          44.312    22134134.320   118236568.651 7      -652.211          44.125    22134147.200    91961830.596 7      -507.275          46.875    22134147.360    91961832.599 7      -507.275          47.750
G31  21534073.860   113162321.728 7       -18.165          47.062    21534073.180   113162321.728 7       -18.165          46.312    21534075.300    88178436.223 7       -14.155          46.375    21534077.200    88178445.228 7       -14.155          47.062
> 2024 05 08 10 28 31.0000000  0 13
G26  20481409.900   107630534.914 8      2230.280          48.687    20481409.060   107630534.919 8      2230.280          49.687    20481413.820    83867964.256 8      1737.881          49.500    20481414.440    83867965.258 8      1737.881          49.750
G23  23698002.180   124533841.436 6      4222.630          41.687    23698000.860   124533841.443 4      4222.630          25.562    23698007.880    97039380.246 4      3290.361          25.250    23698008.520    97039388.250 6      3290.361          40.875
G28  23302962.420   122457889.473 7     -1056.783          43.812    23302961.480   122457889.475 5     -1056.783          31.562    23302967.800    95421743.865 5      -823.467          31.500    23302968.220    95421753.862 7      -823.467          45.812
G16  21064004.040   110692096.044 7      3969.754          46.000    21064002.520   110692096.054 6      3969.754          37.687    21064005.160    86253579.052 6      3093.315          37.375
G27  21105775.140   110911610.634 7      3419.578          47.437    21105774.400   110911610.644 6      3419.578          41.375    21105778.220    86424631.722 6      2664.606          40.875    21105778.900    86424631.718 8      2664.606          50.687
G10  24254723.320   127459428.918 7      4915.954          43.500    24254722.980   127459428.917 6      4915.954          37.875    24254733.960    99319087.830 6      3830.613          38.187    24254734.440    99319085.844 6      3830.613          40.187
G08  23389578.040   122913068.499 6      4616.781          37.625    23389576.800   122913068.488 4      4616.781          27.125    23389586.780    95776428.228 4      3597.491          26.875    23389587.340    95776448.260 7      3597.491          46.625
R21  22839817.940   122220483.601 6      6076.319          41.750    22839818.820   122220483.606 6      6076.319          41.312    22839831.340    95060429.360 7      4726.026          46.125    22839830.900    95060429.359 7      4726.026          46.062
R09  19185623.980   102450195.894 8      2582.075          48.312    19185623.720   102450195.898 7      2582.075          47.687    19185629.480    79683484.183 8      2008.280          51.500    19185629.580    79683502.182 8      2008.280          52.875
R10  20631329.760   109976596.243 7      5440.897          46.812    20631329.200   109976596.252 7      5440.897          45.187
G18  22433550.000   117889101.906 7        67.213          46.562    22433549.700   117889101.908 6        67.213          37.000    22433553.060    91861648.698 6        52.374          36.687    22433553.400    91861649.699 8        52.374          49.875
R16  22134257.360   118237221.164 7      -652.600          44.375    22134256.440   118237221.168 7      -652.600          44.000    22134269.460    91962338.100 7      -507.578          47.000    22134269.860    91962340.104 7      -507.578          47.625
G31  21534077.380   113162340.160 7       -18.578          46.750    21534076.680   113162340.157 7       -18.578          47.062    21534078.860    88178450.584 7       -14.477          47.000    21534080.940    88178459.582 7       -14.477          47.812
> 2024 05 08 10 28 32.0000000  0 13
G26  20480985.660   107628304.992 8      2229.649          48.312    20480984.680   107628304.997 8      2229.649          50.250    20480989.500    83866226.659 8      1737.389          49.937    20480990.040    83866227.658 8      1737.389          50.000
G23  23697198.780   124529619.002 6      4222.172          41.687    23697197.320   124529619.009 4      4222.172          25.562    23697204.540    97036090.040 4      3290.004          25.437    23697205.360    97036098.052 6      3290.004          40.875
G28  23303163.400   122458946.463 7     -1057.091          43.437    23303162.560   122458946.463 5     -1057.091          31.562    23303168.780    95422567.483 5      -823.707          31.500    23303169.360    95422577.470 7      -823.707          45.875
G16  21063248.600   110688126.561 7      3969.301          45.625    21063247.180   110688126.574 6      3969.301          37.500    21063249.800    86250485.953 6      3092.962          37.000
G27  21105124.520   110908191.387 8      3419.048          48.500    21105123.680   110908191.392 6      3419.048          41.562    21105127.460    86421967.370 6      2664.194          41.562    21105128.160    86421967.366 8      2664.194          50.312
G10  24253787.900   127454513.039 7      4915.871          42.937    24253787.680   127454513.031 6      4915.871          37.687    24253798.560    99315257.283 6      3830.549          37.937    24253798.600    99315255.291 6      3830.549          40.187
G08  23388700.160   122908452.118 6      4616.281          37.875    23388698.400   122908452.110 4      4616.281          27.125    23388708.120    95772831.056 4      3597.102          26.875    23388709.180    95772851.084 7      3597.102          46.437
R21  22838682.280   122214407.485 6      6075.917          41.750    22838683.080   122214407.490 6      6075.917          41.062    22838695.700    95055703.505 7      4725.713          46.187    22838695.480    95055703.507 7      4725.713          45.625
R09  19185140.660   102447614.290 7      2581.132          47.250    19185140.620   102447614.294 7      2581.132          47.000    19185146.260    79681476.271 8      2007.547          52.375    19185146.420    79681494.264 8      2007.547          52.750
R10  20630309.200   109971155.668 7      5440.355          46.625    20630308.740   109971155.677 7      5440.355          45.312
G18  22433537.460   117889035.125 7        66.468          46.000    22433537.060   117889035.127 6        66.468          36.500    22433540.320    91861596.661 6        51.793          36.125    22433540.840    91861597.656 8        51.793          49.000
R16  22134379.540   118237874.228 7      -653.285          44.625    22134378.440   118237874.227 7      -653.285          43.937    22134391.700    91962846.031 7      -508.111          47.125    22134391.920    91962848.034 7      -508.111          47.437
G31  21534080.760   113162359.068 7       -19.166          47.375    21534080.340   113162359.065 7       -19.166          46.187    21534082.460    88178465.313 7       -14.934          46.500    21534084.460    88178474.316 7       -14.934          47.812
> 2024 05 08 10 28 33.0000000  0 13
G26  20480561.500   107626075.617 7      2229.068          47.875    20480560.520   107626075.619 8      2229.068          49.812    20480565.200    83864489.481 8      1736.936          50.250    20480565.680    83864490.481 8      1736.936          50.062
G23  23696395.480   124525397.030 6      4221.840          41.062    23696393.960   124525397.035 4      4221.840          25.562    23696401.280    97032800.194 4      3289.746          25.437    23696401.700    97032808.210 6      3289.746          41.312
G28  23303364.500   122460003.753 7     -1057.471          43.250    23303363.640   122460003.752 5     -1057.471          31.375    23303370.020    95423391.339 5      -824.004          31.500    23303370.300    95423401.332 7      -824.004          46.187
G16  21062493.300   110684157.462 7      3968.839          45.812    21062491.980   110684157.472 6      3968.839          37.500    21062494.460    86247393.146 6      3092.602          37.687
G27  21104473.820   110904772.582 7      3418.572          47.625    21104473.160   110904772.590 6      3418.572          41.187    21104477.020    86419303.368 6      2663.822          41.250    21104477.460    86419303.368 8      2663.822          50.750
G10  24252852.680   127449597.319 7      4915.721          43.187    24252852.160   127449597.316 6      4915.721          37.687    24252863.160    99311426.864 6      3830.432          37.937    24252862.580    99311424.880 6      3830.432          40.125
G08  23387821.600   122903836.116 6      4616.005          37.875    23387820.000   122903836.105 4      4616.005          27.125    23387829.720    95769234.169 4      3596.887          26.875    23387830.580    95769254.183 7      3596.887          46.000
R21  22837546.820   122208331.990 6      6075.270          41.750    22837548.100   122208332.002 6      6075.270          41.062    22837560.360    95050978.136 7      4725.210          46.062    22837560.020    95050978.135 7      4725.210          45.937
R09  19184657.580   102445033.546 8      2580.313          48.125    19184657.420   102445033.547 8      2580.313          48.062    19184663.120    79679469.023 8      2006.910          52.125    19184663.100    79679487.020 8      2006.910          52.812
R10  20629288.700   109965715.594 7      5439.839          46.625    20629287.980   109965715.606 7      5439.839          45.187
G18  22433524.860   117888968.906 7        65.967          46.687    22433524.420   117888968.911 6        65.967          37.125    22433527.680    91861545.060 6        51.403          36.875    22433527.800    91861546.059 8        51.403          49.562
R16  22134501.760   118238527.909 7      -653.997          43.937    22134500.900   118238527.910 7      -653.997          43.687    22134513.980    91963354.443 7      -508.665          46.750    22134514.260    91963356.447 7      -508.665          47.000
G31  21534084.640   113162378.569 7       -19.780          47.437    21534084.000   113162378.569 7       -19.780          46.625    21534086.220    88178480.507 7       -15.413          46.687    21534088.080    88178489.507 7       -15.413          47.812
> 2024 05 08 10 28 34.0000000  0 13
G26  20480137.260   107623846.870 8      2228.393          49.125    20480136.240   107623846.874 8      2228.393          49.812    20480141.060    83862752.797 8      1736.410          49.937    20480141.580    83862753.797 8      1736.410          50.437
G23  23695592.120   124521175.660 6      4221.125          41.812    23695590.840   124521175.665 4      4221.125          25.562    23695597.940    97029510.815 4      3289.189          25.437    23695598.580    97029518.824 6      3289.189          41.312
G28  23303566.020   122461061.452 7     -1057.759          43.250    23303564.800   122461061.454 5     -1057.759          31.375    23303571.280    95424215.508 5      -824.228          31.125    23303571.620    95424225.487 7      -824.228          46.500
G16  21061737.980   110680188.830 7      3968.539          46.312    21061736.720   110680188.840 6      3968.539          37.937    21061739.320    86244300.706 6      3092.368          37.187
G27  21103823.620   110901354.352 8      3418.018          48.562    21103822.820   110901354.357 6      3418.018          41.625    21103826.480    86416639.810 6      2663.391          41.312    21103827.360    86416639.810 8      2663.391          50.500
G10  24251917.060   127444681.880 7      4915.348          43.000    24251916.720   127444681.879 6      4915.348          38.375    24251927.780    99307596.660 6      3830.141          38.500    24251927.440    99307594.668 6      3830.141          40.125
G08  23386943.200   122899220.571 6      4615.281          37.250    23386941.760   122899220.555 4      4615.281          27.125    23386951.540    95765637.641 4      3596.323          26.875    23386952.440    95765657.663 7      3596.323          46.312
R21  22836411.760   122202257.207 6      6074.497          41.250    22836412.540   122202257.222 6      6074.497          41.375    22836425.120    95046253.311 7      4724.609          46.000    22836424.720    95046253.307 7      4724.609          45.312
R09  19184174.120   102442453.819 8      2579.258          48.187    19184174.180   102442453.825 8      2579.258          48.062    19184179.920    79677462.573 8      2006.089          51.812    19184180.200    79677480.572 8      2006.089          53.187
R10  20628268.040   109960276.163 7      5439.196          46.750    20628267.680   109960276.171 7      5439.196          45.250
G18  22433512.480   117888903.412 7        65.108          47.250    22433511.860   117888903.420 6        65.108          36.437    22433515.220    91861494.028 6        50.734          36.250    22433515.540    91861495.023 8        50.734          49.187
R16  22134624.200   118239182.301 7      -654.714          44.750    22134623.640   118239182.308 7      -654.714          44.250    22134636.380    91963863.411 7      -509.222          47.000    22134636.780    91963865.418 7      -509.222          47.125
G31  21534088.440   113162398.769 7       -20.596          47.250    21534087.800   113162398.769 7       -20.596          46.562    21534090.020    88178496.245 7       -16.049          46.500    21534091.800    88178505.244 8       -16.049          48.125
> 2024 05 08 10 28 35.0000000  0 13
G26  20479713.200   107621618.635 8      2227.942          49.187    20479712.300   107621618.640 8      2227.942          49.500    20479717.060    83861016.510 8      1736.059          49.750    20479717.660    83861017.512 8      1736.059          50.187
G23  23694788.680   124516954.713 7      4220.692          42.625    23694787.680   124516954.715 4      4220.692          25.562    23694794.820    97026221.767 4      3288.851          25.437    23694795.520    97026229.783 6      3288.851          41.437
G28  23303767.180   122462119.459 7     -1058.260          42.625    23303766.160   122462119.461 5     -1058.260          31.375    23303772.680    95425039.920 5      -824.618          31.125    23303773.020    95425049.910 7      -824.618          46.250
G16  21060982.980   110676220.582 7      3968.090          45.750    21060981.600   110676220.590 6      3968.090          37.562    21060984.120    86241208.564 6      3092.018          37.625
G27  21103173.080   110897936.545 8      3417.643          48.625    21103172.380   110897936.553 6      3417.643          41.500    21103176.060    86413976.586 6      2663.099          41.250    21103177.060    86413976.593 8      2663.099          50.375
G10  24250981.780   127439766.559 7      4915.241          42.437    24250981.240   127439766.563 6      4915.241          37.937    24250992.340    99303766.546 6      3830.058          37.687    24250992.360    99303764.566 6      3830.058          40.437
G08  23386065.020   122894605.354 6      4615.116          37.437    23386063.540   122894605.344 4      4615.116          27.125    23386073.300    95762041.372 4      3596.194          26.875    23386074.400    95762061.380 7      3596.194          46.125
R21  22835276.780   122196182.899 6      6074.091          41.250    22835277.480   122196182.917 6      6074.091          41.375    22835289.760    95041528.860 7      4724.293          46.062    22835289.700    95041528.861 7      4724.293          45.812
R09  19183691.120   102439874.938 7      2578.496          47.875    19183691.520   102439874.939 8      2578.496          48.125    19183697.160    79675456.777 8      2005.497          52.250    19183697.460    79675474.772 8      2005.497          52.437
R10  20627247.780   109954837.190 7      5438.741          46.250    20627247.300   109954837.204 7      5438.741          45.375
G18  22433500.020   117888838.468 7        64.634          46.437    22433499.400   117888838.470 6        64.634          36.750    22433502.820    91861443.416 6        50.364          36.500    22433503.040    91861444.415 8        50.364          48.937
R16  22134746.680   118239837.288 7      -655.350          45.375    22134746.520   118239837.295 7      -655.350          44.437    22134759.000    91964372.835 7      -509.717          47.000    22134759.440    91964374.834 7      -509.717          46.937
G31  21534092.460   113162419.495 7       -21.044          46.562    21534091.800   113162419.497 7       -21.044          46.562    21534093.960    88178512.395 7       -16.398          46.625    21534096.160    88178521.396 8       -16.398          48.875
> 2024 05 08 10 28 36.0000000  0 13
G26  20479289.120   107619391.004 8      2227.462          49.062    20479288.420   107619391.009 8      2227.462          49.937    20479293.140    83859280.692 8      1735.684          50.187    20479293.620    83859281.696 8      1735.684          50.000
G23  23693985.980   124512734.331 7      4220.130          42.687    23693984.540   124512734.333 4      4220.130          25.437    23693991.520    97022933.162 4      3288.413          25.437    23693992.340    97022941.186 6      3288.413          41.000
G28  23303968.560   122463177.813 7     -1058.474          42.625    23303967.540   122463177.817 5     -1058.474          31.125    23303974.020    95425864.605 5      -824.785          31.125    23303974.400    95425874.601 7      -824.785          46.062
G16  21060227.920   110672252.781 7      3967.755          45.625    21060226.600   110672252.788 6      3967.755          37.250    21060229.160    86238116.775 6      3091.757          37.000
G27  21102522.800   110894519.291 8      3417.130          48.562    21102522.120   110894519.298 6      3417.130          41.375    21102525.800    86411313.792 6      2662.698          41.562    21102526.760    86411313.799 8      2662.698          50.750
G10  24250046.500   127434851.492 7      4915.006          43.062    24250046.000   127434851.492 6      4915.006          37.375    24250056.960    99299936.630 6      3829.875          37.687    24250057.060    99299934.648 6      3829.875          40.437
G08  23385187.000   122889990.595 6      4614.600          37.625    23385185.540   122889990.584 4      4614.600          26.875    23385195.100    95758445.460 4      3595.792          26.750    23385195.900    95758465.480 7      3595.792          46.250
R21  22834141.480   122190109.181 6      6073.572          40.937    22834142.340   122190109.201 6      6073.572          41.375    22834154.660    95036804.863 7      4723.889          45.937    22834154.720    95036804.861 7      4723.889          45.375
R09  19183208.640   102437296.992 7      2577.621          47.625    19183208.340   102437296.993 8      2577.621          48.125    19183214.180    79673451.710 8      2004.817          52.250    19183214.400    79673469.707 8      2004.817          52.500
R10  20626227.720   109949398.814 7      5438.290          45.937    20626227.080   109949398.817 7      5438.290          45.500
G18  22433487.900   117888774.196 7        64.025          46.562    22433487.280   117888774.198 6        64.025          36.500    22433490.500    91861393.334 6        49.890          36.375    22433490.920    91861394.333 8        49.890          48.937
R16  22134869.060   118240492.933 7      -655.901          44.750    22134869.180   118240492.942 7      -655.901          44.437    22134881.720    91964882.776 7      -510.145          46.687    22134881.800    91964884.775 7      -510.145          47.062
G31  21534096.500   113162440.896 7       -21.608          47.125    21534095.880   113162440.893 7       -21.608          46.562    21534098.040    88178529.065 7       -16.838          46.500    21534100.160    88178538.064 7       -16.838          47.875
> 2024 05 08 10 28 37.0000000  0 13
G26  20478865.280   107617163.791 8      2226.910          49.062    20478864.480   107617163.791 8      2226.910          50.250    20478869.420    83857545.196 8      1735.255          49.875    20478869.820    83857546.201 8      1735.255          50.062
G23  23693182.700   124508514.227 7      4219.764          42.750    23693181.360   124508514.235 4      4219.764          25.437    23693188.480    97019644.775 4      3288.128          25.437    23693189.200    97019652.804 6      3288.128          41.000
G28  23304170.180   122464236.355 7     -1058.802          42.750    23304168.840   122464236.363 5     -1058.802          31.125    23304175.320    95426689.436 5      -825.040          31.062    23304175.640    95426699.425 7      -825.040          45.625
G16  21059472.900   110668285.210 7      3967.401          46.000    21059471.500   110668285.221 6      3967.401          37.937    21059474.020    86235025.162 6      3091.481          37.437
G27  21101872.620   110891102.346 8      3416.608          48.812    21101871.960   110891102.353 6      3416.608          41.187    21101875.460    86408651.242 6      2662.292          41.000    21101876.220    86408651.244 8      2662.292          50.062
G10  24249111.100   127429936.400 7      4914.915          42.875    24249110.540   127429936.402 6      4914.915          37.937    24249121.620    99296106.698 6      3829.804          37.687    24249121.880    99296104.714 6      3829.804          40.250
G08  23384308.720   122885376.038 6      4614.222          37.625    23384307.380   122885376.030 4      4614.222          26.875    23384317.040    95754849.699 4      3595.497          26.750    23384317.940    95754869.723 7      3595.497          46.437
R21  22833006.580   122184035.815 6      6073.205          40.937    22833007.520   122184035.830 6      6073.205          40.687    22833019.900    95032081.132 7      4723.604          45.812    22833019.460    95032081.133 7      4723.604          45.437
R09  19182725.600   102434719.772 8      2576.714          48.500    19182725.820   102434719.773 8      2576.714          48.187    19182731.620    79671447.199 8      2004.111          51.937    19182731.980    79671465.196 8      2004.111          52.562
R10  20625207.940   109943960.806 7      5437.658          46.750    20625206.780   109943960.811 7      5437.658          45.312
G18  22433475.940   117888710.350 7        63.509          46.750    22433475.120   117888710.355 6        63.509          36.750    22433478.380    91861343.581 6        49.488          36.437    22433479.100    91861344.585 8        49.488          49.250
R16  22134992.120   118241149.023 7      -656.455          45.312    22134991.820   118241149.027 7      -656.455          44.500    22135004.660    91965393.058 7      -510.576          46.437    22135004.900    91965395.058 7      -510.576          47.062
G31  21534100.880   113162462.707 7       -22.095          47.875    21534100.000   113162462.707 7       -22.095          46.000    21534102.120    88178546.061 7       -17.217          46.125    21534104.000    88178555.062 7       -17.217          47.812
> 2024 05 08 10 28 38.0000000  0 13
G26  20478441.600   107614937.054 8      2226.543          48.812    20478440.740   107614937.062 8      2226.543          49.687    20478445.680    83855810.084 8      1734.968          49.875    20478446.340    83855811.089 8      1734.968          50.312
G23  23692379.640   124504294.605 6      4219.448          41.687    23692378.420   124504294.607 4      4219.448          25.437    23692385.440    97016356.760 4      3287.881          25.437    23692386.680    97016364.776 6      3287.881          41.375
G28  23304371.960   122465295.164 7     -1058.890          43.062    23304370.360   122465295.166 5     -1058.890          31.125    23304376.900    95427514.471 5      -825.109          31.062    23304377.020    95427524.458 7      -825.109          45.812
G16  21058717.900   110664317.998 7      3967.097          46.687    21058716.480   110664318.010 6      3967.097          37.562    21058719.100    86231933.827 6      3091.244          37.375
G27  21101222.480   110887685.818 8      3416.330          48.250    21101221.760   110887685.823 6      3416.330          40.937    21101225.320    86405989.015 6      2662.075          40.625    21101226.180    86405989.015 8      2662.075          49.937
G10  24248176.060   127425021.460 7      4914.861          43.000    24248175.280   127425021.465 6      4914.861          37.812    24248186.340    99292276.885 6      3829.762          37.875    24248186.340    99292274.895 6      3829.762          40.250
G08  23383431.080   122880761.810 6      4614.139          37.625    23383429.320   122880761.801 4      4614.139          26.875    23383438.960    95751254.197 4      3595.433          26.750    23383440.000    95751274.216 7      3595.433          46.437
R21  22831871.820   122177962.996 6      6072.493          41.000    22831872.200   122177963.027 6      6072.493          40.687    22831885.060    95027357.853 7      4723.050          45.500    22831884.940    95027357.849 7      4723.050          45.187
R09  19182243.460   102432143.388 7      2576.010          47.437    19182243.540   102432143.392 8      2576.010          48.250    19182249.160    79669443.347 8      2003.563          52.187    19182249.180    79669461.344 8      2003.563          52.750
R10  20624187.780   109938523.264 7      5437.343          46.187    20624186.740   109938523.267 7      5437.343          45.187
G18  22433463.540   117888647.082 7        63.029          46.937    22433463.160   117888647.087 6        63.029          36.375    22433466.320    91861294.280 6        49.113          36.250    22433466.820    91861295.277 8        49.113          49.250
R16  22135115.380   118241805.683 7      -656.913          44.937    22135115.080   118241805.689 7      -656.913          44.562    22135127.600    91965903.783 7      -510.933          46.750    22135127.340    91965905.782 7      -510.933          46.562
G31  21534104.880   113162485.083 8       -22.615          48.187    21534104.320   113162485.083 7       -22.615          46.562    21534106.440    88178563.495 7       -17.622          46.562    21534108.420    88178572.493 7       -17.622          47.812
> 2024 05 08 10 28 39.0000000  0 13
G26  20478017.980   107612710.722 8      2226.043          48.312    20478017.120   107612710.726 8      2226.043          49.812    20478022.040    83854075.277 8      1734.579          49.937    20478022.500    83854076.281 8      1734.579          50.437
G23  23691576.560   124500075.266 6      4219.028          41.437    23691575.540   124500075.271 4      4219.028          25.437    23691582.540    97013068.967 4      3287.554          25.625    23691583.220    97013076.991 6      3287.554          41.375
G28  23304573.440   122466354.137 7     -1059.221          43.687    23304571.820   122466354.139 5     -1059.221          31.250    23304578.380    95428339.639 5      -825.367          31.062    23304578.400    95428349.624 7      -825.367          45.625
G16  21057962.900   110660351.016 7      3966.746          46.625    21057961.660   110660351.029 6      3966.746          37.562    21057964.240    86228842.679 6      3090.971          37.437
G27  21100572.460   110884269.609 7      3415.901          47.812    21100571.600   110884269.617 6      3415.901          40.875    21100575.300    86403327.034 6      2661.741          40.875    21100576.040    86403327.036 8      2661.741          50.250
G10  24247240.780   127420106.522 7      4914.699          42.625    24247239.960   127420106.525 6      4914.699          38.062    24247251.120    99288447.070 6      3829.635          38.000    24247251.320    99288445.078 6      3829.635          40.062
G08  23382553.380   122876147.812 6      4613.681          38.125    23382551.360   122876147.804 4      4613.681          26.875    23382561.020    95747658.876 4      3595.076          26.750    23382561.800    95747678.890 7      3595.076          46.437
R21  22830737.040   122171890.596 6      6072.060          41.000    22830738.040   122171890.608 6      6072.060          40.875    22830750.480    95022634.863 7      4722.713          45.562    22830749.840    95022634.859 7      4722.713          45.500
R09  19181760.980   102429567.751 7      2575.078          47.937    19181761.100   102429567.750 7      2575.078          47.812    19181766.780    79667440.072 8      2002.839          52.125    19181766.680    79667458.069 8      2002.839          52.812
R10  20623167.100   109933086.090 7      5436.802          46.625    20623166.440   109933086.109 7      5436.802          45.500
G18  22433451.580   117888584.248 7        62.398          46.125    22433451.260   117888584.255 6        62.398          36.500    22433454.560    91861245.320 6        48.622          36.500    22433454.820    91861246.319 8        48.622          49.312
R16  22135238.340   118242462.809 7      -657.438          45.062    22135238.040   118242462.802 7      -657.438          44.187    22135250.560    91966414.863 7      -511.341          46.437    22135250.700    91966416.864 7      -511.341          46.500
G31  21534109.240   113162507.893 8       -23.211          48.375    21534108.740   113162507.895 7       -23.211          46.437    21534110.720    88178581.266 7       -18.086          46.625    21534113.000    88178590.263 8       -18.086          48.562
> 2024 05 08 10 28 40.0000000  0 13
G26  20477594.500   107610484.894 8      2225.488          48.625    20477593.560   107610484.896 8      2225.488          49.312    20477598.420    83852340.866 8      1734.147          49.562    20477598.980    83852341.869 8      1734.147          49.500
G23  23690773.780   124495856.358 7      4218.702          42.187    23690772.680   124495856.363 4      4218.702          25.437    23690779.640    97009781.513 4      3287.300          25.625    23690780.420    97009789.539 6      3287.300          41.437
G28  23304774.620   122467413.379 7     -1059.416          43.062    23304773.460   122467413.381 5     -1059.416          31.250    23304780.000    95429165.016 5      -825.519          31.125    23304779.800    95429175.006 7      -825.519          45.312
G16  21057208.240   110656384.373 7      3966.507          45.812    21057206.860   110656384.378 6      3966.507          37.937    21057209.420    86225751.783 6      3090.784          37.437
G27  21099922.360   110880853.802 8      3415.610          48.750    21099921.680   110880853.807 6      3415.610          41.187    21099925.260    86400665.364 6      2661.515          40.812    21099925.900    86400665.366 8      2661.515          49.312
G10  24246305.620   127415191.680 7      4914.811          43.125    24246304.660   127415191.676 6      4914.811          37.937    24246315.840    99284617.324 6      3829.723          38.062    24246316.100    99284615.340 6      3829.723          40.062
G08  23381675.120   122871534.101 6      4613.786          38.500    23381673.580   122871534.093 4      4613.786          26.875    23381683.160    95744063.779 4      3595.158          26.750    23381683.820    95744083.782 7      3595.158          46.437
R21  22829602.100   122165818.660 6      6071.639          41.000    22829602.880   122165818.693 6      6071.639          40.875    22829615.720    95017912.271 7      4722.386          45.687    22829615.020    95017912.271 7      4722.386          45.437
R09  19181278.660   102426992.916 8      2574.475          48.250    19181278.860   102426992.911 7      2574.475          47.937    19181284.720    79665437.418 8      2002.369          51.125    19181284.860    79665455.413 8      2002.369          51.812
R10  20622147.180   109927649.398 7      5436.437          45.875    20622146.540   109927649.412 7      5436.437          45.375
G18  22433439.860   117888521.960 7        61.962          46.187    22433439.440   117888521.967 6        61.962          36.437    22433442.640    91861196.782 6        48.282          36.250    22433442.920    91861197.781 8        48.282          48.562
R16  22135361.580   118243120.529 7      -657.985          44.812    22135361.180   118243120.517 7      -657.985          44.000    22135373.540    91966926.410 7      -511.766          46.562    22135373.640    91966928.411 7      -511.766          46.312
G31  21534113.660   113162531.228 7       -23.637          47.812    21534113.080   113162531.227 7       -23.637          46.062    21534115.160    88178599.447 7       -18.418          45.875    21534117.420    88178608.442 7       -18.418          47.625
> 2024 05 08 10 28 41.0000000  0 13
G26  20477170.940   107608259.691 8      2224.908          49.187    20477170.200   107608259.693 8      2224.908          49.250    20477175.060    83850606.938 8      1733.694          49.687    20477175.500    83850607.941 8      1733.694          49.625
G23  23689971.200   124491638.030 7      4218.092          42.625    23689970.140   124491638.038 4      4218.092          25.437    23689976.820    97006494.511 4      3286.825          25.625    23689977.860    97006502.533 6      3286.825          41.250
G28  23304976.120   122468473.020 7     -1059.728          42.000    23304974.940   122468473.020 5     -1059.728          31.250    23304981.680    95429990.698 5      -825.762          31.125    23304981.760    95430000.692 7      -825.762          45.250
G16  21056453.340   110652418.222 7      3965.906          45.875    21056452.080   110652418.230 6      3965.906          37.625    21056454.680    86222661.277 6      3090.317          37.187
G27  21099272.580   110877438.583 8      3414.968          49.062    21099271.780   110877438.586 6      3414.968          41.937    21099275.400    86398004.154 6      2661.014          41.687    21099276.080    86398004.151 8      2661.014          50.250
G10  24245370.280   127410277.118 7      4914.527          42.937    24245369.480   127410277.117 6      4914.527          37.562    24245380.700    99280787.808 6      3829.501          38.125    24245381.060    99280785.826 6      3829.501          40.187
G08  23380797.400   122866920.918 6      4612.969          38.500    23380795.700   122866920.908 4      4612.969          27.187    23380805.460    95740469.093 4      3594.521          26.875    23380805.600    95740489.113 7      3594.521          46.250
R21  22828467.760   122159747.386 6      6071.040          40.812    22828469.380   122159747.415 6      6071.040          40.875    22828480.880    95013190.167 7      4721.920          45.687    22828480.620    95013190.166 7      4721.920          45.187
R09  19180796.940   102424419.076 7      2573.401          47.375    19180796.840   102424419.077 8      2573.401          48.250    19180802.580    79663435.549 8      2001.534          52.125    19180802.700    79663453.541 8      2001.534          52.875
R10  20621127.640   109922213.341 7      5435.862          45.687    20621126.860   109922213.355 7      5435.862          45.687
G18  22433428.320   117888460.368 7        61.241          46.312    22433427.600   117888460.373 6        61.241          36.437    22433431.060    91861148.788 6        47.720          36.312    22433431.420    91861149.781 8        47.720          49.312
R16  22135485.020   118243778.994 7      -658.846          44.750    22135484.100   118243778.989 7      -658.846          44.062    22135496.900    91967438.547 7      -512.435          46.312    22135496.760    91967440.544 7      -512.435          46.750
G31  21534118.220   113162555.249 7       -24.285          47.812    21534117.700   113162555.248 7       -24.285          46.750    21534119.740    88178618.163 7       -18.924          46.687    21534122.080    88178627.159 8       -18.924          48.187
> 2024 05 08 10 28 42.0000000  0 13
G26  20476747.560   107606034.993 8      2224.292          49.437    20476746.860   107606034.995 8      2224.292          49.750    20476751.640    83848873.411 8      1733.215          50.000    20476751.940    83848874.410 8      1733.215          50.000
G23  23689168.400   124487420.147 7      4217.466          42.062    23689167.580   124487420.155 4      4217.466          25.562    23689173.940    97003207.852 4      3286.337          25.625    23689174.980    97003215.868 6      3286.337          41.250
G28  23305178.080   122469532.948 7     -1060.243          42.187    23305176.540   122469532.950 5     -1060.243          31.000    23305183.380    95430816.608 5      -826.163          31.125    23305183.220    95430826.605 7      -826.163          45.562
G16  21055698.720   110648452.402 7      3965.473          46.125    21055697.340   110648452.412 6      3965.473          37.562    21055700.100    86219571.032 6      3089.979          37.437
G27  21098622.660   110874023.764 8      3414.453          48.875    21098621.960   110874023.772 6      3414.453          41.125    21098625.600    86395343.258 6      2660.613          40.937    21098626.420    86395343.256 8      2660.613          50.437
G10  24244435.060   127405362.677 7      4914.291          42.937    24244434.480   127405362.674 6      4914.291          38.000    24244445.440    99276958.380 6      3829.318          38.187    24244445.380    99276956.392 6      3829.318          40.187
G08  23379919.580   122862308.022 6      4612.598          38.250    23379917.820   122862308.016 4      4612.598          27.187    23379927.500    95736874.634 4      3594.232          26.875    23379927.840    95736894.654 7      3594.232          46.062
R21  22827333.560   122153676.600 6      6070.441          40.812    22827334.940   122153676.631 6      6070.441          40.812    22827346.540    95008468.451 7      4721.454          45.000    22827345.880    95008468.451 7      4721.454          45.062
R09  19180315.040   102421846.096 8      2572.324          49.375    19180315.040   102421846.102 8      2572.324          48.562    19180320.800    79661434.344 8      2000.696          52.062    19180320.800    79661452.339 8      2000.696          52.812
R10  20620107.860   109916777.772 7      5435.134          45.937    20620107.360   109916777.783 7      5435.134          45.750
G18  22433416.540   117888399.331 7        60.517          46.000    22433416.000   117888399.338 6        60.517          36.000    22433419.480    91861101.225 6        47.156          36.250    22433419.760    91861102.222 8        47.156          49.375
R16  22135608.400   118244438.014 7      -659.443          44.812    22135607.740   118244438.018 7      -659.443          44.062    22135620.160    91967951.111 7      -512.900          46.562    22135620.440    91967953.112 7      -512.900          46.625
G31  21534122.900   113162579.821 7       -25.006          47.250    21534122.420   113162579.821 7       -25.006          46.125    21534124.480    88178637.308 7       -19.485          46.375    21534126.560    88178646.299 8       -19.485          48.375
> 2024 05 08 10 28 43.0000000  0 13
G26  20476324.400   107603810.801 8      2224.043          49.312    20476323.620   107603810.806 8      2224.043          49.937    20476328.340    83847140.275 8      1733.020          49.750    20476328.660    83847141.274 8      1733.020          50.000
G23  23688365.800   124483202.674 6      4217.390          41.500    23688365.140   124483202.684 4      4217.390          25.562    23688371.600    96999921.516 4      3286.278          25.625    23688372.400    96999929.529 6      3286.278          41.250
G28  23305379.700   122470593.146 7     -1060.237          42.000    23305378.400   122470593.153 5     -1060.237          31.000    23305385.060    95431642.730 5      -826.159          31.000    23305385.540    95431652.719 7      -826.159          45.750
G16  21054944.200   110644486.957 7      3965.339          46.250    21054942.740   110644486.965 6      3965.339          37.687    21054945.480    86216481.077 6      3089.874          37.500
G27  21097972.920   110870609.391 8      3414.240          48.937    21097972.300   110870609.394 6      3414.240          40.937    21097975.740    86392682.704 6      2660.447          40.937    21097976.680    86392682.708 8      2660.447          50.562
G10  24243499.940   127400448.378 7      4914.364          44.062    24243499.280   127400448.375 6      4914.364          37.812    24243510.440    99273129.064 6      3829.374          37.625    24243510.520    99273127.066 6      3829.374          40.687
G08  23379041.680   122857695.491 6      4612.397          38.250    23379039.900   122857695.485 4      4612.397          27.187    23379049.580    95733280.456 4      3594.076          26.875    23379049.700    95733300.472 7      3594.076          45.437
R21  22826198.620   122147606.344 6      6070.044          41.312    22826200.300   122147606.386 6      6070.044          40.812    22826212.160    95003747.155 7      4721.146          45.437    22826211.740    95003747.153 7      4721.146          45.125
R09  19179833.420   102419274.016 7      2571.688          47.812    19179833.320   102419274.014 8      2571.688          48.375    19179839.080    79659433.831 8      2000.202          52.187    19179839.160    79659451.826 8      2000.202          52.625
R10  20619088.240   109911342.685 7      5434.897          46.000    20619087.840   109911342.696 7      5434.897          45.625
G18  22433405.020   117888338.856 7        60.269          45.687    22433404.520   117888338.858 6        60.269          36.625    22433407.820    91861054.095 6        46.963          36.500    22433408.460    91861055.093 8        46.963          49.375
R16  22135731.480   118245097.633 7      -659.801          44.750    22135731.680   118245097.639 7      -659.801          44.125    22135743.820    91968464.141 7      -513.179          46.937    22135743.660    91968466.142 7      -513.179          46.500
G31  21534127.760   113162604.935 8       -25.281          48.500    21534127.140   113162604.937 7       -25.281          46.750    21534129.260    88178656.879 7       -19.699          46.875    21534131.400    88178665.872 8       -19.699          48.062
> 2024 05 08 10 28 44.0000000  0 13
G26  20475901.180   107601587.007 8      2223.712          49.875    20475900.400   107601587.009 8      2223.712          49.812    20475905.180    83845407.450 8      1732.763          49.812    20475905.520    83845408.449 8      1732.763          49.250
G23  23687563.600   124478985.545 7      4217.167          43.250    23687562.660   124478985.552 4      4217.167          25.562    23687569.020    96996635.445 4      3286.104          25.625    23687570.100    96996643.455 6      3286.104          41.250
G28  23305581.340   122471653.496 7     -1060.229          43.125    23305580.280   122471653.501 5     -1060.229          31.250    23305586.980    95432468.967 5      -826.153          31.000    23305587.320    95432478.969 7      -826.153          46.437
G16  21054189.800   110640521.726 7      3965.218          46.812    21054188.260   110640521.736 6      3965.218          37.937    21054190.900    86213391.288 6      3089.781          37.625
G27  21097323.260   110867195.329 8      3413.969          48.250    21097322.560   110867195.336 6      3413.969          41.125    21097326.160    86390022.402 6      2660.236          41.187    21097326.880    86390022.410 8      2660.236          50.062
G10  24242564.800   127395534.076 7      4914.437          43.500    24242564.000   127395534.073 6      4914.437          38.250    24242575.340    99269299.742 6      3829.431          38.312    24242575.680    99269297.746 6      3829.431          40.687
G08  23378164.340   122853083.159 6      4612.126          38.250    23378162.020   122853083.154 4      4612.126          27.187    23378171.740    95729686.434 4      3593.865          26.875    23378171.740    95729706.466 7      3593.865          45.375
R21  22825064.360   122141536.465 6      6069.816          41.312    22825065.880   122141536.496 6      6069.816          40.937    22825077.920    94999026.142 7      4720.968          45.562    22825077.640    94999026.140 7      4720.968          45.187
R09  19179351.680   102416702.598 8      2571.220          49.687    19179352.000   102416702.596 8      2571.220          48.687    19179357.500    79657433.843 8      1999.838          52.187    19179357.480    79657451.840 8      1999.838          52.187
R10  20618068.960   109905907.944 7      5434.728          46.562    20618068.420   109905907.950 7      5434.728          45.562
G18  22433393.580   117888278.801 7        59.975          46.625    22433393.240   117888278.809 6        59.975          36.750    22433396.420    91861007.302 6        46.734          36.875    22433396.880    91861008.303 8        46.734          49.500
R16  22135855.180   118245757.682 7      -660.193          45.000    22135855.060   118245757.677 7      -660.193          44.750    22135867.060    91968977.498 7      -513.484          46.062    22135867.320    91968979.503 7      -513.484          46.625
G31  21534132.540   113162630.474 7       -25.626          47.500    21534132.040   113162630.479 7       -25.626          46.437    21534134.100    88178676.780 7       -19.968          46.375    21534136.300    88178685.771 7       -19.968          47.937
> 2024 05 08 10 28 45.0000000  0 13
G26  20475478.120   107599363.583 8      2223.137          49.312    20475477.340   107599363.588 8      2223.137          50.750    20475482.080    83843674.912 8      1732.315          50.125    20475482.760    83843675.913 8      1732.315          49.812
G23  23686761.040   124474768.736 7      4216.451          42.312    23686760.200   124474768.746 4      4216.451          25.562    23686766.560    96993349.620 4      3285.546          25.812    23686767.340    96993357.632 6      3285.546          41.250
G28  23305783.240   122472714.020 7     -1060.624          43.000    23305782.180   122472714.025 5     -1060.624          31.250    23305788.740    95433295.339 5      -826.460          31.000    23305789.540    95433305.324 7      -826.460          46.312
G16  21053435.020   110636556.738 7      3964.768          46.250    21053433.720   110636556.748 6      3964.768          37.687    21053436.340    86210301.687 6      3089.430          37.375
G27  21096673.800   110863781.558 8      3413.487          49.500    21096672.980   110863781.560 6      3413.487          41.437    21096676.400    86387362.321 6      2659.860          41.250    21096677.220    86387362.329 8      2659.860          50.125
G10  24241629.520   127390619.772 7      4914.174          43.750    24241628.820   127390619.774 6      4914.174          38.000    24241640.220    99265470.422 6      3829.226          37.750    24241640.280    99265468.438 6      3829.226          40.625
G08  23377286.100   122848471.033 6      4611.876          37.062    23377284.100   122848471.027 4      4611.876          27.187    23377293.940    95726092.575 4      3593.670          26.875    23377294.260    95726112.580 7      3593.670          45.312
R21  22823930.240   122135466.974 6      6069.185          41.312    22823931.320   122135467.013 6      6069.185          40.937    22823943.780    94994305.437 7      4720.477          45.812    22823943.200    94994305.442 7      4720.477          45.125
R09  19178870.240   102414131.890 8      2570.201          49.875    19178870.380   102414131.893 8      2570.201          49.000    19178876.160    79655434.404 8      1999.045          51.937    19178876.300    79655452.401 8      1999.045          52.625
R10  20617049.360   109900473.563 7      5434.115          46.625    20617048.900   109900473.569 7      5434.115          46.312
G18  22433382.360   117888219.201 7        59.325          46.750    22433381.820   117888219.209 6        59.325          36.687    22433385.200    91860960.858 6        46.227          36.375    22433385.720    91860961.855 8        46.227          49.437
R16  22135979.160   118246418.139 7      -660.805          45.937    22135978.840   118246418.143 7      -660.805          45.250    22135990.640    91969491.185 7      -513.960          46.500    22135990.880    91969493.190 7      -513.960          46.687
G31  21534137.500   113162656.461 7       -26.390          47.750    21534137.120   113162656.460 7       -26.390          46.750    21534139.080    88178697.019 7       -20.564          46.500    21534141.140    88178706.018 8       -20.564          48.625
> 2024 05 08 10 28 46.0000000  0 13
G26  20475055.080   107597140.669 8      2222.648          49.312    20475054.300   107597140.679 8      2222.648          50.750    20475059.120    83841942.773 8      1731.934          50.187    20475059.640    83841943.776 8      1731.934          49.750
G23  23685958.920   124470552.327 7      4216.190          42.500    23685958.000   124470552.334 4      4216.190          25.562    23685964.280    96990064.109 4      3285.343          25.812    23685964.920    96990072.122 6      3285.343          41.250
G28  23305985.160   122473774.791 7     -1060.686          42.000    23305984.060   122473774.793 5     -1060.686          31.250    23305990.640    95434121.907 5      -826.508          31.187    23305991.280    95434131.889 7      -826.508          46.437
G16  21052680.720   110632592.093 7      3964.477          46.500    21052679.220   110632592.100 6      3964.477          37.937    21052681.940    86207212.357 6      3089.203          37.875
G27  21096024.340   110860368.213 8      3413.144          48.812    21096023.360   110860368.215 6      3413.144          41.062    21096026.880    86384702.571 6      2659.593          40.937    21096027.740    86384702.575 8      2659.593          50.187
G10  24240694.640   127385705.607 7      4914.082          43.937    24240693.720   127385705.609 6      4914.082          38.250    24240705.020    99261641.209 6      3829.155          38.375    24240704.660    99261639.221 6      3829.155          40.625
G08  23376408.940   122843859.229 6      4611.614          37.687    23376406.620   122843859.216 4      4611.614          27.187    23376416.260    95722498.958 4      3593.465          26.875    23376417.120    95722518.971 7      3593.465          45.687
R21  22822795.620   122129398.002 6      6068.704          41.187    22822797.760   122129398.030 6      6068.704          40.937    22822809.740    94989585.124 7      4720.103          45.562    22822809.360    94989585.126 7      4720.103          45.375
R09  19178388.860   102411562.018 8      2569.470          49.875    19178389.260   102411562.019 8      2569.470          48.812    19178394.900    79653435.612 8      1998.477          51.812    19178395.040    79653453.609 8      1998.477          52.437
R10  20616030.000   109895039.654 7      5433.656          46.750    20616029.420   109895039.660 7      5433.656          45.687
G18  22433371.020   117888160.158 7        58.690          46.812    22433370.520   117888160.166 6        58.690          36.312    22433373.900    91860914.850 6        45.733          36.375    22433374.600    91860915.848 8        45.733          49.562
R16  22136102.960   118247079.168 7      -661.388          46.250    22136102.540   118247079.177 7      -661.388          45.500    22136114.640    91970005.316 7      -514.413          46.375    22136114.600    91970007.324 7      -514.413          46.750
G31  21534142.580   113162682.954 8       -26.776          48.312    21534142.080   113162682.951 7       -26.776          47.187    21534144.160    88178717.661 7       -20.864          47.000    21534146.060    88178726.660 7       -20.864          47.937
> 2024 05 08 10 28 47.0000000  0 13
G26  20474632.280   107594918.346 8      2222.121          48.812    20474631.480   107594918.356 8      2222.121          50.187    20474636.200    83840211.091 8      1731.523          50.312    20474636.860    83840212.092 8      1731.523          50.000
G23  23685156.560   124466336.430 7      4215.900          42.062    23685155.700   124466336.437 4      4215.900          25.562    23685161.980    96986779.000 4      3285.117          25.812    23685162.460    96986787.004 6      3285.117          41.250
G28  23306187.260   122474835.935 6     -1061.100          41.937    23306186.180   122474835.935 5     -1061.100          31.312    23306192.540    95434948.765 5      -826.831          31.187    23306193.140    95434958.748 7      -826.831          46.250
G16  21051926.460   110628627.867 7      3964.195          46.000    21051925.000   110628627.869 6      3964.195          38.000    21051927.400    86204123.346 6      3088.983          37.437
G27  21095374.680   110856955.362 8      3412.715          48.250    21095373.940   110856955.364 6      3412.715          40.937    21095377.580    86382043.209 6      2659.259          40.812    21095377.960    86382043.209 8      2659.259          49.812
G10  24239759.400   127380791.637 7      4913.940          43.187    24239758.760   127380791.634 6      4913.940          38.500    24239770.020    99257812.145 6      3829.044          37.937    24239769.760    99257810.151 6      3829.044          40.625
G08  23375531.260   122839247.818 6      4611.354          38.125    23375529.140   122839247.809 4      4611.354          26.687    23375538.680    95718905.650 4      3593.263          26.500    23375539.580    95718925.674 7      3593.263          45.562
R21  22821661.680   122123329.631 6      6068.110          41.187    22821663.360   122123329.646 6      6068.110          41.437    22821675.400    94984865.276 7      4719.641          45.312    22821675.100    94984865.276 7      4719.641          45.750
R09  19177908.060   102408993.104 7      2568.493          47.875    19177908.160   102408993.110 8      2568.493          48.937    19177913.880    79651437.570 8      1997.716          52.187    19177913.860    79651455.567 8      1997.716          52.687
R10  20615010.920   109889606.270 7      5433.242          46.312    20615010.260   109889606.279 7      5433.242          45.375
G18  22433359.860   117888101.746 7        58.170          45.750    22433359.500   117888101.754 6        58.170          36.562    22433362.820    91860869.332 6        45.327          36.437    22433363.240    91860870.328 8        45.327          49.500
R16  22136226.700   118247740.880 7      -661.971          45.375    22136226.620   118247740.884 7      -661.971          45.000    22136238.580    91970519.967 7      -514.867          46.062    22136238.680    91970521.972 7      -514.867          47.125
G31  21534147.820   113162710.080 7       -27.310          47.937    21534147.280   113162710.080 7       -27.310          46.875    21534149.300    88178738.799 7       -21.281          46.875    21534151.260    88178747.799 8       -21.281          48.187
> 2024 05 08 10 28 48.0000000  0 13
G26  20474209.420   107592696.464 8      2221.595          48.687    20474208.620   107592696.469 8      2221.595          49.687    20474213.400    83838479.752 8      1731.113          49.937    20474213.880    83838480.754 8      1731.113          50.125
G23  23684353.920   124462120.959 6      4215.223          41.687    23684353.500   124462120.966 4      4215.223          26.000    23684359.920    96983494.217 4      3284.590          25.812    23684360.280    96983502.225 6      3284.590          41.437
G28  23306388.980   122475897.329 7     -1061.663          42.250    23306388.100   122475897.329 5     -1061.663          31.312    23306394.660    95435775.812 5      -827.270          31.187    23306395.020    95435785.804 7      -827.270          45.937
G16  21051172.420   110624663.955 7      3963.629          45.312    21051170.660   110624663.967 6      3963.629          37.937    21051173.120    86201034.591 6      3088.542          37.562
G27  21094725.440   110853542.918 8      3412.079          48.250    21094724.600   110853542.922 6      3412.079          40.625    21094728.160    86379384.161 6      2658.763          40.750    21094728.560    86379384.164 8      2658.763          50.312
G10  24238824.360   127375877.734 7      4913.792          42.500    24238823.580   127375877.729 6      4913.792          38.812    24238834.800    99253983.136 6      3828.929          38.437    24238834.920    99253981.155 6      3828.929          40.500
G08  23374654.020   122834636.721 6      4610.993          38.125    23374651.840   122834636.710 4      4610.993          26.687    23374661.320    95715312.594 4      3592.981          26.500    23374662.020    95715332.605 7      3592.981          46.125
R21  22820527.980   122117261.692 6      6067.515          41.187    22820529.540   122117261.712 6      6067.515          41.437    22820541.820    94980145.776 7      4719.178          45.750    22820541.320    94980145.778 7      4719.178          45.187
R09  19177427.140   102406424.983 8      2567.595          48.187    19177427.240   102406424.990 8      2567.595          48.437    19177432.780    79649440.145 8      1997.018          52.687    19177432.860    79649458.142 8      1997.018          52.812
R10  20613991.600   109884173.310 7      5432.687          46.562    20613990.580   109884173.313 7      5432.687          45.562
G18  22433348.600   117888043.844 7        57.477          45.812    22433348.460   117888043.846 6        57.477          36.500    22433351.620    91860824.209 6        44.788          36.750    22433352.260    91860825.207 8        44.788          49.562
R16  22136350.340   118248403.127 7      -662.610          44.375    22136350.180   118248403.134 7      -662.610          44.625    22136362.540    91971035.044 7      -515.363          46.687    22136362.820    91971037.051 7      -515.363          47.500
G31  21534153.120   113162737.709 7       -27.959          47.500    21534152.540   113162737.711 7       -27.959          46.125    21534154.540    88178760.327 7       -21.786          46.625    21534156.700    88178769.324 8       -21.786          48.062
> 2024 05 08 10 28 49.0000000  0 13
G26  20473786.840   107590475.161 8      2221.142          49.000    20473785.880   107590475.168 8      2221.142          49.625    20473790.660    83836748.869 8      1730.760          49.687    20473791.160    83836749.870 8      1730.760          49.562
G23  23683551.860   124457905.953 6      4214.972          41.625    23683551.400   124457905.957 4      4214.972          26.000    23683557.900    96980209.799 4      3284.394          25.812    23683557.900    96980217.813 6      3284.394          41.437
G28  23306591.100   122476959.001 7     -1061.629          42.312    23306590.320   122476959.006 5     -1061.629          31.312    23306596.680    95436603.081 5      -827.243          31.062    23306596.960    95436613.079 7      -827.243          46.125
G16  21050418.020   110620700.454 7      3963.420          46.187    21050416.600   110620700.467 6      3963.420          37.437    21050418.940    86197946.152 6      3088.379          37.187
G27  21094076.200   110850130.928 8      3411.839          48.375    21094075.420   110850130.933 6      3411.839          41.187    21094078.880    86376725.470 6      2658.576          40.937    21094079.360    86376725.470 8      2658.576          50.000
G10  24237889.440   127370964.027 7      4913.730          43.000    24237888.680   127370964.021 6      4913.730          38.250    24237899.860    99250154.281 6      3828.881          38.250    24237899.520    99250152.290 6      3828.881          40.500
G08  23373777.000   122830026.034 6      4610.577          37.750    23373774.680   122830026.021 4      4610.577          26.687    23373784.040    95711719.851 4      3592.658          26.500    23373784.340    95711739.869 7      3592.658          45.750
R21  22819394.560   122111194.331 6      6067.209          40.687    22819395.680   122111194.346 6      6067.209          41.437    22819408.040    94975426.719 7      4718.941          45.562    22819407.060    94975426.720 7      4718.941          45.625
R09  19176946.380   102403857.784 7      2566.890          47.687    19176946.540   102403857.793 7      2566.890          47.750    19176952.180    79647443.434 8      1996.470          52.625    19176952.220    79647461.431 8      1996.470          52.562
R10  20612972.460   109878740.864 7      5432.386          46.187    20612971.780   109878740.876 7      5432.386          45.937
G18  22433338.240   117887986.553 7        57.049          46.187    22433337.520   117887986.555 6        57.049          36.375    22433340.820    91860779.565 6        44.453          36.000    22433341.360    91860780.563 8        44.453          49.625
R16  22136474.700   118249066.034 7      -663.042          44.875    22136474.200   118249066.043 7      -663.042          44.375    22136486.520    91971550.634 7      -515.699          46.375    22136486.860    91971552.633 7      -515.699          46.812
G31  21534158.340   113162765.941 8       -28.358          48.062    21534157.960   113162765.944 7       -28.358          46.625    21534160.000    88178782.323 7       -22.097          46.750    21534162.360    88178791.323 8       -22.097          48.125
> 2024 05 08 10 28 50.0000000  0 13
G26  20473364.040   107588254.359 8      2220.423          48.812    20473363.300   107588254.364 8      2220.423          49.750    20473368.180    83835018.374 8      1730.200          49.187    20473368.480    83835019.377 8      1730.200          49.562
G23  23682750.080   124453691.414 6      4214.118          41.937    23682749.360   124453691.424 4      4214.118          26.000    23682755.960    96976925.747 4      3283.728          25.812    23682755.840    96976933.759 6      3283.728          41.375
G28  23306793.300   122478020.981 7     -1062.138          42.812    23306792.360   122478020.983 5     -1062.138          31.000    23306798.920    95437430.592 5      -827.640          31.062    23306799.160    95437440.587 7      -827.640          46.250
G16  21049663.880   110616737.298 7      3962.862          45.500    21049662.360   110616737.309 6      3962.862          37.875    21049664.720    86194857.976 6      3087.944          37.875
G27  21093426.980   110846719.362 8      3411.295          48.312    21093426.120   110846719.367 6      3411.295          40.937    21093429.620    86374067.107 6      2658.152          40.937    21093430.240    86374067.107 8      2658.152          49.187
G10  24236954.280   127366050.432 7      4913.436          43.062    24236953.580   127366050.431 6      4913.436          37.937    24236964.820    99246325.519 6      3828.651          37.750    24236965.120    99246323.533 6      3828.651          40.875
G08  23372899.640   122825415.645 6      4610.163          38.500    23372897.460   122825415.634 4      4610.163          26.687    23372906.640    95708127.341 4      3592.335          26.500    23372907.240    95708147.365 7      3592.335          45.750
R21  22818260.540   122105127.467 6      6066.615          40.687    22818262.060   122105127.490 6      6066.615          40.937    22818273.980    94970708.062 7      4718.478          45.312    22818273.520    94970708.062 7      4718.478          44.937
R09  19176465.380   102401291.425 7      2565.940          47.750    19176465.680   102401291.429 8      2565.940          48.125    19176471.440    79645447.376 8      1995.731          51.812    19176471.320    79645465.371 8      1995.731          52.312
R10  20611953.160   109873308.893 7      5431.675          46.437    20611952.540   109873308.904 7      5431.675          45.750
G18  22433327.340   117887929.801 7        56.449          45.125    22433326.660   117887929.804 6        56.449          36.750    22433330.000    91860735.341 6        43.986          36.312    22433330.700    91860736.338 8        43.986          48.937
R16  22136598.580   118249729.525 7      -663.849          45.000    22136598.500   118249729.524 7      -663.849          44.312    22136610.820    91972066.668 7      -516.327          46.812    22136611.260    91972068.669 7      -516.327          46.812
G31  21534163.920   113162794.715 7       -29.057          47.125    21534163.340   113162794.718 7       -29.057          46.500    21534165.460    88178804.742 7       -22.642          46.250    21534167.980    88178813.742 7       -22.642          47.875
> 2024 05 08 10 28 51.0000000  0 13
G26  20472941.700   107586034.078 8      2220.210          48.500    20472940.840   107586034.080 8      2220.210          49.375    20472945.620    83833288.284 8      1730.034          49.125    20472945.980    83833289.284 8      1730.034          50.625
G23  23681948.140   124449477.275 6      4214.203          40.937    23681947.180   124449477.288 4      4214.203          26.000    23681954.120    96973642.011 4      3283.795          26.187    23681954.160    96973650.020 6      3283.795          41.562
G28  23306995.360   122479083.263 7     -1062.200          42.937    23306994.400   122479083.267 5     -1062.200          31.000    23307000.920    95438258.336 5      -827.688          31.062    23307001.220    95438268.329 7      -827.688          45.937
G16  21048909.900   110612774.503 7      3962.928          46.375    21048908.360   110612774.513 6      3962.928          37.625    21048910.520    86191770.083 6      3087.996          37.375
G27  21092777.880   110843308.260 8      3411.174          48.000    21092776.960   110843308.265 6      3411.174          40.875    21092780.540    86371409.108 6      2658.058          40.812    21092781.220    86371409.106 8      2658.058          50.187
G10  24236019.360   127361136.989 7      4913.602          43.937    24236018.560   127361136.986 6      4913.602          38.187    24236029.720    99242496.868 6      3828.781          38.125    24236030.260    99242494.887 6      3828.781          40.875
G08  23372022.440   122820805.623 6      4610.107          39.062    23372020.320   122820805.612 4      4610.107          26.687    23372029.300    95704535.119 4      3592.291          26.500    23372029.960    95704555.136 7      3592.291          45.625
R21  22817126.960   122099061.128 6      6066.368          41.437    22817128.340   122099061.145 6      6066.368          40.937    22817140.280    94965989.798 7      4718.287          46.000    22817139.800    94965989.798 7      4718.287          45.437
R09  19175985.040   102398725.926 8      2565.325          48.312    19175985.440   102398725.922 7      2565.325          47.437    19175991.220    79643451.984 8      1995.253          52.062    19175991.300    79643469.977 8      1995.253          52.562
R10  20610934.460   109867877.441 7      5431.442          46.625    20610933.860   109867877.450 7      5431.442          45.375
G18  22433316.660   117887873.641 7        56.150          45.687    22433315.980   117887873.646 6        56.150          37.062    22433319.400    91860691.580 6        43.753          36.625    22433319.800    91860692.579 8        43.753          49.000
R16  22136723.160   118250393.610 7      -664.272          45.000    22136723.000   118250393.614 7      -664.272          44.562    22136735.260    91972583.174 7      -516.656          46.437    22136735.220    91972585.171 7      -516.656          46.875
G31  21534169.340   113162824.073 7       -29.390          47.562    21534168.900   113162824.077 7       -29.390          46.687    21534171.060    88178827.615 7       -22.901          46.687    21534173.360    88178836.616 8       -22.901          48.000
> 2024 05 08 10 28 52.0000000  0 13
G26  20472519.320   107583814.178 8      2219.360          48.000    20472518.280   107583814.180 8      2219.360          49.687    20472523.160    83831558.490 8      1729.372          49.687    20472523.580    83831559.491 8      1729.372          50.125
G23  23681146.200   124445263.499 6      4213.304          41.750    23681145.420   124445263.511 4      4213.304          26.000    23681152.340    96970358.551 4      3283.094          26.187    23681152.360    96970366.562 6      3283.094          41.562
G28  23307197.240   122480145.686 7     -1062.815          42.437    23307196.540   122480145.691 5     -1062.815          31.000    23307203.220    95439086.186 5      -828.167          30.812    23307203.180    95439096.177 7      -828.167          45.875
G16  21048155.700   110608811.954 7      3962.171          46.312    21048154.240   110608811.966 6      3962.171          37.625    21048156.300    86188682.385 6      3087.406          37.187
G27  21092128.920   110839897.453 8      3410.377          48.500    21092127.920   110839897.464 6      3410.377          41.000    21092131.480    86368751.340 6      2657.437          41.062    21092132.100    86368751.338 8      2657.437          50.000
G10  24235084.140   127356223.568 7      4913.050          43.000    24235083.620   127356223.568 6      4913.050          38.562    24235094.820    99238668.241 6      3828.351          38.375    24235094.980    99238666.251 6      3828.351          41.000
G08  23371144.920   122816195.808 6      4609.473          39.125    23371143.060   122816195.795 4      4609.473          27.750    23371152.240    95700943.057 4      3591.798          27.437    23371152.500    95700963.067 7      3591.798          45.812
R21  22815993.660   122092995.139 6      6065.509          41.437    22815994.940   122092995.159 6      6065.509          41.125    22816006.880    94961271.811 7      4717.618          45.562    22816006.260    94961271.807 7      4717.618          45.187
R09  19175505.120   102396161.146 7      2564.109          47.375    19175505.140   102396161.139 7      2564.109          47.937    19175510.880    79641457.146 8      1994.307          52.750    19175510.900    79641475.141 8      1994.307          52.250
R10  20609915.800   109862446.352 7      5430.563          46.750    20609915.060   109862446.347 7      5430.563          45.750
G18  22433305.880   117887817.930 7        55.179          45.312    22433305.340   117887817.934 6        55.179          36.437    22433308.620    91860648.164 6        42.997          36.375    22433309.200    91860649.157 8        42.997          49.500
R16  22136847.660   118251058.087 7      -665.057          44.875    22136847.380   118251058.099 7      -665.057          44.625    22136859.520    91973099.981 7      -517.266          46.250    22136859.500    91973101.982 7      -517.266          46.937
G31  21534175.040   113162853.848 7       -30.327          47.437    21534174.660   113162853.852 7       -30.327          46.375    21534176.620    88178850.813 7       -23.631          46.250    21534179.000    88178859.811 7       -23.631          47.875
> 2024 05 08 10 28 53.0000000  0 13
G26  20472096.980   107581594.952 8      2218.859          48.875    20472096.080   107581594.960 8      2218.859          49.375    20472100.800    83829829.225 8      1728.981          49.437    20472101.520    83829830.223 8      1728.981          50.250
G23  23680344.540   124441050.319 6      4212.903          41.312    23680343.900   124441050.334 4      4212.903          26.312    23680350.600    96967075.559 4      3282.781          26.187    23680350.980    96967083.565 6      3282.781          41.562
G28  23307399.540   122481208.551 7     -1063.137          42.750    23307398.740   122481208.559 5     -1063.137          31.062    23307405.280    95439914.390 5      -828.419          30.812    23307405.560    95439924.380 7      -828.419          46.062
G16  21047401.800   110604849.933 7      3961.804          45.937    21047400.220   110604849.945 6      3961.804          37.562    21047402.340    86185595.096 6      3087.120          37.437
G27  21091480.040   110836487.266 8      3409.879          49.500    21091478.980   110836487.271 6      3409.879          41.187    21091482.440    86366094.050 6      2657.049          41.187    21091483.300    86366094.042 8      2657.049          50.375
G10  24234149.500   127351310.428 7      4912.960          43.250    24234148.580   127351310.425 6      4912.960          38.000    24234159.780    99234839.824 6      3828.281          38.500    24234160.080    99234837.848 6      3828.281          41.000
G08  23370267.920   122811586.504 6      4609.174          39.000    23370266.120   122811586.490 4      4609.174          27.750    23370275.020    95697351.390 4      3591.564          27.437    23370275.740    95697371.393 7      3591.564          45.937
R21  22814860.900   122086929.856 7      6065.013          42.062    22814861.720   122086929.869 6      6065.013          41.125    22814873.360    94956554.369 7      4717.232          45.562    22814872.740    94956554.367 7      4717.232          45.375
R09  19175025.040   102393597.351 8      2563.205          48.250    19175025.060   102393597.354 8      2563.205          48.187    19175030.760    79639463.093 8      1993.604          51.875    19175030.800    79639481.090 8      1993.604          52.812
R10  20608896.900   109857015.911 7      5430.068          46.562    20608896.340   109857015.917 7      5430.068          45.562
G18  22433295.580   117887762.930 7        54.604          45.437    22433294.920   117887762.933 6        54.604          36.937    22433298.300    91860605.306 6        42.549          36.500    22433299.000    91860606.307 8        42.549          49.187
R16  22136971.860   118251723.341 7      -665.661          45.250    22136972.120   118251723.353 7      -665.661          45.125    22136984.300    91973617.395 7      -517.737          46.625    22136984.140    91973619.392 7      -517.737          46.687
G31  21534181.060   113162884.332 7       -30.853          47.750    21534180.500   113162884.337 7       -30.853          46.625    21534182.360    88178874.569 7       -24.041          46.750    21534184.640    88178883.565 8       -24.041          48.062
> 2024 05 08 10 28 54.0000000  0 13
G26  20471674.780   107579376.421 8      2218.202          48.687    20471673.860   107579376.428 8      2218.202          49.250    20471678.680    83828100.498 8      1728.469          49.437    20471679.160    83828101.501 8      1728.469          50.125
G23  23679543.280   124436837.764 6      4212.138          41.500    23679542.260   124436837.774 4      4212.138          26.312    23679548.800    96963793.055 4      3282.185          26.187    23679549.500    96963801.063 6      3282.185          41.375
G28  23307602.240   122482271.874 7     -1063.458          42.562    23307601.000   122482271.876 5     -1063.458          31.062    23307607.660    95440742.941 5      -828.669          30.812    23307607.800    95440752.926 7      -828.669          45.937
G16  21046647.820   110600888.437 7      3961.243          46.625    21046646.420   110600888.447 6      3961.243          37.562    21046648.620    86182508.216 6      3086.683          37.312
G27  21090831.180   110833077.665 8      3409.328          48.312    21090830.120   110833077.670 6      3409.328          41.375    21090833.760    86363437.216 6      2656.619          41.250    21090834.560    86363437.214 8      2656.619          50.625
G10  24233214.260   127346397.608 7      4912.642          43.375    24233213.740   127346397.610 6      4912.642          38.250    24233225.020    99231011.663 6      3828.033          38.312    24233225.160    99231009.679 6      3828.033          41.000
G08  23369390.780   122806977.722 6      4608.447          39.812    23369389.160   122806977.709 4      4608.447          27.750    23369398.000    95693760.129 4      3590.997          27.437    23369398.800    95693780.145 7      3590.997          45.875
R21  22813726.920   122080865.294 7      6064.268          42.062    22813728.620   122080865.311 6      6064.268          41.812    22813740.000    94951837.491 7      4716.653          45.312    22813739.600    94951837.489 7      4716.653          45.375
R09  19174544.780   102391034.578 7      2562.243          47.312    19174544.920   102391034.581 7      2562.243          47.937    19174550.880    79637469.824 8      1992.856          52.062    19174551.160    79637487.825 8      1992.856          52.750
R10  20607878.700   109851586.157 7      5429.447          46.562    20607877.740   109851586.160 7      5429.447          45.250
G18  22433285.300   117887708.669 7        53.976          46.250    22433284.640   117887708.669 6        53.976          36.625    22433287.980    91860563.020 6        42.059          36.562    22433288.400    91860564.020 8        42.059          49.437
R16  22137097.040   118252389.357 7      -666.345          44.937    22137096.560   118252389.363 7      -666.345          44.875    22137108.720    91974135.392 7      -518.268          46.500    22137108.880    91974137.390 7      -518.268          46.812
G31  21534187.020   113162915.550 7       -31.572          47.125    21534186.440   113162915.557 7       -31.572          46.437    21534188.400    88178898.892 7       -24.602          47.062    21534190.600    88178907.897 8       -24.602          48.125
> 2024 05 08 10 28 55.0000000  0 13
G26  20471252.740   107577158.181 8      2218.001          49.250    20471251.740   107577158.189 8      2218.001          49.812    20471256.680    83826372.001 8      1728.313          49.875    20471257.180    83826373.000 8      1728.313          50.500
G23  23678741.480   124432625.419 6      4212.066          41.687    23678740.740   124432625.432 4      4212.066          26.312    23678747.260    96960510.713 4      3282.129          26.187    23678748.000    96960518.717 6      3282.129          41.375
G28  23307804.520   122483335.280 7     -1063.596          42.875    23307803.340   122483335.287 5     -1063.596          31.062    23307809.840    95441571.563 5      -828.776          30.812    23307810.180    95441581.549 7      -828.776          45.750
G16  21045894.040   110596927.081 7      3961.254          46.375    21045892.580   110596927.089 6      3961.254          37.937    21045894.740    86179421.443 6      3086.691          37.875
G27  21090182.320   110829668.290 8      3409.160          48.125    21090181.360   110829668.293 6      3409.160          41.250    21090185.040    86360780.564 6      2656.488          41.187    21090185.980    86360780.562 8      2656.488          50.937
G10  24232279.620   127341484.697 7      4912.816          43.750    24232278.780   127341484.696 6      4912.816          37.875    24232290.020    99227183.428 6      3828.168          38.125    24232289.720    99227181.444 6      3828.168          41.000
G08  23368513.660   122802369.048 6      4608.493          39.750    23368512.120   122802369.037 4      4608.493          27.750    23368521.080    95690168.957 4      3591.034          27.437    23368521.980    95690188.970 7      3591.034          46.062
R21  22812593.540   122074801.028 6      6064.056          41.000    22812595.760   122074801.046 6      6064.056          41.812    22812606.680    94947120.848 7      4716.488          45.937    22812606.140    94947120.847 7      4716.488          44.937
R09  19174065.100   102388472.435 7      2561.695          47.500    19174065.180   102388472.442 7      2561.695          47.875    19174070.980    79635477.050 8      1992.430          52.000    19174071.080    79635495.049 8      1992.430          52.875
R10  20606860.000   109846156.664 7      5429.262          46.500    20606859.060   109846156.670 7      5429.262          45.625
G18  22433274.820   117887654.755 7        53.684          45.375    22433274.440   117887654.763 6        53.684          36.750    22433277.660    91860521.014 6        41.832          36.437    22433278.240    91860522.011 8        41.832          49.187
R16  22137221.360   118253055.768 7      -666.710          45.187    22137221.380   118253055.774 7      -666.710          44.750    22137233.620    91974653.706 7      -518.552          46.375    22137233.620    91974655.701 7      -518.552          46.562
G31  21534193.040   113162947.101 7       -31.793          47.312    21534192.400   113162947.106 7       -31.793          46.500    21534194.460    88178923.475 7       -24.774          47.000    21534196.460    88178932.480 8       -24.774          48.062
> 2024 05 08 10 28 56.0000000  0 13
G26  20470830.680   107574940.598 8      2217.197          49.500    20470829.700   107574940.606 8      2217.197          49.875    20470834.640    83824644.014 8      1727.686          50.250    20470835.000    83824645.014 8      1727.686          50.375
G23  23677939.960   124428413.671 6      4211.269          40.687    23677939.240   124428413.684 4      4211.269          26.312    23677945.800    96957228.834 4      3281.509          26.187    23677946.640    96957236.849 6      3281.509          41.875
G28  23308007.200   122484399.086 7     -1063.980          42.750    23308005.780   122484399.088 5     -1063.980          30.687    23308012.380    95442400.490 5      -829.075          30.750    23308012.520    95442410.472 7      -829.075          45.750
G16  21045140.360   110592966.216 7      3960.566          46.375    21045138.900   110592966.224 6      3960.566          38.000    21045141.100    86176335.057 6      3086.155          37.875
G27  21089533.580   110826259.472 8      3408.456          48.187    21089532.620   110826259.480 6      3408.456          41.500    21089536.240    86358124.350 6      2655.940          41.500    21089537.240    86358124.350 8      2655.940          50.312
G10  24231344.700   127336572.063 7      4912.429          43.625    24231343.940   127336572.060 6      4912.429          38.312    24231355.300    99223355.404 6      3827.866          38.625    24231354.820    99223353.419 6      3827.866          40.625
G08  23367636.760   122797760.829 6      4608.054          39.937    23367635.180   122797760.818 4      4608.054          27.750    23367644.260    95686578.136 4      3590.691          27.437    23367645.180    95686598.144 7      3590.691          46.000
R21  22811460.860   122068737.415 6      6063.226          41.000    22811461.740   122068737.441 6      6063.226          41.812    22811473.620    94942404.717 7      4715.842          45.437    22811473.020    94942404.716 7      4715.842          45.562
R09  19173585.540   102385911.318 7      2560.481          47.312    19173585.780   102385911.324 8      2560.481          48.312    19173591.480    79633485.070 8      1991.485          52.312    19173591.460    79633503.067 8      1991.485          53.062
R10  20605841.320   109840727.814 7      5428.417          46.687    20605840.760   109840727.820 7      5428.417          45.812
G18  22433264.840   117887601.553 7        52.772          45.812    22433264.360   117887601.556 6        52.772          36.875    22433267.680    91860479.555 6        41.121          36.562    22433268.120    91860480.555 8        41.121          49.000
R16  22137346.440   118253722.902 7      -667.514          44.625    22137346.400   118253722.898 7      -667.514          44.437    22137358.420    91975172.572 7      -519.177          46.500    22137358.360    91975174.571 7      -519.177          46.250
G31  21534199.140   113162979.335 7       -32.573          46.687    21534198.600   113162979.337 7       -32.573          46.125    21534200.620    88178948.587 7       -25.381          46.062    21534202.900    88178957.588 8       -25.381          48.687
> 2024 05 08 10 28 57.0000000  0 13
G26  20470408.940   107572723.646 8      2216.617          49.125    20470407.800   107572723.653 8      2216.617          49.562    20470412.800    83822916.519 8      1727.234          49.937    20470413.320    83822917.521 8      1727.234          49.625
G23  23677138.460   124424202.451 6      4210.981          41.812    23677137.880   124424202.464 4      4210.981          26.312    23677144.400    96953947.366 4      3281.284          26.250    23677144.760    96953955.383 6      3281.284          41.625
G28  23308209.660   122485463.301 6     -1064.403          41.812    23308208.420   122485463.301 5     -1064.403          30.687    23308214.780    95443229.739 5      -829.405          30.750    23308215.060    95443239.731 7      -829.405          45.500
G16  21044386.900   110589005.838 7      3960.143          46.437    21044385.360   110589005.848 6      3960.143          37.500    21044387.440    86173249.048 6      3085.826          37.500
G27  21088885.080   110822851.222 8      3407.995          48.250    21088884.160   110822851.229 6      3407.995          41.062    21088887.680    86355468.564 6      2655.580          40.750    21088888.540    86355468.569 8      2655.580          50.187
G10  24230409.700   127331659.669 7      4912.320          44.000    24230409.020   127331659.661 6      4912.320          38.437    24230420.460    99219527.571 6      3827.782          38.375    24230420.660    99219525.579 6      3827.782          40.812
G08  23366759.860   122793153.122 6      4607.466          39.875    23366758.640   122793153.111 4      4607.466          28.000    23366767.340    95682987.715 4      3590.233          27.937    23366768.260    95683007.729 7      3590.233          45.875
R21  22810327.320   122062674.447 6      6062.755          41.687    22810328.740   122062674.462 6      6062.755          41.750    22810340.720    94937689.074 7      4715.476          45.500    22810340.200    94937689.076 7      4715.476          45.437
R09  19173105.980   102383351.167 7      2559.699          47.562    19173106.240   102383351.171 8      2559.699          48.312    19173111.940    79631493.840 8      1990.877          52.000    19173112.320    79631511.841 8      1990.877          52.812
R10  20604822.920   109835299.569 7      5427.978          46.500    20604822.400   109835299.577 7      5427.978          45.937
G18  22433254.760   117887549.016 7        52.238          44.687    22433254.380   117887549.021 6        52.238          36.250    22433257.800    91860438.613 6        40.705          36.375    22433258.300    91860439.613 8        40.705          49.312
R16  22137471.460   118254390.723 7      -668.188          45.312    22137471.320   118254390.730 7      -668.188          45.062    22137483.260    91975691.988 7      -519.702          46.375    22137483.260    91975693.987 7      -519.702          46.562
G31  21534205.120   113163012.258 7       -33.156          47.000    21534204.840   113163012.252 7       -33.156          46.625    21534206.840    88178974.235 7       -25.836          46.625    21534209.100    88178983.234 8       -25.836          48.250
> 2024 05 08 10 28 58.0000000  0 13
G26  20469987.100   107570507.322 8      2216.140          49.000    20469986.080   107570507.332 8      2216.140          49.625    20469991.020    83821189.517 8      1726.862          49.937    20469991.540    83821190.515 8      1726.862          50.000
G23  23676337.300   124419991.860 7      4210.246          43.312    23676336.620   124419991.870 4      4210.246          26.312    23676343.180    96950666.389 4      3280.712          26.250    23676343.960    96950674.405 6      3280.712          41.625
G28  23308412.040   122486527.929 7     -1064.772          42.625    23308410.900   122486527.932 5     -1064.772          30.687    23308417.380    95444059.315 5      -829.693          30.750    23308417.740    95444069.309 7      -829.693          45.562
G16  21043633.540   110585045.945 7      3959.768          45.375    21043631.700   110585045.950 6      3959.768          37.625    21043633.940    86170163.415 6      3085.534          37.687
G27  21088236.480   110819443.542 8      3407.442          49.000    21088235.600   110819443.546 6      3407.442          40.937    21088239.140    86352813.231 6      2655.150          40.687    21088239.880    86352813.233 8      2655.150          50.125
G10  24229474.820   127326747.583 7      4911.879          43.250    24229474.500   127326747.577 6      4911.879          37.937    24229485.680    99215699.975 6      3827.438          37.812    24229485.560    99215697.991 6      3827.438          40.812
G08  23365883.000   122788545.843 6      4607.147          38.937    23365881.900   122788545.829 4      4607.147          28.000    23365890.540    95679397.624 4      3589.985          27.937    23365891.400    95679417.639 7      3589.985          46.000
R21  22809194.460   122056612.127 6      6062.020          41.687    22809195.820   122056612.155 6      6062.020          41.750    22809207.520    94932973.948 7      4714.904          45.750    22809207.140    94932973.946 7      4714.904          45.375
R09  19172626.880   102380792.018 8      2558.668          49.187    19172627.020   102380792.018 8      2558.668          48.375    19172632.800    79629503.386 8      1990.075          51.875    19172632.920    79629521.385 8      1990.075          53.187
R10  20603804.980   109829871.984 7      5427.290          46.750    20603804.300   109829871.996 7      5427.290          45.500
G18  22433244.840   117887497.188 7        51.536          46.250    22433244.240   117887497.196 6        51.536          37.000    22433247.700    91860398.228 6        40.158          36.562    22433248.240    91860399.231 8        40.158          48.875
R16  22137596.800   118255059.265 7      -668.822          44.687    22137596.320   118255059.264 7      -668.822          44.750    22137608.420    91976211.949 7      -520.195          47.062    22137608.540    91976213.948 7      -520.195          46.562
G31  21534211.620   113163045.885 7       -34.020          46.625    21534211.220   113163045.885 7       -34.020          46.750    21534213.280    88179000.434 7       -26.509          46.562    21534215.420    88179009.430 8       -26.509          48.187
> 2024 05 08 10 28 59.0000000  0 13
G26  20469565.380   107568291.447 8      2215.743          49.000    20469564.440   107568291.457 8      2215.743          49.375    20469569.320    83819462.859 8      1726.553          49.750    20469569.560    83819463.861 8      1726.553          49.937
G23  23675535.820   124415781.586 6      4210.240          41.937    23675535.440   124415781.593 4      4210.240          26.125    23675541.860    96947385.660 4      3280.707          26.250    23675542.220    96947393.670 6      3280.707          41.562
G28  23308614.560   122487592.752 7     -1064.836          43.125    23308613.500   122487592.754 5     -1064.836          30.937    23308620.180    95444889.037 5      -829.742          30.875    23308620.320    95444899.029 7      -829.742          45.875
G16  21042879.940   110581086.326 7      3959.530          46.125    21042878.140   110581086.333 6      3959.530          37.437    21042880.440    86167078.000 6      3085.348          37.437
G27  21087588.180   110816036.208 8      3407.097          48.062    21087587.140   110816036.213 6      3407.097          41.625    21087590.720    86350158.168 6      2654.881          41.062    21087591.520    86350158.173 8      2654.881          50.187
G10  24228540.180   127321835.494 7      4912.035          42.687    24228539.640   127321835.488 6      4912.035          38.187    24228550.800    99211872.385 6      3827.560          38.250    24228550.940    99211870.402 6      3827.560          40.875
G08  23365006.440   122783938.837 6      4607.035          39.875    23365005.200   122783938.821 4      4607.035          28.000    23365013.740    95675807.749 4      3589.897          27.937    23365014.540    95675827.755 7      3589.897          46.000
R21  22808061.440   122050550.207 7      6061.710          42.250    22808062.880   122050550.230 6      6061.710          41.750    22808074.920    94928259.124 7      4714.664          45.812    22808074.640    94928259.122 7      4714.664          45.562
R09  19172147.760   102378233.624 7      2558.065          47.687    19172147.980   102378233.622 8      2558.065          48.187    19172153.620    79627513.524 8      1989.606          52.312    19172153.940    79627531.521 8      1989.606          52.687
R10  20602786.740   109824444.795 7      5427.017          46.625    20602786.120   109824444.803 7      5427.017          45.562
G18  22433235.060   117887445.842 7        51.115          45.125    22433234.580   117887445.846 6        51.115          36.187    22433237.940    91860358.215 6        39.830          36.187    22433238.380    91860359.215 8        39.830          49.375
R16  22137722.220   118255728.270 7      -669.290          45.625    22137721.540   118255728.271 7      -669.290          44.437    22137733.920    91976732.283 7      -520.559          46.562    22137733.780    91976734.287 7      -520.559          46.000
G31  21534218.320   113163079.927 7       -34.218          47.875    21534217.700   113163079.927 7       -34.218          46.750    21534219.680    88179026.960 7       -26.663          46.687    21534221.920    88179035.961 8       -26.663          48.000
> 2024 05 08 10 29  0.0000000  0 13
G26  20469143.800   107566076.047 8      2215.102          48.750    20469142.840   107566076.055 8      2215.102          49.187    20469147.820    83817736.572 8      1726.053          49.312    20469148.120    83817737.571 8      1726.053          50.437
G23  23674735.040   124411571.743 7      4209.536          42.000    23674734.280   124411571.753 4      4209.536          26.125    23674740.760    96944105.267 4      3280.158          26.250    23674741.360    96944113.277 6      3280.158          41.562
G28  23308817.220   122488657.827 7     -1065.374          42.875    23308816.180   122488657.832 5     -1065.374          30.937    23308822.740    95445718.963 5      -830.161          30.875    23308823.380    95445728.955 7      -830.161          45.437
G16  21042126.540   110577127.025 7      3959.041          46.062    21042124.660   110577127.035 6      3959.041          37.937    21042127.020    86163992.834 6      3084.967          37.250
G27  21086939.720   110812629.253 8      3406.663          48.437    21086938.900   110812629.255 6      3406.663          40.875    21086942.440    86347503.396 6      2654.543          40.875    21086943.100    86347503.398 8      2654.543          50.062
G10  24227605.440   127316923.520 7      4911.817          43.562    24227604.900   127316923.517 6      4911.817          37.687    24227616.140    99208044.884 6      3827.390          37.875    24227616.580    99208042.894 6      3827.390          40.875
G08  23364129.980   122779332.155 6      4606.338          39.562    23364128.520   122779332.139 4      4606.338          28.000    23364137.140    95672218.127 4      3589.354          27.937    23364137.780    95672238.136 7      3589.354          46.187
R21  22806928.800   122044488.772 7      6061.102          42.687    22806930.180   122044488.793 6      6061.102          41.750    22806942.360    94923544.675 7      4714.191          45.750    22806941.600    94923544.675 7      4714.191          45.312
R09  19171668.840   102375676.020 8      2557.099          48.562    19171668.940   102375676.021 8      2557.099          48.312    19171674.700    79625524.279 8      1988.854          52.062    19171675.000    79625542.276 8      1988.854          52.875
R10  20601768.780   109819018.053 7      5426.344          46.750    20601767.940   109819018.064 7      5426.344          45.812
G18  22433225.320   117887395.017 7        50.401          45.937    22433224.900   117887395.022 6        50.401          36.000    22433228.300    91860318.610 5        39.273          35.937    22433228.780    91860319.609 8        39.273          49.000
R16  22137847.540   118256397.819 7      -669.896          45.187    22137846.960   118256397.825 7      -669.896          44.812    22137859.040    91977253.037 7      -521.030          46.375    22137859.300    91977255.041 7      -521.030          46.187
G31  21534224.800   113163114.500 7       -34.880          46.875    21534224.460   113163114.502 7       -34.880          46.812    21534226.320    88179053.902 7       -27.179          46.562    21534228.140    88179062.903 8       -27.179          48.125
> 2024 05 08 10 29  1.0000000  0 13
G26  20468722.240   107563861.170 8      2214.520          49.000    20468721.420   107563861.173 8      2214.520          49.562    20468726.380    83816010.692 8      1725.600          50.062    20468726.660    83816011.691 8      1725.600          50.000
G23  23673934.040   124407362.351 6      4209.106          41.687    23673933.060   124407362.359 4      4209.106          26.125    23673939.920    96940825.226 4      3279.823          26.250    23673940.320    96940833.234 6      3279.823          41.750
G28  23309020.120   122489723.183 7     -1065.559          42.375    23309018.860   122489723.193 5     -1065.559          30.937    23309025.480    95446549.101 5      -830.306          30.875    23309025.960    95446559.086 7      -830.306          45.687
G16  21041373.200   110573168.094 7      3958.710          45.562    21041371.220   110573168.104 6      3958.710          37.875    21041373.600    86160907.955 6      3084.709          37.687
G27  21086291.620   110809222.755 7      3406.172          47.937    21086290.640   110809222.757 6      3406.172          41.625    21086294.200    86344848.980 6      2654.160          41.187    21086294.940    86344848.984 8      2654.160          50.062
G10  24226670.740   127312011.701 7      4911.593          43.375    24226670.320   127312011.704 6      4911.593          37.812    24226681.460    99204217.501 6      3827.215          38.000    24226681.700    99204215.517 6      3827.215          40.437
G08  23363253.680   122774725.783 6      4606.034          40.312    23363252.100   122774725.764 4      4606.034          28.812    23363260.600    95668628.746 4      3589.117          28.375    23363261.520    95668648.763 7      3589.117          46.000
R21  22805795.940   122038427.873 7      6060.591          42.687    22805797.600   122038427.909 6      6060.591          41.812    22805809.500    94918830.658 7      4713.793          45.437    22805808.880    94918830.662 7      4713.793          45.625
R09  19171190.300   102373119.287 8      2556.195          48.125    19171189.940   102373119.285 7      2556.195          47.687    19171195.700    79623535.704 8      1988.152          52.000    19171195.980    79623553.701 8      1988.152          53.187
R10  20600750.220   109813591.790 7      5425.955          46.437    20600750.260   109813591.804 7      5425.955          45.812
G18  22433216.040   117887344.764 7        49.852          45.750    22433215.200   117887344.768 6        49.852          36.562    22433218.800    91860279.449 6        38.846          36.437    22433219.360    91860280.450 8        38.846          48.750
R16  22137972.980   118257067.988 7      -670.563          44.875    22137972.360   118257067.994 7      -670.563          44.187    22137984.540    91977774.271 7      -521.549          46.625    22137984.520    91977776.271 7      -521.549          46.437
G31  21534231.540   113163149.638 7       -35.429          47.625    21534231.020   113163149.645 7       -35.429          46.812    21534233.020    88179081.282 7       -27.607          46.750    21534234.940    88179090.283 7       -27.607          47.937
> 2024 05 08 10 29  2.0000000  0 13
G26  20468301.080   107561646.911 8      2213.864          48.562    20468299.960   107561646.916 8      2213.864          49.812    20468305.000    83814285.297 8      1725.089          49.625    20468305.200    83814286.293 8      1725.089          49.875
G23  23673133.140   124403153.502 6      4208.545          41.625    23673132.020   124403153.506 4      4208.545          26.125    23673138.720    96937545.609 4      3279.386          26.250    23673139.620    96937553.617 6      3279.386          41.812
G28  23309222.600   122490788.933 7     -1066.060          42.125    23309221.700   122490788.940 5     -1066.060          30.812    23309228.120    95447379.547 5      -830.696          30.687    23309228.840    95447389.537 7      -830.696          45.500
G16  21040619.920   110569209.628 7      3958.209          45.750    21040617.980   110569209.641 6      3958.209          37.687    21040620.300    86157823.438 6      3084.319          37.812
G27  21085643.340   110805816.788 8      3405.629          48.062    21085642.420   110805816.793 6      3405.629          40.937    21085646.080    86342194.986 6      2653.737          41.062    21085646.560    86342194.984 8      2653.737          50.062
G10  24225736.140   127307100.119 7      4911.408          43.062    24225735.700   127307100.116 6      4911.408          38.187    24225746.740    99200390.298 6      3827.071          38.125    24225747.040    99200388.304 6      3827.071          40.437
G08  23362377.220   122770119.862 6      4605.602          40.312    23362375.600   122770119.849 4      4605.602          28.812    23362384.080    95665039.719 4      3588.781          28.375    23362385.200    95665059.739 7      3588.781          46.500
R21  22804663.280   122032367.642 6      6059.892          41.812    22804664.940   122032367.675 6      6059.892          41.812    22804676.940    94914117.149 7      4713.250          45.687    22804676.440    94914117.152 7      4713.250          45.625
R09  19170711.780   102370563.560 7      2555.274          47.687    19170711.700   102370563.558 8      2555.274          48.000    19170717.160    79621547.921 8      1987.436          52.000    19170717.500    79621565.914 8      1987.436          52.875
R10  20599732.680   109808166.130 7      5425.325          46.937    20599732.260   109808166.141 7      5425.325          45.625
G18  22433206.720   117887295.167 7        49.235          46.187    22433206.000   117887295.174 6        49.235          36.437    22433209.380    91860240.802 6        38.365          36.750    22433209.640    91860241.803 8        38.365          49.312
R16  22138098.760   118257738.840 7      -671.243          45.750    22138097.940   118257738.846 7      -671.243          45.062    22138110.240    91978296.035 7      -522.078          46.250    22138110.340    91978298.032 7      -522.078          47.062
G31  21534238.400   113163185.443 7       -36.177          47.562    21534237.900   113163185.445 7       -36.177          46.500    21534239.780    88179109.176 7       -28.190          46.500    21534241.680    88179118.181 8       -28.190          48.125
> 2024 05 08 10 29  3.0000000  0 13
G26  20467879.920   107559432.944 8      2213.574          49.125    20467878.660   107559432.949 8      2213.574          49.937    20467883.720    83812560.128 8      1724.863          49.875    20467884.000    83812561.127 8      1724.863          50.312
G23  23672332.400   124398944.896 7      4208.294          42.000    23672331.100   124398944.903 4      4208.294          26.125    23672337.720    96934266.182 4      3279.190          26.250    23672338.740    96934274.186 7      3279.190          42.000
G28  23309425.820   122491854.730 7     -1065.924          42.875    23309424.600   122491854.735 5     -1065.924          30.812    23309430.860    95448210.022 5      -830.590          30.687    23309431.280    95448220.014 7      -830.590          45.375
G16  21039866.460   110565251.309 7      3958.091          46.250    21039864.680   110565251.319 6      3958.091          37.375    21039867.160    86154739.034 6      3084.227          37.312
G27  21084995.340   110802411.031 8      3405.491          48.625    21084994.360   110802411.041 6      3405.491          41.187    21084998.040    86339541.149 6      2653.629          41.062    21084998.800    86339541.149 8      2653.629          50.375
G10  24224801.520   127302188.458 7      4911.472          43.875    24224801.000   127302188.445 6      4911.472          37.937    24224812.120    99196563.032 6      3827.121          37.937    24224812.380    99196561.042 6      3827.121          40.750
G08  23361500.660   122765514.047 6      4605.733          40.187    23361499.160   122765514.034 4      4605.733          28.812    23361507.700    95661450.776 4      3588.883          28.375    23361508.560    95661470.796 7      3588.883          46.437
R21  22803531.460   122026307.657 6      6059.679          41.812    22803532.580   122026307.672 7      6059.679          42.000    22803544.420    94909403.819 7      4713.084          46.000    22803543.840    94909403.820 7      4713.084          45.437
R09  19170233.300   102368008.447 7      2554.582          47.625    19170233.060   102368008.446 8      2554.582          48.250    19170238.760    79619560.613 8      1986.897          52.062    19170238.760    79619578.608 8      1986.897          52.750
R10  20598714.620   109802740.732 7      5425.151          47.000    20598714.560   109802740.740 7      5425.151          45.875
G18  22433197.240   117887245.929 7        48.905          46.312    22433196.580   117887245.937 6        48.905          36.500    22433199.920    91860202.440 6        38.108          36.500    22433200.180    91860203.435 8        38.108          49.375
R16  22138224.100   118258410.061 7      -671.635          45.625    22138223.740   118258410.073 7      -671.635          44.500    22138236.080    91978818.092 7      -522.383          46.687    22138235.620    91978820.095 7      -522.383          46.500
G31  21534245.300   113163221.582 7       -36.499          47.562    21534244.840   113163221.581 7       -36.499          46.875    21534246.800    88179137.332 7       -28.441          46.625    21534248.680    88179146.335 8       -28.441          48.062
> 2024 05 08 10 29  4.0000000  0 13
G26  20467458.560   107557219.347 8      2213.501          48.437    20467457.440   107557219.352 8      2213.501          49.812    20467462.400    83810835.249 8      1724.806          49.687    20467462.740    83810836.249 8      1724.806          50.000
G23  23671531.840   124394736.595 7      4208.251          42.312    23671530.280   124394736.603 4      4208.251          26.312    23671537.160    96930986.989 4      3279.157          26.187    23671538.040    96930994.992 7      3279.157          42.000
G28  23309628.580   122492920.691 7     -1065.883          42.562    23309627.380   122492920.690 5     -1065.883          30.812    23309633.660    95449040.634 5      -830.558          30.687    23309634.120    95449050.626 7      -830.558          45.187
G16  21039113.260   110561293.235 7      3957.937          46.000    21039111.460   110561293.242 6      3957.937          37.750    21039114.100    86151654.824 6      3084.107          37.562
G27  21084347.340   110799005.605 7      3405.310          47.625    21084346.360   110799005.607 6      3405.310          40.937    21084349.960    86336887.570 6      2653.489          41.062    21084350.740    86336887.569 8      2653.489          50.500
G10  24223866.820   127297276.768 7      4911.864          43.500    24223866.340   127297276.760 6      4911.864          37.812    24223877.620    99192735.749 6      3827.426          38.187    24223878.040    99192733.768 6      3827.426          40.750
G08  23360624.320   122760908.466 6      4605.582          40.250    23360622.800   122760908.455 4      4605.582          28.812    23360631.340    95657862.019 4      3588.765          28.375    23360632.040    95657882.043 7      3588.765          46.437
R21  22802399.040   122020248.039 7      6059.600          42.312    22802400.000   122020248.051 7      6059.600          42.000    22802412.160    94904690.789 7      4713.023          45.812    22802411.460    94904690.796 7      4713.023          45.562
R09  19169754.940   102365454.040 8      2554.133          48.125    19169754.620   102365454.043 7      2554.133          47.937    19169760.360    79617573.850 8      1986.548          52.125    19169760.620    79617591.847 8      1986.548          52.937
R10  20597697.000   109797315.703 7      5424.896          47.562    20597696.800   109797315.712 7      5424.896          45.750
G18  22433187.860   117887197.126 7        48.673          46.562    22433187.180   117887197.133 6        48.673          36.687    22433190.580    91860164.405 6        37.927          36.312    22433191.100    91860165.404 8        37.927          49.312
R16  22138349.760   118259081.739 7      -671.820          45.187    22138349.320   118259081.748 7      -671.820          44.625    22138361.760    91979340.498 7      -522.527          46.625    22138361.920    91979342.505 7      -522.527          46.687
G31  21534252.220   113163258.144 7       -36.680          47.375    21534251.660   113163258.135 7       -36.680          47.125    21534253.640    88179165.820 7       -28.582          46.875    21534255.580    88179174.819 8       -28.582          48.437
> 2024 05 08 10 29  5.0000000  0 13
G26  20467037.240   107555006.204 8      2212.917          48.062    20467036.240   107555006.212 8      2212.917          49.250    20467041.340    83809110.723 8      1724.351          49.562    20467041.780    83809111.726 8      1724.351          50.500
G23  23670730.880   124390528.676 7      4207.753          43.250    23670729.560   124390528.680 4      4207.753          26.312    23670736.460    96927708.090 4      3278.768          26.187    23670737.260    96927716.094 6      3278.768          41.750
G28  23309831.760   122493986.872 7     -1066.349          42.625    23309830.380   122493986.876 5     -1066.349          30.562    23309836.560    95449871.417 5      -830.921          30.437    23309836.680    95449881.418 7      -830.921          45.187
G16  21038359.900   110557335.418 7      3957.673          46.000    21038358.260   110557335.426 6      3957.673          37.937    21038360.900    86148570.809 6      3083.901          37.875
G27  21083699.260   110795600.526 8      3404.869          48.687    21083698.300   110795600.528 6      3404.869          41.125    21083702.140    86334234.260 6      2653.145          40.812    21083702.820    86334234.264 8      2653.145          50.250
G10  24222932.220   127292365.197 7      4911.497          43.312    24222931.740   127292365.194 6      4911.497          38.812    24222943.100    99188908.557 6      3827.141          38.312    24222943.620    99188906.565 6      3827.141          40.875
G08  23359747.860   122756303.171 6      4605.144          39.937    23359746.340   122756303.162 4      4605.144          28.875    23359755.120    95654273.482 4      3588.424          28.375    23359755.940    95654293.496 7      3588.424          46.250
R21  22801266.760   122014188.926 7      6058.930          42.312    22801267.760   122014188.941 6      6058.930          41.625    22801279.760    94899978.155 7      4712.501          45.750    22801279.280    94899978.155 7      4712.501          45.437
R09  19169276.560   102362900.438 8      2553.272          48.750    19169276.520   102362900.439 8      2553.272          48.062    19169282.300    79615587.715 8      1985.879          52.187    19169282.840    79615605.710 8      1985.879          53.062
R10  20596679.340   109791891.056 7      5424.455          46.937    20596678.980   109791891.062 7      5424.455          46.000
G18  22433178.600   117887148.809 7        48.081          45.687    22433178.080   117887148.813 6        48.081          36.562    22433181.280    91860126.755 6        37.466          36.125    22433181.680    91860127.758 8        37.466          49.187
R16  22138476.120   118259753.922 7      -672.381          44.437    22138475.120   118259753.915 7      -672.381          44.312    22138487.660    91979863.286 7      -522.963          46.375    22138487.660    91979865.287 7      -522.963          47.875
G31  21534259.480   113163295.179 7       -37.252          47.750    21534258.720   113163295.181 7       -37.252          46.937    21534260.740    88179194.680 7       -29.028          46.687    21534262.400    88179203.677 8       -29.028          48.062
> 2024 05 08 10 29  6.0000000  0 13
G26  20466616.280   107552793.761 8      2212.024          48.562    20466615.260   107552793.771 8      2212.024          50.000    20466620.200    83807386.747 8      1723.655          49.937    20466620.560    83807387.746 8      1723.655          49.937
G23  23669930.180   124386321.384 6      4206.896          41.687    23669929.040   124386321.391 4      4206.896          26.312    23669935.840    96924429.687 4      3278.101          26.187    23669936.760    96924437.697 6      3278.101          41.625
G28  23310034.380   122495053.518 7     -1066.993          42.375    23310033.500   122495053.520 5     -1066.993          30.562    23310039.580    95450702.561 5      -831.423          30.437    23310039.640    95450712.565 7      -831.423          45.312
G16  21037606.860   110553378.161 7      3956.982          46.125    21037605.320   110553378.171 6      3956.982          37.562    21037607.960    86145487.236 6      3083.362          37.562
G27  21083051.480   110792196.067 8      3404.063          48.187    21083050.480   110792196.069 6      3404.063          41.437    21083054.140    86331581.439 6      2652.517          41.187    21083054.820    86331581.445 8      2652.517          50.312
G10  24221997.620   127287453.899 7      4911.132          44.000    24221997.120   127287453.898 6      4911.132          38.250    24222008.460    99185081.585 6      3826.856          38.125    24222008.920    99185079.596 6      3826.856          41.062
G08  23358871.620   122751698.404 6      4604.361          39.750    23358869.900   122751698.393 4      4604.361          28.875    23358878.820    95650685.350 4      3587.814          28.562    23358879.780    95650705.364 7      3587.814          45.750
R21  22800134.540   122008130.541 7      6057.958          42.062    22800135.420   122008130.562 6      6057.958          41.625    22800147.620    94895266.084 7      4711.745          46.437    22800147.200    94895266.084 7      4711.745          45.437
R09  19168798.600   102360347.902 7      2552.000          47.812    19168798.460   102360347.901 7      2552.000          47.750    19168804.140    79613602.407 8      1984.889          52.125    19168804.600    79613620.406 8      1984.889          52.562
R10  20595661.860   109786467.099 7      5423.508          47.375    20595661.640   109786467.108 7      5423.508          46.375
G18  22433169.800   117887101.253 7        47.086          46.312    22433169.100   117887101.258 6        47.086          36.625    22433172.280    91860089.695 6        36.690          36.500    22433172.620    91860090.700 8        36.690          49.312
R16  22138601.920   118260426.849 7      -673.351          44.625    22138601.100   118260426.851 7      -673.351          44.875    22138613.820    91980386.676 7      -523.717          46.625    22138613.800    91980388.681 7      -523.717          47.375
G31  21534266.520   113163332.965 8       -38.261          48.187    21534265.960   113163332.970 7       -38.261          46.375    21534267.880    88179224.124 7       -29.814          46.312    21534269.560    88179233.125 7       -29.814          47.937
> 2024 05 08 10 29  7.0000000  0 13
G26  20466195.280   107550581.769 8      2211.651          48.937    20466194.340   107550581.774 8      2211.651          49.750    20466199.340    83805663.107 8      1723.365          49.500    20466199.800    83805664.108 8      1723.365          50.062
G23  23669129.660   124382114.444 7      4206.648          42.125    23669128.580   124382114.454 4      4206.648          26.312    23669135.240    96921151.561 4      3277.907          26.187    23669136.140    96921159.575 6      3277.907          41.625
G28  23310237.320   122496120.342 7     -1066.969          42.500    23310236.620   122496120.345 5     -1066.969          30.562    23310242.820    95451533.847 5      -831.404          30.437    23310242.640    95451543.849 7      -831.404          45.625
G16  21036853.760   110549421.187 7      3956.760          46.250    21036852.420   110549421.200 6      3956.760          37.812    21036854.860    86142403.884 6      3083.190          37.187
G27  21082403.760   110788791.979 8      3403.726          48.187    21082402.860   110788791.986 6      3403.726          41.375    21082406.420    86328928.907 6      2652.254          41.062    21082407.200    86328928.913 8      2652.254          50.375
G10  24221062.800   127282542.718 7      4910.924          43.187    24221062.420   127282542.718 6      4910.924          38.312    24221074.060    99181254.696 6      3826.694          38.312    24221073.860    99181252.704 6      3826.694          41.062
G08  23357995.420   122747093.863 6      4604.288          40.500    23357993.800   122747093.852 4      4604.288          28.875    23358002.520    95647097.400 4      3587.757          28.562    23358003.140    95647117.414 7      3587.757          45.750
R21  22799002.720   122002072.596 7      6057.608          42.062    22799003.440   122002072.605 6      6057.608          41.687    22799015.500    94890554.344 7      4711.473          46.125    22799015.200    94890554.344 7      4711.473          45.937
R09  19168320.660   102357796.111 8      2551.264          48.687    19168320.580   102357796.112 7      2551.264          47.875    19168326.380    79611617.683 8      1984.316          52.187    19168326.500    79611635.680 8      1984.316          53.187
R10  20594644.460   109781043.540 7      5423.209          47.375    20594643.940   109781043.553 7      5423.209          45.875
G18  22433160.740   117887054.173 7        46.698          46.125    22433160.080   117887054.178 6        46.698          36.500    22433163.440    91860053.007 6        36.388          36.187    22433163.660    91860054.008 8        36.388          49.062
R16  22138727.920   118261100.322 7      -673.892          45.125    22138727.240   118261100.321 7      -673.892          44.312    22138739.860    91980910.476 7      -524.138          46.250    22138739.980    91980912.477 7      -524.138          46.875
G31  21534273.860   113163371.222 8       -38.645          48.125    21534273.200   113163371.224 7       -38.645          46.437    21534275.260    88179253.935 7       -30.113          46.500    21534276.860    88179262.937 7       -30.113          47.812
> 2024 05 08 10 29  8.0000000  0 13
G26  20465774.500   107548370.267 8      2211.397          49.312    20465773.460   107548370.271 8      2211.397          49.437    20465778.480    83803939.860 8      1723.166          49.750    20465778.980    83803940.861 8      1723.166          50.062
G23  23668329.120   124377907.972 7      4206.385          42.625    23668328.020   124377907.982 4      4206.385          26.312    23668334.760    96917873.790 4      3277.702          26.187    23668335.400    96917881.796 6      3277.702          41.937
G28  23310440.520   122497187.464 7     -1067.048          42.562    23310439.680   122497187.469 5     -1067.048          30.687    23310445.860    95452365.362 5      -831.466          30.437    23310445.740    95452375.358 7      -831.466          45.562
G16  21036100.960   110545464.574 7      3956.659          45.937    21036099.520   110545464.576 6      3956.659          37.812    21036102.020    86139320.803 6      3083.111          37.500
G27  21081755.840   110785388.282 7      3403.664          47.625    21081755.100   110785388.289 6      3403.664          41.375    21081758.760    86326276.673 6      2652.206          41.000    21081759.420    86326276.682 8      2652.206          50.812
G10  24220128.240   127277631.630 7      4911.121          43.250    24220128.000   127277631.622 6      4911.121          38.250    24220139.660    99177427.874 6      3826.847          38.562    24220139.020    99177425.878 6      3826.847          41.250
G08  23357119.040   122742489.679 6      4604.188          40.750    23357117.580   122742489.666 4      4604.188          28.875    23357126.300    95643509.722 4      3587.679          28.562    23357127.020    95643529.730 7      3587.679          45.875
R21  22797870.720   121996015.099 6      6057.458          41.562    22797871.240   121996015.109 6      6057.458          41.687    22797883.340    94885842.964 7      4711.356          46.437    22797883.260    94885842.964 7      4711.356          45.937
R09  19167842.720   102355245.148 8      2550.723          48.125    19167842.940   102355245.149 8      2550.723          48.562    19167848.680    79609633.600 8      1983.896          52.125    19167849.040    79609651.599 8      1983.896          52.562
R10  20593627.020   109775620.462 7      5423.037          47.375    20593626.860   109775620.468 7      5423.037          46.375
G18  22433151.880   117887007.632 7        46.485          46.250    22433151.300   117887007.634 6        46.485          36.500    22433154.640    91860016.737 6        36.222          36.312    22433154.880    91860017.742 8        36.222          48.812
R16  22138853.620   118261774.353 7      -674.256          45.187    22138853.520   118261774.357 7      -674.256          44.812    22138865.840    91981434.712 7      -524.421          46.687    22138866.300    91981436.711 7      -524.421          46.562
G31  21534281.080   113163410.009 8       -38.915          48.000    21534280.640   113163410.009 7       -38.915          46.250    21534282.680    88179284.150 7       -30.323          46.500    21534284.360    88179293.157 7       -30.323          47.750
> 2024 05 08 10 29  9.0000000  0 13
G26  20465353.840   107546159.150 8      2210.934          49.125    20465352.780   107546159.157 8      2210.934          50.125    20465357.660    83802216.914 8      1722.806          50.000    20465358.140    83802217.915 8      1722.806          50.250
G23  23667528.580   124373701.792 7      4206.037          42.562    23667527.640   124373701.799 4      4206.037          26.312    23667534.480    96914596.249 4      3277.432          26.187    23667535.520    96914604.259 7      3277.432          42.000
G28  23310643.620   122498254.762 7     -1067.481          42.250    23310642.700   122498254.767 5     -1067.481          30.687    23310649.060    95453197.017 5      -831.803          30.562    23310649.280    95453207.014 7      -831.803          45.562
G16  21035348.180   110541508.187 7      3956.244          45.562    21035346.700   110541508.194 6      3956.244          37.437    21035349.040    86136237.906 6      3082.787          37.375
G27  21081108.280   110781984.924 8      3403.137          48.437    21081107.380   110781984.934 6      3403.137          41.312    21081111.060    86323624.710 6      2651.795          41.187    21081111.740    86323624.714 8      2651.795          50.312
G10  24219193.640   127272720.534 7      4911.137          43.187    24219193.340   127272720.523 6      4911.137          38.437    24219204.960    99173601.054 6      3826.860          38.562    24219204.460    99173599.062 6      3826.860          41.250
G08  23356243.260   122737885.698 6      4603.858          39.625    23356241.460   122737885.685 4      4603.858          28.875    23356250.140    95639922.203 4      3587.422          28.562    23356250.980    95639942.218 7      3587.422          45.812
R21  22796738.520   121989957.985 6      6056.878          41.562    22796739.860   121989958.003 6      6056.878          41.437    22796751.240    94881131.884 7      4710.905          45.812    22796751.300    94881131.882 7      4710.905          45.875
R09  19167365.340   102352694.921 8      2549.822          48.625    19167365.480   102352694.922 7      2549.822          47.625    19167371.300    79607650.089 8      1983.195          51.937    19167371.680    79607668.088 8      1983.195          53.125
R10  20592610.080   109770197.761 7      5422.465          47.187    20592609.560   109770197.764 7      5422.465          45.687
G18  22433142.940   117886961.553 7        45.850          46.437    22433142.440   117886961.558 6        45.850          36.937    22433145.760    91859980.829 6        35.727          36.875    22433146.340    91859981.831 8        35.727          49.562
R16  22138979.780   118262448.822 7      -674.749          45.437    22138980.020   118262448.823 7      -674.749          44.437    22138992.040    91981959.288 7      -524.805          46.562    22138992.600    91981961.287 7      -524.805          46.875
G31  21534288.500   113163449.230 7       -39.442          47.937    21534288.100   113163449.232 7       -39.442          46.750    21534290.120    88179314.712 7       -30.734          46.625    21534292.160    88179323.715 8       -30.734          48.250
> 2024 05 08 10 29 10.0000000  0 13
G26  20464933.060   107543948.559 8      2210.205          48.875    20464932.080   107543948.566 8      2210.205          49.062    20464937.100    83800494.375 8      1722.238          49.062    20464937.620    83800495.379 8      1722.238          49.375
G23  23666728.280   124369496.069 7      4205.429          42.000    23666727.440   124369496.079 4      4205.429          26.312    23666734.180    96911319.067 4      3276.958          26.187    23666735.620    96911327.082 7      3276.958          42.000
G28  23310846.840   122499322.301 7     -1067.852          42.187    23310845.800   122499322.303 5     -1067.852          30.687    23310852.420    95454028.855 5      -832.092          30.562    23310852.660    95454038.851 7      -832.092          45.875
G16  21034595.400   110537552.159 7      3955.708          45.500    21034593.820   110537552.169 6      3955.708          37.812    21034596.240    86133155.291 6      3082.370          37.625
G27  21080460.620   110778581.986 8      3402.582          48.875    21080459.880   110778581.991 6      3402.582          41.187    21080463.560    86320973.064 6      2651.362          40.687    21080463.900    86320973.068 8      2651.362          49.625
G10  24218259.040   127267809.598 7      4910.670          42.062    24218258.980   127267809.595 6      4910.670          38.687    24218270.500    99169774.365 6      3826.496          38.250    24218270.060    99169772.382 6      3826.496          41.437
G08  23355367.480   122733282.058 6      4603.351          39.062    23355365.500   122733282.042 4      4603.351          28.437    23355374.180    95636334.953 4      3587.027          28.312    23355374.680    95636354.963 7      3587.027          45.750
R21  22795606.940   121983901.364 6      6056.365          41.812    22795607.880   121983901.376 6      6056.365          41.437    22795619.620    94876421.176 7      4710.506          45.812    22795619.220    94876421.176 7      4710.506          46.062
R09  19166887.840   102350145.546 8      2548.798          48.687    19166887.880   102350145.553 8      2548.798          48.375    19166893.680    79605667.246 8      1982.399          51.187    19166893.960    79605685.243 8      1982.399          51.500
R10  20591592.700   109764775.520 7      5421.826          46.687    20591592.340   109764775.526 7      5421.826          45.500
G18  22433134.380   117886916.026 7        45.115          45.625    22433133.800   117886916.031 6        45.115          36.687    22433137.240    91859945.356 6        35.154          36.312    22433137.540    91859946.355 8        35.154          49.062
R16  22139106.700   118263123.873 7      -675.465          45.437    22139106.240   118263123.874 7      -675.465          44.500    22139118.460    91982484.318 7      -525.361          46.375    22139118.720    91982486.321 7      -525.361          46.437
G31  21534296.220   113163489.003 7       -40.145          47.437    21534295.640   113163489.002 7       -40.145          46.562    21534297.660    88179345.702 7       -31.282          46.437    21534299.740    88179354.701 8       -31.282          48.312
> 2024 05 08 10 29 11.0000000  0 13
G26  20464512.460   107541738.422 8      2209.847          48.937    20464511.460   107541738.427 8      2209.847          49.750    20464516.560    83798772.191 8      1721.959          49.937    20464516.920    83798773.188 8      1721.959          49.937
G23  23665927.880   124365290.753 7      4205.175          42.687    23665927.020   124365290.760 4      4205.175          26.312    23665933.720    96908042.203 4      3276.760          26.187    23665934.760    96908050.221 6      3276.760          41.937
G28  23311050.060   122500390.080 7     -1067.892          42.812    23311048.920   122500390.085 5     -1067.892          30.375    23311055.700    95454860.882 5      -832.123          30.562    23311055.920    95454870.878 7      -832.123          45.812
G16  21033842.440   110533596.431 7      3955.607          45.062    21033841.000   110533596.439 6      3955.607          37.750    21033843.480    86130072.909 6      3082.291          37.687
G27  21079813.320   110775179.432 8      3402.410          48.187    21079812.400   110775179.432 6      3402.410          41.250    21079815.960    86318321.723 6      2651.228          41.312    21079816.440    86318321.724 8      2651.228          49.937
G10  24217324.920   127262898.747 7      4910.868          43.500    24217324.480   127262898.741 6      4910.868          38.062    24217336.000    99165947.730 6      3826.650          38.437    24217335.880    99165945.746 6      3826.650          41.312
G08  23354491.420   122728678.726 6      4603.107          40.062    23354489.560   122728678.713 4      4603.107          28.437    23354498.060    95632747.943 4      3586.836          28.312    23354498.940    95632767.946 7      3586.836          45.937
R21  22794475.280   121977845.248 6      6055.951          41.812    22794475.640   121977845.271 6      6055.951          41.437    22794487.940    94871710.880 7      4710.184          46.062    22794487.780    94871710.883 7      4710.184          46.312
R09  19166410.560   102347596.938 8      2548.241          48.250    19166410.800   102347596.936 8      2548.241          48.062    19166416.320    79603684.988 8      1981.965          51.687    19166416.700    79603702.985 8      1981.965          52.250
R10  20590575.380   109759353.736 7      5421.528          47.187    20590575.200   109759353.750 7      5421.528          46.000
G18  22433125.900   117886871.022 7        44.692          46.062    22433125.220   117886871.024 6        44.692          36.562    22433128.660    91859910.286 6        34.825          36.500    22433129.060    91859911.289 8        34.825          49.250
R16  22139232.960   118263799.464 7      -675.877          45.000    22139233.000   118263799.465 7      -675.877          44.812    22139245.020    91983009.771 7      -525.682          47.000    22139245.340    91983011.772 7      -525.682          46.125
G31  21534303.900   113163529.280 8       -40.480          48.937    21534303.320   113163529.282 7       -40.480          46.625    21534305.340    88179377.085 7       -31.543          46.812    21534307.540    88179386.085 8       -31.543          48.312
> 2024 05 08 10 29 12.0000000  0 13
G26  20464092.020   107539528.951 8      2209.312          48.812    20464091.040   107539528.953 8      2209.312          49.750    20464096.180    83797050.521 8      1721.542          49.937    20464096.520    83797051.522 8      1721.542          50.125
G23  23665127.920   124361086.052 6      4204.336          41.750    23665126.880   124361086.065 4      4204.336          26.312    23665133.700    96904765.817 4      3276.106          26.187    23665134.760    96904773.837 7      3276.106          42.250
G28  23311253.400   122501458.308 7     -1068.323          43.000    23311252.360   122501458.312 5     -1068.323          30.375    23311258.980    95455693.260 5      -832.460          30.187    23311259.440    95455703.255 7      -832.460          45.687
G16  21033089.840   110529641.234 7      3955.058          45.687    21033088.380   110529641.244 6      3955.058          38.250    21033090.960    86126990.942 6      3081.863          37.750
G27  21079165.940   110771777.466 8      3401.809          48.312    21079164.920   110771777.471 6      3401.809          41.250    21079168.660    86315670.847 6      2650.760          41.187    21079169.200    86315670.852 8      2650.760          50.125
G10  24216390.720   127257988.176 7      4910.599          43.375    24216389.920   127257988.176 6      4910.599          37.937    24216401.500    99162121.325 6      3826.441          38.375    24216401.700    99162119.346 6      3826.441          41.312
G08  23353615.300   122724075.859 6      4602.758          39.937    23353613.740   122724075.848 4      4602.758          28.437    23353622.380    95629161.293 4      3586.564          28.312    23353622.680    95629181.301 7      3586.564          45.875
R21  22793343.680   121971789.841 6      6055.262          41.812    22793344.420   121971789.867 6      6055.262          41.187    22793356.200    94867001.122 7      4709.648          46.187    22793355.880    94867001.128 7      4709.648          46.000
R09  19165933.760   102345049.328 8      2547.338          48.250    19165933.280   102345049.332 8      2547.338          48.250    19165939.200    79601703.518 8      1981.263          51.562    19165939.380    79601721.513 8      1981.263          52.812
R10  20589558.660   109753932.620 7      5420.960          46.750    20589558.280   109753932.621 7      5420.960          45.812
G18  22433117.180   117886826.720 7        44.088          46.500    22433116.900   117886826.719 6        44.088          36.562    22433120.220    91859875.760 6        34.355          36.125    22433120.680    91859876.761 8        34.355          49.250
R16  22139359.560   118264475.811 7      -676.600          45.187    22139359.400   118264475.812 7      -676.600          44.750    22139371.740    91983535.814 7      -526.244          46.000    22139372.040    91983537.815 7      -526.244          46.812
G31  21534311.600   113163570.264 7       -41.130          47.625    21534311.160   113163570.269 7       -41.130          46.312    21534313.140    88179409.014 7       -32.049          46.687    21534315.220    88179418.015 7       -32.049          47.875
> 2024 05 08 10 29 13.0000000  0 13
G26  20463671.680   107537319.994 8      2208.600          48.875    20463670.660   107537319.999 8      2208.600          50.125    20463675.700    83795329.258 8      1720.987          50.187    20463676.080    83795330.255 8      1720.987          50.187
G23  23664327.820   124356881.745 7      4203.991          42.000    23664326.980   124356881.755 4      4203.991          26.312    23664333.400    96901489.740 4      3275.837          26.187    23664334.400    96901497.754 7      3275.837          42.250
G28  23311456.880   122502526.788 7     -1068.702          43.000    23311455.580   122502526.793 5     -1068.702          30.375    23311462.220    95456525.827 5      -832.755          30.187    23311462.780    95456535.823 7      -832.755          46.062
G16  21032337.360   110525686.370 7      3954.591          46.125    21032335.840   110525686.378 6      3954.591          37.937    21032338.380    86123909.228 6      3081.500          37.625
G27  21078518.680   110768375.932 7      3401.197          47.875    21078517.700   110768375.939 6      3401.197          41.125    21078521.440    86313020.305 6      2650.284          41.000    21078522.020    86313020.303 8      2650.284          49.875
G10  24215456.240   127253077.745 7      4910.246          43.312    24215455.660   127253077.742 6      4910.246          38.062    24215467.160    99158295.026 6      3826.166          38.687    24215467.480    99158293.042 6      3826.166          41.437
G08  23352739.500   122719473.373 6      4602.075          41.062    23352738.040   122719473.362 4      4602.075          28.437    23352746.640    95625574.942 4      3586.033          28.312    23352747.240    95625594.948 7      3586.033          45.750
R21  22792212.560   121965734.929 6      6054.555          40.937    22792212.900   121965734.941 6      6054.555          41.187    22792224.900    94862291.748 7      4709.099          46.437    22792224.300    94862291.750 7      4709.099          46.187
R09  19165456.760   102342502.604 8      2546.205          48.312    19165456.580   102342502.613 7      2546.205          47.375    19165462.200    79599722.735 8      1980.382          52.312    19165462.680    79599740.730 8      1980.382          53.062
R10  20588541.820   109748511.973 7      5420.235          47.125    20588541.080   109748511.982 7      5420.235          45.562
G18  22433109.120   117886782.966 7        43.386          46.187    22433108.600   117886782.968 6        43.386          36.687    22433112.000    91859841.668 6        33.808          36.500    22433112.300    91859842.668 8        33.808          49.312
R16  22139486.580   118265152.731 7      -677.283          45.625    22139486.160   118265152.730 7      -677.283          45.000    22139498.060    91984062.300 7      -526.776          46.562    22139498.400    91984064.301 7      -526.776          46.375
G31  21534319.540   113163611.784 8       -41.846          48.187    21534319.020   113163611.791 7       -41.846          46.375    21534321.080    88179441.372 7       -32.607          46.437    21534323.040    88179450.370 7       -32.607          47.687
> 2024 05 08 10 29 14.0000000  0 13
G26  20463251.520   107535111.607 8      2208.165          48.875    20463250.500   107535111.612 8      2208.165          49.750    20463255.500    83793608.437 8      1720.648          49.562    20463255.760    83793609.436 8      1720.648          49.875
G23  23663527.880   124352677.969 7      4203.574          42.375    23663526.880   124352677.976 4      4203.574          26.312    23663533.380    96898214.072 4      3275.512          26.187    23663534.520    96898222.084 7      3275.512          42.250
G28  23311660.180   122503595.636 7     -1069.052          42.187    23311659.000   122503595.635 5     -1069.052          30.375    23311665.680    95457358.683 5      -833.028          30.187    23311666.280    95457368.677 7      -833.028          46.437
G16  21031584.740   110521731.941 7      3954.245          45.687    21031583.640   110521731.945 6      3954.245          37.812    21031585.900    86120827.856 6      3081.230          37.500
G27  21077871.440   110764974.876 7      3400.808          47.687    21077870.500   110764974.883 6      3400.808          41.312    21077874.240    86310370.131 6      2649.981          41.062    21077874.780    86310370.129 8      2649.981          50.500
G10  24214522.220   127248167.479 7      4910.307          43.437    24214521.060   127248167.476 6      4910.307          38.500    24214532.740    99154468.855 6      3826.214          38.812    24214532.700    99154466.871 6      3826.214          41.312
G08  23351863.700   122714871.205 6      4602.056          40.812    23351862.340   122714871.194 4      4602.056          28.937    23351870.920    95621988.833 4      3586.017          28.812    23351871.780    95622008.849 7      3586.017          46.187
R21  22791080.920   121959680.558 6      6054.113          40.937    22791081.420   121959680.583 6      6054.113          41.500    22791093.520    94857582.809 7      4708.755          46.125    22791093.100    94857582.811 7      4708.755          45.750
R09  19164979.780   102339956.783 8      2545.461          48.437    19164979.960   102339956.784 8      2545.461          48.437    19164985.540    79597742.648 8      1979.803          52.312    19164985.980    79597760.645 8      1979.803          52.812
R10  20587524.980   109743091.868 7      5419.909          47.187    20587524.520   109743091.871 7      5419.909          45.875
G18  22433100.680   117886739.854 7        42.774          46.375    22433100.280   117886739.859 6        42.774          36.812    22433103.740    91859808.072 6        33.330          36.625    22433103.920    91859809.074 8        33.330          49.187
R16  22139613.240   118265830.307 7      -677.925          45.562    22139612.760   118265830.308 7      -677.925          44.687    22139625.060    91984589.296 7      -527.275          46.375    22139625.220    91984591.302 7      -527.275          46.562
G31  21534327.480   113163653.932 8       -42.449          48.125    21534327.040   113163653.934 7       -42.449          46.812    21534328.940    88179474.206 7       -33.077          46.687    21534331.160    88179483.207 8       -33.077          48.125
> 2024 05 08 10 29 15.0000000  0 13
G26  20462831.400   107532903.680 8      2207.770          49.312    20462830.340   107532903.685 8      2207.770          49.437    20462835.340    83791887.977 8      1720.340          49.437    20462835.860    83791888.974 8      1720.340          50.375
G23  23662728.500   124348474.576 6      4203.186          41.812    23662727.040   124348474.584 4      4203.186          26.312    23662733.620    96894938.707 4      3275.210          26.187    23662735.060    96894946.719 7      3275.210          42.000
G28  23311863.480   122504664.683 6     -1069.135          41.812    23311862.480   122504664.680 5     -1069.135          30.437    23311869.080    95458191.699 5      -833.092          30.187    23311869.400    95458201.695 7      -833.092          46.312
G16  21030832.260   110517777.807 7      3953.988          46.000    21030830.960   110517777.815 6      3953.988          37.812    21030833.280    86117746.717 6      3081.030          37.750
G27  21077224.240   110761574.216 7      3400.513          47.437    21077223.280   110761574.221 6      3400.513          41.500    21077227.140    86307720.267 6      2649.750          41.250    21077227.760    86307720.271 8      2649.750          50.000
G10  24213587.440   127243257.358 7      4910.062          43.375    24213586.820   127243257.363 6      4910.062          38.062    24213598.360    99150642.792 6      3826.023          38.000    24213598.340    99150640.813 6      3826.023          41.312
G08  23350987.700   122710269.378 6      4601.702          40.000    23350986.780   122710269.372 4      4601.702          28.937    23350995.160    95618402.998 4      3585.742          28.812    23350995.820    95618423.012 7      3585.742          46.125
R21  22789950.040   121953626.690 6      6053.670          41.812    22789950.540   121953626.707 6      6053.670          41.500    22789962.000    94852874.245 7      4708.410          46.125    22789961.620    94852874.249 7      4708.410          46.062
R09  19164503.400   102337411.787 8      2544.610          48.187    19164503.180   102337411.791 8      2544.610          48.125    19164508.980    79595763.211 8      1979.141          52.312    19164509.160    79595781.206 8      1979.141          52.500
R10  20586508.600   109737672.208 7      5419.464          47.250    20586507.920   109737672.216 7      5419.464          45.687
G18  22433092.540   117886697.235 7        42.349          46.250    22433092.100   117886697.243 6        42.349          36.750    22433095.580    91859774.867 6        32.999          36.687    22433095.940    91859775.863 8        32.999          49.312
R16  22139740.080   118266508.373 7      -678.263          45.062    22139739.740   118266508.377 7      -678.263          44.937    22139752.180    91985116.673 7      -527.538          46.625    22139752.160    91985118.672 7      -527.538          46.625
G31  21534335.440   113163696.563 8       -42.843          48.125    21534335.100   113163696.563 7       -42.843          46.750    21534337.040    88179507.419 7       -33.384          46.625    21534338.960    88179516.426 8       -33.384          48.187
> 2024 05 08 10 29 16.0000000  0 13
G26  20462411.340   107530696.292 8      2207.079          49.375    20462410.220   107530696.300 8      2207.079          49.687    20462415.300    83790167.934 8      1719.802          50.000    20462415.740    83790168.933 8      1719.802          50.250
G23  23661928.500   124344271.646 6      4202.770          41.687    23661927.200   124344271.651 4      4202.770          26.250    23661934.060    96891663.699 4      3274.886          26.062    23661935.020    96891671.715 6      3274.886          41.937
G28  23312066.740   122505734.025 7     -1069.423          42.875    23312065.900   122505734.027 5     -1069.423          30.437    23312072.600    95459024.947 5      -833.317          30.375    23312072.820    95459034.938 7      -833.317          45.562
G16  21030080.040   110513824.042 7      3953.664          46.187    21030078.620   110513824.055 6      3953.664          38.062    21030080.920    86114665.863 6      3080.777          37.500
G27  21076577.180   110758173.998 7      3400.027          47.937    21076576.340   110758174.003 6      3400.027          41.125    21076579.940    86305070.746 6      2649.371          41.250    21076580.620    86305070.750 8      2649.371          50.000
G10  24212652.860   127238347.350 7      4909.922          43.000    24212652.500   127238347.347 6      4909.922          38.312    24212664.180    99146816.816 6      3825.913          38.125    24212663.500    99146814.832 6      3825.913          41.375
G08  23350112.260   122705667.916 6      4601.342          41.500    23350111.320   122705667.908 4      4601.342          28.937    23350119.520    95614817.442 4      3585.461          28.812    23350120.220    95614837.439 7      3585.461          46.562
R21  22788818.860   121947573.322 6      6053.240          41.812    22788819.080   121947573.336 6      6053.240          41.125    22788830.780    94848166.076 7      4708.076          45.937    22788830.360    94848166.080 7      4708.076          45.875
R09  19164026.520   102334867.659 8      2543.740          48.500    19164026.820   102334867.663 8      2543.740          48.437    19164032.640    79593784.438 8      1978.464          52.000    19164032.860    79593802.437 8      1978.464          52.625
R10  20585491.860   109732253.046 7      5418.910          46.812    20585491.380   109732253.057 7      5418.910          45.875
G18  22433084.560   117886655.203 7        41.750          46.875    22433084.140   117886655.208 6        41.750          36.687    22433087.460    91859742.109 6        32.532          36.750    22433088.000    91859743.108 8        32.532          48.875
R16  22139866.800   118267187.060 7      -678.947          44.937    22139866.880   118267187.055 7      -678.947          44.375    22139879.180    91985644.530 7      -528.070          46.250    22139879.420    91985646.527 7      -528.070          46.500
G31  21534343.960   113163739.776 8       -43.615          48.562    21534343.420   113163739.780 7       -43.615          46.437    21534345.320    88179541.089 7       -33.986          46.375    21534347.300    88179550.090 8       -33.986          48.062
> 2024 05 08 10 29 17.0000000  0 13
G26  20461991.260   107528489.062 8      2207.118          48.625    20461990.260   107528489.069 8      2207.118          49.437    20461995.420    83788448.016 8      1719.832          49.562    20461995.560    83788449.013 8      1719.832          50.562
G23  23661128.620   124340068.840 6      4202.776          41.187    23661127.400   124340068.845 4      4202.776          26.250    23661134.200    96888388.787 4      3274.890          26.062    23661135.260    96888396.801 6      3274.890          41.937
G28  23312270.520   122506803.317 7     -1069.271          42.500    23312269.300   122506803.322 5     -1069.271          30.437    23312276.080    95459858.155 5      -833.198          30.375    23312276.320    95459868.149 7      -833.198          45.562
G16  21029327.560   110509870.317 7      3953.667          45.875    21029326.040   110509870.324 6      3953.667          37.687    21029328.600    86111585.038 6      3080.779          37.500
G27  21075930.080   110754773.877 8      3400.041          49.000    21075929.160   110754773.882 6      3400.041          41.187    21075932.960    86302421.301 6      2649.382          41.062    21075933.420    86302421.301 8      2649.382          50.312
G10  24211718.420   127233437.139 7      4910.318          43.187    24211718.120   127233437.139 6      4910.318          37.812    24211729.740    99142990.684 6      3826.222          38.687    24211729.420    99142988.706 6      3826.222          41.375
G08  23349236.380   122701066.431 6      4601.424          40.812    23349235.740   122701066.426 4      4601.424          28.937    23349244.000    95611231.869 4      3585.525          28.812    23349244.560    95611251.877 7      3585.525          45.875
R21  22787686.980   121941520.136 6      6053.068          41.562    22787688.380   121941520.142 6      6053.068          41.125    22787699.760    94843458.044 7      4707.942          45.812    22787699.480    94843458.045 7      4707.942          46.062
R09  19163550.400   102332324.033 8      2543.335          48.875    19163550.540   102332324.034 7      2543.335          47.812    19163556.260    79591806.066 8      1978.149          52.187    19163556.440    79591824.063 8      1978.149          52.687
R10  20584475.260   109726834.019 7      5418.847          46.750    20584474.660   109726834.039 7      5418.847          45.875
G18  22433076.580   117886613.394 7        41.603          46.000    22433076.160   117886613.396 6        41.603          36.500    22433079.560    91859709.526 6        32.418          36.125    22433080.120    91859710.523 8        32.418          49.312
R16  22139994.320   118267865.994 7      -679.154          45.187    22139993.960   118267865.987 7      -679.154          44.687    22140006.320    91986172.576 7      -528.231          46.437    22140006.420    91986174.577 7      -528.231          46.312
G31  21534352.160   113163783.174 7       -43.610          47.437    21534351.620   113163783.177 7       -43.610          46.875    21534353.600    88179574.904 7       -33.982          47.125    21534355.540    88179583.907 7       -33.982          47.937
> 2024 05 08 10 29 18.0000000  0 13
G26  20461571.340   107526282.378 8      2206.337          49.250    20461570.380   107526282.383 8      2206.337          49.562    20461575.420    83786728.518 8      1719.224          49.562    20461575.860    83786729.515 8      1719.224          49.937
G23  23660329.140   124335866.501 7      4201.929          42.125    23660327.740   124335866.508 4      4201.929          26.250    23660334.600    96885114.241 4      3274.230          26.062    23660335.100    96885122.259 6      3274.230          41.750
G28  23312474.200   122507872.919 7     -1069.839          42.375    23312472.800   122507872.927 5     -1069.839          30.000    23312479.600    95460691.603 5      -833.641          30.375    23312479.920    95460701.590 7      -833.641          45.625
G16  21028575.160   110505916.966 7      3952.970          45.937    21028573.800   110505916.979 6      3952.970          37.562    21028576.400    86108504.508 6      3080.236          37.562
G27  21075283.160   110751374.218 8      3399.254          49.000    21075282.140   110751374.221 6      3399.254          41.437    21075285.960    86299772.217 6      2648.769          41.125    21075286.660    86299772.217 8      2648.769          50.062
G10  24210783.920   127228527.105 7      4909.834          43.187    24210783.880   127228527.102 6      4909.834          38.562    24210795.360    99139164.691 6      3825.845          38.375    24210795.140    99139162.708 6      3825.845          41.125
G08  23348360.780   122696465.296 6      4600.958          40.312    23348360.040   122696465.290 4      4600.958          29.187    23348368.240    95607646.573 4      3585.162          28.812    23348369.080    95607666.572 7      3585.162          45.937
R21  22786555.760   121935467.474 6      6052.215          41.562    22786556.840   121935467.497 6      6052.215          41.125    22786568.540    94838750.442 7      4707.278          45.875    22786568.360    94838750.446 7      4707.278          45.437
R09  19163074.220   102329781.277 7      2542.239          47.625    19163074.260   102329781.280 7      2542.239          47.812    19163080.100    79589828.365 8      1977.297          52.000    19163080.120    79589846.364 8      1977.297          52.687
R10  20583458.700   109721415.500 7      5418.149          46.812    20583458.380   109721415.516 7      5418.149          45.750
G18  22433068.740   117886572.160 7        40.829          46.250    22433068.420   117886572.163 6        40.829          36.687    22433071.780    91859677.394 6        31.815          36.500    22433072.420    91859678.391 8        31.815          48.937
R16  22140121.580   118268545.522 7      -679.940          44.625    22140121.040   118268545.518 7      -679.940          44.687    22140133.460    91986701.091 7      -528.842          46.500    22140133.660    91986703.092 7      -528.842          46.437
G31  21534360.420   113163827.159 8       -44.413          48.375    21534359.980   113163827.161 7       -44.413          46.562    21534361.960    88179609.176 7       -34.608          46.312    21534364.220    88179618.176 8       -34.608          48.062
> 2024 05 08 10 29 19.0000000  0 13
G26  20461151.640   107524076.269 8      2205.971          49.500    20461150.480   107524076.271 8      2205.971          49.875    20461155.640    83785009.468 8      1718.938          50.062    20461156.140    83785010.470 8      1718.938          49.875
G23  23659529.380   124331664.640 6      4201.807          41.750    23659528.300   124331664.645 4      4201.807          26.250    23659534.960    96881840.066 4      3274.136          26.062    23659535.240    96881848.076 6      3274.136          41.625
G28  23312677.760   122508942.836 7     -1069.852          42.812    23312676.360   122508942.841 5     -1069.852          30.000    23312683.020    95461525.292 4      -833.651          29.937    23312683.140    95461535.284 7      -833.651          45.437
G16  21027823.120   110501964.029 7      3952.808          45.750    21027821.740   110501964.039 6      3952.808          37.812    21027824.000    86105424.295 6      3080.110          37.500
G27  21074636.220   110747975.033 8      3399.090          49.000    21074635.520   110747975.033 6      3399.090          41.312    21074639.240    86297123.496 6      2648.642          41.125    21074639.880    86297123.497 8      2648.642          49.750
G10  24209849.720   127223617.252 7      4909.864          43.562    24209849.440   127223617.249 6      4909.864          38.687    24209860.960    99135338.840 6      3825.868          38.500    24209860.860    99135336.862 6      3825.868          41.125
G08  23347485.140   122691864.573 6      4600.683          40.312    23347484.440   122691864.570 4      4600.683          29.187    23347492.860    95604061.596 4      3584.948          28.812    23347493.580    95604081.611 7      3584.948          46.375
R21  22785425.100   121929415.398 6      6051.961          41.375    22785426.120   121929415.421 6      6051.961          40.937    22785437.460    94834043.282 7      4707.081          45.875    22785437.460    94834043.284 7      4707.081          45.000
R09  19162598.260   102327239.394 7      2541.568          47.812    19162598.340   102327239.403 8      2541.568          48.187    19162604.060    79587851.347 8      1976.775          52.687    19162604.300    79587869.348 8      1976.775          53.250
R10  20582442.240   109715997.524 7      5417.879          47.000    20582441.780   109715997.535 7      5417.879          46.062
G18  22433060.920   117886531.542 7        40.463          46.625    22433060.700   117886531.541 6        40.463          36.625    22433064.080    91859645.741 6        31.530          36.625    22433064.540    91859646.742 8        31.530          49.375
R16  22140249.220   118269225.701 7      -680.326          45.312    22140248.460   118269225.700 7      -680.326          44.625    22140260.940    91987230.109 7      -529.142          46.625    22140261.020    91987232.110 7      -529.142          47.812
G31  21534368.820   113163871.740 7       -44.730          47.437    21534368.460   113163871.745 7       -44.730          46.562    21534370.440    88179643.914 7       -34.855          46.437    21534372.460    88179652.915 7       -34.855          47.812
> 2024 05 08 10 29 20.0000000  0 13
G26  20460731.920   107521870.673 8      2205.140          48.500    20460730.880   107521870.673 8      2205.140          49.312    20460735.960    83783290.820 8      1718.291          49.625    20460736.300    83783291.819 8      1718.291          49.937
G23  23658729.880   124327463.252 6      4201.003          41.812    23658728.880   124327463.260 4      4201.003          26.250    23658735.600    96878566.262 4      3273.509          26.062    23658736.020    96878574.273 6      3273.509          41.625
G28  23312881.460   122510013.074 7     -1070.498          42.125    23312880.140   122510013.079 5     -1070.498          30.000    23312886.520    95462359.236 4      -834.154          29.937    23312886.940    95462369.213 7      -834.154          45.312
G16  21027070.940   110498011.457 7      3952.221          44.687    21027069.460   110498011.467 6      3952.221          37.750    21027071.960    86102344.372 6      3079.652          37.687
G27  21073989.560   110744576.286 8      3398.425          48.375    21073988.660   110744576.291 6      3398.425          41.500    21073992.500    86294475.124 6      2648.124          41.125    21073992.880    86294475.129 8      2648.124          50.625
G10  24208915.260   127218707.527 7      4909.535          43.125    24208915.260   127218707.524 6      4909.535          38.437    24208926.700    99131513.087 6      3825.611          38.687    24208926.660    99131511.107 6      3825.611          41.312
G08  23346610.280   122687264.194 6      4600.079          39.937    23346608.960   122687264.191 4      4600.079          29.187    23346617.280    95600476.887 4      3584.477          28.812    23346618.180    95600496.898 7      3584.477          46.250
R21  22784294.080   121923363.847 6      6051.201          41.375    22784295.560   121923363.862 6      6051.201          40.937    22784306.460    94829336.520 7      4706.490          45.312    22784306.420    94829336.522 7      4706.490          45.312
R09  19162122.280   102324698.400 8      2540.467          48.125    19162122.660   102324698.404 8      2540.467          48.187    19162128.260    79585875.012 8      1975.919          52.125    19162128.500    79585893.012 8      1975.919          53.187
R10  20581425.900   109710580.038 7      5417.106          47.625    20581425.340   109710580.057 7      5417.106          45.937
G18  22433053.140   117886491.498 7        39.588          46.500    22433053.100   117886491.503 6        39.588          37.062    22433056.440    91859614.538 6        30.848          36.187    22433056.960    91859615.542 8        30.848          49.000
R16  22140376.620   118269906.439 7      -681.111          45.125    22140375.920   118269906.437 7      -681.111          44.500    22140388.560    91987759.563 7      -529.753          47.000    22140388.380    91987761.562 7      -529.753          46.875
G31  21534377.520   113163916.891 8       -45.594          48.625    21534377.140   113163916.896 7       -45.594          46.562    21534379.000    88179679.093 7       -35.528          46.687    21534381.140    88179688.096 8       -35.528          48.437
> 2024 05 08 10 29 21.0000000  0 13
G26  20460312.280   107519665.550 8      2204.829          49.187    20460311.220   107519665.555 8      2204.829          49.625    20460316.360    83781572.544 8      1718.049          49.687    20460316.660    83781573.545 8      1718.049          50.562
G23  23657930.200   124323262.261 6      4200.795          41.750    23657929.520   124323262.269 4      4200.795          26.187    23657936.140    96875292.766 4      3273.347          26.500    23657936.660    96875300.782 6      3273.347          41.687
G28  23313085.080   122511083.546 6     -1070.698          41.812    23313083.820   122511083.551 5     -1070.698          30.250    23313090.100    95463193.357 4      -834.310          29.937    23313090.860    95463203.343 7      -834.310          45.562
G16  21026318.680   110494059.210 7      3952.018          46.312    21026317.280   110494059.218 6      3952.018          37.687    21026319.720    86099264.694 6      3079.495          37.375
G27  21073342.760   110741177.949 8      3398.082          48.437    21073342.060   110741177.957 6      3398.082          41.187    21073345.800    86291827.074 6      2647.856          41.062    21073346.220    86291827.078 8      2647.856          50.187
G10  24207981.320   127213797.926 7      4909.515          43.062    24207980.900   127213797.928 6      4909.515          38.187    24207992.300    99127687.436 6      3825.596          38.187    24207991.880    99127685.448 6      3825.596          41.250
G08  23345734.860   122682664.109 6      4599.984          38.687    23345733.360   122682664.106 4      4599.984          29.187    23345741.880    95596892.409 4      3584.403          28.812    23345742.960    95596912.417 7      3584.403          46.687
R21  22783163.040   121917312.777 6      6050.821          41.250    22783164.600   121917312.792 6      6050.821          41.125    22783175.660    94824630.141 7      4706.194          45.812    22783175.520    94824630.143 7      4706.194          45.437
R09  19161646.660   102322158.183 7      2539.828          47.500    19161646.680   102322158.184 8      2539.828          48.187    19161652.580    79583899.288 8      1975.421          51.500    19161652.460    79583917.285 8      1975.421          51.937
R10  20580409.900   109705163.027 7      5416.822          47.000    20580409.340   109705163.038 7      5416.822          46.187
G18  22433045.840   117886451.978 7        39.237          46.312    22433045.600   117886451.983 6        39.237          36.625    22433048.900    91859583.741 6        30.574          36.750    22433049.420    91859584.738 8        30.574          49.312
R16  22140503.900   118270587.713 7      -681.503          44.937    22140503.440   118270587.712 7      -681.503          44.750    22140516.080    91988289.435 7      -530.058          46.500    22140515.840    91988291.436 7      -530.058          45.937
G31  21534386.100   113163962.547 7       -45.896          47.812    21534385.760   113163962.547 7       -45.896          46.750    21534387.760    88179714.665 7       -35.763          46.250    21534389.780    88179723.665 7       -35.763          47.437
> 2024 05 08 10 29 22.0000000  0 13
G26  20459892.700   107517460.986 8      2204.258          48.562    20459891.660   107517460.994 8      2204.258          49.562    20459896.840    83779854.704 8      1717.603          49.750    20459896.920    83779855.706 8      1717.603          50.312
G23  23657130.880   124319061.772 7      4200.265          42.312    23657130.100   124319061.777 4      4200.265          26.187    23657136.780    96872019.662 4      3272.934          26.500    23657137.380    96872027.672 6      3272.934          41.812
G28  23313288.800   122512154.333 7     -1071.015          42.375    23313287.600   122512154.338 5     -1071.015          30.250    23313294.000    95464027.731 4      -834.557          29.937    23313294.140    95464037.708 7      -834.557          45.437
G16  21025566.700   110490107.353 7      3951.645          46.562    21025565.340   110490107.363 6      3951.645          37.312    21025567.640    86096185.332 6      3079.204          37.437
G27  21072696.300   110737780.072 8      3397.676          48.437    21072695.420   110737780.075 6      3397.676          41.000    21072699.280    86289179.375 6      2647.540          41.250    21072699.760    86289179.384 8      2647.540          50.562
G10  24207046.980   127208888.499 7      4909.307          43.125    24207046.600   127208888.493 6      4909.307          37.500    24207058.020    99123861.912 6      3825.434          37.937    24207057.820    99123859.916 6      3825.434          41.250
G08  23344859.600   122678064.463 6      4599.390          39.187    23344857.960   122678064.458 4      4599.390          29.187    23344866.660    95593308.270 4      3583.941          28.812    23344867.640    95593328.277 7      3583.941          46.125
R21  22782032.460   121911262.261 6      6050.253          41.250    22782033.680   121911262.279 6      6050.253          41.125    22782045.160    94819924.190 7      4705.752          45.375    22782044.620    94819924.193 7      4705.752          45.687
R09  19161171.020   102319618.885 7      2538.799          47.937    19161171.320   102319618.883 8      2538.799          48.437    19161177.020    79581924.278 8      1974.622          52.562    19161177.280    79581942.275 8      1974.622          53.250
R10  20579393.900   109699746.549 7      5416.240          47.187    20579393.160   109699746.560 7      5416.240          46.250
G18  22433038.360   117886413.064 7        38.566          46.937    22433038.080   117886413.069 6        38.566          36.562    22433041.520    91859553.419 6        30.051          36.500    22433041.900    91859554.418 8        30.051          49.187
R16  22140631.640   118271269.618 7      -682.198          45.062    22140631.120   118271269.616 7      -682.198          44.937    22140643.480    91988819.801 7      -530.598          46.812    22140643.180    91988821.805 7      -530.598          46.937
G31  21534395.020   113164008.805 8       -46.568          48.125    21534394.560   113164008.807 7       -46.568          46.500    21534396.540    88179750.707 7       -36.287          46.625    21534398.360    88179759.712 7       -36.287          47.687
> 2024 05 08 10 29 23.0000000  0 13
G26  20459473.260   107515256.974 8      2203.824          48.187    20459472.340   107515256.974 8      2203.824          49.687    20459477.420    83778137.290 8      1717.265          50.187    20459477.700    83778138.290 8      1717.265          50.125
G23  23656331.440   124314861.767 6      4199.895          41.125    23656330.920   124314861.774 4      4199.895          26.187    23656337.480    96868746.932 4      3272.646          26.500    23656338.280    96868754.948 6      3272.646          41.812
G28  23313492.560   122513225.412 7     -1071.157          42.562    23313491.420   122513225.417 5     -1071.157          30.250    23313497.740    95464862.327 5      -834.668          30.062    23313498.020    95464872.313 7      -834.668          45.000
G16  21024815.100   110486155.907 7      3951.292          45.812    21024813.300   110486155.915 6      3951.292          37.500    21024815.700    86093106.280 6      3078.929          37.125
G27  21072049.880   110734382.668 8      3397.296          48.750    21072048.940   110734382.668 6      3397.296          41.000    21072052.720    86286532.050 6      2647.244          40.812    21072053.360    86286532.062 8      2647.244          50.437
G10  24206112.500   127203979.231 7      4909.259          42.750    24206112.360   127203979.226 6      4909.259          38.187    24206123.900    99120036.513 6      3825.397          38.312    24206123.120    99120034.519 6      3825.397          41.062
G08  23343984.380   122673465.109 6      4599.304          39.312    23343982.600   122673465.098 4      4599.304          28.375    23343991.680    95589724.359 4      3583.873          28.187    23343992.220    95589744.373 7      3583.873          46.187
R21  22780902.000   121905212.313 6      6049.853          41.562    22780902.980   121905212.333 6      6049.853          41.125    22780914.880    94815218.687 7      4705.441          45.562    22780914.200    94815218.685 7      4705.441          46.062
R09  19160695.860   102317080.484 7      2537.956          47.062    19160696.000   102317080.482 7      2537.956          47.937    19160701.620    79579949.968 8      1973.966          52.062    19160701.760    79579967.963 8      1973.966          53.125
R10  20578377.600   109694330.604 7      5415.741          46.937    20578377.020   109694330.618 7      5415.741          46.375
G18  22433031.280   117886374.731 7        38.146          46.312    22433030.700   117886374.734 6        38.146          36.625    22433034.260    91859523.545 6        29.724          36.625    22433034.700    91859524.548 8        29.724          48.937
R16  22140759.360   118271952.142 7      -682.790          45.687    22140758.580   118271952.143 7      -682.790          44.312    22140771.540    91989350.643 7      -531.059          46.687    22140771.260    91989352.644 7      -531.059          46.187
G31  21534403.920   113164055.645 7       -47.119          47.750    21534403.500   113164055.650 7       -47.119          46.625    21534405.480    88179787.209 7       -36.716          46.500    21534407.460    88179796.216 7       -36.716          47.812
> 2024 05 08 10 29 24.0000000  0 13
G26  20459054.160   107513053.590 8      2203.146          48.937    20459053.000   107513053.593 8      2203.146          49.750    20459058.160    83776420.370 8      1716.737          50.000    20459058.600    83776421.369 8      1716.737          50.625
G23  23655532.420   124310662.326 6      4199.196          41.687    23655531.760   124310662.333 4      4199.196          26.187    23655538.300    96865474.649 4      3272.101          26.500    23655539.200    96865482.661 6      3272.101          41.875
G28  23313696.700   122514296.932 7     -1071.744          42.625    23313695.400   122514296.937 5     -1071.744          30.250    23313701.580    95465697.270 5      -835.125          30.062    23313701.900    95465707.243 7      -835.125          44.937
G16  21024063.180   110482204.938 7      3950.705          45.687    21024061.460   110482204.945 6      3950.705          37.312    21024064.040    86090027.609 6      3078.472          37.062
G27  21071403.400   110730985.842 8      3396.564          48.062    21071402.540   110730985.847 6      3396.564          41.250    21071406.200    86283885.174 6      2646.673          41.000    21071407.200    86283885.183 8      2646.673          50.125
G10  24205178.560   127199070.219 7      4909.053          43.687    24205178.260   127199070.216 6      4909.053          37.687    24205189.720    99116211.317 6      3825.236          37.875    24205189.140    99116209.323 6      3825.236          41.062
G08  23343109.020   122668866.254 6      4598.546          38.437    23343107.380   122668866.243 4      4598.546          28.375    23343116.560    95586140.846 4      3583.282          28.187    23343117.100    95586160.880 7      3583.282          45.750
R21  22779771.240   121899163.049 6      6049.000          41.562    22779772.160   121899163.067 6      6049.000          41.375    22779784.140    94810513.711 7      4704.778          45.437    22779783.500    94810513.711 7      4704.778          45.437
R09  19160220.580   102314543.062 7      2536.960          47.437    19160220.500   102314543.061 8      2536.960          48.000    19160226.340    79577976.416 8      1973.191          52.125    19160226.500    79577994.411 8      1973.191          52.812
R10  20577361.880   109688915.288 7      5414.927          47.062    20577361.020   109688915.305 7      5414.927          45.875
G18  22433024.280   117886337.105 7        37.254          46.500    22433023.540   117886337.115 6        37.254          36.625    22433027.040    91859494.232 6        29.029          36.312    22433027.740    91859495.234 8        29.029          49.437
R16  22140886.960   118272635.359 7      -683.527          45.437    22140886.840   118272635.368 7      -683.527          44.312    22140899.340    91989882.029 7      -531.632          47.312    22140899.020    91989884.029 7      -531.632          46.375
G31  21534412.940   113164103.159 7       -47.860          47.687    21534412.540   113164103.161 7       -47.860          46.625    21534414.420    88179824.226 7       -37.294          46.812    21534416.700    88179833.231 8       -37.294          48.062
> 2024 05 08 10 29 25.0000000  0 13
G26  20458635.020   107510850.572 8      2202.849          49.187    20458633.840   107510850.577 8      2202.849          50.000    20458638.880    83774703.734 8      1716.506          49.937    20458639.300    83774704.731 8      1716.506          50.187
G23  23654733.460   124306463.169 7      4199.018          42.625    23654732.660   124306463.179 4      4199.018          26.187    23654739.160    96862202.583 4      3271.962          26.500    23654740.000    96862210.592 6      3271.962          41.750
G28  23313900.540   122515368.520 7     -1071.590          42.812    23313899.320   122515368.523 4     -1071.590          29.937    23313905.520    95466532.266 5      -835.005          30.062    23313906.020    95466542.251 7      -835.005          44.812
G16  21023311.640   110478254.155 7      3950.705          46.000    21023309.700   110478254.165 6      3950.705          37.250    21023312.200    86086949.082 6      3078.472          36.937
G27  21070757.140   110727589.255 7      3396.463          47.875    21070756.140   110727589.263 6      3396.463          41.312    21070759.880    86281238.487 6      2646.595          40.937    21070760.480    86281238.500 8      2646.595          49.625
G10  24204244.160   127194161.207 7      4909.087          43.437    24204244.100   127194161.206 6      4909.087          38.062    24204255.540    99112386.125 6      3825.263          37.875    24204254.960    99112384.135 6      3825.263          41.062
G08  23342233.640   122664267.599 6      4598.556          39.187    23342232.520   122664267.588 4      4598.556          28.375    23342241.540    95582557.487 4      3583.291          28.187    23342241.840    95582577.500 7      3583.291          46.062
R21  22778640.960   121893114.112 6      6048.758          41.625    22778641.940   121893114.148 6      6048.758          41.375    22778653.880    94805808.998 7      4704.590          45.875    22778653.300    94805808.999 7      4704.590          45.437
R09  19159745.500   102312006.341 7      2536.403          47.875    19159745.760   102312006.331 8      2536.403          48.625    19159751.520    79576003.404 8      1972.758          52.250    19159751.720    79576021.397 8      1972.758          52.500
R10  20576346.080   109683500.287 7      5414.820          46.562    20576345.140   109683500.295 7      5414.820          46.187
G18  22433017.120   117886299.860 7        37.072          46.000    22433016.600   117886299.865 6        37.072          36.937    22433019.980    91859465.206 6        28.888          36.562    22433020.460    91859466.203 8        28.888          49.187
R16  22141015.100   118273319.023 7      -683.859          45.187    22141014.600   118273319.027 7      -683.859          44.312    22141027.200    91990413.760 7      -531.890          46.437    22141026.900    91990415.760 7      -531.890          46.500
G31  21534422.040   113164151.056 8       -48.065          48.375    21534421.680   113164151.055 7       -48.065          47.125    21534423.600    88179861.546 7       -37.453          46.750    21534426.020    88179870.545 8       -37.453          48.375
> 2024 05 08 10 29 26.0000000  0 13
G26  20458215.800   107508648.234 8      2201.815          49.375    20458214.660   107508648.236 8      2201.815          49.375    20458219.820    83772987.625 8      1715.700          49.750    20458220.340    83772988.624 8      1715.700          50.437
G23  23653934.440   124302264.635 6      4198.095          41.875    23653933.680   124302264.645 4      4198.095          26.187    23653940.220    96858931.002 4      3271.243          26.500    23653940.920    96858939.005 6      3271.243          41.750
G28  23314104.280   122516440.598 7     -1072.502          42.625    23314103.380   122516440.602 4     -1072.502          29.937    23314109.380    95467367.644 5      -835.716          30.062    23314109.900    95467377.630 7      -835.716          45.125
G16  21022559.680   110474303.916 7      3949.838          45.437    21022558.000   110474303.926 6      3949.838          37.437    21022560.600    86083870.972 6      3077.796          36.937
G27  21070110.940   110724193.283 8      3395.519          48.250    21070109.840   110724193.291 6      3395.519          40.500    21070113.600    86278592.273 6      2645.859          40.312    21070114.020    86278592.284 8      2645.859          49.625
G10  24203310.540   127189252.491 7      4908.396          43.625    24203309.960   127189252.488 6      4908.396          37.937    24203321.400    99108561.156 6      3824.724          37.875    24203320.860    99108559.162 6      3824.724          41.375
G08  23341358.720   122659669.398 6      4597.887          39.875    23341357.600   122659669.385 4      4597.887          28.375    23341366.420    95578974.475 4      3582.769          28.187    23341367.260    95578994.491 7      3582.769          46.312
R21  22777510.840   121887065.879 6      6047.721          41.625    22777511.540   121887065.901 6      6047.721          41.812    22777523.520    94801104.815 7      4703.783          45.187    22777523.440    94801104.813 7      4703.783          46.062
R09  19159270.720   102309470.679 7      2534.936          47.375    19159270.760   102309470.672 8      2534.936          48.250    19159276.740    79574031.225 8      1971.617          52.062    19159276.740    79574049.220 8      1971.617          52.937
R10  20575330.400   109678085.957 7      5413.725          46.750    20575329.440   109678085.965 7      5413.725          45.687
G18  22433010.140   117886263.353 7        35.925          46.312    22433009.540   117886263.358 6        35.925          36.687    22433013.040    91859436.757 6        27.993          36.750    22433013.520    91859437.761 8        27.993          49.437
R16  22141142.880   118274003.450 7      -685.035          45.187    22141142.680   118274003.451 7      -685.035          44.375    22141155.260    91990946.077 7      -532.805          46.250    22141155.000    91990948.081 7      -532.805          46.500
G31  21534431.380   113164199.681 8       -49.203          48.000    21534430.940   113164199.678 7       -49.203          47.000    21534432.920    88179899.436 7       -38.340          47.000    21534435.200    88179908.432 8       -38.340          48.187
> 2024 05 08 10 29 27.0000000  0 13
G26  20457796.860   107506446.513 8      2201.447          48.750    20457795.760   107506446.518 8      2201.447          49.687    20457800.840    83771271.998 8      1715.414          49.937    20457801.300    83771272.995 8      1715.414          50.312
G23  23653135.900   124298066.644 6      4197.750          41.937    23653134.800   124298066.655 4      4197.750          26.687    23653141.480    96855659.847 4      3270.974          26.687    23653141.880    96855667.858 7      3270.974          42.000
G28  23314308.300   122517513.043 7     -1072.577          42.437    23314307.240   122517513.047 4     -1072.577          29.937    23314313.660    95468203.306 5      -835.775          30.187    23314314.000    95468213.287 7      -835.775          45.000
G16  21021807.740   110470354.147 7      3949.608          45.250    21021806.420   110470354.157 6      3949.608          37.375    21021808.840    86080793.228 6      3077.617          37.250
G27  21069464.640   110720797.860 8      3395.187          48.187    21069463.740   110720797.868 6      3395.187          40.875    21069467.540    86275946.493 6      2645.600          40.562    21069467.820    86275946.495 8      2645.600          49.750
G10  24202376.220   127184344.020 7      4908.390          43.000    24202376.080   127184344.017 6      4908.390          38.312    24202387.380    99104736.381 6      3824.719          38.312    24202387.740    99104734.389 6      3824.719          41.375
G08  23340484.140   122655071.676 6      4597.650          40.562    23340482.740   122655071.662 4      4597.650          28.437    23340491.460    95575391.836 4      3582.585          28.187    23340492.280    95575411.856 7      3582.585          45.875
R21  22776380.800   121881018.244 6      6047.398          41.500    22776381.240   121881018.262 6      6047.398          41.812    22776393.520    94796401.095 7      4703.532          45.312    22776393.020    94796401.093 7      4703.532          45.187
R09  19158796.280   102306935.930 7      2534.261          47.375    19158796.140   102306935.926 8      2534.261          48.375    19158801.900    79572059.754 8      1971.092          52.250    19158802.000    79572077.749 8      1971.092          52.875
R10  20574314.920   109672672.216 7      5413.462          46.750    20574313.880   109672672.219 7      5413.462          46.062
G18  22433003.220   117886227.514 7        35.523          45.687    22433002.800   117886227.519 6        35.523          36.750    22433006.120    91859408.830 6        27.680          36.500    22433006.740    91859409.828 8        27.680          49.125
R16  22141271.660   118274688.519 7      -685.316          44.187    22141271.080   118274688.512 7      -685.316          44.937    22141283.920    91991478.897 7      -533.023          46.250    22141283.300    91991480.896 7      -533.023          46.375
G31  21534440.940   113164248.954 7       -49.585          47.125    21534440.320   113164248.959 7       -49.585          46.750    21534442.260    88179937.831 7       -38.637          46.812    21534444.460    88179946.830 7       -38.637          47.812
> 2024 05 08 10 29 28.0000000  0 13
G26  20457377.800   107504245.203 8      2201.125          48.062    20457376.840   107504245.207 8      2201.125          49.562    20457382.000    83769556.693 8      1715.162          50.000    20457382.520    83769557.692 8      1715.162          50.375
G23  23652337.080   124293869.011 6      4197.509          41.500    23652336.020   124293869.019 4      4197.509          26.687    23652342.620    96852388.966 4      3270.786          26.687    23652342.860    96852396.973 7      3270.786          42.375
G28  23314512.280   122518585.674 7     -1072.651          42.250    23314511.600   122518585.676 5     -1072.651          30.250    23314517.800    95469039.116 5      -835.832          30.187    23314518.300    95469049.093 7      -835.832          45.000
G16  21021056.400   110466404.633 7      3949.455          44.812    21021054.800   110466404.643 6      3949.455          37.687    21021057.280    86077715.683 6      3077.497          37.625
G27  21068818.680   110717402.737 7      3395.083          47.375    21068817.700   110717402.747 6      3395.083          40.687    21068821.600    86273300.947 6      2645.519          40.875    21068821.720    86273300.947 8      2645.519          49.312
G10  24201442.260   127179435.583 7      4908.473          42.500    24201442.020   127179435.580 6      4908.473          38.125    24201453.380    99100911.633 6      3824.784          38.437    24201453.120    99100909.643 6      3824.784          41.625
G08  23339609.500   122650474.184 6      4597.494          40.437    23339607.860   122650474.168 4      4597.494          28.437    23339616.500    95571809.378 4      3582.463          28.437    23339617.280    95571829.400 7      3582.463          45.437
R21  22775250.940   121874971.033 6      6047.071          41.500    22775251.340   121874971.051 6      6047.071          41.125    22775263.640    94791697.714 7      4703.278          45.500    22775263.560    94791697.717 7      4703.278          44.750
R09  19158321.940   102304401.950 7      2533.572          47.562    19158321.620   102304401.949 7      2533.572          47.500    19158327.460    79570088.885 8      1970.556          52.625    19158327.380    79570106.882 8      1970.556          53.000
R10  20573299.600   109667258.854 7      5413.302          46.750    20573298.460   109667258.865 7      5413.302          45.875
G18  22432996.320   117886192.127 7        35.202          47.187    22432995.980   117886192.132 6        35.202          36.187    22432999.340    91859381.254 5        27.430          35.875    22432999.700    91859382.247 8        27.430          49.250
R16  22141399.560   118275374.043 7      -685.765          45.187    22141399.580   118275374.050 7      -685.765          44.437    22141411.980    91992012.082 7      -533.373          46.375    22141412.100    91992014.085 7      -533.373          46.062
G31  21534450.440   113164298.667 8       -49.865          48.375    21534449.740   113164298.672 7       -49.865          46.312    21534451.780    88179976.564 7       -38.856          46.562    21534454.220    88179985.561 8       -38.856          48.062
> 2024 05 08 10 29 29.0000000  0 13
G26  20456959.140   107502044.183 8      2200.651          48.562    20456958.060   107502044.188 8      2200.651          49.812    20456963.140    83767841.611 8      1714.793          50.125    20456963.700    83767842.613 8      1714.793          50.187
G23  23651538.320   124289671.596 7      4197.115          42.437    23651537.380   124289671.604 4      4197.115          26.687    23651544.020    96849118.255 4      3270.479          26.687    23651544.420    96849126.260 7      3270.479          42.375
G28  23314716.780   122519658.343 7     -1072.923          43.875    23314715.940   122519658.347 5     -1072.923          30.250    23314721.780    95469874.951 5      -836.044          30.187    23314722.680    95469884.941 7      -836.044          45.000
G16  21020304.560   110462455.259 7      3949.023          45.062    21020303.180   110462455.264 6      3949.023          37.625    21020305.720    86074638.252 6      3077.161          37.312
G27  21068172.620   110714007.866 8      3394.512          48.250    21068171.760   110714007.871 6      3394.512          41.250    21068175.560    86270655.590 6      2645.074          40.812    21068175.460    86270655.591 8      2645.074          49.937
G10  24200508.320   127174527.059 7      4908.284          43.937    24200507.920   127174527.056 6      4908.284          38.250    24200519.360    99097086.816 6      3824.637          38.250    24200520.160    99097084.838 7      3824.637          42.062
G08  23338734.180   122645876.824 6      4597.108          41.000    23338733.060   122645876.808 4      4597.108          28.437    23338741.560    95568227.021 4      3582.162          28.437    23338742.340    95568247.031 7      3582.162          45.687
R21  22774121.060   121868924.143 6      6046.433          41.500    22774121.060   121868924.160 6      6046.433          41.125    22774133.420    94786994.582 7      4702.781          45.125    22774132.960    94786994.582 7      4702.781          45.000
R09  19157846.860   102301868.614 8      2532.818          48.750    19157847.220   102301868.612 8      2532.818          48.500    19157852.960    79568118.512 8      1969.970          52.437    19157853.460    79568136.507 8      1969.970          52.562
R10  20572283.480   109661845.790 7      5412.687          46.625    20572283.080   109661845.801 7      5412.687          45.937
G18  22432989.700   117886157.086 7        34.601          46.000    22432989.300   117886157.091 6        34.601          36.875    22432992.820    91859353.945 6        26.962          36.625    22432992.980    91859354.947 8        26.962          49.125
R16  22141528.440   118276059.968 7      -686.391          44.312    22141528.040   118276059.961 7      -686.391          44.562    22141540.480    91992545.562 7      -533.860          46.062    22141539.880    91992547.570 7      -533.860          46.250
G31  21534459.900   113164348.721 8       -50.487          48.062    21534459.240   113164348.726 7       -50.487          47.000    21534461.300    88180015.567 7       -39.340          47.187    21534463.840    88180024.564 8       -39.340          48.562
> 2024 05 08 10 29 30.0000000  0 13
G26  20456540.200   107499843.708 8      2200.107          49.000    20456539.280   107499843.713 8      2200.107          49.937    20456544.360    83766126.955 8      1714.369          50.437    20456545.140    83766127.955 8      1714.369          50.625
G23  23650739.600   124285474.660 7      4196.639          42.562    23650738.880   124285474.667 4      4196.639          26.687    23650745.500    96845847.917 4      3270.108          26.687    23650745.620    96845855.922 7      3270.108          42.187
G28  23314920.900   122520731.334 7     -1073.213          42.625    23314919.960   122520731.344 5     -1073.213          30.250    23314925.980    95470711.045 5      -836.270          30.062    23314926.340    95470721.032 7      -836.270          44.687
G16  21019553.520   110458506.270 7      3948.647          45.687    21019551.680   110458506.280 6      3948.647          37.437    21019554.380    86071561.120 6      3076.867          37.187
G27  21067526.640   110710613.433 8      3394.145          48.562    21067525.780   110710613.436 6      3394.145          41.125    21067529.600    86268010.574 6      2644.788          41.250    21067529.660    86268010.572 8      2644.788          49.250
G10  24199574.160   127169618.719 7      4908.133          43.437    24199573.840   127169618.711 6      4908.133          38.312    24199585.460    99093262.137 6      3824.519          38.187    24199585.740    99093260.156 7      3824.519          42.062
G08  23337859.600   122641279.811 6      4596.911          40.750    23337858.380   122641279.795 4      4596.911          28.437    23337866.860    95564644.935 4      3582.009          28.437    23337867.500    95564664.939 7      3582.009          46.375
R21  22772991.400   121862877.771 6      6046.044          41.500    22772991.340   121862877.786 6      6046.044          41.687    22773003.440    94782291.848 7      4702.478          45.375    22773003.200    94782291.847 7      4702.478          45.000
R09  19157372.800   102299336.151 8      2531.929          48.437    19157373.020   102299336.154 7      2531.929          47.625    19157378.780    79566148.821 8      1969.278          52.437    19157378.680    79566166.818 8      1969.278          52.875
R10  20571268.480   109656433.227 7      5412.185          46.937    20571267.640   109656433.236 7      5412.185          46.125
G18  22432983.400   117886122.634 7        34.000          45.812    22432982.620   117886122.639 6        34.000          36.500    22432986.220    91859327.097 6        26.493          36.187    22432986.340    91859328.099 8        26.493          48.937
R16  22141656.640   118276746.509 7      -686.996          45.250    22141656.520   118276746.507 7      -686.996          44.687    22141668.860    91993079.533 7      -534.330          46.062    22141668.560    91993081.544 7      -534.330          46.437
G31  21534469.380   113164399.346 7       -51.025          47.750    21534468.960   113164399.348 7       -51.025          46.687    21534470.820    88180055.009 7       -39.760          46.812    21534473.140    88180064.007 7       -39.760          47.875
> 2024 05 08 10 29 31.0000000  0 13
G26  20456121.680   107497643.885 8      2199.621          48.625    20456120.660   107497643.892 8      2199.621          49.625    20456125.780    83764412.805 8      1713.990          49.250    20456126.440    83764413.806 8      1713.990          50.375
G23  23649940.860   124281278.312 6      4196.144          41.062    23649940.180   124281278.322 4      4196.144          26.687    23649946.780    96842578.039 4      3269.723          26.687    23649947.100    96842586.055 7      3269.723          42.062
G28  23315125.240   122521804.772 6     -1073.671          41.625    23315124.240   122521804.780 5     -1073.671          30.250    23315130.320    95471547.476 5      -836.627          30.062    23315130.820    95471557.459 7      -836.627          44.812
G16  21018802.120   110454557.776 7      3948.351          45.625    21018800.320   110454557.783 6      3948.351          37.750    21018802.920    86068484.372 6      3076.637          37.375
G27  21066880.880   110707219.569 7      3393.746          47.937    21066879.940   110707219.571 6      3393.746          41.312    21066883.660    86265366.006 6      2644.477          41.062    21066884.040    86265366.002 8      2644.477          49.625
G10  24198640.180   127164710.621 7      4908.086          43.312    24198639.860   127164710.616 6      4908.086          38.125    24198651.480    99089437.656 6      3824.482          38.437    24198651.340    99089435.672 6      3824.482          41.750
G08  23336984.780   122636683.324 6      4596.326          40.875    23336983.940   122636683.302 4      4596.326          28.437    23336992.160    95561063.253 4      3581.553          28.437    23336992.480    95561083.256 7      3581.553          46.312
R21  22771860.760   121856832.093 7      6045.595          42.562    22771861.880   121856832.111 6      6045.595          41.687    22771873.600    94777589.658 7      4702.129          45.062    22771873.440    94777589.659 7      4702.129          45.312
R09  19156898.580   102296804.662 8      2531.070          48.875    19156898.820   102296804.668 7      2531.070          47.937    19156904.560    79564179.885 8      1968.610          52.500    19156904.960    79564197.882 8      1968.610          53.062
R10  20570252.740   109651021.288 7      5411.711          47.000    20570252.260   109651021.296 7      5411.711          46.187
G18  22432977.020   117886088.870 7        33.511          46.687    22432976.240   117886088.881 6        33.511          36.937    22432979.880    91859300.790 6        26.112          36.437    22432980.020    91859301.792 8        26.112          48.937
R16  22141785.300   118277433.798 7      -687.562          45.187    22141785.360   118277433.797 7      -687.562          44.687    22141797.540    91993614.079 7      -534.770          46.500    22141797.760    91993616.084 7      -534.770          46.875
G31  21534479.180   113164450.656 7       -51.521          47.937    21534478.660   113164450.663 7       -51.521          46.625    21534480.680    88180094.993 7       -40.146          47.000    21534482.740    88180103.989 7       -40.146          47.750
> 2024 05 08 10 29 32.0000000  0 13
G26  20455703.100   107495444.652 8      2198.999          49.062    20455702.100   107495444.655 8      2198.999          49.750    20455707.260    83762699.117 8      1713.505          49.562    20455707.800    83762700.115 8      1713.505          50.562
G23  23649142.300   124277082.505 6      4195.471          41.375    23649141.740   124277082.512 4      4195.471          26.937    23649148.260    96839308.581 4      3269.198          26.687    23649148.740    96839316.587 6      3269.198          41.750
G28  23315329.600   122522878.515 7     -1073.907          42.437    23315328.640   122522878.520 5     -1073.907          30.125    23315334.640    95472384.150 5      -836.811          30.062    23315335.360    95472394.132 7      -836.811          44.812
G16  21018050.720   110450609.731 7      3947.848          45.625    21018048.980   110450609.738 6      3947.848          37.125    21018051.600    86065407.975 6      3076.245          36.875
G27  21066235.120   110703826.232 8      3393.029          48.062    21066234.260   110703826.239 6      3393.029          40.500    21066237.960    86262721.850 6      2643.918          40.875    21066238.360    86262721.848 8      2643.918          50.312
G10  24197706.160   127159802.760 7      4907.810          42.812    24197705.900   127159802.757 6      4907.810          38.625    24197717.680    99085613.354 6      3824.268          38.562    24197717.960    99085611.368 6      3824.268          41.812
G08  23336110.220   122632087.194 6      4595.889          40.937    23336109.560   122632087.175 4      4595.889          29.000    23336117.600    95557481.854 4      3581.212          28.875    23336118.320    95557501.872 7      3581.212          46.187
R21  22770731.280   121850787.019 7      6044.853          42.562    22770731.560   121850787.040 6      6044.853          41.812    22770743.940    94772887.941 7      4701.552          45.062    22770743.840    94772887.941 7      4701.552          44.750
R09  19156424.620   102294274.132 8      2530.002          48.187    19156424.760   102294274.138 7      2530.002          47.937    19156430.760    79562211.693 8      1967.779          52.500    19156430.840    79562229.690 8      1967.779          52.750
R10  20569237.640   109645609.909 7      5411.049          47.125    20569237.340   109645609.922 7      5411.049          45.500
G18  22432970.620   117886055.766 7        32.758          46.562    22432969.960   117886055.771 6        32.758          37.000    22432973.640    91859274.987 6        25.526          36.812    22432973.760    91859275.984 8        25.526          48.875
R16  22141914.240   118278121.737 7      -688.299          45.062    22141914.180   118278121.743 7      -688.299          44.562    22141926.300    91994149.138 7      -535.344          46.750    22141926.260    91994151.145 7      -535.344          46.625
G31  21534489.060   113164502.589 7       -52.208          47.000    21534488.500   113164502.596 7       -52.208          47.187    21534490.560    88180135.456 7       -40.682          47.000    21534492.700    88180144.457 7       -40.682          47.875
> 2024 05 08 10 29 33.0000000  0 13
G26  20455284.700   107493245.982 8      2198.590          49.000    20455283.840   107493245.987 8      2198.590          49.750    20455288.920    83760985.870 8      1713.187          50.125    20455289.340    83760986.869 8      1713.187          50.375
G23  23648344.000   124272887.155 6      4195.267          41.437    23648343.300   124272887.163 4      4195.267          26.937    23648349.920    96836039.484 4      3269.039          27.000    23648350.460    96836047.493 6      3269.039          41.750
G28  23315533.960   122523952.597 7     -1074.102          42.625    23315533.120   122523952.602 5     -1074.102          30.125    23315539.040    95473221.087 5      -836.963          30.062    23315540.060    95473231.073 7      -836.963          45.062
G16  21017299.720   110446662.080 7      3947.601          45.375    21017297.820   110446662.085 6      3947.601          37.750    21017300.540    86062331.883 6      3076.052          37.437
G27  21065589.460   110700433.355 8      3392.788          48.812    21065588.640   110700433.357 6      3392.788          41.375    21065592.280    86260078.048 6      2643.731          41.500    21065592.900    86260078.044 8      2643.731          49.937
G10  24196772.180   127154895.072 7      4907.846          42.750    24196771.980   127154895.066 6      4907.846          38.562    24196783.600    99081789.188 6      3824.295          38.687    24196784.120    99081787.214 6      3824.295          41.812
G08  23335235.800   122627491.460 6      4595.725          40.062    23335235.080   122627491.444 4      4595.725          29.000    23335242.960    95553900.770 4      3581.085          28.875    23335243.940    95553920.789 7      3581.085          46.062
R21  22769601.660   121844742.462 7      6044.613          42.187    22769602.360   121844742.485 6      6044.613          41.812    22769614.480    94768186.623 7      4701.365          44.937    22769614.040    94768186.625 7      4701.365          45.250
R09  19155951.220   102291744.494 7      2529.399          47.937    19155951.220   102291744.497 8      2529.399          48.187    19155957.200    79560244.196 8      1967.311          52.250    19155957.080    79560262.193 8      1967.311          53.250
R10  20568222.580   109640199.049 7      5410.846          46.437    20568222.100   109640199.060 7      5410.846          46.062
G18  22432964.360   117886023.230 7        32.436          46.312    22432963.740   117886023.232 6        32.436          36.750    22432967.400    91859249.629 6        25.275          36.062    22432967.740    91859250.637 8        25.275          48.625
R16  22142043.300   118278810.276 7      -688.659          44.625    22142042.680   118278810.280 7      -688.659          44.687    22142055.100    91994684.662 7      -535.624          46.375    22142055.180    91994686.669 7      -535.624          47.062
G31  21534499.000   113164555.126 7       -52.626          47.187    21534498.540   113164555.131 7       -52.626          46.500    21534500.520    88180176.390 7       -41.007          46.750    21534502.680    88180185.389 7       -41.007          47.937
> 2024 05 08 10 29 34.0000000  0 13
G26  20454866.260   107491047.541 8      2198.250          49.625    20454865.520   107491047.548 8      2198.250          49.937    20454870.520    83759272.797 8      1712.922          50.312    20454870.920    83759273.796 8      1712.922          50.437
G23  23647546.140   124268691.989 6      4194.967          41.500    23647544.940   124268691.997 4      4194.967          26.937    23647551.560    96832770.523 4      3268.805          27.000    23647552.060    96832778.531 7      3268.805          42.437
G28  23315738.380   122525026.690 7     -1074.318          43.312    23315737.640   122525026.697 5     -1074.318          30.125    23315743.400    95474058.032 4      -837.131          29.875    23315744.080    95474068.022 7      -837.131          45.375
G16  21016548.600   110442714.513 7      3947.424          45.125    21016546.640   110442714.513 6      3947.424          37.312    21016549.360    86059255.853 6      3075.915          37.250
G27  21064943.860   110697040.620 8      3392.590          49.312    21064943.000   110697040.625 6      3392.590          41.375    21064946.600    86257434.362 6      2643.576          41.312    21064947.320    86257434.360 8      2643.576          50.437
G10  24195838.260   127149987.263 7      4907.709          43.125    24195837.940   127149987.257 6      4907.709          38.125    24195849.740    99077964.929 6      3824.189          38.687    24195850.000    99077962.943 6      3824.189          41.750
G08  23334361.380   122622895.816 6      4595.420          39.687    23334360.620   122622895.800 4      4595.420          29.000    23334368.420    95550319.752 4      3580.847          28.875    23334369.620    95550339.758 7      3580.847          45.812
R21  22768472.300   121838698.188 7      6044.004          42.187    22768472.820   121838698.203 7      6044.004          42.125    22768484.780    94763485.519 7      4700.892          45.437    22768484.400    94763485.521 7      4700.892          45.125
R09  19155477.300   102289215.445 7      2528.657          47.187    19155477.400   102289215.454 8      2528.657          48.500    19155483.500    79558277.159 8      1966.733          52.625    19155483.580    79558295.154 8      1966.733          53.000
R10  20567207.440   109634788.418 7      5410.455          47.125    20567207.200   109634788.424 7      5410.455          46.250
G18  22432958.260   117885990.998 7        32.044          45.875    22432957.740   117885991.003 6        32.044          36.562    22432961.280    91859224.516 6        24.969          36.500    22432961.300    91859225.511 8        24.969          48.875
R16  22142172.240   118279499.106 7      -689.074          44.937    22142172.120   118279499.108 7      -689.074          44.125    22142184.160    91995220.406 7      -535.947          46.375    22142184.620    91995222.412 7      -535.947          46.812
G31  21534509.380   113164607.934 7       -53.074          47.812    21534508.660   113164607.939 7       -53.074          46.312    21534510.600    88180217.535 7       -41.356          46.437    21534512.540    88180226.538 7       -41.356          47.312
