     3.05           OBSERVATION DATA    MIXED               RINEX VERSION / TYPE
TPS2RIN 1.0.29.3920 TPS-USER            20240511 192424 UTC PGM / RUN BY / DATE
Win64 build Feb 23, 2024 (c) Topcon Positioning Systems     COMMENT
SRC: 20240508_GUI17.tps                                     COMMENT
OPT: -S -v 3.05                                             COMMENT
Observer            Agency                                  OBSERVER / AGENCY
O0M3X53SBGM         TPS HIPER_SR        4.8 HSR Jul,08,2022 REC # / TYPE / VERS
FW: 4.8 HSR Jul,08,2022 p3                                  COMMENT
SN: HiPer SR 1212-12575                                     COMMENT
000                 TPSHIPER_SR     NONE                    ANT # / TYPE
        1.8000        0.0000        0.0000                  ANTENNA: DELTA H/E/N
GUI17                                                       MARKER NAME
  5389431.1284 -1591117.8602  3009316.5826                  APPROX POSITION XYZ
  2024     5     8    14    52    1.0000000     GPS         TIME OF FIRST OBS
  2024     5     8    15     7    1.0000000     GPS         TIME OF LAST OBS
     1.000                                                  INTERVAL
   901 EPOCHS                                               COMMENT
G   16 C1C L1C D1C S1C C1W L1W D1W S1W C2W L2W D2W S2W C2X  SYS / # / OBS TYPES
       L2X D2X S2X                                          SYS / # / OBS TYPES
R   16 C1C L1C D1C S1C C1P L1P D1P S1P C2P L2P D2P S2P C2C  SYS / # / OBS TYPES
       L2C D2C S2C                                          SYS / # / OBS TYPES
    13                                                      # OF SATELLITES
   G02   901   901   901   901   901   901   901   901   901PRN / # OF OBS
         901   901   901     0     0     0     0            PRN / # OF OBS
   G03   901   901   901   901   901   901   901   901   901PRN / # OF OBS
         901   901   901   901   901   901   901            PRN / # OF OBS
   G08   901   901   901   901   901   901   901   901   901PRN / # OF OBS
         901   901   901   901   901   901   901            PRN / # OF OBS
   G14   259   259   259   259   258   258   258   258   258PRN / # OF OBS
         258   258   258   253   253   253   253            PRN / # OF OBS
   G21   796   796   796   796   790   790   790   790   790PRN / # OF OBS
         790   790   790     0     0     0     0            PRN / # OF OBS
   G27   901   901   901   901   901   901   901   901   901PRN / # OF OBS
         901   901   901   901   901   901   901            PRN / # OF OBS
   G32   148   148   148   148   139   139   139   139   139PRN / # OF OBS
         139   139   139   132   132   132   132            PRN / # OF OBS
   R06   349   349   349   349   349   349   349   349     0PRN / # OF OBS
           0     0     0     0     0     0     0            PRN / # OF OBS
   R07   901   901   901   901   901   901   901   901   901PRN / # OF OBS
         901   901   901   901   901   901   901            PRN / # OF OBS
   R08    50    50    50    50    44    44    44    44    44PRN / # OF OBS
          44    44    44    43    43    43    43            PRN / # OF OBS
   R12   490   490   490   490   462   462   462   462   462PRN / # OF OBS
         462   462   462   446   446   446   446            PRN / # OF OBS
   R21   493   493   493   493   482   482   482   482   482PRN / # OF OBS
         482   482   482   480   480   480   480            PRN / # OF OBS
   R22   834   834   834   834   829   829   829   829   829PRN / # OF OBS
         829   829   829   828   828   828   828            PRN / # OF OBS
G L1C                                                       SYS / PHASE SHIFT
G L1W -0.25000                                              SYS / PHASE SHIFT
G L2W  0.00000                                              SYS / PHASE SHIFT
G L2X  0.25000                                              SYS / PHASE SHIFT
R L1C                                                       SYS / PHASE SHIFT
R L1P -0.25000                                              SYS / PHASE SHIFT
R L2P -0.25000                                              SYS / PHASE SHIFT
R L2C                                                       SYS / PHASE SHIFT
  6 R06 -4 R07  5 R08  6 R12 -1 R21  4 R22 -3               GLONASS SLOT / FRQ #
                                                            GLONASS COD/PHS/BIS
    18    18  1929     7GPS                                 LEAP SECONDS
                                                            END OF HEADER
> 2024 05 08 14 52  1.0000000  0 10
G27  23247637.980   122167146.506 7         9.720          44.250    23247636.540   122167146.509 7         9.720          42.250    23247655.180    95195248.600 7         7.574          42.250    23247656.020    95195250.596 7         7.574          45.000
R06  20805914.200   111024323.621 6      1978.746          38.250    20805914.340   111024323.622 6      1978.746          36.937
R12  21186248.900   113173110.460 7      1786.527          44.562    21186249.820   113173110.440 7      1786.527          44.375    21186261.640    88023609.239 6      1389.521          38.625    21186261.740    88023606.242 6      1389.521          39.312
R21  21360168.220   114302583.551 6      1577.543          38.437    21360171.640   114302583.612 6      1577.543          38.812    21360185.360    88902058.339 6      1226.978          41.812    21360182.880    88902058.320 6      1226.978          40.625
R07  20816528.460   111432517.246 7      5536.691          47.750    20816528.760   111432517.272 7      5536.691          47.062    20816549.240    86669828.623 8      4306.315          49.875    20816548.660    86669823.627 8      4306.315          50.312
G21  21383232.900   112369642.845 7      1297.781          46.937    21383231.880   112369642.858 5      1297.781          33.312    21383235.000    87560774.251 5      1011.258          33.187
G02  21424241.320   112585146.416 7      2198.953          46.812    21424238.920   112585146.418 6      2198.953          38.000    21424243.360    87728698.786 6      1713.470          38.125
R22  20904077.460   111587390.796 6      3288.867          41.937    20904076.360   111587390.776 7      3288.867          42.812    20904089.500    86790227.446 7      2558.007          43.312    20904087.940    86790226.448 7      2558.007          42.687
G03  21003860.800   110376038.460 7      4990.291          44.437    21003859.920   110376038.441 5      4990.291          33.750    21003871.200    86007330.592 5      3888.539          33.375    21003871.320    86007348.599 7      3888.539          47.812
G08  20892320.240   109789880.637 8      1450.398          49.187    20892318.780   109789880.637 8      1450.398          48.375    20892328.000    85550587.674 8      1130.180          48.625    20892330.260    85550596.677 8      1130.180          50.750
> 2024 05 08 14 52  2.0000000  0 10
G27  23247636.660   122167137.118 7         9.272          44.937    23247634.720   122167137.128 6         9.272          41.875    23247653.100    95195241.270 6         7.225          41.500    23247654.380    95195243.266 7         7.225          44.937
R06  20805546.420   111022345.281 6      1977.850          38.250    20805543.500   111022345.303 6      1977.850          37.125
R12  21185915.720   113171324.529 7      1785.429          44.875    21185915.820   113171324.517 7      1785.429          44.375    21185927.360    88022220.180 6      1388.667          39.000    21185928.540    88022217.189 6      1388.667          40.062
R21  21359872.600   114301006.162 6      1577.369          37.312    21359876.940   114301006.243 6      1577.369          38.812    21359889.940    88900831.474 6      1226.842          41.500    21359887.700    88900831.455 6      1226.842          40.625
R07  20815496.420   111426980.884 7      5536.071          47.937    20815494.060   111426980.907 7      5536.071          47.250    20815514.520    86665522.578 8      4305.833          49.250    20815516.480    86665517.582 8      4305.833          49.937
G21  21382986.240   112368345.303 7      1297.569          47.250    21382985.100   112368345.318 5      1297.569          33.312    21382988.060    87559763.186 5      1011.093          33.187
G02  21423822.260   112582947.656 7      2198.763          46.062    21423820.660   112582947.661 6      2198.763          37.750    21423825.000    87726985.477 6      1713.322          37.875
R22  20903461.620   111584102.156 7      3288.722          42.312    20903460.560   111584102.133 7      3288.722          42.812    20903473.120    86787669.621 7      2557.895          42.812    20903471.960    86787668.624 7      2557.895          42.875
G03  21002912.440   110371048.565 7      4989.614          45.187    21002910.380   110371048.535 5      4989.614          33.500    21002921.660    86003442.370 5      3888.011          33.375    21002922.560    86003460.386 7      3888.011          47.375
G08  20892044.540   109788430.628 8      1449.764          48.500    20892042.880   109788430.628 8      1449.764          49.000    20892052.160    85549457.795 8      1129.686          49.062    20892054.320    85549466.794 8      1129.686          50.500
> 2024 05 08 14 52  3.0000000  0 10
G27  23247634.540   122167127.996 7         8.792          45.750    23247632.980   122167128.003 7         8.792          42.312    23247651.360    95195234.151 7         6.851          42.250    23247651.940    95195236.139 7         6.851          44.562
R06  20805172.900   111020367.851 6      1976.756          38.250    20805173.480   111020367.863 6      1976.756          37.125
R12  21185580.580   113169539.429 7      1784.433          45.312    21185581.580   113169539.425 7      1784.433          44.687    21185593.160    88020831.771 6      1387.892          39.000    21185593.720    88020828.770 6      1387.892          40.062
R21  21359578.180   114299428.871 6      1577.171          37.312    21359582.440   114299428.953 6      1577.171          38.812    21359595.900    88899604.698 7      1226.689          42.312    21359593.800    88899604.680 6      1226.689          40.875
R07  20814460.420   111421445.097 8      5535.332          48.562    20814460.040   111421445.120 7      5535.332          47.687    20814480.580    86661216.977 8      4305.258          49.187    20814480.540    86661211.979 8      4305.258          49.937
G21  21382739.040   112367047.843 7      1297.185          47.687    21382738.280   112367047.853 5      1297.185          33.250    21382741.180    87558752.176 5      1010.793          33.187
G02  21423404.500   112580748.989 7      2198.443          47.500    21423402.240   112580748.994 6      2198.443          38.125    21423406.560    87725272.228 6      1713.072          37.875
R22  20902845.960   111580813.538 7      3288.222          42.312    20902844.900   111580813.531 7      3288.222          42.937    20902856.920    86785111.818 7      2557.506          43.000    20902855.820    86785110.814 7      2557.506          42.750
G03  21001962.100   110366059.156 7      4988.868          44.875    21001961.260   110366059.137 5      4988.868          33.500    21001971.940    85999554.527 5      3887.430          33.375    21001972.320    85999572.536 7      3887.430          47.250
G08  20891768.460   109786981.021 8      1449.229          48.250    20891767.040   109786981.016 8      1449.229          49.375    20891776.240    85548328.219 8      1129.269          49.062    20891778.440    85548337.218 8      1129.269          50.500
> 2024 05 08 14 52  4.0000000  0 10
G27  23247632.700   122167119.209 7         8.579          44.687    23247631.280   122167119.209 6         8.579          41.812    23247649.760    95195227.282 6         6.685          41.812    23247650.720    95195229.272 7         6.685          44.500
R06  20804802.320   111018391.339 6      1976.256          38.937    20804803.140   111018391.340 6      1976.256          37.125
R12  21185246.660   113167755.162 7      1783.846          45.625    21185247.640   113167755.155 7      1783.846          44.500    21185259.420    88019443.999 6      1387.436          39.000    21185259.720    88019441.000 6      1387.436          40.375
R21  21359283.620   114297851.708 6      1577.179          37.312    21359287.160   114297851.803 6      1577.179          38.812    21359301.200    88898378.031 7      1226.695          42.312    21359299.360    88898378.011 6      1226.695          41.375
R07  20813426.360   111415909.909 7      5534.878          47.937    20813425.880   111415909.940 7      5534.878          47.125    20813446.520    86656911.850 8      4304.905          49.687    20813446.280    86656906.847 8      4304.905          50.625
G21  21382492.260   112365750.498 7      1297.358          47.250    21382491.420   112365750.513 5      1297.358          33.250    21382494.400    87557741.256 5      1010.928          33.187
G02  21422986.220   112578550.513 7      2198.457          46.937    21422983.800   112578550.518 6      2198.457          38.250    21422988.260    87723559.130 6      1713.083          37.750
R22  20902229.600   111577525.056 7      3288.491          43.437    20902228.520   111577525.047 7      3288.491          43.500    20902240.620    86782554.103 7      2557.715          42.687    20902239.700    86782553.099 7      2557.715          42.750
G03  21001012.480   110361070.327 7      4988.462          44.750    21001012.060   110361070.316 5      4988.462          34.187    21001022.620    85995667.139 5      3887.113          33.937    21001022.820    85995685.154 7      3887.113          47.187
G08  20891492.580   109785531.872 8      1448.868          49.250    20891491.360   109785531.871 8      1448.868          49.312    20891500.480    85547199.008 8      1128.988          49.187    20891502.620    85547208.006 8      1128.988          50.375
> 2024 05 08 14 52  5.0000000  0 10
G27  23247631.140   122167110.749 7         8.168          43.875    23247630.080   122167110.748 7         8.168          42.062    23247648.140    95195220.667 6         6.365          41.750    23247649.180    95195222.659 7         6.365          44.750
R06  20804433.060   111016415.876 6      1974.723          38.937    20804432.520   111016415.884 6      1974.723          37.125
R12  21184912.560   113165971.795 7      1782.768          44.687    21184913.660   113165971.786 7      1782.768          44.687    21184925.800    88018056.930 6      1386.597          39.375    21184925.900    88018053.925 6      1386.597          40.750
R21  21358988.520   114296274.755 6      1576.733          37.312    21358991.740   114296274.834 6      1576.733          38.812    21359006.320    88897151.507 6      1226.348          41.750    21359004.680    88897151.487 6      1226.348          41.375
R07  20812392.400   111410375.386 8      5534.038          48.375    20812392.240   111410375.412 7      5534.038          46.687    20812412.720    86652607.239 8      4304.252          50.375    20812412.320    86652602.235 8      4304.252          50.812
G21  21382245.300   112364453.313 7      1297.045          46.875    21382244.540   112364453.326 5      1297.045          33.375    21382247.520    87556730.465 5      1010.685          33.812
G02  21422568.040   112576352.230 7      2198.042          46.437    21422565.540   112576352.234 6      2198.042          37.875    21422570.000    87721846.182 6      1712.760          37.875
R22  20901613.840   111574236.708 7      3288.166          42.687    20901612.400   111574236.709 7      3288.166          43.500    20901624.820    86779996.509 7      2557.462          42.562    20901623.580    86779995.503 7      2557.462          42.687
G03  21000063.100   110356082.087 7      4987.829          44.875    21000062.820   110356082.071 5      4987.829          34.187    21000073.180    85991780.205 5      3886.620          33.937    21000073.820    85991798.214 7      3886.620          47.500
G08  20891216.920   109784083.177 8      1448.294          49.687    20891215.640   109784083.179 8      1448.294          48.812    20891224.840    85546070.158 8      1128.541          48.750    20891226.860    85546079.157 8      1128.541          50.562
> 2024 05 08 14 52  6.0000000  0 10
G27  23247629.720   122167102.724 7         7.803          44.187    23247628.560   122167102.734 6         7.803          41.625    23247646.460    95195214.406 7         6.080          42.187    23247647.620    95195216.402 7         6.080          44.187
R06  20804063.040   111014441.413 6      1973.902          38.937    20804062.140   111014441.411 6      1973.902          38.125
R12  21184578.740   113164189.398 7      1782.023          44.562    21184579.760   113164189.389 7      1782.023          44.250    21184592.580    88016670.609 6      1386.018          39.375    21184592.060    88016667.620 6      1386.018          40.750
R21  21358694.240   114294698.036 6      1576.725          37.312    21358697.300   114294698.102 6      1576.725          38.125    21358712.440    88895925.167 6      1226.342          41.812    21358710.640    88895925.142 6      1226.342          41.437
R07  20811358.620   111404841.601 8      5533.482          48.500    20811357.900   111404841.632 7      5533.482          47.187    20811378.880    86648303.199 8      4303.819          49.812    20811378.700    86648298.194 8      4303.819          50.375
G21  21381998.600   112363156.379 7      1296.894          47.375    21381997.720   112363156.389 5      1296.894          33.312    21382000.720    87555719.862 5      1010.566          33.812
G02  21422149.720   112574154.219 7      2197.883          45.625    21422147.220   112574154.219 6      2197.883          38.000    21422151.660    87720133.444 6      1712.636          37.875
R22  20900997.860   111570948.591 7      3288.023          42.687    20900996.400   111570948.595 7      3288.023          42.562    20901008.340    86777439.089 7      2557.351          43.187    20901007.500    86777438.084 7      2557.351          43.125
G03  20999114.120   110351094.536 7      4987.260          43.812    20999113.880   110351094.517 5      4987.260          33.625    20999123.800    85987893.807 5      3886.177          33.625    20999124.640    85987911.816 7      3886.177          47.125
G08  20890941.440   109782635.052 8      1447.900          49.625    20890940.060   109782635.049 8      1447.900          49.250    20890949.300    85544941.745 8      1128.234          49.062    20890951.320    85544950.742 8      1128.234          50.125
> 2024 05 08 14 52  7.0000000  0 10
G27  23247628.320   122167094.923 7         7.920          45.062    23247627.200   122167094.933 7         7.920          42.000    23247644.980    95195208.308 6         6.172          41.937    23247645.620    95195210.303 7         6.172          44.187
R06  20803693.540   111012467.774 6      1973.580          38.937    20803692.780   111012467.786 6      1973.580          38.125
R12  21184245.240   113162407.805 7      1781.414          44.062    21184246.020   113162407.809 7      1781.414          44.250    21184259.720    88015284.929 6      1385.544          39.812    21184258.520    88015281.940 6      1385.544          41.437
R21  21358399.700   114293121.307 6      1577.218          37.312    21358401.400   114293121.360 6      1577.218          38.125    21358417.960    88894698.807 6      1226.725          41.250    21358415.940    88894698.789 6      1226.725          41.312
R07  20810324.940   111399308.360 8      5533.269          48.750    20810324.600   111399308.385 7      5533.269          46.750    20810345.060    86643999.571 8      4303.653          49.500    20810345.080    86643994.566 8      4303.653          50.125
G21  21381751.760   112361859.467 7      1297.042          47.375    21381750.980   112361859.480 5      1297.042          33.312    21381754.080    87554709.282 5      1010.682          33.437
G02  21421731.480   112571956.269 7      2198.156          46.187    21421729.080   112571956.276 6      2198.156          37.687    21421733.560    87718420.756 6      1712.849          38.062
R22  20900381.580   111567660.496 6      3288.254          41.937    20900380.240   111567660.495 7      3288.254          42.625    20900392.120    86774881.680 7      2557.531          42.937    20900391.480    86774880.680 7      2557.531          42.750
G03  20998164.880   110346107.441 7      4987.167          44.500    20998165.000   110346107.422 5      4987.167          33.625    20998174.880    85984007.763 5      3886.104          33.625    20998175.460    85984025.773 7      3886.104          47.125
G08  20890666.040   109781187.292 8      1447.830          49.875    20890664.680   109781187.294 8      1447.830          49.062    20890673.840    85543813.617 8      1128.180          49.250    20890675.900    85543822.613 8      1128.180          50.062
> 2024 05 08 14 52  8.0000000  0 10
G27  23247626.860   122167087.424 7         7.521          45.937    23247625.740   122167087.434 6         7.521          41.625    23247643.580    95195202.451 6         5.861          41.875    23247644.140    95195204.443 7         5.861          43.750
R06  20803323.500   111010495.112 6      1972.368          39.000    20803323.220   111010495.124 6      1972.368          38.125
R12  21183911.560   113160627.040 7      1780.459          44.812    21183912.760   113160627.049 7      1780.459          44.250    21183926.360    88013899.889 6      1384.802          39.812    21183925.060    88013896.897 6      1384.802          41.125
R21  21358104.960   114291544.667 6      1576.873          37.312    21358106.800   114291544.730 6      1576.873          38.125    21358123.520    88893472.544 6      1226.457          41.250    21358121.200    88893472.527 6      1226.457          41.437
R07  20809291.580   111393775.712 7      5532.476          47.750    20809290.940   111393775.733 7      5532.476          47.375    20809311.460    86639696.409 8      4303.037          49.500    20809311.460    86639691.402 8      4303.037          50.187
G21  21381504.940   112360562.643 7      1296.898          47.125    21381504.240   112360562.658 5      1296.898          33.375    21381507.380    87553698.769 5      1010.570          33.437
G02  21421313.260   112569758.469 7      2197.878          46.500    21421310.780   112569758.471 6      2197.878          37.875    21421315.260    87716708.182 6      1712.632          37.750
R22  20899765.480   111564372.455 6      3288.208          41.937    20899764.000   111564372.461 7      3288.208          42.625    20899776.260    86772324.325 7      2557.495          42.812    20899775.640    86772323.325 7      2557.495          42.687
G03  20997216.160   110341120.925 7      4986.340          45.250    20997216.180   110341120.906 5      4986.340          33.500    20997225.800    85980122.172 5      3885.460          33.250    20997226.200    85980140.190 7      3885.460          47.250
G08  20890390.540   109779739.956 8      1447.283          49.250    20890389.180   109779739.955 8      1447.283          49.375    20890398.380    85542685.820 8      1127.753          48.875    20890400.320    85542694.812 8      1127.753          50.437
> 2024 05 08 14 52  9.0000000  0 10
G27  23247625.260   122167080.112 7         7.449          45.937    23247624.420   122167080.119 7         7.449          42.312    23247642.160    95195196.732 7         5.805          42.500    23247642.760    95195198.727 7         5.805          43.937
R06  20802954.040   111008523.216 6      1971.910          39.000    20802953.080   111008523.228 6      1971.910          38.125
R12  21183578.700   113158847.003 7      1779.840          44.125    21183579.180   113158847.013 7      1779.840          44.187    21183593.620    88012515.415 6      1384.320          39.687    21183592.320    88012512.418 7      1384.320          42.000
R21  21357810.480   114289967.986 6      1577.048          37.312    21357812.700   114289968.062 6      1577.048          38.125    21357828.180    88892246.245 6      1226.593          41.437    21357826.480    88892246.224 6      1226.593          41.437
R07  20808257.680   111388243.501 8      5532.210          48.000    20808257.480   111388243.522 7      5532.210          47.375    20808278.020    86635393.588 8      4302.830          49.875    20808277.740    86635388.582 8      4302.830          50.312
G21  21381258.120   112359265.816 8      1297.074          48.000    21381257.500   112359265.828 5      1297.074          33.375    21381260.560    87552688.250 5      1010.707          33.500
G02  21420895.000   112567560.681 7      2197.962          46.687    21420892.540   112567560.684 6      2197.962          37.750    21420897.000    87714995.622 6      1712.697          37.562
R22  20899149.460   111561084.440 6      3288.196          41.687    20899147.780   111561084.441 7      3288.196          42.250    20899160.060    86769766.986 7      2557.486          42.812    20899159.740    86769765.988 7      2557.486          42.937
G03  20996267.220   110336134.800 7      4986.085          43.937    20996267.420   110336134.781 5      4986.085          33.500    20996276.800    85976236.889 5      3885.261          33.250    20996277.020    85976254.910 7      3885.261          46.562
G08  20890115.240   109778292.950 8      1446.983          49.750    20890113.800   109778292.950 8      1446.983          49.187    20890123.040    85541558.281 8      1127.519          49.125    20890125.140    85541567.278 8      1127.519          50.250
> 2024 05 08 14 52 10.0000000  0 10
G27  23247623.880   122167072.988 7         6.681          45.375    23247623.120   122167072.991 7         6.681          42.437    23247640.700    95195191.161 7         5.206          42.312    23247640.680    95195193.152 7         5.206          43.937
R06  20802584.320   111006552.179 6      1970.336          39.000    20802583.820   111006552.198 6      1970.336          38.125
R12  21183245.620   113157067.688 7      1778.667          44.125    21183246.060   113157067.700 7      1778.667          44.250    21183260.520    88011131.499 6      1383.407          39.687    21183259.520    88011128.508 7      1383.407          42.000
R21  21357515.580   114288391.361 5      1576.317          35.812    21357518.000   114288391.448 6      1576.317          38.125    21357534.080    88891019.989 6      1226.024          41.437    21357532.000    88891019.967 6      1226.024          41.187
R07  20807224.240   111382711.726 8      5531.214          48.062    20807223.720   111382711.749 7      5531.214          47.312    20807244.300    86631091.112 8      4302.055          50.000    20807244.280    86631086.103 8      4302.055          49.750
G21  21381011.480   112357968.989 7      1296.449          47.000    21381010.700   112357969.001 5      1296.449          32.937    21381013.940    87551677.734 5      1010.220          33.500
G02  21420476.720   112565362.926 7      2197.410          47.312    21420474.400   112565362.931 6      2197.410          37.937    21420478.660    87713283.090 6      1712.267          37.937
R22  20898533.180   111557796.361 6      3287.719          41.687    20898531.860   111557796.370 7      3287.719          42.250    20898543.780    86767209.600 7      2557.114          42.937    20898543.580    86767208.606 7      2557.114          42.812
G03  20995318.420   110331149.117 7      4985.123          44.312    20995318.560   110331149.103 5      4985.123          33.312    20995328.000    85972351.949 5      3884.512          33.312    20995328.220    85972369.974 7      3884.512          46.812
G08  20889840.100   109776846.231 8      1446.242          49.437    20889838.480   109776846.228 8      1446.242          49.312    20889847.680    85540430.963 8      1126.942          49.000    20889849.640    85540439.960 8      1126.942          50.187
> 2024 05 08 14 52 11.0000000  0 10
G27  23247622.760   122167066.125 7         6.764          45.500    23247621.840   122167066.130 6         6.764          41.500    23247639.500    95195185.801 6         5.270          41.500    23247639.560    95195187.800 7         5.270          44.062
R06  20802214.760   111004582.057 6      1969.621          39.000    20802214.780   111004582.058 6      1969.621          37.875
R12  21182912.480   113155289.223 7      1778.071          44.125    21182913.680   113155289.243 7      1778.071          44.937    21182927.000    88009748.256 6      1382.944          40.000    21182926.340    88009745.261 6      1382.944          41.937
R21  21357221.600   114286814.862 5      1576.692          35.812    21357223.940   114286814.936 6      1576.692          38.125    21357239.100    88889793.813 6      1226.316          41.062    21357237.640    88889793.799 6      1226.316          41.187
R07  20806191.040   111377180.522 7      5531.022          47.625    20806190.640   111377180.537 7      5531.022          46.375    20806211.040    86626789.074 8      4301.906          50.187    20806211.060    86626784.065 8      4301.906          50.000
G21  21380764.760   112356672.224 7      1296.804          47.375    21380763.860   112356672.237 5      1296.804          32.937    21380767.260    87550667.266 5      1010.497          33.187
G02  21420058.540   112563165.304 7      2197.609          46.812    21420056.280   112563165.309 6      2197.609          38.125    21420060.660    87711570.657 6      1712.422          37.562
R22  20897916.920   111554508.367 6      3287.948          41.375    20897915.940   111554508.373 6      3287.948          41.750    20897927.940    86764652.277 7      2557.293          42.750    20897927.800    86764651.288 7      2557.293          42.750
G03  20994369.880   110326163.956 7      4985.016          44.625    20994369.960   110326163.943 5      4985.016          33.312    20994379.260    85968467.416 5      3884.428          33.312    20994379.540    85968485.446 7      3884.428          46.250
G08  20889564.800   109775399.930 8      1446.183          48.812    20889563.380   109775399.932 8      1446.183          48.437    20889572.440    85539303.977 8      1126.896          48.500    20889574.660    85539312.974 8      1126.896          50.312
> 2024 05 08 14 52 12.0000000  0 10
G27  23247621.440   122167059.449 7         6.609          46.500    23247620.700   122167059.451 6         6.609          41.625    23247638.080    95195180.584 6         5.150          41.687    23247638.560    95195182.579 7         5.150          44.062
R06  20801845.940   111002612.679 6      1969.027          38.562    20801844.920   111002612.680 6      1969.027          37.875
R12  21182579.660   113153511.444 7      1777.450          44.562    21182580.900   113153511.466 7      1777.450          45.562    21182593.940    88008365.537 6      1382.461          40.000    21182593.480    88008362.546 6      1382.461          41.750
R21  21356927.500   114285238.374 5      1576.445          35.812    21356928.700   114285238.442 6      1576.445          37.187    21356944.380    88888567.647 6      1226.124          40.312    21356943.060    88888567.635 6      1226.124          40.250
R07  20805157.800   111371649.783 8      5530.553          48.562    20805157.180   111371649.801 7      5530.553          47.000    20805177.820    86622487.403 8      4301.541          50.062    20805177.780    86622482.392 8      4301.541          50.625
G21  21380517.960   112355375.466 7      1296.749          47.437    21380517.120   112355375.478 5      1296.749          33.500    21380520.540    87549656.803 5      1010.454          33.187
G02  21419640.380   112560967.688 7      2197.628          46.312    21419638.080   112560967.690 6      2197.628          38.125    21419642.340    87709858.231 6      1712.438          38.375
R22  20897301.180   111551220.328 6      3288.092          41.375    20897299.900   111551220.337 6      3288.092          41.750    20897311.720    86762094.918 7      2557.405          42.937    20897311.760    86762093.922 7      2557.405          43.250
G03  20993421.260   110321179.219 7      4984.607          44.375    20993421.400   110321179.205 5      4984.607          33.625    20993430.580    85964583.211 5      3884.109          33.375    20993430.900    85964601.231 7      3884.109          46.312
G08  20889289.620   109773953.946 8      1445.864          49.250    20889288.140   109773953.943 8      1445.864          49.062    20889297.320    85538177.231 8      1126.647          48.812    20889299.520    85538186.227 8      1126.647          50.187
> 2024 05 08 14 52 13.0000000  0 10
G27  23247620.260   122167052.938 7         6.390          45.500    23247619.400   122167052.945 6         6.390          41.812    23247636.760    95195175.497 7         4.979          42.187    23247637.320    95195177.497 7         4.979          43.812
R06  20801477.780   111000644.076 6      1968.311          38.562    20801476.420   111000644.079 6      1968.311          37.875
R12  21182247.060   113151734.391 7      1776.700          44.687    21182248.560   113151734.416 7      1776.700          45.000    21182261.180    88006983.378 6      1381.878          39.937    21182260.720    88006980.392 6      1381.878          41.750
R21  21356632.200   114283661.741 5      1576.917          35.812    21356634.180   114283661.802 6      1576.917          37.187    21356649.280    88887341.363 6      1226.491          40.312    21356648.560    88887341.357 6      1226.491          40.062
R07  20804124.720   111366119.547 7      5530.020          46.750    20804124.220   111366119.567 7      5530.020          47.125    20804144.680    86618186.121 8      4301.127          49.687    20804144.720    86618181.114 8      4301.127          50.250
G21  21380271.160   112354078.660 7      1296.894          46.937    21380270.420   112354078.670 5      1296.894          33.500    21380273.820    87548646.302 5      1010.567          33.625
G02  21419222.220   112558770.097 7      2197.606          46.937    21419219.900   112558770.102 6      2197.606          37.937    21419224.020    87708145.823 6      1712.420          37.750
R22  20896685.460   111547932.286 7      3287.965          42.000    20896684.080   111547932.295 6      3287.965          41.812    20896695.980    86759537.556 7      2557.306          42.937    20896695.600    86759536.567 7      2557.306          42.937
G03  20992472.920   110316194.910 7      4984.171          45.250    20992472.820   110316194.894 5      4984.171          33.625    20992481.920    85960699.340 5      3883.769          33.375    20992482.340    85960717.362 7      3883.769          46.187
G08  20889014.520   109772508.265 8      1445.552          49.312    20889013.100   109772508.267 8      1445.552          48.875    20889022.240    85537050.724 8      1126.405          48.625    20889024.420    85537059.723 8      1126.405          50.500
> 2024 05 08 14 52 14.0000000  0 10
G27  23247618.860   122167046.818 7         6.038          44.875    23247618.280   122167046.826 7         6.038          42.062    23247635.500    95195170.712 7         4.705          42.125    23247636.280    95195172.706 7         4.705          43.500
R06  20801109.220   110998676.515 6      1967.110          38.562    20801107.360   110998676.511 6      1967.110          37.875
R12  21181914.580   113149958.257 7      1775.801          44.937    21181916.300   113149958.285 7      1775.801          45.250    21181928.120    88005601.947 6      1381.179          39.937    21181928.720    88005598.956 6      1381.179          41.687
R21  21356338.440   114282085.331 5      1576.476          35.812    21356339.520   114282085.399 6      1576.476          37.187    21356354.840    88886115.264 6      1226.148          39.875    21356354.260    88886115.258 6      1226.148          40.062
R07  20803091.540   111360590.002 7      5529.272          47.750    20803091.240   111360590.020 7      5529.272          46.562    20803111.580    86613885.374 8      4300.545          49.750    20803111.420    86613880.365 8      4300.545          49.937
G21  21380024.500   112352782.061 7      1296.609          46.937    21380023.600   112352782.074 5      1296.609          33.750    21380027.260    87547635.970 5      1010.344          33.625
G02  21418804.000   112556572.733 7      2197.362          47.250    21418801.720   112556572.741 6      2197.362          37.875    21418806.000    87706433.593 6      1712.230          37.625
R22  20896069.760   111544644.405 7      3287.771          42.000    20896068.200   111544644.408 6      3287.771          41.812    20896079.980    86756980.346 7      2557.155          42.937    20896079.680    86756979.355 7      2557.155          42.750
G03  20991524.540   110311211.236 7      4983.390          44.437    20991524.700   110311211.220 5      4983.390          33.250    20991533.660    85956815.969 5      3883.161          32.937    20991533.960    85956833.992 7      3883.161          46.562
G08  20888739.540   109771063.093 8      1445.012          49.000    20888738.020   109771063.093 8      1445.012          49.000    20888747.200    85535924.612 8      1125.983          48.875    20888749.260    85535933.609 8      1125.983          50.312
> 2024 05 08 14 52 15.0000000  0 10
G27  23247617.920   122167040.914 7         5.561          44.875    23247617.160   122167040.919 6         5.561          41.875    23247634.380    95195166.091 7         4.333          42.062    23247635.160    95195168.091 7         4.333          43.500
R06  20800740.560   110996709.755 6      1966.010          38.562    20800739.180   110996709.758 6      1966.010          37.812
R12  21181582.080   113148182.903 7      1774.800          45.312    21181584.420   113148182.928 7      1774.800          45.250    21181595.100    88004221.108 6      1380.400          40.000    21181596.080    88004218.119 6      1380.400          40.875
R21  21356043.220   114280508.920 5      1576.230          35.812    21356044.120   114280508.991 6      1576.230          37.187    21356060.200    88884889.187 6      1225.957          39.875    21356059.420    88884889.188 6      1225.957          39.812
R07  20802058.540   111355060.960 7      5528.548          47.812    20802058.020   111355060.983 7      5528.548          46.500    20802078.460    86609585.022 8      4299.981          49.250    20802078.440    86609580.012 8      4299.981          49.937
G21  21379777.820   112351485.470 7      1296.388          47.312    21379776.900   112351485.483 5      1296.388          33.750    21379780.560    87546625.639 5      1010.173          33.812
G02  21418385.960   112554375.435 7      2197.070          46.312    21418383.660   112554375.434 6      2197.070          38.000    21418388.100    87704721.410 6      1712.003          38.312
R22  20895453.820   111541356.534 6      3287.580          41.687    20895451.920   111541356.527 6      3287.580          41.562    20895464.160    86754423.109 7      2557.007          42.937    20895463.720    86754422.120 7      2557.007          42.750
G03  20990576.080   110306227.994 7      4982.806          44.750    20990576.440   110306227.983 5      4982.806          33.250    20990585.260    85952932.927 5      3882.706          32.937    20990585.520    85952950.954 7      3882.706          46.125
G08  20888464.460   109769618.271 8      1444.430          49.187    20888462.980   109769618.273 8      1444.430          49.062    20888472.300    85534798.775 8      1125.530          48.812    20888474.240    85534807.769 8      1125.530          50.187
> 2024 05 08 14 52 16.0000000  0 10
G27  23247616.760   122167035.284 7         5.317          46.250    23247616.240   122167035.288 6         5.317          41.812    23247633.220    95195161.689 6         4.143          41.562    23247634.000    95195163.691 7         4.143          43.312
R06  20800372.380   110994743.889 6      1965.292          38.687    20800370.840   110994743.889 6      1965.292          37.812
R12  21181249.580   113146408.390 7      1774.031          45.312    21181252.260   113146408.407 7      1774.031          44.312    21181263.000    88002840.925 6      1379.802          40.000    21181263.600    88002837.934 6      1379.802          40.875
R21  21355748.200   114278932.651 5      1576.233          35.812    21355749.660   114278932.725 6      1576.233          37.187    21355765.760    88883663.188 6      1225.959          39.875    21355765.020    88883663.180 6      1225.959          39.812
R07  20801026.000   111349532.451 7      5528.157          44.687    20801025.300   111349532.476 7      5528.157          46.375    20801045.580    86605285.085 8      4299.678          50.125    20801045.760    86605280.077 8      4299.678          50.000
G21  21379531.060   112350188.969 7      1296.362          47.250    21379530.180   112350188.982 5      1296.362          33.687    21379534.080    87545615.379 5      1010.152          33.812
G02  21417967.680   112552178.239 7      2197.069          46.437    21417965.460   112552178.238 6      2197.069          37.937    21417969.980    87703009.308 6      1712.002          38.000
R22  20894837.940   111538068.709 6      3287.620          41.687    20894836.300   111538068.696 6      3287.620          41.562    20894848.300    86751865.916 7      2557.038          42.562    20894847.780    86751864.924 7      2557.038          42.812
G03  20989628.000   110301245.293 7      4982.361          44.062    20989628.220   110301245.285 5      4982.361          33.250    20989636.920    85949050.313 5      3882.359          32.937    20989637.340    85949068.340 7      3882.359          46.500
G08  20888189.680   109768173.841 8      1444.145          49.125    20888188.160   109768173.843 8      1444.145          49.062    20888197.440    85533673.242 8      1125.308          49.000    20888199.220    85533682.239 8      1125.308          50.312
> 2024 05 08 14 52 17.0000000  0 10
G27  23247615.520   122167029.926 7         5.049          46.000    23247615.200   122167029.931 6         5.049          41.250    23247632.100    95195157.496 6         3.934          41.312    23247632.400    95195159.496 7         3.934          42.875
R06  20800004.080   110992778.921 6      1964.433          38.687    20800002.320   110992778.914 6      1964.433          37.812
R12  21180917.520   113144634.671 7      1773.187          45.625    21180920.140   113144634.685 7      1773.187          44.937    21180930.540    88001461.366 6      1379.146          40.000    21180931.360    88001458.371 6      1379.146          40.500
R21  21355453.100   114277356.471 5      1575.820          35.812    21355455.160   114277356.547 6      1575.820          37.187    21355470.960    88882437.274 6      1225.638          39.500    21355470.420    88882437.270 6      1225.638          39.812
R07  20799993.160   111344004.517 7      5527.611          47.250    20799992.640   111344004.537 7      5527.611          46.375    20800012.800    86600985.587 8      4299.253          48.375    20800012.960    86600980.581 8      4299.253          48.250
G21  21379284.300   112348892.546 7      1296.297          46.937    21379283.460   112348892.562 5      1296.297          33.687    21379287.420    87544605.181 5      1010.102          33.625
G02  21417549.440   112549981.166 7      2196.938          46.812    21417547.500   112549981.171 6      2196.938          37.875    21417552.040    87701297.307 6      1711.899          38.000
R22  20894221.480   111534780.953 6      3287.547          41.937    20894220.620   111534780.948 6      3287.547          41.312    20894232.100    86749308.778 7      2556.981          42.562    20894231.740    86749307.793 7      2556.981          43.000
G03  20988680.020   110296263.122 7      4981.712          44.812    20988680.200   110296263.119 5      4981.712          33.187    20988688.800    85945168.110 5      3881.853          33.312    20988689.440    85945186.140 7      3881.853          45.875
G08  20887914.860   109766729.841 8      1443.734          49.187    20887913.380   109766729.838 8      1443.734          48.375    20887922.580    85532548.040 7      1124.987          47.750    20887924.340    85532557.038 8      1124.987          49.875
> 2024 05 08 14 52 18.0000000  0 10
G27  23247614.700   122167024.781 7         4.905          45.187    23247614.240   122167024.786 6         4.905          41.500    23247631.160    95195153.470 6         3.822          41.812    23247631.440    95195155.477 7         3.822          42.875
R06  20799635.340   110990814.832 6      1963.529          38.687    20799633.500   110990814.833 6      1963.529          37.812
R12  21180585.720   113142861.696 7      1772.431          45.750    21180587.860   113142861.716 7      1772.431          45.062    21180598.540    88000082.392 6      1378.558          40.000    21180599.540    88000079.399 6      1378.558          40.500
R21  21355158.740   114275780.277 5      1575.975          35.812    21355159.880   114275780.364 6      1575.975          37.187    21355175.940    88881211.350 6      1225.758          39.500    21355175.720    88881211.342 6      1225.758          39.250
R07  20798960.900   111338477.113 8      5526.958          48.000    20798960.000   111338477.128 7      5526.958          46.562    20798980.300    86596686.503 8      4298.745          49.312    20798980.400    86596681.497 8      4298.745          49.375
G21  21379037.660   112347596.150 7      1296.313          46.875    21379036.660   112347596.166 5      1296.313          33.437    21379040.700    87543595.000 5      1010.114          33.625
G02  21417131.440   112547784.167 7      2196.876          46.750    21417129.400   112547784.175 6      2196.876          37.812    21417133.920    87699585.364 6      1711.851          37.562
R22  20893605.740   111531493.223 6      3287.674          41.937    20893604.300   111531493.211 6      3287.674          41.312    20893616.340    86746751.658 7      2557.079          42.500    20893615.920    86746750.658 7      2557.079          42.375
G03  20987732.120   110291281.399 7      4981.409          44.562    20987732.240   110291281.398 5      4981.409          33.187    20987740.840    85941286.258 5      3881.617          33.312    20987741.100    85941304.286 7      3881.617          46.000
G08  20887640.200   109765286.183 8      1443.393          49.875    20887638.580   109765286.185 8      1443.393          48.812    20887647.900    85531423.111 8      1124.722          48.500    20887649.780    85531432.108 8      1124.722          50.187
> 2024 05 08 14 52 19.0000000  0 10
G27  23247613.600   122167019.997 7         4.555          45.562    23247613.400   122167020.007 6         4.555          41.687    23247630.320    95195149.728 6         3.549          41.750    23247630.320    95195151.732 7         3.549          42.937
R06  20799267.020   110988851.722 6      1962.496          38.687    20799265.360   110988851.717 6      1962.496          37.812
R12  21180253.880   113141089.628 7      1771.635          45.687    21180255.840   113141089.642 7      1771.635          44.812    21180266.660    87998704.116 6      1377.938          39.875    21180267.600    87998701.117 6      1377.938          40.062
R21  21354865.240   114274204.206 5      1576.197          35.812    21354866.240   114274204.277 6      1576.197          37.187    21354881.920    88879985.509 6      1225.931          39.500    21354881.440    88879985.505 6      1225.931          39.250
R07  20797928.580   111332950.338 7      5526.363          47.312    20797927.740   111332950.350 7      5526.363          46.562    20797947.820    86592387.911 8      4298.282          49.812    20797947.840    86592382.901 8      4298.282          49.375
G21  21378791.200   112346299.912 7      1296.147          47.062    21378790.000   112346299.927 5      1296.147          33.437    21378794.080    87542584.944 5      1009.985          33.437
G02  21416713.500   112545587.363 7      2196.728          46.875    21416711.320   112545587.370 6      2196.728          38.125    21416715.940    87697873.564 6      1711.736          38.437
R22  20892989.440   111528205.630 6      3287.418          41.812    20892988.580   111528205.628 6      3287.418          40.937    20893000.200    86744194.655 7      2556.880          42.625    20893000.300    86744193.666 7      2556.880          43.312
G03  20986784.000   110286300.298 7      4980.770          44.000    20986784.300   110286300.297 5      4980.770          33.187    20986792.780    85937404.887 5      3881.120          33.125    20986793.460    85937422.916 7      3881.120          46.375
G08  20887365.680   109763843.003 8      1443.000          49.562    20887363.860   109763843.003 8      1443.000          49.062    20887373.260    85530298.551 8      1124.416          48.687    20887375.240    85530307.550 8      1124.416          50.750
> 2024 05 08 14 52 20.0000000  0 10
G27  23247613.000   122167015.483 7         4.513          45.937    23247612.400   122167015.490 6         4.513          41.062    23247629.360    95195146.192 6         3.516          41.437    23247629.860    95195148.192 7         3.516          42.812
R06  20798898.620   110986889.481 6      1961.920          38.562    20798898.040   110986889.469 6      1961.920          37.687
R12  21179922.060   113139318.405 7      1770.903          45.500    21179924.260   113139318.415 7      1770.903          44.562    21179934.680    87997326.499 6      1377.369          39.875    21179935.980    87997323.496 6      1377.369          40.000
R21  21354570.400   114272628.288 5      1575.911          34.812    21354572.240   114272628.335 6      1575.911          36.125    21354587.400    88878759.774 6      1225.709          38.000    21354587.040    88878759.763 6      1225.709          38.375
R07  20796896.120   111327424.119 8      5526.062          48.125    20796895.020   111327424.142 7      5526.062          46.687    20796915.480    86588089.756 8      4298.048          49.625    20796915.320    86588084.752 8      4298.048          49.937
G21  21378544.480   112345003.744 7      1296.223          47.562    21378543.180   112345003.762 5      1296.223          33.750    21378547.620    87541574.942 5      1010.044          33.437
G02  21416295.460   112543390.671 7      2196.753          47.125    21416293.460   112543390.676 6      2196.753          37.875    21416297.860    87696161.857 6      1711.755          38.187
R22  20892373.180   111524918.093 6      3287.621          41.812    20892372.840   111524918.080 6      3287.621          40.937    20892384.440    86741637.680 7      2557.039          42.625    20892384.360    86741636.688 7      2557.039          42.937
G03  20985836.280   110281319.699 7      4980.420          44.062    20985836.320   110281319.698 5      4980.420          33.187    20985844.940    85933523.906 5      3880.847          33.125    20985846.080    85933541.940 7      3880.847          46.687
G08  20887090.980   109762400.238 8      1442.693          49.250    20887089.340   109762400.240 8      1442.693          48.875    20887098.760    85529174.319 8      1124.176          48.812    20887100.620    85529183.318 8      1124.176          50.375
> 2024 05 08 14 52 21.0000000  0 10
G27  23247612.420   122167011.105 7         4.162          44.812    23247611.740   122167011.113 6         4.162          41.687    23247628.680    95195142.767 6         3.243          41.812    23247628.680    95195144.771 7         3.243          42.812
R06  20798531.240   110984928.042 6      1960.785          38.562    20798530.120   110984928.021 6      1960.785          37.687
R12  21179590.620   113137547.854 7      1770.075          45.375    21179592.400   113137547.860 7      1770.075          44.437    21179602.800    87995949.397 6      1376.725          39.687    21179603.840    87995946.392 6      1376.725          40.000
R21  21354275.780   114271052.249 5      1575.878          34.812    21354276.580   114271052.328 6      1575.878          36.125    21354291.800    88877533.993 6      1225.683          38.000    21354292.260    88877533.989 6      1225.683          38.375
R07  20795863.760   111321898.375 8      5525.375          48.000    20795862.740   111321898.393 7      5525.375          46.625    20795883.240    86583791.963 8      4297.514          49.812    20795882.940    86583786.959 8      4297.514          49.375
G21  21378297.560   112343707.521 7      1296.105          46.625    21378296.420   112343707.537 5      1296.105          33.750    21378301.060    87540564.898 5      1009.952          33.687
G02  21415877.520   112541193.953 7      2196.660          47.187    21415875.400   112541193.956 6      2196.660          38.375    21415879.920    87694450.126 6      1711.684          38.000
R22  20891757.260   111521630.489 6      3287.439          40.937    20891756.840   111521630.495 6      3287.439          40.937    20891768.520    86739080.667 7      2556.897          43.000    20891768.580    86739079.671 7      2556.897          43.375
G03  20984888.720   110276339.491 7      4979.853          43.812    20984888.480   110276339.496 5      4979.853          32.687    20984897.160    85929643.235 5      3880.405          33.125    20984898.120    85929661.271 7      3880.405          46.875
G08  20886816.560   109760957.739 8      1442.233          49.187    20886814.680   109760957.741 8      1442.233          48.812    20886824.220    85528050.292 8      1123.818          48.812    20886826.260    85528059.290 8      1123.818          50.812
> 2024 05 08 14 52 22.0000000  0 10
G27  23247611.540   122167007.156 7         3.827          45.000    23247610.980   122167007.164 6         3.827          41.437    23247627.800    95195139.669 6         2.982          41.562    23247628.240    95195141.673 7         2.982          42.750
R06  20798163.620   110982967.591 6      1959.854          38.562    20798162.500   110982967.579 6      1959.854          37.687
R12  21179259.200   113135778.274 7      1769.211          45.062    21179260.700   113135778.267 7      1769.211          44.437    21179271.360    87994573.043 6      1376.053          39.687    21179272.540    87994570.048 6      1376.053          40.000
R21  21353979.960   114269476.475 5      1576.281          34.812    21353981.560   114269476.509 6      1576.281          36.125    21353997.900    88876308.362 6      1225.996          38.000    21353998.080    88876308.360 6      1225.996          38.375
R07  20794831.440   111316373.329 7      5524.791          47.937    20794830.900   111316373.355 7      5524.791          46.312    20794851.000    86579494.720 8      4297.059          49.812    20794850.600    86579489.715 8      4297.059          50.062
G21  21378051.060   112342411.540 7      1295.886          46.625    21378049.820   112342411.556 5      1295.886          33.250    21378054.620    87539555.040 5      1009.782          33.687
G02  21415459.320   112538997.511 7      2196.466          47.500    21415457.480   112538997.516 6      2196.466          38.375    21415462.040    87692738.615 6      1711.532          38.250
R22  20891141.840   111518343.104 6      3287.411          40.937    20891141.020   111518343.102 6      3287.411          41.062    20891152.660    86736523.806 7      2556.876          43.000    20891152.840    86736522.808 7      2556.876          43.187
G03  20983941.180   110271359.967 7      4979.167          43.312    20983940.880   110271359.974 5      4979.167          32.687    20983949.580    85925763.093 5      3879.871          32.625    20983950.260    85925781.126 7      3879.871          46.562
G08  20886542.000   109759515.804 8      1441.745          48.312    20886540.240   109759515.807 8      1441.745          48.812    20886549.800    85526926.702 8      1123.438          48.750    20886551.800    85526935.699 8      1123.438          50.312
> 2024 05 08 14 52 23.0000000  0 10
G27  23247610.680   122167003.488 7         3.584          45.312    23247610.280   122167003.495 6         3.584          41.312    23247627.180    95195136.794 6         2.793          41.375    23247627.620    95195138.799 7         2.793          42.750
R06  20797796.400   110981008.038 6      1959.268          38.562    20797795.400   110981008.036 6      1959.268          37.687
R12  21178928.020   113134009.536 7      1768.342          45.312    21178929.320   113134009.526 7      1768.342          44.125    21178940.580    87993197.359 6      1375.377          39.687    21178941.220    87993194.363 6      1375.377          39.687
R21  21353684.740   114267900.860 5      1575.555          34.812    21353687.200   114267900.888 6      1575.555          36.125    21353702.820    88875082.879 6      1225.432          38.000    21353703.500    88875082.871 6      1225.432          37.625
R07  20793799.680   111310848.837 8      5524.351          48.000    20793798.960   111310848.860 7      5524.351          46.500    20793818.960    86575197.901 8      4296.718          49.500    20793818.920    86575192.901 8      4296.718          50.250
G21  21377804.360   112341115.625 7      1295.931          46.187    21377803.260   112341115.640 5      1295.931          33.250    21377808.060    87538545.236 5      1009.816          33.750
G02  21415041.400   112536801.209 7      2196.296          46.500    21415039.560   112536801.214 6      2196.296          38.500    21415044.140    87691027.211 6      1711.399          38.312
R22  20890525.760   111515055.828 6      3287.201          40.937    20890525.240   111515055.821 6      3287.201          41.062    20890536.860    86733967.040 7      2556.712          42.937    20890537.140    86733966.034 7      2556.712          43.562
G03  20982993.100   110266380.947 7      4978.893          43.937    20982993.340   110266380.949 5      4978.893          32.687    20983002.060    85921883.345 5      3879.657          32.625    20983002.960    85921901.377 7      3879.657          46.062
G08  20886267.700   109758074.280 8      1441.388          48.937    20886265.860   109758074.282 8      1441.388          49.000    20886275.540    85525803.432 8      1123.160          48.875    20886277.580    85525812.435 8      1123.160          50.250
> 2024 05 08 14 52 24.0000000  0 10
G27  23247609.860   122167000.146 7         3.050          45.187    23247609.820   122167000.156 6         3.050          41.250    23247626.540    95195134.176 6         2.377          41.375    23247627.180    95195136.174 7         2.377          42.687
R06  20797430.240   110979049.527 6      1957.905          38.187    20797428.180   110979049.518 6      1957.905          37.687
R12  21178596.840   113132241.652 7      1767.368          44.687    21178597.780   113132241.643 7      1767.368          43.937    21178609.260    87991822.329 6      1374.620          39.687    21178610.140    87991819.340 6      1374.620          39.687
R21  21353392.000   114266325.348 5      1575.168          34.812    21353391.560   114266325.341 6      1575.168          36.125    21353407.720    88873857.445 6      1225.131          36.187    21353408.620    88873857.437 6      1225.131          37.625
R07  20792767.600   111305324.958 8      5523.460          48.250    20792767.000   111305324.986 7      5523.460          46.937    20792787.100    86570901.569 8      4296.025          49.750    20792787.120    86570896.567 8      4296.025          49.812
G21  21377557.960   112339819.843 7      1295.604          46.812    21377556.580   112339819.861 5      1295.604          33.625    21377561.500    87537535.536 5      1009.562          33.750
G02  21414623.340   112534605.056 7      2195.923          47.312    21414621.700   112534605.061 6      2195.923          38.375    21414626.220    87689315.923 6      1711.109          38.562
R22  20889909.720   111511768.622 6      3287.019          40.500    20889910.020   111511768.612 6      3287.019          40.812    20889921.060    86731410.322 7      2556.570          43.562    20889920.980    86731409.314 7      2556.570          43.562
G03  20982046.000   110261402.518 7      4978.043          44.250    20982045.980   110261402.515 5      4978.043          32.625    20982054.740    85918004.052 5      3878.994          32.250    20982055.420    85918022.084 7      3878.994          46.312
G08  20885993.580   109756633.197 8      1440.768          49.625    20885991.760   109756633.196 8      1440.768          48.750    20886001.260    85524680.508 8      1122.676          48.750    20886003.360    85524689.509 8      1122.676          50.250
> 2024 05 08 14 52 25.0000000  0  9
G27  23247609.320   122166997.001 7         2.835          44.937    23247609.120   122166997.003 6         2.835          41.687    23247626.180    95195131.704 6         2.209          41.812    23247626.140    95195133.707 7         2.209          42.750
R06  20797064.100   110977091.767 6      1957.125          38.187    20797061.260   110977091.760 6      1957.125          37.437
R12  21178266.080   113130474.511 7      1766.541          44.875    21178266.820   113130474.507 7      1766.541          43.562    21178278.500    87990447.900 6      1373.977          39.875    21178279.780    87990444.899 6      1373.977          39.750
R07  20791735.920   111299801.593 8      5522.839          48.250    20791735.160   111299801.621 7      5522.839          46.562    20791755.140    86566605.629 8      4295.541          49.625    20791755.140    86566600.629 8      4295.541          49.500
G21  21377311.540   112338524.083 7      1295.479          47.250    21377309.800   112338524.098 5      1295.479          33.750    21377315.040    87536525.853 5      1009.464          33.875
G02  21414205.680   112532408.963 7      2195.811          47.000    21414203.860   112532408.966 6      2195.811          38.437    21414208.420    87687604.678 6      1711.021          38.062
R22  20889294.640   111508481.432 6      3286.938          40.500    20889294.180   111508481.430 6      3286.938          40.812    20889305.100    86728853.629 7      2556.508          43.250    20889305.160    86728852.621 7      2556.508          43.375
G03  20981098.180   110256424.530 7      4977.460          43.875    20981098.540   110256424.533 5      4977.460          32.625    20981107.440    85914125.111 5      3878.540          32.250    20981107.920    85914143.145 7      3878.540          46.250
G08  20885719.440   109755192.468 8      1440.303          49.812    20885717.500   109755192.468 8      1440.303          48.812    20885727.060    85523557.859 8      1122.314          48.750    20885728.980    85523566.859 8      1122.314          50.187
> 2024 05 08 14 52 26.0000000  0  9
G27  23247608.820   122166994.255 7         2.575          44.812    23247608.540   122166994.262 6         2.575          41.625    23247625.600    95195129.550 6         2.006          41.750    23247626.500    95195131.549 7         2.006          42.750
R06  20796697.160   110975135.036 6      1956.458          38.187    20796694.580   110975135.013 6      1956.458          37.437
R12  21177935.620   113128708.289 7      1765.835          44.875    21177935.780   113128708.274 7      1765.835          43.562    21177948.480    87989074.147 6      1373.427          39.875    21177949.260    87989071.154 6      1373.427          40.250
R07  20790704.100   111294278.919 8      5522.366          48.375    20790703.560   111294278.952 7      5522.366          46.375    20790723.520    86562310.228 8      4295.174          50.250    20790723.480    86562305.230 8      4295.174          49.625
G21  21377064.840   112337228.512 7      1295.502          47.500    21377063.360   112337228.525 5      1295.502          33.750    21377068.500    87535516.317 5      1009.482          33.875
G02  21413787.860   112530213.094 7      2195.756          46.437    21413785.920   112530213.099 6      2195.756          38.625    21413790.540    87685893.615 6      1710.979          38.187
R22  20888678.080   111505194.391 6      3287.035          40.500    20888678.600   111505194.405 6      3287.035          40.812    20888689.580    86726297.054 7      2556.583          43.375    20888689.480    86726296.046 7      2556.583          43.562
G03  20980151.480   110251447.171 7      4977.250          42.875    20980151.180   110251447.176 5      4977.250          32.562    20980160.260    85910246.657 5      3878.377          32.250    20980161.140    85910264.689 7      3878.377          46.625
G08  20885445.140   109753752.265 8      1439.952          48.875    20885443.380   109753752.257 8      1439.952          48.937    20885452.920    85522435.617 8      1122.040          48.687    20885455.320    85522444.621 8      1122.040          50.375
> 2024 05 08 14 52 27.0000000  0  9
G27  23247608.380   122166991.775 7         2.237          45.750    23247608.140   122166991.779 6         2.237          40.687    23247625.180    95195127.599 6         1.743          41.000    23247625.480    95195129.590 7         1.743          42.625
R06  20796330.000   110973179.212 6      1955.067          38.187    20796328.580   110973179.219 6      1955.067          37.437
R12  21177605.740   113126942.908 7      1764.839          43.875    21177605.140   113126942.877 7      1764.839          43.312    21177617.840    87987701.064 6      1372.653          40.062    21177618.700    87987698.063 6      1372.653          40.250
R07  20789672.460   111288756.846 8      5521.639          48.312    20789672.420   111288756.875 7      5521.639          46.437    20789691.780    86558015.289 8      4294.608          48.687    20789691.860    86558010.283 8      4294.608          48.812
G21  21376818.260   112335933.009 7      1295.342          46.250    21376816.840   112335933.022 5      1295.342          34.125    21376822.080    87534506.832 5      1009.358          34.187
G02  21413369.740   112528017.341 7      2195.597          46.937    21413368.020   112528017.346 6      2195.597          38.062    21413372.720    87684182.636 6      1710.854          37.625
R22  20888062.440   111501907.484 6      3286.742          40.562    20888063.280   111501907.492 6      3286.742          40.875    20888074.060    86723740.566 7      2556.355          43.812    20888073.940    86723739.556 7      2556.355          43.625
G03  20979204.240   110246470.366 7      4976.405          42.375    20979204.000   110246470.368 5      4976.405          32.562    20979213.240    85906368.638 5      3877.718          32.500    20979214.240    85906386.665 7      3877.718          46.437
G08  20885171.340   109752312.449 8      1439.443          49.062    20885169.560   109752312.451 8      1439.443          48.625    20885178.960    85521313.686 8      1121.644          48.250    20885181.420    85521322.688 8      1121.644          49.250
> 2024 05 08 14 52 28.0000000  0  9
G27  23247607.660   122166989.404 7         2.160          45.250    23247607.740   122166989.412 6         2.160          41.187    23247624.780    95195125.734 6         1.683          40.750    23247625.200    95195127.735 7         1.683          42.625
R06  20795963.280   110971224.053 6      1954.689          38.187    20795961.940   110971224.051 6      1954.689          37.437
R12  21177275.280   113125178.193 7      1764.198          43.312    21177274.840   113125178.162 7      1764.198          43.312    21177287.940    87986328.499 6      1372.154          40.062    21177288.660    87986325.492 6      1372.154          40.500
R07  20788640.760   111283235.149 8      5521.374          48.062    20788640.660   111283235.172 7      5521.374          45.625    20788660.500    86553720.646 8      4294.402          49.187    20788660.160    86553715.646 8      4294.402          49.375
G21  21376571.800   112334637.425 7      1295.457          46.625    21376570.240   112334637.437 5      1295.457          34.125    21376575.520    87533497.284 5      1009.447          34.187
G02  21412952.020   112525821.535 7      2195.754          46.625    21412950.340   112525821.534 6      2195.754          38.375    21412954.820    87682471.618 6      1710.977          38.375
R22  20887446.740   111498620.435 6      3286.968          40.562    20887447.240   111498620.433 6      3286.968          40.875    20887458.760    86721183.969 7      2556.531          43.312    20887458.440    86721182.957 7      2556.531          44.250
G03  20978257.100   110241493.876 7      4976.135          42.812    20978256.800   110241493.881 5      4976.135          32.562    20978266.260    85902490.862 5      3877.508          32.500    20978266.960    85902508.893 7      3877.508          46.437
G08  20884897.360   109750872.871 8      1439.311          48.562    20884895.500   109750872.871 8      1439.311          48.875    20884904.940    85520191.931 8      1121.541          48.562    20884907.120    85520200.933 8      1121.541          49.937
> 2024 05 08 14 52 29.0000000  0  9
G27  23247607.360   122166987.371 7         1.909          45.187    23247607.300   122166987.381 6         1.909          41.187    23247624.260    95195124.137 6         1.487          41.375    23247624.780    95195126.132 7         1.487          42.750
R06  20795597.480   110969269.913 6      1953.821          37.812    20795595.620   110969269.898 6      1953.821          37.437
R12  21176944.800   113123414.355 7      1763.411          43.312    21176944.380   113123414.330 7      1763.411          43.312    21176957.920    87984956.628 6      1371.542          40.437    21176958.320    87984953.627 6      1371.542          40.500
R07  20787609.480   111277714.096 7      5520.797          47.812    20787609.280   111277714.122 7      5520.797          46.187    20787629.220    86549426.506 8      4293.953          49.750    20787628.720    86549421.504 8      4293.953          49.500
G21  21376325.140   112333341.987 7      1295.408          46.125    21376323.780   112333341.998 5      1295.408          33.562    21376329.060    87532487.854 5      1009.409          33.625
G02  21412534.320   112523625.934 7      2195.519          46.500    21412532.520   112523625.939 6      2195.519          39.125    21412536.960    87680760.762 6      1710.794          38.750
R22  20886831.600   111495333.544 6      3286.834          40.500    20886831.780   111495333.539 6      3286.834          40.625    20886843.320    86718627.496 7      2556.426          43.875    20886842.600    86718626.483 7      2556.426          44.187
G03  20977310.060   110236518.015 7      4975.506          43.187    20977309.920   110236518.019 5      4975.506          31.937    20977319.360    85898613.577 5      3877.017          31.875    20977320.440    85898631.605 7      3877.017          46.562
G08  20884623.520   109749433.777 8      1438.942          48.875    20884621.780   109749433.774 8      1438.942          48.062    20884631.120    85519070.555 8      1121.254          48.062    20884633.260    85519079.557 8      1121.254          50.187
> 2024 05 08 14 52 30.0000000  0  9
G27  23247607.420   122166985.784 7         1.430          45.250    23247607.180   122166985.791 6         1.430          40.937    23247623.940    95195122.882 6         1.114          40.937    23247624.720    95195124.883 7         1.114          42.687
R06  20795232.060   110967316.835 6      1952.745          37.812    20795229.780   110967316.796 6      1952.745          37.125
R12  21176614.860   113121651.480 7      1762.360          43.750    21176614.580   113121651.460 7      1762.360          42.750    21176628.120    87983585.501 6      1370.724          40.437    21176628.740    87983582.495 6      1370.724          40.687
R07  20786578.580   111272193.766 7      5519.996          47.437    20786577.840   111272193.787 7      5519.996          46.062    20786598.000    86545132.929 8      4293.330          49.687    20786597.700    86545127.929 8      4293.330          49.687
G21  21376078.760   112332046.808 7      1295.041          47.000    21376077.240   112332046.820 5      1295.041          33.562    21376082.520    87531478.625 5      1009.123          33.625
G02  21412116.600   112521430.619 7      2195.152          46.437    21412114.760   112521430.624 6      2195.152          38.562    21412119.400    87679050.127 6      1710.508          38.500
R22  20886215.820   111492046.839 6      3286.798          40.500    20886215.600   111492046.848 6      3286.798          40.625    20886227.500    86716071.180 7      2556.398          44.312    20886226.880    86716070.174 7      2556.398          44.437
G03  20976362.960   110231542.820 7      4974.895          42.375    20976362.860   110231542.823 5      4974.895          31.937    20976372.500    85894736.804 5      3876.541          31.875    20976373.800    85894754.834 7      3876.541          46.750
G08  20884349.760   109747995.266 8      1438.222          49.625    20884348.060   109747995.266 8      1438.222          49.062    20884357.440    85517949.637 8      1120.692          48.562    20884359.640    85517958.644 8      1120.692          50.062
> 2024 05 08 14 52 31.0000000  0  9
G27  23247607.180   122166984.541 7         1.254          45.250    23247606.860   122166984.551 6         1.254          41.062    23247623.720    95195121.899 6          .977          41.250    23247624.140    95195123.896 7          .977          42.687
R06  20794865.740   110965364.696 6      1951.854          37.812    20794863.860   110965364.675 6      1951.854          37.125
R12  21176285.380   113119889.478 7      1761.726          43.875    21176284.560   113119889.455 7      1761.726          43.187    21176298.380    87982215.050 6      1370.231          40.375    21176298.740    87982212.041 6      1370.231          40.937
R07  20785547.440   111266674.049 7      5519.646          47.125    20785546.940   111266674.075 7      5519.646          46.625    20785567.000    86540839.828 8      4293.058          49.812    20785566.680    86540834.830 8      4293.058          49.687
G21  21375832.320   112330751.752 7      1295.168          47.187    21375830.860   112330751.764 5      1295.168          33.875    21375836.240    87530469.491 5      1009.222          34.062
G02  21411698.860   112519235.467 7      2195.163          47.625    21411697.080   112519235.477 6      2195.163          38.500    21411701.760    87677339.624 6      1710.517          38.562
R22  20885600.000   111488760.297 6      3286.869          40.500    20885600.260   111488760.304 6      3286.869          40.625    20885611.920    86713514.979 7      2556.454          43.937    20885611.400    86713513.975 7      2556.454          44.562
G03  20975416.540   110226568.199 7      4974.602          42.000    20975416.080   110226568.198 5      4974.602          31.937    20975426.000    85890860.482 5      3876.314          31.875    20975427.140    85890878.512 7      3876.314          47.250
G08  20884076.080   109746557.197 8      1438.064          49.437    20884074.440   109746557.194 8      1438.064          48.437    20884083.720    85516829.059 8      1120.569          48.687    20884085.880    85516838.062 8      1120.569          50.125
> 2024 05 08 14 52 32.0000000  0  9
G27  23247606.920   122166983.529 7          .583          44.937    23247606.660   122166983.539 6          .583          41.375    23247623.560    95195121.097 6          .454          41.250    23247623.540    95195123.087 7          .454          42.875
R06  20794500.120   110963413.437 6      1950.446          37.812    20794498.560   110963413.422 6      1950.446          37.125
R12  21175955.840   113118128.312 7      1760.457          44.312    21175954.880   113118128.289 7      1760.457          43.187    21175968.680    87980845.252 6      1369.245          40.875    21175969.160    87980842.241 6      1369.245          40.937
R07  20784516.300   111261154.927 7      5518.597          47.375    20784515.180   111261154.952 7      5518.597          45.625    20784536.100    86536547.192 8      4292.242          49.437    20784535.600    86536542.194 8      4292.242          49.875
G21  21375585.720   112329456.740 7      1294.811          47.500    21375584.360   112329456.753 5      1294.811          33.875    21375589.900    87529460.389 5      1008.943          34.062
G02  21411281.080   112517040.418 7      2194.767          47.937    21411279.480   112517040.420 6      2194.767          38.250    21411284.000    87675629.189 6      1710.208          38.312
R22  20884984.160   111485473.798 6      3286.397          39.687    20884984.060   111485473.805 6      3286.397          40.500    20884996.260    86710958.813 7      2556.087          44.125    20884996.160    86710957.807 7      2556.087          44.875
G03  20974469.780   110221594.095 7      4973.685          42.812    20974469.500   110221594.089 5      4973.685          31.625    20974479.440    85886984.563 5      3875.599          31.375    20974480.480    85887002.593 7      3875.599          47.625
G08  20883802.580   109745119.517 8      1437.303          48.937    20883800.780   109745119.514 8      1437.303          48.312    20883810.220    85515708.785 8      1119.976          48.187    20883812.160    85515717.788 8      1119.976          49.812
> 2024 05 08 14 52 33.0000000  0  9
G27  23247606.640   122166982.636 7          .761          44.625    23247606.500   122166982.649 6          .761          40.812    23247623.300    95195120.386 6          .593          40.687    23247623.380    95195122.377 7          .593          42.875
R06  20794134.480   110961462.910 6      1950.077          37.812    20794132.360   110961462.889 6      1950.077          37.125
R12  21175626.080   113116367.819 7      1760.071          44.312    21175625.060   113116367.796 7      1760.071          43.062    21175639.840    87979475.980 6      1368.944          40.875    21175639.480    87979472.969 6      1368.944          41.312
R07  20783485.500   111255636.219 7      5518.433          46.750    20783484.620   111255636.239 7      5518.433          45.250    20783505.200    86532254.874 8      4292.114          49.125    20783504.880    86532249.876 8      4292.114          49.750
G21  21375339.380   112328161.679 7      1295.079          47.375    21375337.840   112328161.691 5      1295.079          33.687    21375343.400    87528451.250 5      1009.152          33.750
G02  21410863.200   112514845.319 7      2195.104          47.375    21410861.640   112514845.321 6      2195.104          38.375    21410866.240    87673918.725 6      1710.471          38.437
R22  20884368.260   111482187.214 6      3286.780          39.687    20884368.220   111482187.204 6      3286.780          40.500    20884380.880    86708402.569 7      2556.384          44.750    20884380.480    86708401.567 7      2556.384          45.062
G03  20973523.440   110216620.359 6      4973.364          41.875    20973522.820   110216620.364 5      4973.364          31.625    20973532.960    85883108.937 5      3875.348          31.375    20973534.140    85883126.973 7      3875.348          47.312
G08  20883528.940   109743682.091 8      1437.276          49.062    20883527.320   109743682.091 8      1437.276          48.562    20883536.520    85514588.715 8      1119.955          48.250    20883538.860    85514597.716 8      1119.955          50.125
> 2024 05 08 14 52 34.0000000  0  9
G27  23247606.700   122166982.071 7          .478          44.250    23247606.380   122166982.076 6          .478          40.687    23247623.240    95195119.924 6          .373          41.000    23247623.000    95195121.906 7          .373          42.625
R06  20793769.540   110959513.308 6      1949.256          37.750    20793767.120   110959513.299 6      1949.256          37.125
R12  21175296.680   113114608.164 7      1759.316          43.312    21175295.380   113114608.144 7      1759.316          42.750    21175310.360    87978107.362 6      1368.357          40.937    21175310.280    87978104.359 6      1368.357          41.687
R07  20782454.440   111250118.097 7      5517.902          46.000    20782453.660   111250118.120 7      5517.902          45.687    20782474.300    86527963.016 8      4291.702          49.750    20782474.020    86527958.018 8      4291.702          49.937
G21  21375093.020   112326866.727 7      1294.937          46.625    21375091.420   112326866.743 5      1294.937          34.062    21375097.120    87527442.199 5      1009.042          33.750
G02  21410445.740   112512650.395 7      2194.830          46.937    21410443.980   112512650.400 6      2194.830          38.687    21410448.700    87672208.395 6      1710.257          38.375
R22  20883752.280   111478900.769 6      3286.320          39.687    20883752.820   111478900.761 6      3286.320          40.500    20883765.220    86705846.450 7      2556.027          45.000    20883764.900    86705845.455 7      2556.027          45.500
G03  20972576.920   110211647.175 6      4972.943          41.875    20972576.660   110211647.174 5      4972.943          31.625    20972586.840    85879233.736 5      3875.021          31.375    20972587.980    85879251.764 7      3875.021          47.687
G08  20883255.600   109742245.120 8      1436.838          48.937    20883253.840   109742245.114 8      1436.838          49.000    20883263.160    85513468.991 8      1119.614          48.625    20883265.480    85513477.994 8      1119.614          49.687
> 2024 05 08 14 52 35.0000000  0  9
G27  23247606.720   122166981.853 7          .070          45.562    23247606.280   122166981.863 6          .070          41.250    23247623.240    95195119.739 6          .054          41.062    23247623.280    95195121.728 7          .054          42.562
R06  20793404.320   110957564.745 6      1948.138          37.750    20793402.100   110957564.737 6      1948.138          37.187
R12  21174967.440   113112849.412 7      1758.278          43.187    21174966.000   113112849.387 7      1758.278          42.750    21174981.320    87976739.438 6      1367.549          41.437    21174981.420    87976736.430 6      1367.549          41.687
R07  20781423.580   111244600.628 7      5517.161          46.687    20781422.820   111244600.649 7      5517.161          45.750    20781443.900    86523671.662 8      4291.125          49.812    20781443.100    86523666.664 8      4291.125          50.312
G21  21374846.680   112325571.942 7      1294.724          46.687    21374845.080   112325571.955 5      1294.724          34.062    21374850.760    87526433.278 5      1008.876          33.875
G02  21410027.940   112510455.669 7      2194.606          47.062    21410026.400   112510455.677 6      2194.606          38.500    21410031.140    87670498.219 6      1710.083          38.500
R22  20883135.660   111475614.382 6      3286.295          39.687    20883136.520   111475614.396 6      3286.295          39.750    20883149.580    86703290.395 7      2556.008          44.375    20883149.400    86703289.393 7      2556.008          45.062
G03  20971631.300   110206674.592 6      4972.296          41.625    20971630.460   110206674.592 5      4972.296          31.812    20971640.460    85875359.005 5      3874.516          31.562    20971641.760    85875377.035 8      3874.516          48.000
G08  20882982.420   109740808.648 8      1436.161          48.625    20882980.660   109740808.648 8      1436.161          48.875    20882989.820    85512349.662 8      1119.087          48.625    20882992.200    85512358.665 8      1119.087          50.187
> 2024 05 08 14 52 36.0000000  0  9
G27  23247607.020   122166981.974 7         -.147          45.625    23247606.360   122166981.981 6         -.147          40.875    23247623.460    95195119.813 6         -.115          40.875    23247623.100    95195121.795 7         -.115          42.562
R06  20793038.920   110955617.125 6      1947.241          37.750    20793037.580   110955617.113 6      1947.241          37.187
R12  21174638.480   113111091.465 7      1757.689          43.187    21174636.540   113111091.444 7      1757.689          42.875    21174652.680    87975372.143 6      1367.091          41.437    21174652.560    87975369.144 6      1367.091          41.750
R07  20780392.880   111239083.754 7      5516.626          46.875    20780391.880   111239083.785 7      5516.626          45.625    20780413.320    86519380.785 8      4290.709          49.812    20780412.680    86519375.789 8      4290.709          50.375
G21  21374600.360   112324277.288 7      1294.668          46.937    21374598.660   112324277.298 5      1294.668          33.875    21374604.540    87525424.454 5      1008.832          33.875
G02  21409610.440   112508261.114 7      2194.530          46.937    21409608.800   112508261.121 6      2194.530          38.500    21409613.500    87668788.171 6      1710.023          38.750
R22  20882520.540   111472328.144 6      3286.304          38.437    20882520.320   111472328.172 6      3286.304          39.750    20882534.240    86700734.441 7      2556.014          44.062    20882533.660    86700733.443 7      2556.014          45.250
G03  20970685.040   110201702.585 6      4971.911          41.875    20970684.260   110201702.584 5      4971.911          31.812    20970694.340    85871484.720 5      3874.217          31.562    20970695.700    85871502.750 8      3874.217          48.125
G08  20882709.060   109739372.623 8      1435.824          49.312    20882707.480   109739372.620 8      1435.824          48.375    20882716.540    85511230.678 8      1118.824          48.062    20882718.720    85511239.680 8      1118.824          49.687
> 2024 05 08 14 52 37.0000000  0  9
G27  23247607.020   122166982.402 7         -.578          44.437    23247606.520   122166982.412 6         -.578          41.000    23247623.580    95195120.130 6         -.450          40.937    23247623.520    95195122.117 7         -.450          43.000
R06  20792673.660   110953670.408 6      1946.359          37.750    20792672.760   110953670.401 6      1946.359          37.187
R12  21174309.800   113109334.449 7      1756.591          43.250    21174307.240   113109334.431 7      1756.591          42.875    21174323.800    87974005.577 6      1366.238          41.500    21174323.800    87974002.581 7      1366.238          42.562
R07  20779362.200   111233567.524 7      5515.964          47.312    20779361.680   111233567.553 7      5515.964          45.625    20779383.040    86515090.390 8      4290.194          49.187    20779382.300    86515085.390 8      4290.194          49.875
G21  21374353.880   112322982.741 7      1294.608          47.250    21374352.200   112322982.757 5      1294.608          33.875    21374358.100    87524415.719 5      1008.785          34.062
G02  21409192.900   112506066.721 7      2194.286          47.375    21409191.200   112506066.729 6      2194.286          38.687    21409195.840    87667078.255 6      1709.834          38.375
R22  20881904.900   111469042.056 6      3286.117          38.437    20881904.460   111469042.081 6      3286.117          39.750    20881918.720    86698178.588 7      2555.869          44.750    20881918.260    86698177.595 7      2555.869          45.437
G03  20969738.960   110196731.158 7      4971.217          42.437    20969738.280   110196731.166 5      4971.217          31.812    20969748.540    85867610.893 5      3873.675          31.562    20969749.900    85867628.921 8      3873.675          48.125
G08  20882435.920   109737937.050 8      1435.332          49.187    20882434.400   109737937.047 8      1435.332          48.250    20882443.260    85510112.045 8      1118.441          48.250    20882445.340    85510121.048 8      1118.441          49.375
> 2024 05 08 14 52 38.0000000  0  9
G27  23247607.200   122166983.125 7         -.909          44.562    23247606.560   122166983.135 6         -.909          40.812    23247623.660    95195120.679 6         -.708          41.000    23247623.680    95195122.659 7         -.708          43.000
R06  20792309.100   110951724.598 6      1945.358          38.187    20792308.080   110951724.617 6      1945.358          37.187
R12  21173981.280   113107578.267 7      1755.781          43.250    21173978.700   113107578.252 7      1755.781          42.625    21173995.000    87972639.656 6      1365.607          41.312    21173995.280    87972636.657 7      1365.607          42.062
R07  20778331.860   111228051.895 7      5515.291          47.125    20778331.040   111228051.931 7      5515.291          45.562    20778352.740    86510800.473 8      4289.671          49.312    20778351.880    86510795.472 8      4289.671          49.812
G21  21374107.660   112321688.303 7      1294.443          46.500    21374105.680   112321688.315 5      1294.443          33.937    21374111.620    87523407.063 5      1008.657          34.062
G02  21408775.260   112503872.455 7      2194.152          47.812    21408773.680   112503872.462 6      2194.152          38.500    21408778.260    87665368.439 6      1709.729          38.125
R22  20881289.680   111465756.070 6      3285.844          38.437    20881288.720   111465756.076 6      3285.844          38.500    20881303.140    86695622.817 7      2555.656          44.937    20881302.420    86695621.819 7      2555.656          45.000
G03  20968792.800   110191760.268 6      4970.572          41.312    20968792.320   110191760.270 5      4970.572          31.875    20968802.540    85863737.480 5      3873.173          31.625    20968804.340    85863755.510 8      3873.173          48.375
G08  20882162.720   109736501.889 8      1434.936          48.875    20882161.200   109736501.886 8      1434.936          48.125    20882170.240    85508993.738 7      1118.132          47.937    20882172.140    85509002.741 8      1118.132          50.000
> 2024 05 08 14 52 39.0000000  0  9
G27  23247607.440   122166984.002 7         -.825          44.812    23247606.700   122166984.015 6         -.825          40.687    23247623.860    95195121.349 6         -.643          40.375    23247623.800    95195123.324 7         -.643          42.937
R06  20791944.200   110949779.604 6      1944.747          38.187    20791944.080   110949779.607 6      1944.747          37.187
R12  21173652.220   113105822.814 7      1755.130          42.562    21173649.720   113105822.799 7      1755.130          42.625    21173666.580    87971274.308 6      1365.101          41.312    21173666.780    87971271.309 7      1365.101          42.625
R07  20777301.440   111222536.738 7      5515.024          46.062    20777300.740   111222536.769 7      5515.024          44.687    20777322.240    86506510.921 8      4289.463          49.500    20777321.480    86506505.919 8      4289.463          49.812
G21  21373861.420   112320393.830 7      1294.652          46.187    21373859.240   112320393.842 5      1294.652          33.937    21373865.260    87522398.383 5      1008.820          34.000
G02  21408357.700   112501678.212 7      2194.360          47.437    21408356.140   112501678.217 6      2194.360          38.500    21408360.740    87663658.636 6      1709.891          38.062
R22  20880674.280   111462469.987 6      3286.226          38.437    20880672.420   111462470.004 6      3286.226          38.500    20880687.620    86693066.975 7      2555.954          44.687    20880687.020    86693065.977 7      2555.954          45.250
G03  20967847.240   110186789.785 6      4970.389          41.250    20967846.420   110186789.784 5      4970.389          31.875    20967856.600    85859864.385 5      3873.030          31.625    20967858.380    85859882.412 8      3873.030          48.625
G08  20881889.920   109735067.033 8      1434.815          49.625    20881888.140   109735067.030 8      1434.815          48.562    20881897.140    85507875.660 8      1118.038          48.250    20881899.060    85507884.669 8      1118.038          49.750
> 2024 05 08 14 52 40.0000000  0  9
G27  23247607.660   122166985.203 7        -1.349          45.437    23247606.980   122166985.213 6        -1.349          40.875    23247624.000    95195122.262 6        -1.051          40.625    23247624.400    95195124.236 7        -1.051          43.437
R06  20791579.660   110947835.488 6      1943.685          38.187    20791579.460   110947835.499 6      1943.685          37.375
R12  21173324.200   113104068.189 7      1754.041          42.562    21173321.200   113104068.171 7      1754.041          42.625    21173338.320    87969909.593 6      1364.254          41.625    21173338.240    87969906.600 7      1364.254          42.625
R07  20776271.320   111217022.187 7      5514.248          46.937    20776270.560   111217022.210 7      5514.248          45.437    20776292.120    86502221.832 8      4288.860          49.687    20776291.260    86502216.832 8      4288.860          50.187
G21  21373615.260   112319099.464 7      1294.316          45.562    21373612.820   112319099.480 5      1294.316          33.562    21373618.960    87521389.791 5      1008.558          33.687
G02  21407940.120   112499484.104 7      2194.038          47.187    21407938.560   112499484.106 6      2194.038          38.500    21407943.280    87661948.939 6      1709.640          38.687
R22  20880058.440   111459184.030 6      3285.776          38.437    20880056.000   111459184.050 6      3285.776          38.500    20880072.060    86690511.237 7      2555.604          44.750    20880071.440    86690510.239 7      2555.604          45.437
G03  20966901.320   110181819.859 7      4969.667          42.312    20966900.600   110181819.863 5      4969.667          31.875    20966910.980    85855991.725 5      3872.468          31.625    20966912.560    85856009.749 8      3872.468          48.437
G08  20881616.700   109733632.608 8      1434.227          49.625    20881615.280   109733632.602 8      1434.227          49.062    20881624.180    85506757.920 8      1117.580          48.562    20881626.160    85506766.929 8      1117.580          49.437
> 2024 05 08 14 52 41.0000000  0  9
G27  23247607.940   122166986.740 7        -1.841          45.187    23247607.120   122166986.753 6        -1.841          40.875    23247624.400    95195123.445 6        -1.434          40.937    23247625.320    95195125.427 7        -1.434          43.437
R06  20791215.800   110945892.407 6      1942.405          38.187    20791214.800   110945892.400 6      1942.405          37.375
R12  21172995.900   113102314.440 7      1753.124          42.000    21172993.120   113102314.419 7      1753.124          42.625    21173009.440    87968545.566 6      1363.541          41.375    21173010.300    87968542.579 6      1363.541          41.937
R07  20775241.460   111211508.278 7      5513.429          46.562    20775240.400   111211508.299 7      5513.429          45.437    20775262.040    86497933.253 8      4288.223          49.375    20775261.460    86497928.251 8      4288.223          49.312
G21  21373368.940   112317805.262 7      1293.946          45.437    21373366.300   112317805.280 5      1293.946          33.375    21373372.960    87520381.321 5      1008.270          33.687
G02  21407522.820   112497290.187 8      2193.738          48.000    21407521.180   112497290.194 6      2193.738          38.812    21407525.720    87660239.397 6      1709.407          38.437
R22  20879442.840   111455898.185 6      3285.600          38.437    20879438.860   111455898.207 6      3285.600          38.500    20879456.480    86687955.583 7      2555.467          45.062    20879456.000    86687954.588 7      2555.467          45.125
G03  20965955.460   110176850.539 6      4968.851          41.875    20965954.920   110176850.536 5      4968.851          32.187    20965965.460    85852119.533 5      3871.832          31.812    20965966.880    85852137.558 8      3871.832          49.000
G08  20881343.880   109732198.672 8      1433.576          49.187    20881342.520   109732198.671 8      1433.576          48.312    20881351.280    85505640.568 8      1117.072          48.187    20881353.320    85505649.572 8      1117.072          49.250
> 2024 05 08 14 52 42.0000000  0  8
G27  23247608.240   122166988.664 7        -2.176          45.125    23247607.600   122166988.671 6        -2.176          40.750    23247624.740    95195124.923 6        -1.695          40.562    23247625.440    95195126.903 7        -1.695          43.437
R06  20790851.860   110943950.303 6      1941.524          38.187    20790851.200   110943950.296 6      1941.524          37.375
R12  21172667.900   113100561.607 7      1752.375          42.000    21172664.780   113100561.578 7      1752.375          42.187    21172681.480    87967182.245 6      1362.958          41.250    21172681.940    87967179.267 7      1362.958          42.312
R07  20774211.340   111205995.033 7      5512.943          46.562    20774210.220   111205995.051 7      5512.943          45.437    20774232.140    86493645.180 8      4287.845          50.000    20774231.400    86493640.177 8      4287.845          50.750
G21  21373122.940   112316511.228 7      1293.941          45.062    21373120.000   112316511.244 5      1293.941          33.375    21373126.720    87519372.981 5      1008.266          33.625
G02  21407105.440   112495096.504 7      2193.556          47.625    21407103.800   112495096.509 6      2193.556          39.375    21407108.300    87658530.032 6      1709.264          38.937
G03  20965009.760   110171881.827 7      4968.382          42.312    20965009.380   110171881.824 5      4968.382          32.187    20965019.900    85848247.817 5      3871.466          31.812    20965021.620    85848265.841 8      3871.466          48.812
G08  20881071.240   109730765.248 8      1433.140          48.937    20881069.620   109730765.245 8      1433.140          48.687    20881078.580    85504523.608 8      1116.732          48.500    20881080.720    85504532.612 8      1116.732          49.687
> 2024 05 08 14 52 43.0000000  0  8
G27  23247608.380   122166990.863 7        -2.310          45.187    23247607.900   122166990.873 6        -2.310          41.125    23247625.300    95195126.621 6        -1.800          41.062    23247626.480    95195128.603 7        -1.800          43.750
R06  20790487.480   110942009.100 6      1940.828          38.187    20790487.680   110942009.088 6      1940.828          37.375
R12  21172340.540   113098809.591 6      1751.745          41.375    21172336.600   113098809.563 7      1751.745          42.187    21172353.660    87965819.564 6      1362.469          41.250    21172354.060    87965816.594 7      1362.469          42.312
R07  20773181.740   111200482.361 7      5512.373          46.500    20773180.500   111200482.387 7      5512.373          45.125    20773202.340    86489357.566 8      4287.401          49.687    20773201.740    86489352.564 8      4287.401          50.062
G21  21372876.780   112315217.299 7      1293.936          45.062    21372873.680   112315217.315 5      1293.936          33.437    21372880.500    87518364.727 5      1008.262          33.625
G02  21406688.000   112492902.947 7      2193.525          47.375    21406686.480   112492902.952 6      2193.525          38.937    21406691.000    87656820.764 6      1709.240          38.687
G03  20964064.740   110166913.675 6      4967.903          41.625    20964064.060   110166913.669 5      4967.903          32.187    20964074.620    85844376.533 5      3871.093          31.812    20964076.040    85844394.555 8      3871.093          48.937
G08  20880798.360   109729332.244 8      1432.789          49.125    20880797.060   109729332.241 8      1432.789          48.687    20880805.800    85503406.980 8      1116.459          48.375    20880807.680    85503415.980 8      1116.459          49.375
> 2024 05 08 14 52 44.0000000  0  8
G27  23247608.680   122166993.351 7        -2.579          45.500    23247608.400   122166993.356 6        -2.579          40.875    23247625.840    95195128.541 6        -2.010          40.750    23247627.320    95195130.521 7        -2.010          43.937
R06  20790124.380   110940068.821 6      1939.946          38.187    20790123.500   110940068.811 6      1939.946          37.375
R12  21172013.000   113097058.417 6      1750.960          41.375    21172008.760   113097058.396 7      1750.960          42.250    21172026.180    87964457.540 6      1361.858          41.250    21172026.100    87964454.572 6      1361.858          41.937
R07  20772151.560   111194970.256 7      5511.904          46.437    20772150.780   111194970.284 7      5511.904          45.125    20772172.420    86485070.388 8      4287.037          50.062    20772171.920    86485065.384 8      4287.037          49.875
G21  21372630.420   112313923.457 7      1293.827          45.437    21372627.500   112313923.470 5      1293.827          33.437    21372634.080    87517356.534 5      1008.177          33.375
G02  21406270.640   112490709.503 8      2193.488          48.687    21406269.160   112490709.510 6      2193.488          39.562    21406273.560    87655111.589 6      1709.212          38.875
G03  20963119.520   110161946.040 6      4967.373          41.625    20963118.760   110161946.034 5      4967.373          32.250    20963129.480    85840505.663 5      3870.680          32.000    20963131.020    85840523.689 8      3870.680          49.062
G08  20880525.800   109727899.648 8      1432.473          49.312    20880524.400   109727899.648 8      1432.473          48.562    20880533.200    85502290.667 8      1116.213          49.000    20880535.300    85502299.671 8      1116.213          49.750
> 2024 05 08 14 52 45.0000000  0  8
G27  23247609.420   122166996.170 7        -3.015          45.750    23247608.840   122166996.178 6        -3.015          40.937    23247626.540    95195130.724 6        -2.349          41.125    23247627.880    95195132.706 7        -2.349          43.937
R06  20789761.040   110938129.521 6      1938.733          38.187    20789760.820   110938129.492 6      1938.733          37.312
R12  21171684.660   113095308.135 6      1749.857          41.375    21171681.300   113095308.112 7      1749.857          42.312    21171698.600    87963096.203 6      1361.000          41.250    21171698.660    87963093.235 7      1361.000          42.250
R07  20771122.220   111189458.786 7      5511.229          46.187    20771121.360   111189458.809 7      5511.229          45.375    20771142.860    86480783.695 8      4286.512          49.437    20771142.120    86480778.691 8      4286.512          49.687
G21  21372384.040   112312629.741 7      1293.686          45.812    21372381.420   112312629.751 5      1293.686          33.437    21372387.860    87516348.443 5      1008.067          33.375
G02  21405852.980   112488516.261 7      2193.081          47.812    21405851.740   112488516.271 6      2193.081          39.312    21405856.160    87653402.572 6      1708.894          39.000
G03  20962174.140   110156978.980 7      4966.747          42.187    20962173.580   110156978.977 5      4966.747          32.250    20962184.460    85836635.235 5      3870.193          32.000    20962185.940    85836653.253 8      3870.193          48.750
G08  20880253.400   109726467.533 8      1431.815          50.187    20880252.000   109726467.530 8      1431.815          48.937    20880260.740    85501174.733 8      1115.700          48.500    20880262.840    85501183.735 8      1115.700          49.750
> 2024 05 08 14 52 46.0000000  0  8
G27  23247609.780   122166999.326 7        -3.331          44.687    23247609.460   122166999.333 6        -3.331          41.250    23247627.100    95195133.166 6        -2.596          41.250    23247627.840    95195135.152 7        -2.596          44.250
R06  20789397.680   110936191.139 6      1937.851          38.187    20789397.160   110936191.129 6      1937.851          37.312
R12  21171356.880   113093558.731 6      1749.027          41.437    21171353.660   113093558.721 7      1749.027          42.312    21171371.260    87961735.566 6      1360.354          41.250    21171371.200    87961732.594 7      1360.354          42.062
R07  20770093.020   111183947.947 7      5510.578          46.125    20770091.360   111183947.975 7      5510.578          45.250    20770113.020    86476497.504 8      4286.005          49.750    20770112.680    86476492.506 8      4286.005          49.500
G21  21372138.020   112311336.166 7      1293.567          46.000    21372135.120   112311336.182 5      1293.567          33.437    21372141.780    87515340.465 5      1007.974          33.875
G02  21405435.880   112486323.169 8      2193.091          48.437    21405434.500   112486323.177 6      2193.091          39.250    21405438.840    87651693.663 6      1708.902          39.250
G03  20961229.220   110152012.525 7      4966.164          42.375    20961228.520   110152012.522 5      4966.164          32.437    20961239.440    85832765.279 5      3869.738          32.187    20961240.880    85832783.298 8      3869.738          49.187
G08  20879980.760   109725035.861 8      1431.549          49.937    20879979.620   109725035.856 8      1431.549          48.562    20879988.380    85500059.138 8      1115.492          48.437    20879990.480    85500068.143 8      1115.492          49.687
> 2024 05 08 14 52 47.0000000  0  8
G27  23247610.320   122167002.603 7        -3.381          44.750    23247609.960   122167002.615 6        -3.381          40.562    23247627.780    95195135.707 6        -2.634          40.500    23247628.720    95195137.693 7        -2.634          44.250
R06  20789034.060   110934253.490 6      1937.342          38.062    20789033.600   110934253.488 6      1937.342          37.312
R12  21171029.880   113091810.025 6      1748.436          41.437    21171026.180   113091810.012 7      1748.436          42.125    21171043.620    87960375.461 6      1359.894          41.125    21171044.100    87960372.485 6      1359.894          41.750
R07  20769063.680   111178437.544 7      5510.186          44.937    20769062.340   111178437.575 7      5510.186          45.437    20769083.580    86472211.648 8      4285.700          49.125    20769083.300    86472206.648 8      4285.700          49.125
G21  21371892.120   112310042.534 7      1293.717          46.062    21371888.900   112310042.550 5      1293.717          33.500    21371895.620    87514332.438 5      1008.091          33.875
G02  21405018.460   112484130.059 8      2193.180          48.500    21405017.220   112484130.067 6      2193.180          38.812    21405021.440    87649984.746 6      1708.971          39.125
G03  20960284.100   110147046.401 7      4966.057          42.875    20960283.440   110147046.406 5      4966.057          32.437    20960294.420    85828895.582 5      3869.655          32.187    20960296.200    85828913.597 8      3869.655          49.062
G08  20879708.560   109723604.455 8      1431.394          49.062    20879707.180   109723604.455 8      1431.394          48.375    20879715.940    85498943.753 8      1115.372          48.062    20879718.080    85498952.760 8      1115.372          49.062
> 2024 05 08 14 52 48.0000000  0  8
G27  23247610.980   122167006.263 7        -3.961          45.375    23247610.520   122167006.275 6        -3.961          40.875    23247628.520    95195138.539 6        -3.086          40.375    23247629.160    95195140.529 7        -3.086          44.187
R06  20788671.800   110932316.904 6      1935.886          38.062    20788670.780   110932316.891 6      1935.886          37.312
R12  21170703.220   113090062.221 6      1747.365          41.437    21170699.460   113090062.198 7      1747.365          42.125    21170716.420    87959016.046 6      1359.061          41.125    21170716.720    87959013.076 6      1359.061          41.750
R07  20768034.180   111172927.816 7      5509.333          45.937    20768032.720   111172927.852 7      5509.333          45.437    20768054.120    86467926.322 8      4285.037          49.000    20768053.700    86467921.326 8      4285.037          49.562
G21  21371645.720   112308749.081 7      1293.317          45.937    21371642.840   112308749.096 5      1293.317          33.500    21371649.460    87513324.551 5      1007.779          33.125
G02  21404601.160   112481937.178 8      2192.764          48.125    21404599.860   112481937.182 6      2192.764          39.187    21404604.340    87648276.005 6      1708.647          38.937
G03  20959339.300   110142080.955 7      4965.036          42.125    20959338.560   110142080.959 5      4965.036          32.437    20959349.580    85825026.409 5      3868.860          32.187    20959351.300    85825044.433 8      3868.860          49.250
G08  20879436.240   109722173.567 8      1430.633          49.500    20879434.960   109722173.564 8      1430.633          48.812    20879443.640    85497828.769 8      1114.779          48.437    20879445.860    85497837.778 8      1114.779          49.687
> 2024 05 08 14 52 49.0000000  0  8
G27  23247611.740   122167010.214 7        -4.080          44.375    23247611.240   122167010.232 6        -4.080          40.750    23247629.220    95195141.606 6        -3.179          40.687    23247629.680    95195143.590 7        -3.179          44.062
R06  20788309.200   110930381.184 6      1935.395          38.062    20788308.900   110930381.161 6      1935.395          37.312
R12  21170375.740   113088315.221 6      1746.600          41.437    21170372.260   113088315.212 7      1746.600          42.562    21170389.420    87957657.279 6      1358.467          40.687    21170389.740    87957654.313 6      1358.467          41.062
R07  20767005.000   111167418.738 7      5508.819          46.062    20767003.680   111167418.769 7      5508.819          45.562    20767024.920    86463641.490 8      4284.637          49.250    20767024.480    86463636.492 8      4284.637          49.375
G21  21371399.780   112307455.719 7      1293.422          46.312    21371396.660   112307455.732 5      1293.422          33.062    21371403.200    87512316.734 5      1007.861          33.125
G02  21404184.040   112479744.419 8      2192.822          48.062    21404182.560   112479744.424 6      2192.822          38.875    21404186.860    87646567.362 6      1708.692          38.937
G03  20958394.820   110137116.039 6      4964.782          41.750    20958393.680   110137116.039 5      4964.782          32.250    20958404.920    85821157.650 5      3868.661          32.062    20958406.400    85821175.669 8      3868.661          49.750
G08  20879164.040   109720743.115 8      1430.247          50.125    20879162.720   109720743.109 8      1430.247          48.562    20879171.440    85496714.127 8      1114.478          48.312    20879173.740    85496723.134 8      1114.478          49.875
> 2024 05 08 14 52 50.0000000  0  8
G27  23247612.320   122167014.458 7        -4.204          43.625    23247612.100   122167014.471 6        -4.204          41.000    23247630.000    95195144.892 6        -3.275          40.625    23247630.820    95195146.876 7        -3.275          44.125
R06  20787946.900   110928446.396 6      1934.471          38.062    20787945.720   110928446.394 6      1934.471          37.125
R12  21170048.400   113086569.047 6      1745.986          41.875    21170045.460   113086569.032 7      1745.986          42.562    21170062.340    87956299.139 6      1357.989          40.687    21170062.780    87956296.171 6      1357.989          41.062
R07  20765975.820   111161910.244 7      5508.360          45.937    20765974.960   111161910.272 7      5508.360          45.562    20765995.560    86459357.114 8      4284.280          48.812    20765995.260    86459352.118 8      4284.280          49.062
G21  21371153.680   112306162.471 7      1293.342          45.750    21371150.600   112306162.484 5      1293.342          33.062    21371156.980    87511309.008 5      1007.799          33.312
G02  21403766.620   112477551.837 8      2192.664          48.687    21403765.360   112477551.845 6      2192.664          39.062    21403769.660    87644858.851 6      1708.569          39.125
G03  20957450.160   110132151.662 7      4964.284          42.125    20957448.860   110132151.667 5      4964.284          32.250    20957460.280    85817289.312 5      3868.273          32.062    20957461.360    85817307.330 8      3868.273          49.375
G08  20878891.900   109719313.080 8      1429.934          49.375    20878890.760   109719313.080 8      1429.934          48.687    20878899.320    85495599.814 8      1114.234          49.187    20878901.560    85495608.819 8      1114.234          49.562
> 2024 05 08 14 52 51.0000000  0  8
G27  23247613.560   122167019.032 7        -4.609          44.250    23247612.820   122167019.043 6        -4.609          40.875    23247630.960    95195148.440 6        -3.592          40.625    23247631.760    95195150.428 7        -3.592          44.500
R06  20787584.120   110926512.568 6      1933.459          38.312    20787583.220   110926512.558 6      1933.459          37.125
R12  21169721.180   113084823.778 6      1744.966          41.875    21169718.940   113084823.766 7      1744.966          42.312    21169735.300    87954941.706 6      1357.195          40.562    21169736.000    87954938.732 6      1357.195          40.687
R07  20764947.220   111156402.352 7      5507.609          45.812    20764945.820   111156402.378 7      5507.609          45.500    20764966.320    86455073.211 8      4283.696          49.250    20764966.440    86455068.215 8      4283.696          48.437
G21  21370907.380   112304869.338 7      1293.074          45.375    21370904.400   112304869.354 5      1293.074          33.437    21370910.900    87510301.374 5      1007.590          33.312
G02  21403349.420   112475359.389 8      2192.427          48.312    21403348.200   112475359.394 6      2192.427          38.500    21403352.360    87643150.452 6      1708.385          39.250
G03  20956505.360   110127187.887 7      4963.487          42.312    20956504.340   110127187.889 5      4963.487          32.437    20956515.740    85813421.442 5      3867.652          32.062    20956517.120    85813439.455 8      3867.652          49.312
G08  20878619.920   109717883.495 8      1429.450          49.750    20878618.820   109717883.492 8      1429.450          49.125    20878627.300    85494485.846 8      1113.857          48.937    20878629.460    85494494.852 8      1113.857          49.812
> 2024 05 08 14 52 52.0000000  0  8
G27  23247614.420   122167024.017 7        -4.996          44.500    23247613.680   122167024.024 6        -4.996          40.437    23247631.920    95195152.297 6        -3.893          40.437    23247632.580    95195154.290 7        -3.893          44.312
R06  20787222.080   110924579.751 6      1932.540          38.312    20787220.640   110924579.744 6      1932.540          37.125
R12  21169394.720   113083079.492 6      1744.035          41.875    21169393.000   113083079.474 7      1744.035          42.312    21169408.300    87953585.030 6      1356.472          39.875    21169409.320    87953582.063 6      1356.472          40.375
R07  20763918.520   111150895.140 7      5507.079          46.187    20763916.980   111150895.171 7      5507.079          45.812    20763937.560    86450789.836 8      4283.284          49.000    20763937.660    86450784.838 8      4283.284          48.937
G21  21370661.320   112303576.416 7      1293.006          45.437    21370658.360   112303576.431 5      1293.006          33.437    21370664.840    87509293.902 5      1007.537          33.687
G02  21402932.440   112473167.191 8      2192.298          48.312    21402931.000   112473167.193 6      2192.298          39.062    21402935.140    87641442.247 6      1708.284          38.812
G03  20955561.120   110122224.716 7      4963.015          42.375    20955559.760   110122224.719 5      4963.015          32.437    20955571.320    85809554.044 5      3867.284          32.375    20955572.540    85809572.051 8      3867.284          49.187
G08  20878348.020   109716454.452 8      1428.928          50.125    20878346.840   109716454.449 8      1428.928          49.000    20878355.440    85493372.301 8      1113.450          48.625    20878357.420    85493381.306 8      1113.450          49.937
> 2024 05 08 14 52 53.0000000  0  8
G27  23247615.440   122167029.280 7        -5.528          43.625    23247614.520   122167029.295 6        -5.528          40.687    23247633.000    95195156.388 6        -4.308          40.687    23247633.600    95195158.384 7        -4.308          44.187
R06  20786859.960   110922647.850 6      1931.534          38.312    20786858.580   110922647.829 6      1931.534          37.125
R12  21169068.640   113081336.055 6      1742.932          41.375    21169066.960   113081336.035 7      1742.932          43.000    21169081.020    87952229.022 6      1355.614          39.875    21169082.980    87952226.054 6      1355.614          40.375
R07  20762889.720   111145388.530 7      5506.238          46.312    20762888.260   111145388.556 7      5506.238          45.875    20762908.580    86446506.928 8      4282.630          48.312    20762908.820    86446501.936 8      4282.630          48.812
G21  21370415.060   112302283.577 7      1292.794          46.562    21370412.460   112302283.590 5      1292.794          33.437    21370418.840    87508286.494 5      1007.372          33.687
G02  21402515.180   112470975.145 8      2191.880          48.312    21402513.840   112470975.150 6      2191.880          38.937    21402518.020    87639734.161 6      1707.959          38.750
G03  20954616.640   110117262.121 6      4962.211          41.687    20954615.580   110117262.123 5      4962.211          32.437    20954627.140    85805687.095 5      3866.658          32.375    20954627.980    85805705.104 8      3866.658          49.312
G08  20878076.120   109715025.828 8      1428.356          50.312    20878074.980   109715025.822 8      1428.356          48.875    20878083.660    85492259.084 8      1113.005          48.687    20878085.620    85492268.091 8      1113.005          49.687
> 2024 05 08 14 52 54.0000000  0  9
G32  24811468.580   130385144.722 6      2001.180          38.687
G27  23247616.560   122167034.834 7        -5.943          43.437    23247615.560   122167034.844 6        -5.943          40.812    23247633.960    95195160.696 6        -4.631          40.312    23247634.460    95195162.682 7        -4.631          44.312
R06  20786498.080   110920716.845 6      1930.493          38.312    20786497.020   110920716.840 6      1930.493          37.125
R12  21168742.240   113079593.401 7      1742.029          42.750    21168741.220   113079593.384 7      1742.029          43.000    21168754.360    87950873.620 6      1354.911          39.875    21168756.280    87950870.655 6      1354.911          38.937
R07  20761861.180   111139882.504 7      5505.488          46.812    20761859.880   111139882.537 7      5505.488          45.875    20761880.040    86442224.479 8      4282.046          48.812    20761880.180    86442219.481 8      4282.046          48.437
G21  21370168.960   112300990.851 7      1292.436          45.937    21370166.400   112300990.867 5      1292.436          33.437    21370172.680    87507279.177 5      1007.093          33.687
G02  21402098.060   112468783.206 8      2191.617          48.375    21402096.800   112468783.216 6      2191.617          39.312    21402101.040    87638026.157 6      1707.754          39.187
G03  20953672.120   110112300.054 6      4961.416          41.625    20953671.120   110112300.053 5      4961.416          32.562    20953682.860    85801820.553 5      3866.039          32.062    20953683.740    85801838.569 8      3866.039          49.312
G08  20877804.380   109713597.628 8      1427.755          50.000    20877803.180   109713597.627 8      1427.755          49.500    20877811.900    85491146.198 8      1112.536          48.937    20877813.820    85491155.203 8      1112.536          50.312
> 2024 05 08 14 52 55.0000000  0  9
G32  24811088.080   130383144.238 6      2000.490          38.687
G27  23247617.580   122167040.801 7        -6.137          43.750    23247616.600   122167040.811 6        -6.137          40.250    23247635.120    95195165.329 6        -4.782          39.812    23247635.780    95195167.313 7        -4.782          44.312
R06  20786136.540   110918786.952 6      1929.331          38.125    20786135.280   110918786.950 6      1929.331          37.125
R12  21168416.120   113077851.714 7      1741.084          42.750    21168415.220   113077851.705 7      1741.084          42.687    21168427.980    87949518.971 6      1354.177          39.062    21168429.780    87949516.009 6      1354.177          38.937
R07  20760832.660   111134377.232 7      5505.017          46.125    20760832.100   111134377.263 7      5505.017          46.187    20760851.560    86437942.610 8      4281.680          49.187    20760851.620    86437937.612 8      4281.680          48.437
G21  21369923.420   112299698.357 7      1292.291          45.875    21369920.460   112299698.372 5      1292.291          33.000    21369926.740    87506272.038 5      1006.980          33.000
G02  21401680.980   112466591.552 7      2191.545          47.812    21401679.620   112466591.562 6      2191.545          39.375    21401683.980    87636318.373 6      1707.697          39.375
G03  20952728.200   110107338.651 7      4960.961          42.062    20952726.960   110107338.651 5      4960.961          32.562    20952738.580    85797954.533 5      3865.684          32.062    20952739.360    85797972.547 8      3865.684          48.875
G08  20877532.800   109712169.995 8      1427.326          49.312    20877531.540   109712169.997 8      1427.326          48.562    20877540.180    85490033.753 8      1112.202          49.125    20877542.040    85490042.756 8      1112.202          49.687
> 2024 05 08 14 52 56.0000000  0  9
G32  24810707.200   130381143.866 6      2000.091          39.125    24810707.180   130381143.856 3      2000.091          19.562    24810714.100   101595715.808 3      1558.512          19.000
G27  23247618.620   122167047.197 7        -6.441          42.437    23247617.720   122167047.212 6        -6.441          40.375    23247636.380    95195170.296 6        -5.019          40.125    23247637.340    95195172.288 7        -5.019          44.062
R06  20785774.620   110916858.034 6      1928.590          38.125    20785773.480   110916858.040 6      1928.590          37.062
R12  21168090.280   113076110.954 7      1740.560          42.625    21168089.720   113076110.925 7      1740.560          42.625    21168102.040    87948165.033 6      1353.769          39.062    21168104.040    87948162.065 6      1353.769          38.937
R07  20759804.340   111128872.688 7      5504.408          46.812    20759803.740   111128872.722 7      5504.408          46.250    20759823.080    86433661.319 8      4281.206          48.437    20759823.400    86433656.323 8      4281.206          48.500
G21  21369677.280   112298406.057 7      1292.357          46.562    21369674.660   112298406.072 5      1292.357          33.000    21369680.860    87505265.049 5      1007.031          33.000
G02  21401263.940   112464400.139 8      2191.520          48.562    21401262.640   112464400.146 6      2191.520          39.437    21401266.920    87634610.778 6      1707.678          38.937
G03  20951784.100   110102377.916 7      4960.604          42.187    20951782.720   110102377.911 5      4960.604          32.750    20951794.680    85794089.032 5      3865.406          32.500    20951795.300    85794107.043 8      3865.406          49.187
G08  20877261.300   109710742.906 8      1426.992          49.812    20877260.100   109710742.903 8      1426.992          49.625    20877268.620    85488921.730 8      1111.942          49.125    20877270.760    85488930.732 8      1111.942          49.687
> 2024 05 08 14 52 57.0000000  0  9
G32  24810326.660   130379143.971 6      1999.712          39.125    24810326.960   130379143.997 3      1999.712          19.812    24810340.640   101594157.462 3      1558.217          19.812
G27  23247619.860   122167053.768 7        -6.488          42.562    23247618.840   122167053.786 6        -6.488          40.000    23247637.400    95195175.402 6        -5.055          39.875    23247638.660    95195177.397 7        -5.055          44.187
R06  20785412.600   110914929.937 6      1927.757          38.125    20785411.900   110914929.959 6      1927.757          37.062
R12  21167764.700   113074371.003 7      1739.648          42.625    21167764.120   113074370.985 7      1739.648          42.625    21167775.540    87946811.736 6      1353.060          38.125    21167777.700    87946808.764 6      1353.060          37.750
R07  20758775.960   111123368.621 7      5503.947          47.000    20758775.860   111123368.657 7      5503.947          46.437    20758794.540    86429380.388 8      4280.848          48.000    20758794.880    86429375.392 7      4280.848          47.937
G21  21369431.360   112297113.778 7      1292.392          46.125    21369428.660   112297113.791 5      1292.392          33.500    21369434.920    87504258.081 5      1007.059          33.437
G02  21400847.080   112462208.784 8      2191.506          48.562    21400845.760   112462208.794 6      2191.506          39.750    21400849.980    87632903.225 6      1707.667          39.125
G03  20950839.940   110097417.641 7      4960.260          43.250    20950838.780   110097417.633 5      4960.260          32.750    20950850.800    85790223.886 5      3865.137          32.500    20950851.480    85790241.893 8      3865.137          49.250
G08  20876989.880   109709316.135 8      1426.753          49.375    20876988.580   109709316.140 8      1426.753          49.312    20876997.140    85487809.962 8      1111.755          49.000    20876999.140    85487818.969 8      1111.755          49.812
> 2024 05 08 14 52 58.0000000  0  9
G32  24809946.520   130377144.587 6      1999.029          38.687    24809946.480   130377144.577 3      1999.029          20.312    24809962.560   101592599.519 3      1557.685          20.437
G27  23247621.480   122167060.644 7        -7.041          42.625    23247620.180   122167060.657 6        -7.041          39.875    23247638.880    95195180.740 6        -5.486          39.875    23247639.540    95195182.730 7        -5.486          43.812
R06  20785052.120   110913002.747 6      1926.671          38.125    20785051.520   110913002.770 6      1926.671          37.062
R12  21167439.080   113072631.855 7      1738.654          42.500    21167438.620   113072631.832 7      1738.654          42.937    21167449.260    87945459.060 6      1352.286          38.125    21167451.860    87945456.088 6      1352.286          37.750
R07  20757747.960   111117865.113 7      5503.152          47.625    20757748.120   111117865.150 7      5503.152          46.562    20757766.600    86425099.892 8      4280.229          48.000    20757766.920    86425094.896 8      4280.229          48.000
G21  21369185.420   112295821.568 7      1292.137          45.750    21369182.780   112295821.578 5      1292.137          33.500    21369189.000    87503251.166 5      1006.860          33.437
G02  21400430.080   112460017.534 8      2191.176          48.187    21400428.880   112460017.544 6      2191.176          39.000    21400432.820    87631195.757 6      1707.410          38.750
G03  20949896.040   110092457.894 7      4959.375          42.437    20949894.760   110092457.880 5      4959.375          32.750    20949906.980    85786359.154 5      3864.448          32.500    20949907.800    85786377.168 8      3864.448          49.250
G08  20876718.400   109707889.787 8      1426.095          49.937    20876717.180   109707889.786 8      1426.095          48.375    20876725.800    85486698.512 8      1111.243          48.625    20876727.760    85486707.521 8      1111.243          50.062
> 2024 05 08 14 52 59.0000000  0  9
G32  24809566.280   130375145.511 6      1998.788          38.812    24809565.420   130375145.508 3      1998.788          20.375    24809583.620   101591041.810 3      1557.497          20.625
G27  23247622.580   122167067.576 6        -7.212          41.875    23247621.440   122167067.594 6        -7.212          40.312    23247640.160    95195186.131 6        -5.619          40.000    23247641.240    95195188.123 7        -5.619          44.312
R06  20784691.080   110911076.286 6      1925.788          38.125    20784690.140   110911076.292 6      1925.788          37.062
R12  21167113.740   113070893.288 7      1738.094          42.500    21167113.560   113070893.251 7      1738.094          43.250    21167124.360    87944106.828 6      1351.851          38.125    21167126.160    87944103.850 6      1351.851          37.750
R07  20756719.840   111112361.975 7      5502.807          46.750    20756720.180   111112362.006 7      5502.807          46.812    20756738.580    86420819.680 8      4279.961          48.687    20756738.540    86420814.688 8      4279.961          48.312
G21  21368939.780   112294529.228 7      1292.247          45.125    21368936.900   112294529.241 5      1292.247          32.812    21368943.140    87502244.144 5      1006.945          32.875
G02  21400013.280   112457826.200 8      2191.206          49.562    21400011.800   112457826.210 6      2191.206          39.000    21400015.740    87629488.226 6      1707.433          39.125
G03  20948952.320   110087498.436 7      4959.050          42.812    20948951.180   110087498.427 5      4959.050          32.750    20948963.200    85782494.656 5      3864.195          32.312    20948963.740    85782512.671 8      3864.195          49.125
G08  20876447.020   109706463.625 8      1425.910          50.875    20876445.900   109706463.625 8      1425.910          49.500    20876454.480    85485587.217 8      1111.099          49.312    20876456.240    85485596.218 8      1111.099          50.375
> 2024 05 08 14 53  0.0000000  0  9
G32  24809186.080   130373147.061 6      1998.288          39.000    24809185.020   130373147.066 3      1998.288          20.187    24809203.760   101589484.590 3      1557.108          20.312    24809200.520   101589525.570 5      1557.108          31.875
G27  23247624.060   122167074.836 7        -7.219          42.187    23247622.640   122167074.848 6        -7.219          39.625    23247641.520    95195191.769 6        -5.625          39.750    23247642.500    95195193.756 7        -5.625          43.937
R06  20784331.040   110909150.716 6      1925.133          37.562    20784329.120   110909150.738 6      1925.133          37.062
R12  21166788.480   113069155.572 7      1737.424          43.250    21166788.760   113069155.560 7      1737.424          43.250    21166799.160    87942755.275 6      1351.329          38.125    21166800.400    87942752.293 6      1351.329          37.750
R07  20755692.220   111106859.495 7      5502.347          47.437    20755692.700   111106859.534 7      5502.347          47.062    20755710.500    86416539.988 8      4279.603          48.375    20755710.680    86416534.992 8      4279.603          48.625
G21  21368693.980   112293237.044 7      1292.331          45.500    21368691.000   112293237.057 5      1292.331          32.812    21368697.100    87501237.247 5      1007.011          32.875
G02  21399596.000   112455635.047 8      2191.259          49.125    21399594.960   112455635.057 6      2191.259          39.562    21399598.780    87627780.832 6      1707.474          39.250
G03  20948008.580   110082539.582 7      4958.711          42.125    20948007.500   110082539.574 5      4958.711          32.750    20948019.720    85778630.620 5      3863.931          32.312    20948020.120    85778648.633 8      3863.931          49.062
G08  20876175.680   109705037.945 8      1425.606          50.187    20876174.740   109705037.942 8      1425.606          49.312    20876183.180    85484476.289 8      1110.862          49.062    20876184.920    85484485.294 8      1110.862          50.187
> 2024 05 08 14 53  1.0000000  0  9
G32  24808805.640   130371149.138 6      1997.611          39.312    24808807.620   130371149.114 3      1997.611          20.312    24808822.700   101587927.766 3      1556.580          20.437    24808819.600   101587968.757 5      1556.580          32.000
G27  23247625.760   122167082.421 7        -7.900          42.250    23247624.080   122167082.426 6        -7.900          40.000    23247642.860    95195197.660 6        -6.156          39.375    23247644.160    95195199.644 7        -6.156          43.937
R06  20783969.940   110907226.101 6      1924.178          37.562    20783968.780   110907226.081 6      1924.178          37.062
R12  21166463.220   113067418.746 7      1736.188          43.937    21166464.380   113067418.736 7      1736.188          43.437    21166473.260    87941404.407 6      1350.368          37.250    21166475.220    87941401.435 6      1350.368          37.750
R07  20754664.400   111101357.614 7      5501.520          47.687    20754664.840   111101357.659 7      5501.520          46.937    20754682.680    86412260.764 8      4278.960          48.187    20754682.820    86412255.770 8      4278.960          48.125
G21  21368448.220   112291944.967 7      1291.930          47.062    21368445.120   112291944.980 5      1291.930          32.625    21368451.120    87500230.436 5      1006.699          32.562
G02  21399179.120   112453444.044 7      2190.812          47.812    21399177.980   112453444.054 6      2190.812          39.625    21399181.980    87626073.555 6      1707.126          39.375
G03  20947065.380   110077581.282 6      4957.886          41.562    20947063.700   110077581.274 5      4957.886          32.687    20947075.940    85774767.018 5      3863.288          32.375    20947076.560    85774785.038 8      3863.288          49.000
G08  20875904.660   109703612.695 8      1424.911          50.062    20875903.500   109703612.697 8      1424.911          49.812    20875912.040    85483365.705 8      1110.320          49.750    20875913.840    85483374.707 8      1110.320          50.250
> 2024 05 08 14 53  2.0000000  0  9
G32  24808425.580   130369151.755 6      1997.164          39.312    24808425.880   130369151.746 3      1997.164          20.250    24808442.380   101586371.383 3      1556.231          20.437    24808438.340   101586412.360 5      1556.231          32.000
G27  23247627.240   122167090.262 7        -8.054          42.250    23247625.560   122167090.275 6        -8.054          40.625    23247644.460    95195203.755 6        -6.276          40.000    23247645.380    95195205.747 7        -6.276          44.187
R06  20783608.960   110905302.375 6      1923.379          37.562    20783608.200   110905302.357 6      1923.379          36.750
R12  21166138.500   113065682.705 7      1735.687          44.250    21166139.780   113065682.698 7      1735.687          43.750    21166148.660    87940054.148 6      1349.979          37.250    21166150.540    87940051.166 5      1349.979          35.875
R07  20753636.900   111095856.336 7      5501.040          47.937    20753637.700   111095856.375 7      5501.040          47.312    20753654.960    86407982.000 8      4278.587          48.375    20753655.260    86407977.008 8      4278.587          48.375
G21  21368202.240   112290652.975 7      1291.862          46.312    21368199.260   112290652.988 5      1291.862          32.625    21368205.120    87499223.689 5      1006.646          32.562
G02  21398762.180   112451253.162 8      2190.785          48.500    21398761.100   112451253.172 6      2190.785          39.375    21398765.160    87624366.374 6      1707.105          39.562
G03  20946122.300   110072623.511 6      4957.459          41.437    20946120.220   110072623.511 5      4957.459          32.687    20946132.400    85770903.830 5      3862.955          32.375    20946133.160    85770921.842 8      3862.955          49.125
G08  20875633.500   109702187.858 8      1424.542          51.125    20875632.440   109702187.863 8      1424.542          49.062    20875640.940    85482255.442 8      1110.033          49.500    20875642.880    85482264.443 8      1110.033          49.937
> 2024 05 08 14 53  3.0000000  0  9
G32  24808044.900   130367155.159 6      1996.237          39.312    24808045.500   130367155.148 3      1996.237          20.437    24808062.400   101584815.582 3      1555.510          20.625    24808058.560   101584856.578 5      1555.510          31.937
G27  23247628.640   122167098.633 6        -8.640          41.875    23247627.200   122167098.635 6        -8.640          40.000    23247646.120    95195210.253 6        -6.732          39.812    23247646.900    95195212.234 7        -6.732          43.812
R06  20783248.860   110903379.793 6      1922.043          37.562    20783248.040   110903379.786 6      1922.043          36.750
R12  21165813.980   113063947.770 7      1734.304          44.250    21165814.900   113063947.771 7      1734.304          43.750    21165823.680    87938704.754 6      1348.903          37.250    21165825.420    87938701.772 5      1348.903          35.875
R07  20752609.080   111090355.877 8      5500.050          48.312    20752610.600   111090355.916 8      5500.050          48.000    20752627.600    86403703.870 8      4277.817          48.125    20752627.640    86403698.882 8      4277.817          48.125
G21  21367956.200   112289361.279 7      1291.518          46.687    21367953.540   112289361.289 5      1291.518          33.062    21367959.340    87498217.173 5      1006.378          32.875
G02  21398345.320   112449062.627 8      2190.347          48.625    21398344.180   112449062.637 6      2190.347          39.875    21398348.200    87622659.460 6      1706.764          39.562
G03  20945178.720   110067666.491 6      4956.574          41.375    20945176.800   110067666.488 5      4956.574          32.687    20945189.240    85767041.224 5      3862.265          32.375    20945189.720    85767059.243 8      3862.265          48.875
G08  20875362.480   109700763.670 8      1423.834          51.125    20875361.520   109700763.672 8      1423.834          49.562    20875370.000    85481145.675 8      1109.481          49.750    20875371.940    85481154.675 8      1109.481          50.250
> 2024 05 08 14 53  4.0000000  0  9
G32  24807665.420   130365158.934 6      1996.034          38.875    24807666.540   130365158.918 3      1996.034          20.500    24807681.860   101583260.084 3      1555.351          20.625    24807679.760   101583301.104 5      1555.351          31.937
G27  23247630.820   122167107.146 7        -8.751          42.187    23247628.740   122167107.151 6        -8.751          39.937    23247647.840    95195216.871 6        -6.819          39.500    23247648.660    95195218.853 7        -6.819          44.312
R06  20782888.280   110901458.001 6      1921.392          37.562    20782888.460   110901457.994 6      1921.392          36.750
R12  21165488.940   113062213.500 7      1733.814          44.625    21165490.920   113062213.501 7      1733.814          43.625    21165499.260    87937355.873 6      1348.522          37.250    21165501.140    87937352.891 5      1348.522          35.875
R07  20751582.060   111084855.872 8      5499.636          48.812    20751583.180   111084855.911 7      5499.636          47.062    20751600.160    86399426.101 8      4277.495          48.125    20751600.540    86399421.115 8      4277.495          48.875
G21  21367710.500   112288069.560 7      1291.626          46.687    21367708.000   112288069.573 5      1291.626          33.062    21367713.420    87497210.636 5      1006.462          32.875
G02  21397928.460   112446872.110 8      2190.335          48.187    21397927.420   112446872.123 6      2190.335          38.812    21397931.140    87620952.564 6      1706.754          38.937
G03  20944235.380   110062709.905 6      4956.293          41.000    20944233.360   110062709.902 5      4956.293          32.562    20944246.180    85763178.955 5      3862.046          32.250    20944246.360    85763196.954 8      3862.046          48.625
G08  20875091.540   109699339.776 8      1423.529          50.312    20875090.640   109699339.783 8      1423.529          49.562    20875099.200    85480036.147 8      1109.243          49.750    20875101.120    85480045.150 8      1109.243          50.500
> 2024 05 08 14 53  5.0000000  0  9
G32  24807285.900   130363163.093 6      1995.705          38.375    24807287.020   130363163.087 3      1995.705          20.437    24807303.060   101581704.924 3      1555.095          20.625    24807300.260   101581745.899 5      1555.095          32.000
G27  23247632.080   122167115.743 7        -8.632          42.687    23247630.400   122167115.751 6        -8.632          40.062    23247649.440    95195223.558 6        -6.726          39.812    23247650.560    95195225.536 7        -6.726          44.062
R06  20782529.140   110899536.975 6      1920.487          37.562    20782528.180   110899536.978 6      1920.487          36.750
R12  21165164.520   113060479.860 7      1733.340          44.312    21165166.240   113060479.861 7      1733.340          43.625    21165174.580    87936007.485 6      1348.153          36.875    21165176.720    87936004.511 5      1348.153          35.875
R07  20750554.480   111079356.238 8      5499.374          48.312    20750555.940   111079356.279 7      5499.374          47.437    20750572.860    86395148.626 8      4277.291          48.125    20750573.280    86395143.636 8      4277.291          48.812
G21  21367464.880   112286777.741 7      1291.861          47.125    21367462.200   112286777.754 5      1291.861          32.562    21367467.480    87496204.028 5      1006.645          32.875
G02  21397511.860   112444681.504 8      2190.673          48.312    21397510.620   112444681.517 6      2190.673          39.625    21397514.420    87619245.598 6      1707.018          38.937
G03  20943292.760   110057753.663 6      4955.973          41.812    20943290.220   110057753.658 5      4955.973          32.562    20943302.900    85759316.954 5      3861.797          32.250    20943303.300    85759334.963 8      3861.797          48.750
G08  20874820.660   109697916.100 8      1423.506          50.375    20874819.800   109697916.102 8      1423.506          49.750    20874828.280    85478926.783 8      1109.226          49.437    20874830.120    85478935.786 8      1109.226          50.000
> 2024 05 08 14 53  6.0000000  0  9
G32  24806905.900   130361167.779 6      1994.869          38.375    24806906.680   130361167.795 3      1994.869          20.437    24806923.420   101580150.149 3      1554.443          20.562    24806921.580   101580191.136 5      1554.443          32.000
G27  23247633.700   122167124.632 6        -9.105          41.062    23247631.920   122167124.642 6        -9.105          40.125    23247651.200    95195230.472 6        -7.095          39.625    23247652.080    95195232.452 7        -7.095          44.375
R06  20782168.780   110897616.794 6      1919.600          37.250    20782168.140   110897616.800 6      1919.600          36.750
R12  21164840.620   113058747.067 7      1732.220          44.562    21164841.980   113058747.068 7      1732.220          43.625    21164849.960    87934659.747 6      1347.282          36.875    21164852.080    87934656.779 6      1347.282          36.062
R07  20749526.900   111073857.178 8      5498.703          49.125    20749528.780   111073857.223 7      5498.703          47.562    20749545.740    86390871.590 8      4276.769          48.250    20749545.900    86390866.607 8      4276.769          48.625
G21  21367219.060   112285485.998 7      1291.647          46.875    21367216.520   112285486.008 5      1291.647          32.562    21367221.840    87495197.475 5      1006.478          32.937
G02  21397094.860   112442491.050 8      2190.321          48.312    21397093.680   112442491.060 6      2190.321          39.312    21397097.520    87617538.748 6      1706.744          39.375
G03  20942349.660   110052797.926 6      4955.446          41.750    20942347.040   110052797.915 5      4955.446          32.375    20942359.800    85755455.344 5      3861.386          32.000    20942360.340    85755473.354 8      3861.386          49.000
G08  20874549.740   109696492.831 8      1423.030          50.375    20874549.040   109696492.836 8      1423.030          50.125    20874557.480    85477817.739 8      1108.854          50.187    20874559.380    85477826.741 8      1108.854          50.312
> 2024 05 08 14 53  7.0000000  0  9
G32  24806526.380   130359173.012 6      1994.595          38.250    24806525.980   130359173.012 3      1994.595          20.437    24806545.920   101578595.783 3      1554.230          20.562    24806542.380   101578636.787 5      1554.230          32.000
G27  23247635.860   122167133.863 6        -9.519          41.125    23247633.740   122167133.878 6        -9.519          39.437    23247652.860    95195237.650 6        -7.417          39.250    23247653.360    95195239.636 7        -7.417          44.375
R06  20781809.660   110895697.595 6      1918.590          37.250    20781808.180   110895697.599 6      1918.590          36.750
R12  21164516.060   113057015.145 7      1731.426          44.625    21164517.780   113057015.143 7      1731.426          43.812    21164525.800    87933312.708 6      1346.665          36.875    21164528.540    87933309.730 6      1346.665          36.062
R07  20748499.700   111068358.761 8      5498.062          48.187    20748501.940   111068358.811 7      5498.062          47.187    20748518.860    86386595.058 8      4276.270          48.187    20748518.960    86386590.070 8      4276.270          48.687
G21  21366973.100   112284194.392 7      1291.588          47.562    21366970.760   112284194.404 5      1291.588          32.687    21366976.000    87494191.029 5      1006.432          32.937
G02  21396678.040   112440300.754 8      2190.220          48.625    21396676.940   112440300.769 6      2190.220          39.312    21396680.600    87615832.030 6      1706.665          39.062
G03  20941406.580   110047842.795 6      4954.787          41.562    20941403.900   110047842.781 5      4954.787          32.375    20941416.920    85751594.214 5      3860.873          32.000    20941417.600    85751612.225 8      3860.873          48.687
G08  20874279.100   109695070.049 8      1422.545          50.812    20874278.400   109695070.051 8      1422.545          49.812    20874286.780    85476709.073 8      1108.476          50.125    20874288.520    85476718.076 8      1108.476          50.437
> 2024 05 08 14 53  8.0000000  0 10
G32  24806147.400   130357178.976 6      1993.642          38.125    24806147.520   130357178.978 3      1993.642          20.437    24806167.760   101577042.001 3      1553.487          20.562    24806164.160   101577082.988 5      1553.487          32.000
G27  23247638.080   122167143.472 6        -9.758          40.750    23247635.400   122167143.490 6        -9.758          39.562    23247654.880    95195245.127 6        -7.603          39.312    23247655.240    95195247.105 7        -7.603          44.187
R06  20781450.840   110893779.400 6      1917.690          37.250    20781448.680   110893779.406 6      1917.690          36.750
R12  21164192.100   113055284.192 7      1730.518          44.625    21164193.940   113055284.182 7      1730.518          43.875    21164201.920    87931966.389 6      1345.959          36.875    21164204.480    87931963.427 6      1345.959          36.062
R07  20747472.500   111062861.032 8      5497.470          48.750    20747474.860   111062861.084 7      5497.470          47.562    20747491.920    86382319.059 8      4275.810          48.187    20747491.900    86382314.069 8      4275.810          48.750
G21  21366727.480   112282902.985 7      1291.472          46.625    21366725.060   112282902.993 5      1291.472          32.687    21366730.040    87493184.740 5      1006.342          32.937
G02  21396261.280   112438110.707 8      2190.034          48.812    21396260.180   112438110.720 6      2190.034          39.500    21396264.020    87614125.499 6      1706.520          39.437
R21  21340458.060   114197101.988 7      1570.967          42.000
G03  20940463.760   110042888.282 6      4954.335          40.562    20940461.180   110042888.274 5      4954.335          32.375    20940473.960    85747733.565 5      3860.521          32.000    20940474.540    85747751.584 8      3860.521          48.625
G08  20874008.280   109693647.789 8      1422.077          50.625    20874007.820   109693647.786 8      1422.077          49.687    20874016.140    85475600.814 8      1108.112          49.250    20874017.940    85475609.815 8      1108.112          50.687
> 2024 05 08 14 53  9.0000000  0 10
G32  24805767.620   130355185.187 6      1993.693          38.125    24805768.640   130355185.184 3      1993.693          20.437    24805789.160   101575488.415 3      1553.527          20.562    24805786.140   101575529.415 5      1553.527          32.000
G27  23247639.680   122167153.175 6        -9.755          40.125    23247637.360   122167153.198 6        -9.755          39.812    23247656.840    95195252.678 6        -7.601          39.625    23247657.260    95195254.656 7        -7.601          44.125
R06  20781091.900   110891861.890 6      1917.264          37.250    20781090.240   110891861.875 6      1917.264          36.750
R12  21163868.420   113053553.827 7      1730.016          44.625    21163869.760   113053553.830 7      1730.016          43.375    21163877.800    87930620.557 6      1345.568          36.375    21163880.240    87930617.583 6      1345.568          36.062
R07  20746445.460   111057363.664 8      5497.253          48.562    20746447.940   111057363.717 7      5497.253          47.812    20746465.140    86378043.341 8      4275.641          48.562    20746465.060    86378038.351 8      4275.641          48.875
G21  21366481.580   112281611.479 7      1291.595          46.625    21366479.320   112281611.489 5      1291.595          32.875    21366484.320    87492178.371 5      1006.438          32.937
G02  21395844.500   112435920.582 8      2190.196          49.250    21395843.520   112435920.592 6      2190.196          39.562    21395847.020    87612418.905 6      1706.647          39.937
R21  21340164.300   114195530.896 7      1571.048          42.000
G03  20939520.980   110037934.158 6      4953.975          41.812    20939518.300   110037934.152 5      4953.975          32.687    20939531.340    85743873.214 5      3860.241          32.312    20939531.600    85743891.224 8      3860.241          48.875
G08  20873737.740   109692225.743 8      1421.904          51.187    20873737.220   109692225.745 8      1421.904          50.312    20873745.500    85474492.722 8      1107.977          50.437    20873747.080    85474501.725 8      1107.977          50.187
> 2024 05 08 14 53 10.0000000  0 10
G32  24805388.600   130353191.981 6      1992.904          38.250    24805389.500   130353191.980 3      1992.904          20.437    24805408.260   101573935.288 3      1552.912          20.562    24805404.040   101573976.273 5      1552.912          32.000
G27  23247641.520   122167163.186 6       -10.276          40.250    23247639.300   122167163.201 6       -10.276          40.187    23247658.820    95195260.456 6        -8.008          39.812    23247659.200    95195262.430 7        -8.008          44.250
R06  20780732.300   110889945.280 6      1916.128          37.250    20780730.660   110889945.283 6      1916.128          36.750
R12  21163544.680   113051824.273 7      1729.081          43.812    21163546.580   113051824.277 7      1729.081          43.375    21163553.640    87929275.341 6      1344.841          36.375    21163556.500    87929272.375 6      1344.841          36.812
R07  20745418.400   111051866.915 8      5496.476          48.875    20745421.080   111051866.962 8      5496.476          48.062    20745438.540    86373768.097 8      4275.037          48.687    20745437.980    86373763.112 8      4275.037          48.875
G21  21366235.820   112280320.056 7      1291.381          46.062    21366233.600   112280320.066 5      1291.381          32.875    21366238.560    87491172.068 5      1006.271          32.875
G02  21395428.100   112433730.598 8      2189.841          49.062    21395426.780   112433730.611 6      2189.841          39.562    21395430.200    87610712.423 6      1706.370          39.625
R21  21339870.560   114193959.901 7      1570.944          42.000
G03  20938578.400   110032980.543 6      4953.251          41.625    20938575.600   110032980.535 5      4953.251          32.687    20938588.600    85740013.261 5      3859.676          32.312    20938588.980    85740031.276 8      3859.676          48.812
G08  20873467.360   109690804.103 8      1421.429          50.937    20873466.780   109690804.108 8      1421.429          50.000    20873475.100    85473384.951 8      1107.607          49.937    20873476.600    85473393.952 8      1107.607          50.687
> 2024 05 08 14 53 11.0000000  0 10
G32  24805009.060   130351199.355 6      1992.481          37.250    24805009.740   130351199.342 3      1992.481          20.437    24805029.140   101572382.584 3      1552.583          20.562    24805027.160   101572423.590 5      1552.583          32.000
G27  23247643.060   122167173.502 6       -10.406          40.375    23247641.160   122167173.520 6       -10.406          39.687    23247660.620    95195268.478 6        -8.108          39.750    23247661.400    95195270.456 7        -8.108          44.062
R06  20780373.100   110888029.638 6      1915.419          37.312    20780371.660   110888029.652 6      1915.419          36.750
R12  21163221.100   113050095.596 7      1728.380          44.000    21163223.000   113050095.600 7      1728.380          43.875    21163229.840    87927930.810 6      1344.296          36.375    21163232.960    87927927.842 6      1344.296          36.812
R07  20744392.120   111046370.818 8      5495.827          48.812    20744394.560   111046370.865 7      5495.827          47.437    20744411.940    86369493.370 8      4274.532          48.250    20744411.680    86369488.378 8      4274.532          49.875
G21  21365990.100   112279028.789 7      1291.296          47.625    21365987.940   112279028.794 5      1291.296          32.625    21365992.920    87490165.882 5      1006.205          32.875
G02  21395011.320   112431540.786 8      2189.807          49.562    21395010.040   112431540.801 6      2189.807          39.625    21395013.460    87609006.077 6      1706.343          39.000
R21  21339576.880   114192389.066 6      1570.794          41.875
G03  20937636.020   110028027.525 6      4952.706          40.562    20937632.980   110028027.519 5      4952.706          32.687    20937645.920    85736153.775 5      3859.252          32.312    20937646.440    85736171.788 8      3859.252          49.125
G08  20873197.040   109689382.963 8      1421.061          50.312    20873196.380   109689382.963 8      1421.061          50.062    20873204.680    85472277.559 8      1107.320          50.000    20873206.280    85472286.561 8      1107.320          50.375
> 2024 05 08 14 53 12.0000000  0 10
G32  24804629.260   130349207.140 6      1991.992          37.250    24804629.620   130349207.150 3      1991.992          20.437    24804649.580   101570830.219 3      1552.201          20.562    24804647.300   101570871.229 5      1552.201          32.000
G27  23247644.780   122167183.991 6       -10.678          40.062    23247643.240   122167184.009 6       -10.678          39.687    23247662.680    95195276.639 6        -8.320          39.125    23247663.380    95195278.615 7        -8.320          44.437
R06  20780013.520   110886114.825 6      1914.152          37.312    20780012.880   110886114.847 6      1914.152          36.750
R12  21162897.540   113048367.635 7      1727.476          44.062    21162899.660   113048367.638 7      1727.476          43.562    21162906.140    87926586.832 6      1343.593          36.375    21162909.280    87926583.868 6      1343.593          36.812
R07  20743365.620   111040875.158 8      5495.351          49.125    20743367.960   111040875.208 8      5495.351          48.187    20743385.360    86365218.980 8      4274.162          48.562    20743384.920    86365213.989 8      4274.162          49.625
G21  21365744.380   112277737.474 7      1291.154          46.312    21365742.080   112277737.485 5      1291.154          32.625    21365747.300    87489159.667 5      1006.094          32.750
G02  21394594.760   112429350.984 8      2189.650          49.375    21394593.220   112429350.999 6      2189.650          39.625    21394596.700    87607299.738 6      1706.221          39.437
R21  21339283.160   114190818.157 6      1570.768          41.875
G03  20936693.460   110023074.909 6      4952.303          41.375    20936690.420   110023074.903 5      4952.303          32.687    20936703.300    85732294.601 5      3858.937          32.312    20936704.180    85732312.611 8      3858.937          48.562
G08  20872926.540   109687962.106 8      1420.623          50.937    20872926.060   109687962.106 8      1420.623          50.312    20872934.320    85471170.396 8      1106.979          50.125    20872936.000    85471179.401 8      1106.979          50.500
> 2024 05 08 14 53 13.0000000  0 10
G32  24804250.800   130347215.534 6      1991.285          36.937    24804250.900   130347215.539 3      1991.285          20.437    24804270.680   101569278.345 3      1551.651          20.562    24804268.600   101569319.336 5      1551.651          32.000
G27  23247646.800   122167194.779 6       -10.916          40.500    23247645.180   122167194.800 6       -10.916          39.937    23247664.840    95195285.029 6        -8.506          39.375    23247665.420    95195287.003 7        -8.506          44.437
R06  20779654.800   110884200.883 6      1913.436          37.312    20779654.460   110884200.891 6      1913.436          37.062
R12  21162574.500   113046640.507 7      1726.830          44.062    21162575.940   113046640.521 7      1726.830          43.562    21162582.740    87925243.508 6      1343.090          36.125    21162585.200    87925240.528 6      1343.090          36.812
R07  20742339.420   111035380.097 8      5494.864          49.312    20742341.300   111035380.142 8      5494.864          48.312    20742359.080    86360945.053 8      4273.783          48.500    20742358.560    86360940.057 8      4273.783          49.687
G21  21365498.640   112276446.249 7      1291.260          47.125    21365496.560   112276446.257 5      1291.260          32.625    21365501.420    87488153.515 5      1006.177          32.750
G02  21394178.060   112427161.310 8      2189.630          49.187    21394176.440   112427161.323 6      2189.630          39.750    21394180.120    87605593.501 6      1706.205          39.562
R21  21338989.800   114189247.327 6      1570.903          41.875
G03  20935751.040   110018122.813 6      4952.058          41.062    20935748.020   110018122.808 5      4952.058          32.687    20935760.920    85728435.834 5      3858.746          32.312    20935761.840    85728453.847 8      3858.746          48.687
G08  20872656.360   109686541.676 8      1420.287          51.562    20872655.800   109686541.678 8      1420.287          49.875    20872664.080    85470063.562 8      1106.717          50.062    20872665.620    85470072.571 8      1106.717          51.000
> 2024 05 08 14 53 14.0000000  0 10
G32  24803872.220   130345224.285 6      1990.993          36.937    24803871.720   130345224.296 3      1990.993          19.250    24803891.880   101567726.702 3      1551.423          20.562    24803888.540   101567767.710 5      1551.423          32.000
G27  23247648.940   122167205.736 6       -11.126          40.812    23247647.160   122167205.757 6       -11.126          39.937    23247667.100    95195293.553 6        -8.670          39.312    23247667.920    95195295.527 7        -8.670          44.562
R06  20779296.300   110882287.733 6      1912.792          37.312    20779295.840   110882287.749 6      1912.792          37.062
R12  21162250.880   113044914.140 7      1725.958          43.937    21162253.080   113044914.151 7      1725.958          43.437    21162259.620    87923900.766 6      1342.412          36.125    21162261.740    87923897.787 5      1342.412          35.812
R07  20741312.960   111029885.518 8      5494.212          48.937    20741315.340   111029885.565 8      5494.212          48.437    20741332.840    86356671.506 8      4273.276          48.687    20741332.080    86356666.512 8      4273.276          49.562
G21  21365252.760   112275155.019 7      1291.255          47.750    21365250.900   112275155.029 5      1291.255          32.625    21365255.620    87487147.365 5      1006.173          32.687
G02  21393761.220   112424971.671 8      2189.521          48.812    21393759.740   112424971.686 6      2189.521          39.812    21393763.460    87603887.290 6      1706.120          39.750
R21  21338695.780   114187676.544 6      1570.654          41.875    21338699.200   114187676.580 6      1570.654          39.500    21338710.180    88812693.905 6      1221.620          38.375
G03  20934808.660   110013171.209 6      4951.279          40.375    20934805.760   110013171.206 5      4951.279          32.250    20934818.540    85724577.447 5      3858.139          31.750    20934819.380    85724595.464 8      3858.139          49.000
G08  20872386.060   109685121.571 8      1419.840          50.812    20872385.660   109685121.573 8      1419.840          50.000    20872393.840    85468956.983 8      1106.369          50.312    20872395.560    85468965.992 8      1106.369          50.625
> 2024 05 08 14 53 15.0000000  0 10
G32  24803493.500   130343233.723 6      1990.284          36.562    24803493.080   130343233.720 3      1990.284          19.250    24803512.000   101566175.623 3      1550.871          20.562    24803510.700   101566216.620 5      1550.871          32.000
G27  23247651.500   122167217.063 6       -11.268          40.562    23247649.300   122167217.089 6       -11.268          39.812    23247669.160    95195302.363 6        -8.780          39.187    23247669.960    95195304.335 7        -8.780          44.375
R06  20778938.180   110880375.639 6      1911.630          37.312    20778937.320   110880375.656 6      1911.630          37.062
R12  21161927.660   113043188.665 7      1725.111          43.312    21161930.040   113043188.674 7      1725.111          43.062    21161935.880    87922558.707 6      1341.753          36.125    21161938.700    87922555.722 5      1341.753          35.812
R07  20740286.360   111024391.619 8      5493.718          48.687    20740288.840   111024391.664 7      5493.718          47.500    20740306.620    86352398.482 8      4272.892          48.687    20740305.580    86352393.486 8      4272.892          49.875
G21  21365007.300   112273863.983 7      1291.075          46.312    21365005.320   112273863.990 5      1291.075          32.437    21365009.940    87486141.361 5      1006.033          32.687
G02  21393344.580   112422782.242 8      2189.447          48.187    21393343.100   112422782.255 6      2189.447          39.687    21393346.700    87602181.240 6      1706.063          39.312
R21  21338402.480   114186105.944 6      1570.583          41.875    21338405.440   114186105.973 6      1570.583          39.500    21338416.620    88811472.326 6      1221.564          38.375    21338416.700    88811471.350 6      1221.564          38.312
G03  20933866.400   110008220.201 6      4950.744          40.937    20933863.540   110008220.200 5      4950.744          32.250    20933876.420    85720719.525 5      3857.723          31.750    20933877.400    85720737.544 8      3857.723          48.750
G08  20872115.920   109683701.960 8      1419.455          51.375    20872115.660   109683701.964 8      1419.455          50.437    20872123.700    85467850.791 8      1106.069          50.562    20872125.380    85467859.799 8      1106.069          50.687
> 2024 05 08 14 53 16.0000000  0 10
G32  24803114.220   130341243.628 6      1989.755          36.562    24803114.100   130341243.630 3      1989.755          19.250    24803133.720   101564624.905 3      1550.459          19.250    24803132.340   101564665.911 5      1550.459          32.000
G27  23247653.580   122167228.711 6       -11.935          40.250    23247651.480   122167228.737 6       -11.935          39.562    23247671.420    95195311.429 6        -9.300          39.125    23247671.900    95195313.392 7        -9.300          44.375
R06  20778580.360   110878464.373 6      1910.706          37.375    20778579.240   110878464.411 6      1910.706          37.062
R12  21161605.360   113041464.010 7      1723.972          43.312    21161606.460   113041464.022 7      1723.972          43.062    21161613.580    87921217.300 6      1340.867          36.125    21161616.340    87921214.328 5      1340.867          35.812
R07  20739260.200   111018898.338 8      5492.827          49.687    20739262.660   111018898.383 8      5492.827          48.625    20739280.380    86348125.945 8      4272.199          48.687    20739279.520    86348120.946 8      4272.199          49.875
G21  21364761.640   112272573.025 7      1290.730          47.625    21364759.900   112272573.035 5      1290.730          32.437    21364764.280    87485135.422 5      1005.764          32.687
G02  21392927.840   112420592.941 8      2189.101          49.062    21392926.400   112420592.954 6      2189.101          39.562    21392929.980    87600475.287 6      1705.793          39.750
R21  21338108.660   114184535.431 7      1570.317          42.437    21338111.560   114184535.464 6      1570.317          39.500    21338122.980    88810250.821 6      1221.358          38.937    21338122.920    88810249.843 6      1221.358          38.312
G03  20932924.740   110003269.747 6      4949.873          40.187    20932921.280   110003269.752 5      4949.873          32.250    20932934.200    85716862.038 5      3857.044          31.750    20932935.260    85716880.054 8      3857.044          48.875
G08  20871845.840   109682282.764 8      1418.883          52.250    20871845.540   109682282.771 8      1418.883          50.187    20871853.620    85466744.920 8      1105.623          50.125    20871855.340    85466753.930 8      1105.623          50.687
> 2024 05 08 14 53 17.0000000  0 10
G32  24802735.680   130339254.145 6      1989.036          36.562    24802735.600   130339254.144 3      1989.036          19.250    24802755.660   101563074.675 3      1549.899          19.250    24802752.440   101563115.671 5      1549.899          32.000
G27  23247655.840   122167240.648 6       -12.216          40.875    23247653.940   122167240.658 6       -12.216          39.625    23247673.760    95195320.701 6        -9.519          38.812    23247674.440    95195322.665 7        -9.519          44.187
R06  20778223.200   110876554.117 6      1909.822          37.375    20778221.560   110876554.116 6      1909.822          37.062
R12  21161282.580   113039740.175 7      1723.361          42.562    21161283.340   113039740.200 7      1723.361          42.875    21161291.080    87919876.540 6      1340.392          36.125    21161293.540    87919873.551 5      1340.392          35.812
R07  20738233.960   111013405.665 8      5492.334          48.937    20738236.900   111013405.702 7      5492.334          47.937    20738254.380    86343853.872 8      4271.815          49.125    20738253.380    86343848.874 8      4271.815          49.812
G21  21364516.000   112271282.155 7      1290.765          47.687    21364514.260   112271282.162 5      1290.765          32.500    21364518.620    87484129.547 5      1005.791          32.750
G02  21392511.180   112418403.773 8      2189.079          48.750    21392509.880   112418403.785 6      2189.079          39.375    21392513.540    87598769.441 6      1705.776          39.437
R21  21337814.880   114182965.046 7      1570.183          42.437    21337818.180   114182965.077 6      1570.183          41.187    21337830.160    88809029.406 6      1221.254          38.937    21337829.580    88809028.422 6      1221.254          39.437
G03  20931982.980   109998319.808 6      4949.611          40.437    20931979.200   109998319.808 5      4949.611          32.375    20931992.080    85713004.948 5      3856.840          32.125    20931993.240    85713022.959 8      3856.840          48.437
G08  20871575.880   109680864.004 8      1418.501          51.750    20871575.700   109680864.009 8      1418.501          50.125    20871583.700    85465639.388 8      1105.326          50.062    20871585.500    85465648.397 8      1105.326          50.562
> 2024 05 08 14 53 18.0000000  0 10
G32  24802356.680   130337265.237 5      1988.233          35.875    24802356.940   130337265.226 3      1988.233          19.250    24802376.760   101561524.873 3      1549.272          19.250    24802376.060   101561565.859 5      1549.272          32.000
G27  23247658.240   122167252.863 6       -12.475          39.812    23247656.180   122167252.878 6       -12.475          39.437    23247676.160    95195330.205 6        -9.720          39.250    23247676.900    95195332.175 7        -9.720          44.000
R06  20777865.320   110874644.729 6      1908.835          37.375    20777864.120   110874644.727 6      1908.835          37.187
R12  21160959.860   113038017.222 7      1722.479          42.562    21160961.020   113038017.242 7      1722.479          42.875    21160969.360    87918536.440 6      1339.706          36.000    21160970.440    87918533.445 5      1339.706          35.812
R07  20737207.940   111007913.602 8      5491.714          49.062    20737210.980   111007913.639 7      5491.714          47.812    20737228.460    86339582.282 8      4271.333          48.187    20737227.420    86339577.284 8      4271.333          49.250
G21  21364270.200   112269991.421 7      1290.549          46.875    21364268.520   112269991.426 5      1290.549          32.500    21364273.140    87483123.783 5      1005.623          32.750
G02  21392094.760   112416214.772 8      2188.862          48.250    21392093.380   112416214.784 6      2188.862          39.125    21392096.880    87597063.731 6      1705.607          39.437
R21  21337521.820   114181394.767 7      1570.151          42.437    21337524.280   114181394.777 6      1570.151          41.187    21337536.080    88807808.064 6      1221.229          39.250    21337536.100    88807807.087 6      1221.229          39.437
G03  20931040.780   109993370.453 6      4949.030          40.250    20931037.380   109993370.448 5      4949.030          32.375    20931050.200    85709148.307 5      3856.387          32.125    20931051.540    85709166.318 8      3856.387          48.375
G08  20871306.160   109679445.683 8      1418.063          50.937    20871305.820   109679445.688 8      1418.063          49.375    20871313.860    85464534.195 8      1104.984          49.437    20871315.420    85464543.206 8      1104.984          50.437
> 2024 05 08 14 53 19.0000000  0 10
G32  24801978.840   130335276.845 5      1988.071          35.875    24801977.940   130335276.847 3      1988.071          19.250    24801998.140   101559975.485 3      1549.146          19.250    24802000.440   101560016.476 5      1549.146          32.000
G27  23247660.620   122167265.438 6       -12.756          39.812    23247658.500   122167265.451 6       -12.756          39.375    23247678.640    95195339.990 6        -9.940          39.000    23247679.080    95195341.960 7        -9.940          44.375
R06  20777507.120   110872736.320 6      1907.944          37.375    20777507.000   110872736.327 6      1907.944          37.187
R12  21160637.920   113036295.160 7      1721.642          42.437    21160638.840   113036295.172 7      1721.642          42.625    21160646.720    87917197.040 6      1339.055          36.000    21160648.380    87917194.043 5      1339.055          35.437
R07  20736182.120   111002422.200 8      5491.181          49.000    20736185.140   111002422.237 8      5491.181          48.437    20736202.600    86335311.200 8      4270.918          49.250    20736201.780    86335306.199 8      4270.918          49.625
G21  21364024.500   112268700.805 7      1290.600          46.500    21364023.100   112268700.810 5      1290.600          32.437    21364027.540    87482118.108 5      1005.662          32.625
G02  21391678.320   112414025.952 7      2188.761          47.750    21391676.880   112414025.960 6      2188.761          39.375    21391680.240    87595358.155 6      1705.528          39.375
R21  21337228.820   114179824.618 6      1570.157          41.937    21337230.580   114179824.638 6      1570.157          41.312    21337242.580    88806586.851 6      1221.233          39.250    21337242.560    88806585.867 6      1221.233          39.812
G03  20930099.000   109988421.686 6      4948.702          40.250    20930095.580   109988421.678 5      4948.702          32.375    20930108.460    85705292.129 5      3856.131          32.125    20930109.500    85705310.143 8      3856.131          48.500
G08  20871036.300   109678027.845 8      1417.731          51.125    20871036.000   109678027.853 8      1417.731          50.375    20871043.940    85463429.389 8      1104.726          50.125    20871045.740    85463438.398 8      1104.726          51.312
> 2024 05 08 14 53 20.0000000  0 10
G32  24801600.460   130333289.038 5      1987.486          35.437    24801600.200   130333289.027 3      1987.486          19.250    24801619.240   101558426.547 3      1548.691          19.250    24801622.820   101558467.522 5      1548.691          32.000
G27  23247663.020   122167278.271 6       -12.977          40.375    23247660.900   122167278.292 6       -12.977          39.937    23247681.000    95195349.977 6       -10.112          39.125    23247681.260    95195351.943 7       -10.112          44.375
R06  20777150.360   110870828.845 6      1906.898          37.375    20777149.260   110870828.830 6      1906.898          37.187
R12  21160315.440   113034573.887 7      1720.809          42.437    21160316.360   113034573.909 7      1720.809          42.187    21160326.140    87915858.276 6      1338.407          36.000    21160326.360    87915855.265 5      1338.407          35.437
R07  20735156.320   110996931.366 8      5490.504          49.562    20735159.560   110996931.405 8      5490.504          48.750    20735176.840    86331040.569 8      4270.392          49.187    20735176.120    86331035.567 8      4270.392          50.000
G21  21363778.880   112267410.268 7      1290.513          47.250    21363777.540   112267410.276 5      1290.513          32.437    21363781.840    87481112.495 5      1005.594          32.625
G02  21391261.800   112411837.246 8      2188.583          48.625    21391260.380   112411837.261 6      2188.583          39.500    21391263.680    87593652.675 6      1705.389          39.750
R21  21336935.500   114178254.559 6      1569.946          41.937    21336936.880   114178254.590 6      1569.946          41.312    21336949.540    88805365.703 6      1221.069          39.250    21336948.880    88805364.713 6      1221.069          39.812
G03  20929157.240   109983473.461 6      4947.832          40.250    20929153.780   109983473.458 5      4947.832          32.000    20929166.900    85701436.377 5      3855.454          31.750    20929167.840    85701454.403 8      3855.454          48.437
G08  20870766.540   109676610.426 8      1417.144          51.687    20870766.380   109676610.433 8      1417.144          50.250    20870774.340    85462324.900 8      1104.268          50.375    20870776.140    85462333.913 8      1104.268          50.812
> 2024 05 08 14 53 21.0000000  0 10
G32  24801223.100   130331301.784 5      1987.064          35.437    24801221.140   130331301.775 3      1987.064          19.250    24801241.320   101556878.047 3      1548.361          19.250    24801244.440   101556919.036 5      1548.361          30.812
G27  23247665.480   122167291.493 6       -13.592          41.062    23247663.340   122167291.506 6       -13.592          39.437    23247683.640    95195360.262 6       -10.591          39.062    23247684.280    95195362.227 7       -10.591          44.312
R06  20776792.620   110868922.310 6      1905.995          37.687    20776791.940   110868922.292 6      1905.995          37.187
R12  21159993.660   113032853.532 6      1719.956          41.187    21159994.660   113032853.552 7      1719.956          42.187    21160003.700    87914520.208 6      1337.744          36.000    21160004.040    87914517.197 5      1337.744          35.437
R07  20734130.580   110991441.171 8      5489.879          49.687    20734133.860   110991441.208 8      5489.879          48.312    20734151.280    86326770.428 8      4269.906          48.937    20734150.580    86326765.428 8      4269.906          49.750
G21  21363533.460   112266119.892 7      1290.346          47.125    21363531.980   112266119.899 5      1290.346          32.687    21363536.400    87480107.009 5      1005.465          32.750
G02  21390845.520   112409648.728 8      2188.444          48.875    21390843.940   112409648.741 6      2188.444          39.187    21390847.200    87591947.333 6      1705.281          39.375
R21  21336642.300   114176684.615 6      1569.795          41.375    21336643.560   114176684.654 6      1569.795          41.312    21336656.660    88804144.648 6      1220.952          39.750    21336656.000    88804143.652 6      1220.952          39.750
G03  20928215.800   109978525.806 6      4947.262          40.437    20928212.360   109978525.810 5      4947.262          32.000    20928225.220    85697581.072 5      3855.009          31.750    20928226.140    85697599.095 8      3855.009          48.062
G08  20870496.860   109675193.466 8      1416.671          51.500    20870496.700   109675193.473 8      1416.671          50.625    20870504.640    85461220.773 8      1103.899          50.437    20870506.420    85461229.784 8      1103.899          50.625
> 2024 05 08 14 53 22.0000000  0 10
G32  24800844.220   130329315.104 5      1986.456          35.437    24800843.320   130329315.091 3      1986.456          19.250    24800863.680   101555330.003 3      1547.888          19.250    24800866.800   101555370.985 5      1547.888          30.812
G27  23247668.340   122167304.938 6       -13.537          40.875    23247665.900   122167304.951 6       -13.537          39.687    23247686.400    95195370.720 6       -10.548          39.312    23247686.300    95195372.683 7       -10.548          44.437
R06  20776435.260   110867016.603 6      1905.566          37.687    20776435.060   110867016.612 6      1905.566          37.187
R12  21159671.240   113031133.963 6      1719.357          41.187    21159672.360   113031133.996 7      1719.357          42.187    21159681.940    87913182.765 6      1337.277          36.250    21159682.520    87913179.756 5      1337.277          35.437
R07  20733105.100   110985951.549 8      5489.520          49.000    20733108.040   110985951.586 8      5489.520          48.000    20733125.580    86322500.735 8      4269.626          48.937    20733124.700    86322495.731 8      4269.626          49.625
G21  21363288.040   112264829.565 7      1290.508          47.375    21363286.500   112264829.575 5      1290.508          32.687    21363290.900    87479101.563 5      1005.591          32.750
G02  21390428.980   112407460.314 8      2188.528          49.437    21390427.380   112407460.321 6      2188.528          39.812    21390430.780    87590242.073 6      1705.346          39.375
R21  21336349.180   114175114.776 6      1569.992          41.375    21336349.800   114175114.807 6      1569.992          41.687    21336362.960    88802923.645 6      1221.105          39.750    21336362.800    88802922.653 6      1221.105          39.750
G03  20927274.360   109973578.660 6      4947.125          40.062    20927270.920   109973578.660 5      4947.125          32.125    20927283.820    85693726.157 5      3854.902          31.875    20927285.000    85693744.175 8      3854.902          48.125
G08  20870227.340   109673776.903 8      1416.521          51.875    20870227.220   109673776.908 8      1416.521          50.625    20870235.120    85460116.951 8      1103.782          50.750    20870236.860    85460125.964 8      1103.782          50.750
> 2024 05 08 14 53 23.0000000  0 10
G32  24800466.760   130327329.082 5      1985.604          35.437    24800466.040   130327329.063 3      1985.604          19.250    24800485.940   101553782.455 3      1547.224          19.250    24800490.200   101553823.424 5      1547.224          30.812
G27  23247671.120   122167318.790 6       -13.803          41.500    23247668.480   122167318.798 6       -13.803          39.437    23247689.180    95195381.495 6       -10.755          39.562    23247688.860    95195383.463 7       -10.755          44.375
R06  20776078.420   110865112.042 6      1904.177          37.687    20776078.520   110865112.043 6      1904.177          37.437
R12  21159349.640   113029415.403 6      1718.201          41.187    21159350.880   113029415.433 6      1718.201          41.625    21159360.260    87911846.083 6      1336.378          36.250    21159360.540    87911843.088 6      1336.378          36.062
R07  20732079.980   110980462.672 8      5488.635          50.125    20732082.980   110980462.711 8      5488.635          48.312    20732100.080    86318231.622 8      4268.938          48.875    20732099.440    86318226.618 8      4268.938          49.750
G21  21363042.540   112263539.496 7      1290.123          47.187    21363041.120   112263539.506 5      1290.123          32.375    21363045.660    87478096.313 5      1005.290          32.750
G02  21390012.740   112405272.175 8      2188.149          49.437    21390010.920   112405272.187 6      2188.149          39.437    21390014.420    87588537.031 6      1705.051          39.500
R21  21336055.480   114173545.215 6      1569.617          41.375    21336057.220   114173545.249 6      1569.617          41.687    21336070.080    88801702.882 6      1220.813          40.000    21336069.340    88801701.883 6      1220.813          40.062
G03  20926333.000   109968632.232 6      4946.234          40.312    20926329.560   109968632.234 5      4946.234          32.125    20926342.480    85689871.804 5      3854.208          31.875    20926343.480    85689889.823 8      3854.208          48.187
G08  20869957.960   109672360.910 8      1415.860          51.312    20869957.780   109672360.923 8      1415.860          50.562    20869965.720    85459013.578 8      1103.267          50.937    20869967.400    85459022.589 8      1103.267          50.750
> 2024 05 08 14 53 24.0000000  0 10
G32  24800087.800   130325343.483 5      1985.278          34.250    24800088.540   130325343.459 3      1985.278          19.250    24800107.820   101552235.239 3      1546.970          19.250    24800111.680   101552276.208 5      1546.970          30.812
G27  23247673.440   122167332.889 6       -14.324          41.187    23247671.200   122167332.897 6       -14.324          39.625    23247691.860    95195392.465 6       -11.162          38.875    23247691.740    95195394.435 7       -11.162          44.500
R06  20775721.600   110863208.268 6      1903.153          37.687    20775721.860   110863208.266 6      1903.153          37.437
R12  21159028.020   113027697.519 6      1717.489          40.375    21159028.380   113027697.552 6      1717.489          41.625    21159039.400    87910509.942 6      1335.824          36.250    21159039.100    87910506.958 6      1335.824          36.062
R07  20731054.380   110974974.265 8      5488.097          49.312    20731057.720   110974974.298 8      5488.097          48.250    20731074.760    86313962.870 8      4268.520          48.937    20731074.180    86313957.867 8      4268.520          49.562
G21  21362797.240   112262249.413 7      1290.005          46.562    21362795.520   112262249.421 5      1290.005          32.375    21362800.260    87477091.054 5      1005.199          32.437
G02  21389596.280   112403084.065 8      2188.033          49.312    21389594.620   112403084.075 6      2188.033          39.187    21389597.980    87586832.011 6      1704.961          39.312
R21  21335762.220   114171975.643 6      1569.560          40.875    21335763.540   114171975.693 6      1569.560          41.500    21335776.520    88800482.116 6      1220.769          40.437    21335775.980    88800481.124 6      1220.769          40.062
G03  20925392.000   109963686.234 6      4945.644          40.875    20925388.640   109963686.242 5      4945.644          32.125    20925401.260    85686017.784 5      3853.748          31.875    20925402.460    85686035.805 7      3853.748          47.750
G08  20869688.440   109670945.235 8      1415.449          51.375    20869688.340   109670945.245 8      1415.449          50.437    20869696.240    85457910.447 8      1102.947          50.812    20869698.040    85457919.464 8      1102.947          51.125
> 2024 05 08 14 53 25.0000000  0 10
G32  24799710.680   130323358.501 5      1984.776          34.250    24799710.960   130323358.461 2      1984.776          17.125    24799730.100   101550688.502 3      1546.579          19.250    24799732.500   101550729.477 5      1546.579          30.812
G27  23247675.980   122167347.333 6       -14.604          40.625    23247673.960   122167347.338 6       -14.604          39.812    23247694.780    95195403.704 6       -11.379          39.250    23247695.000    95195405.665 7       -11.379          44.562
R06  20775365.060   110861305.440 6      1902.443          38.625    20775365.860   110861305.446 6      1902.443          37.437
R12  21158706.340   113025980.583 6      1716.423          40.375    21158706.920   113025980.614 6      1716.423          41.187    21158717.380    87909174.550 6      1334.995          36.250    21158717.600    87909171.553 6      1334.995          36.062
R07  20730029.360   110969486.519 8      5487.391          49.375    20730032.360   110969486.558 8      5487.391          48.375    20730049.440    86309694.642 8      4267.971          49.750    20730049.080    86309689.638 8      4267.971          49.625
G21  21362551.660   112260959.507 7      1289.865          46.437    21362550.100   112260959.515 5      1289.865          32.375    21362554.880    87476085.932 5      1005.089          32.437
G02  21389180.040   112400896.178 8      2187.801          48.625    21389178.180   112400896.185 6      2187.801          39.562    21389181.640    87585127.158 6      1704.780          39.125
R21  21335468.960   114170406.261 6      1569.429          40.875    21335470.380   114170406.298 6      1569.429          41.500    21335483.200    88799261.474 6      1220.667          40.437    21335482.740    88799260.481 6      1220.667          40.375
G03  20924450.960   109958740.855 6      4945.106          40.437    20924447.540   109958740.859 5      4945.106          32.187    20924460.060    85682164.247 5      3853.330          31.875    20924461.140    85682182.261 7      3853.330          47.937
G08  20869419.120   109669530.077 8      1414.879          51.062    20869419.120   109669530.090 8      1414.879          50.625    20869426.900    85456807.727 8      1102.503          50.687    20869428.480    85456816.740 8      1102.503          50.812
> 2024 05 08 14 53 26.0000000  0 10
G32  24799333.740   130321374.097 5      1983.762          34.250    24799333.140   130321374.062 2      1983.762          17.125    24799352.640   101549142.228 3      1545.788          19.250    24799355.780   101549183.246 5      1545.788          30.812
G27  23247678.960   122167362.042 6       -14.933          40.937    23247676.700   122167362.049 6       -14.933          40.375    23247697.520    95195415.155 6       -11.636          39.750    23247697.900    95195417.125 7       -11.636          44.625
R06  20775008.180   110859403.595 6      1901.171          38.625    20775009.400   110859403.609 6      1901.171          37.437
R12  21158386.060   113024264.451 6      1715.633          40.375    21158384.900   113024264.484 6      1715.633          41.187    21158396.600    87907839.770 6      1334.381          36.500    21158396.140    87907836.777 6      1334.381          36.062
R07  20729004.600   110963999.362 8      5486.715          50.062    20729007.400   110963999.401 7      5486.715          47.812    20729024.440    86305426.862 8      4267.445          48.625    20729023.900    86305421.857 8      4267.445          49.500
G21  21362306.140   112259669.680 7      1289.637          46.062    21362304.620   112259669.690 5      1289.637          32.312    21362309.380    87475080.876 5      1004.912          32.375
G02  21388763.700   112398708.409 8      2187.536          49.375    21388762.060   112398708.419 6      2187.536          39.375    21388765.240    87583422.409 6      1704.574          39.062
R21  21335175.640   114168836.947 6      1569.106          40.875    21335176.660   114168836.975 6      1569.106          41.500    21335190.120    88798040.895 6      1220.416          40.625    21335189.740    88798039.907 6      1220.416          40.562
G03  20923509.740   109953795.998 6      4944.558          40.812    20923506.520   109953795.997 5      4944.558          32.187    20923519.160    85678311.118 5      3852.903          31.875    20923520.240    85678329.144 7      3852.903          47.812
G08  20869149.900   109668115.330 8      1414.413          51.875    20869149.880   109668115.337 8      1414.413          50.250    20869157.660    85455705.320 8      1102.140          50.625    20869159.400    85455714.333 8      1102.140          50.687
> 2024 05 08 14 53 27.0000000  0 10
G32  24798955.640   130319390.174 5      1983.827          33.250    24798955.440   130319390.152 2      1983.827          17.125    24798974.860   101547596.330 3      1545.839          19.250    24798980.020   101547637.326 5      1545.839          30.812
G27  23247681.720   122167377.061 6       -15.021          41.312    23247679.660   122167377.073 6       -15.021          39.375    23247700.420    95195426.846 6       -11.705          39.000    23247700.560    95195428.819 7       -11.705          44.687
R06  20774652.440   110857502.622 6      1900.787          38.625    20774653.700   110857502.633 6      1900.787          37.437
R12  21158064.300   113022549.158 6      1715.168          40.375    21158063.900   113022549.191 6      1715.168          41.187    21158076.260    87906505.639 6      1334.019          36.500    21158075.460    87906502.646 6      1334.019          36.062
R07  20727979.440   110958512.775 8      5486.528          49.250    20727982.160   110958512.809 7      5486.528          47.562    20727999.140    86301159.527 8      4267.299          48.375    20727998.740    86301154.520 8      4267.299          48.500
G21  21362060.600   112258379.960 7      1289.862          45.937    21362059.200   112258379.970 5      1289.862          32.312    21362064.040    87474075.901 5      1005.087          32.375
G02  21388347.420   112396520.764 8      2187.790          48.437    21388345.820   112396520.772 6      2187.790          39.250    21388349.020    87581717.751 6      1704.771          39.500
R21  21334882.840   114167267.720 6      1569.315          40.187    21334883.420   114167267.751 6      1569.315          41.562    21334897.140    88796820.384 6      1220.578          40.625    21334896.500    88796819.391 6      1220.578          40.562
G03  20922568.660   109948851.698 6      4944.245          40.500    20922565.500   109948851.702 5      4944.245          32.187    20922578.200    85674458.425 5      3852.658          31.875    20922579.260    85674476.453 7      3852.658          47.750
G08  20868880.800   109666700.987 8      1414.341          51.812    20868880.720   109666700.997 8      1414.341          50.125    20868888.520    85454603.232 8      1102.084          50.000    20868890.320    85454612.249 8      1102.084          50.562
> 2024 05 08 14 53 28.0000000  0 10
G32  24798579.020   130317406.863 5      1983.346          33.250    24798578.200   130317406.847 2      1983.346          17.125    24798597.080   101546050.897 2      1545.465          16.125    24798603.880   101546091.870 5      1545.465          30.812
G27  23247685.260   122167392.421 6       -15.491          40.750    23247682.660   122167392.429 6       -15.491          39.375    23247703.460    95195438.794 6       -12.071          38.937    23247703.080    95195440.764 7       -12.071          44.687
R06  20774296.980   110855602.612 6      1899.819          38.625    20774297.580   110855602.624 6      1899.819          37.812
R12  21157743.060   113020834.727 6      1714.371          40.375    21157742.480   113020834.763 6      1714.371          39.812    21157755.160    87905172.186 6      1333.399          36.500    21157754.700    87905169.183 6      1333.399          36.375
R07  20726954.300   110953026.863 8      5485.795          48.750    20726957.040   110953026.902 7      5485.795          47.562    20726974.160    86296892.725 8      4266.729          48.125    20726973.640    86296887.720 8      4266.729          48.375
G21  21361815.080   112257090.377 8      1289.596          48.000    21361814.040   112257090.385 5      1289.596          31.937    21361818.740    87473071.029 5      1004.880          32.187
G02  21387930.960   112394333.295 8      2187.587          48.875    21387929.520   112394333.305 6      2187.587          39.062    21387932.660    87580013.229 6      1704.613          39.062
R21  21334588.980   114165698.638 6      1569.181          40.187    21334589.900   114165698.685 6      1569.181          41.562    21334603.960    88795600.001 6      1220.474          40.562    21334603.440    88795599.007 6      1220.474          40.625
G03  20921628.260   109943907.991 6      4943.535          40.312    20921624.780   109943907.999 5      4943.535          31.875    20921637.420    85670606.195 5      3852.105          31.687    20921638.380    85670624.214 7      3852.105          47.187
G08  20868611.860   109665287.125 8      1413.849          51.562    20868611.580   109665287.135 8      1413.849          49.500    20868619.440    85453501.518 8      1101.701          49.375    20868621.420    85453510.531 8      1101.701          50.250
> 2024 05 08 14 53 29.0000000  0 10
G32  24798201.840   130315424.072 5      1982.620          33.250    24798200.700   130315424.051 2      1982.620          17.125    24798219.280   101544505.863 2      1544.899          16.125    24798228.760   101544546.824 5      1544.899          30.812
G27  23247688.100   122167407.979 6       -15.775          40.375    23247685.380   122167407.986 6       -15.775          39.687    23247706.440    95195450.907 6       -12.292          39.312    23247706.080    95195452.883 7       -12.292          44.437
R06  20773941.020   110853703.499 6      1898.441          38.937    20773941.480   110853703.516 6      1898.441          37.812
R12  21157422.100   113019121.103 6      1713.175          38.125    21157422.200   113019121.150 6      1713.175          39.812    21157434.340    87903839.382 6      1332.469          36.500    21157433.840    87903836.367 6      1332.469          36.375
R07  20725929.840   110947541.542 8      5484.939          49.000    20725932.540   110947541.579 7      5484.939          47.625    20725949.200    86292626.370 8      4266.063          48.562    20725949.200    86292621.366 8      4266.063          49.062
G21  21361569.660   112255800.815 7      1289.460          47.312    21361568.680   112255800.822 5      1289.460          31.937    21361573.440    87472066.176 5      1004.774          32.187
G02  21387514.600   112392145.924 8      2187.274          48.562    21387513.380   112392145.931 6      2187.274          39.625    21387516.380    87578308.784 6      1704.369          39.375
R21  21334295.740   114164129.636 6      1568.928          40.187    21334297.420   114164129.680 6      1568.928          41.500    21334310.760    88794379.664 6      1220.277          40.562    21334310.300    88794378.668 6      1220.277          40.625
G03  20920687.420   109938964.761 6      4942.821          40.500    20920684.120   109938964.771 5      4942.821          31.875    20920696.600    85666754.335 5      3851.549          31.687    20920697.700    85666772.365 7      3851.549          47.500
G08  20868342.880   109663873.639 8      1413.168          51.937    20868342.660   109663873.651 8      1413.168          50.625    20868350.480    85452400.100 8      1101.170          50.625    20868352.360    85452409.115 8      1101.170          50.187
> 2024 05 08 14 53 30.0000000  0 10
G32  24797823.260   130313441.705 5      1982.042          33.250    24797823.740   130313441.686 2      1982.042          17.125    24797842.600   101542961.166 2      1544.448          16.125    24797851.420   101543002.155 5      1544.448          30.812
G27  23247691.240   122167423.707 6       -15.754          40.812    23247688.420   122167423.714 6       -15.754          39.437    23247709.440    95195463.146 6       -12.275          39.312    23247709.280    95195465.116 7       -12.275          44.937
R06  20773584.980   110851805.090 6      1897.827          38.937    20773586.020   110851805.112 6      1897.827          37.812
R12  21157101.220   113017408.144 6      1712.456          38.125    21157101.020   113017408.186 6      1712.456          39.812    21157114.580    87902507.072 6      1331.910          37.062    21157113.720    87902504.051 6      1331.910          36.375
R07  20724904.960   110942056.701 8      5484.569          49.437    20724907.760   110942056.735 7      5484.569          47.312    20724924.440    86288360.393 8      4265.776          49.062    20724924.220    86288355.389 8      4265.776          48.812
G21  21361324.360   112254511.219 7      1289.602          47.625    21361323.220   112254511.224 5      1289.602          32.062    21361328.100    87471061.298 5      1004.885          32.187
G02  21387098.420   112389958.544 8      2187.336          49.562    21387097.180   112389958.552 6      2187.336          39.562    21387100.140    87576604.334 6      1704.418          39.437
R21  21334002.200   114162560.591 6      1569.092          41.812    21334004.180   114162560.636 6      1569.092          41.500    21334017.680    88793159.296 6      1220.405          40.875    21334016.980    88793158.302 6      1220.405          40.937
G03  20919746.980   109934021.940 6      4942.532          40.562    20919743.340   109934021.950 5      4942.532          31.750    20919756.080    85662902.794 5      3851.323          31.687    20919756.560    85662920.816 7      3851.323          47.125
G08  20868074.000   109662460.431 8      1413.058          52.062    20868073.800   109662460.444 8      1413.058          50.500    20868081.580    85451298.893 8      1101.084          50.437    20868083.440    85451307.908 8      1101.084          50.812
> 2024 05 08 14 53 31.0000000  0 10
G32  24797446.380   130311459.713 5      1981.989          33.812    24797446.300   130311459.686 2      1981.989          17.125    24797465.300   101541416.754 2      1544.407          16.125    24797472.940   101541457.744 5      1544.407          30.812
G27  23247694.180   122167439.653 6       -16.059          40.750    23247691.640   122167439.656 6       -16.059          39.875    23247712.460    95195475.554 6       -12.513          39.687    23247712.540    95195477.528 7       -12.513          44.812
R06  20773229.640   110849907.508 6      1896.994          38.937    20773231.140   110849907.525 6      1896.994          37.812
R12  21156780.740   113015695.944 6      1711.752          38.125    21156779.780   113015695.969 6      1711.752          39.812    21156793.600    87901175.338 6      1331.362          37.062    21156792.880    87901172.323 6      1331.362          37.375
R07  20723880.500   110936572.346 8      5484.060          48.687    20723882.900   110936572.383 8      5484.060          48.125    20723899.800    86284094.803 8      4265.380          49.125    20723899.840    86284089.800 8      4265.380          48.750
G21  21361078.840   112253221.644 7      1289.442          47.750    21361077.920   112253221.651 5      1289.442          32.062    21361082.800    87470056.436 5      1004.760          32.000
G02  21386682.180   112387771.212 8      2187.151          49.687    21386680.800   112387771.219 6      2187.151          39.812    21386684.000    87574899.924 6      1704.274          39.687
R21  21333709.120   114160991.547 6      1569.046          41.812    21333710.860   114160991.575 6      1569.046          41.500    21333724.520    88791938.909 6      1220.369          41.062    21333724.140    88791937.921 6      1220.369          40.750
G03  20918806.500   109929079.574 6      4941.982          41.937    20918802.860   109929079.587 5      4941.982          31.750    20918815.480    85659051.608 5      3850.895          31.687    20918816.000    85659069.624 7      3850.895          47.500
G08  20867804.880   109661047.575 8      1412.586          51.812    20867804.780   109661047.588 8      1412.586          50.437    20867812.660    85450197.958 8      1100.717          50.187    20867814.460    85450206.979 8      1100.717          50.687
> 2024 05 08 14 53 32.0000000  0 10
G32  24797069.700   130309478.389 5      1981.160          33.812    24797069.440   130309478.365 2      1981.160          17.125    24797088.040   101539872.873 2      1543.761          16.125    24797095.700   101539913.855 5      1543.761          30.812
G27  23247696.980   122167455.944 6       -16.268          41.437    23247694.880   122167455.936 6       -16.268          40.125    23247715.700    95195488.225 6       -12.676          39.750    23247715.660    95195490.195 7       -12.676          45.000
R06  20772873.960   110848010.898 6      1896.352          39.312    20772875.560   110848010.885 6      1896.352          38.000
R12  21156460.580   113013984.646 6      1710.690          38.125    21156459.180   113013984.690 6      1710.690          39.125    21156472.080    87899844.346 6      1330.537          37.062    21156472.440    87899841.336 6      1330.537          37.375
R07  20722856.000   110931088.637 8      5483.542          48.250    20722858.380   110931088.673 7      5483.542          47.625    20722875.220    86279829.706 8      4264.977          49.187    20722875.300    86279824.703 8      4264.977          48.625
G21  21360833.320   112251932.192 7      1289.518          47.687    21360832.460   112251932.199 5      1289.518          32.062    21360837.700    87469051.666 5      1004.819          32.000
G02  21386266.060   112385584.055 8      2187.156          49.000    21386264.740   112385584.063 6      2187.156          39.000    21386267.580    87573195.644 6      1704.277          39.750
R21  21333416.300   114159422.614 7      1568.951          42.062    21333417.880   114159422.640 6      1568.951          41.750    21333431.600    88790718.635 6      1220.295          41.062    21333430.940    88790717.647 6      1220.295          40.750
G03  20917865.880   109924137.820 6      4941.594          41.750    20917862.620   109924137.830 5      4941.594          31.750    20917875.140    85655200.897 5      3850.593          31.687    20917875.800    85655218.908 7      3850.593          47.000
G08  20867536.180   109659635.179 8      1412.282          51.562    20867536.000   109659635.197 8      1412.282          49.937    20867543.920    85449097.394 8      1100.479          50.625    20867545.420    85449106.409 8      1100.479          50.125
> 2024 05 08 14 53 33.0000000  0 10
G32  24796692.520   130307497.569 5      1980.593          33.812    24796691.980   130307497.547 2      1980.593          17.125    24796711.880   101538329.379 2      1543.319          16.125    24796717.480   101538370.393 5      1543.319          30.812
G27  23247700.100   122167472.500 6       -16.731          41.375    23247697.840   122167472.494 6       -16.731          39.812    23247719.000    95195501.112 6       -13.037          39.375    23247719.160    95195503.081 7       -13.037          45.250
R06  20772518.820   110846115.194 6      1895.125          39.312    20772520.380   110846115.198 6      1895.125          38.000
R12  21156140.400   113012274.113 6      1710.045          38.125    21156138.900   113012274.151 6      1710.045          39.125    21156152.180    87898513.910 6      1330.035          37.375    21156152.320    87898510.900 6      1330.035          37.375
R07  20721831.760   110925605.457 8      5482.842          48.125    20721833.680   110925605.491 7      5482.842          47.687    20721850.900    86275565.019 8      4264.433          48.937    20721851.060    86275560.014 8      4264.433          49.000
G21  21360588.220   112250642.822 7      1289.308          47.500    21360587.120   112250642.829 5      1289.308          31.937    21360592.400    87468046.960 5      1004.656          32.000
G02  21385849.760   112383397.002 8      2186.982          48.750    21385848.580   112383397.012 6      2186.982          39.562    21385851.400    87571491.450 6      1704.142          39.125
R21  21333122.980   114157853.733 7      1568.778          42.062    21333124.380   114157853.767 6      1568.778          41.750    21333138.440    88789498.396 6      1220.161          40.937    21333137.920    88789497.412 6      1220.161          40.937
G03  20916925.660   109919196.568 6      4940.883          41.250    20916922.440   109919196.578 5      4940.883          31.812    20916934.780    85651350.573 5      3850.039          31.500    20916935.440    85651368.586 7      3850.039          46.875
G08  20867267.300   109658223.196 8      1411.777          50.562    20867267.220   109658223.206 8      1411.777          50.437    20867275.160    85447997.133 8      1100.086          50.562    20867276.880    85448006.154 8      1100.086          50.250
> 2024 05 08 14 53 34.0000000  0 10
G32  24796316.220   130305517.303 5      1979.739          34.250    24796314.860   130305517.276 2      1979.739          17.125    24796334.980   101536786.321 2      1542.654          16.125    24796341.460   101536827.342 5      1542.654          30.812
G27  23247703.700   122167489.342 6       -17.196          41.125    23247701.200   122167489.339 6       -17.196          39.500    23247722.260    95195514.221 6       -13.399          39.312    23247722.720    95195516.193 7       -13.399          45.500
R06  20772163.760   110844220.430 6      1894.130          39.312    20772165.720   110844220.423 6      1894.130          38.000
R12  21155820.200   113010564.442 6      1709.267          38.125    21155818.540   113010564.443 6      1709.267          39.125    21155832.280    87897184.134 6      1329.430          37.375    21155831.840    87897181.135 6      1329.430          37.375
R07  20720807.680   110920122.877 8      5482.140          48.375    20720809.440   110920122.908 7      5482.140          47.250    20720826.640    86271300.796 8      4263.887          48.687    20720826.660    86271295.794 8      4263.887          49.000
G21  21360342.760   112249353.546 8      1289.085          48.312    21360341.720   112249353.553 5      1289.085          31.937    21360347.140    87467042.328 5      1004.482          31.750
G02  21385433.700   112381210.103 8      2186.671          49.062    21385432.500   112381210.108 6      2186.671          39.750    21385435.260    87569787.373 6      1703.900          39.250
R21  21332829.920   114156285.025 7      1568.359          42.437    21332831.280   114156285.059 6      1568.359          41.500    21332845.080    88788278.292 6      1219.835          41.375    21332844.860    88788277.310 6      1219.835          41.250
G03  20915985.540   109914255.842 7      4940.317          42.250    20915982.340   109914255.854 5      4940.317          31.812    20915994.600    85647500.662 5      3849.598          31.500    20915995.440    85647518.688 7      3849.598          47.187
G08  20866998.800   109656811.633 8      1411.168          51.437    20866998.560   109656811.648 8      1411.168          50.250    20867006.440    85446897.214 8      1099.612          50.312    20867008.020    85446906.237 8      1099.612          50.062
> 2024 05 08 14 53 35.0000000  0 10
G32  24795939.560   130303537.668 5      1979.670          34.250    24795937.920   130303537.644 2      1979.670          14.312    24795958.380   101535243.757 2      1542.600          16.125    24795965.100   101535284.775 5      1542.600          30.812
G27  23247706.380   122167506.631 6       -17.422          41.625    23247704.500   122167506.628 6       -17.422          39.875    23247725.440    95195527.681 6       -13.575          39.437    23247725.940    95195529.651 7       -13.575          45.250
R06  20771808.320   110842326.739 6      1893.215          39.312    20771811.120   110842326.737 6      1893.215          38.000
R12  21155500.380   113008855.716 6      1708.540          38.125    21155497.540   113008855.731 6      1708.540          39.125    21155512.360    87895855.144 6      1328.864          37.375    21155511.600    87895852.160 5      1328.864          35.875
R07  20719783.800   110914641.036 8      5481.692          48.000    20719784.960   110914641.059 7      5481.692          47.812    20719802.360    86267037.156 8      4263.538          48.937    20719802.580    86267032.154 8      4263.538          48.750
G21  21360097.300   112248064.517 8      1289.050          48.062    21360096.380   112248064.525 5      1289.050          31.375    21360102.000    87466037.890 5      1004.454          31.750
G02  21385017.820   112379023.483 8      2186.633          49.375    21385016.380   112379023.490 6      2186.633          39.750    21385019.120    87568083.518 6      1703.870          39.687
R21  21332536.880   114154716.607 7      1568.404          42.437    21332538.500   114154716.646 6      1568.404          41.500    21332552.260    88787058.413 6      1219.870          41.375    21332551.720    88787057.427 6      1219.870          41.250
G03  20915045.700   109909315.830 7      4939.898          42.187    20915042.300   109909315.845 5      4939.898          31.812    20915054.520    85643651.308 5      3849.271          31.500    20915055.380    85643669.338 7      3849.271          47.000
G08  20866730.440   109655400.653 8      1410.848          50.812    20866730.000   109655400.669 8      1410.848          50.562    20866737.780    85445797.747 8      1099.362          50.375    20866739.420    85445806.770 8      1099.362          49.937
> 2024 05 08 14 53 36.0000000  0 10
G32  24795562.780   130301558.614 5      1978.814          34.250    24795561.620   130301558.590 2      1978.814          14.312    24795582.100   101533701.651 2      1541.933          16.125    24795587.300   101533742.641 4      1541.933          29.937
G27  23247710.080   122167524.136 6       -17.501          40.812    23247708.000   122167524.135 6       -17.501          40.312    23247728.860    95195541.304 6       -13.637          39.687    23247729.360    95195543.286 7       -13.637          45.437
R06  20771453.560   110840433.887 6      1892.436          39.250    20771456.380   110840433.899 6      1892.436          38.000
R12  21155179.600   113007147.819 5      1707.690          35.687    21155178.140   113007147.852 6      1707.690          37.875    21155192.240    87894526.790 6      1328.203          37.375    21155192.300    87894523.795 5      1328.203          35.875
R07  20718760.060   110909159.765 7      5481.069          47.562    20718760.740   110909159.785 7      5481.069          47.125    20718778.320    86262773.954 8      4263.054          48.875    20718778.700    86262768.947 8      4263.054          48.500
G21  21359851.980   112246775.536 7      1288.972          47.187    21359851.300   112246775.543 5      1288.972          31.375    21359856.740    87465033.491 5      1004.393          31.812
G02  21384601.860   112376836.949 8      2186.516          49.812    21384600.340   112376836.957 6      2186.516          39.500    21384602.980    87566379.725 6      1703.779          39.687
R21  21332243.360   114153148.228 7      1568.477          42.437    21332246.160   114153148.273 6      1568.477          41.500    21332259.180    88785838.563 6      1219.926          41.562    21332258.420    88785837.581 6      1219.926          41.187
G03  20914105.560   109904376.328 7      4939.346          43.062    20914102.440   109904376.343 5      4939.346          32.125    20914114.580    85639802.354 5      3848.841          32.062    20914115.220    85639820.384 7      3848.841          47.125
G08  20866461.980   109653990.044 8      1410.488          50.750    20866461.560   109653990.057 8      1410.488          50.625    20866469.440    85444698.567 8      1099.082          50.375    20866471.000    85444707.586 8      1099.082          49.750
> 2024 05 08 14 53 37.0000000  0 10
G32  24795186.600   130299580.088 5      1978.716          35.375    24795184.960   130299580.066 2      1978.716          14.312    24795205.760   101532159.951 2      1541.857          16.125    24795211.260   101532200.963 4      1541.857          29.937
G27  23247713.940   122167542.024 6       -17.863          41.500    23247711.420   122167542.018 6       -17.863          39.750    23247732.300    95195555.225 6       -13.920          39.187    23247732.940    95195557.190 7       -13.920          45.687
R06  20771099.060   110838542.015 6      1891.684          39.250    20771101.580   110838542.027 6      1891.684          37.875
R12  21154860.200   113005440.789 5      1707.012          35.687    21154859.500   113005440.828 6      1707.012          37.875    21154873.140    87893199.102 6      1327.676          37.000    21154872.660    87893196.099 5      1327.676          35.875
R07  20717736.220   110903679.158 8      5480.549          48.375    20717736.720   110903679.178 7      5480.549          47.125    20717754.300    86258511.268 8      4262.650          48.187    20717754.680    86258506.263 8      4262.650          48.625
G21  21359606.760   112245486.675 7      1289.116          47.812    21359605.960   112245486.680 5      1289.116          31.562    21359611.640    87464029.182 5      1004.506          31.812
G02  21384185.640   112374650.586 8      2186.562          49.000    21384184.220   112374650.594 6      2186.562          39.250    21384187.120    87564676.066 6      1703.815          39.062
R21  21331950.180   114151579.965 7      1568.453          42.812    21331952.880   114151580.017 6      1568.453          41.625    21331966.500    88784618.817 6      1219.908          41.562    21331965.480    88784617.833 6      1219.908          41.312
G03  20913165.300   109899437.422 6      4938.793          41.375    20913162.720   109899437.437 5      4938.793          32.125    20913174.760    85635953.862 5      3848.410          32.062    20913175.540    85635971.886 7      3848.410          47.375
G08  20866193.440   109652579.905 8      1410.166          49.812    20866193.140   109652579.921 8      1410.166          49.937    20866201.060    85443599.751 8      1098.831          50.187    20866202.580    85443608.768 8      1098.831          49.312
> 2024 05 08 14 53 38.0000000  0 10
G32  24794809.380   130297602.098 5      1978.001          35.375    24794808.660   130297602.079 2      1978.001          14.312    24794830.040   101530618.668 2      1541.300          16.125    24794833.520   101530659.704 4      1541.300          29.937
G27  23247717.120   122167560.112 6       -18.179          41.750    23247715.120   122167560.109 6       -18.179          39.812    23247735.740    95195569.305 6       -14.165          39.250    23247736.280    95195571.283 7       -14.165          45.375
R06  20770744.220   110836650.992 6      1890.783          39.250    20770746.980   110836650.995 6      1890.783          37.875
R12  21154540.780   113003734.518 5      1705.770          35.687    21154538.460   113003734.551 6      1705.770          37.875    21154553.920    87891871.990 6      1326.710          37.000    21154553.100    87891868.991 5      1326.710          35.875
R07  20716712.280   110898199.086 7      5479.949          47.625    20716712.700   110898199.109 7      5479.949          47.375    20716730.340    86254249.008 7      4262.183          47.562    20716730.960    86254244.004 7      4262.183          47.625
G21  21359361.560   112244197.873 7      1288.934          47.562    21359360.860   112244197.878 5      1288.934          31.562    21359366.440    87463024.916 5      1004.364          31.812
G02  21383769.640   112372464.326 7      2186.335          47.500    21383768.300   112372464.331 6      2186.335          39.312    21383771.000    87562972.480 6      1703.637          39.562
R21  21331656.880   114150011.731 7      1568.197          42.812    21331659.760   114150011.791 6      1568.197          41.625    21331673.560    88783399.084 6      1219.709          41.562    21331672.500    88783398.098 6      1219.709          41.312
G03  20912225.540   109894498.979 7      4938.416          42.875    20912223.020   109894498.994 5      4938.416          32.125    20912234.960    85632105.729 5      3848.116          32.062    20912235.760    85632123.750 7      3848.116          46.937
G08  20865925.180   109651170.145 8      1409.708          50.187    20865924.780   109651170.160 8      1409.708          49.812    20865932.660    85442501.234 8      1098.474          49.687    20865934.180    85442510.249 8      1098.474          49.125
> 2024 05 08 14 53 39.0000000  0 10
G32  24794433.000   130295624.536 5      1977.366          35.375    24794431.700   130295624.517 2      1977.366          14.312    24794454.160   101529077.721 2      1540.805          14.062    24794460.540   101529118.694 4      1540.805          29.937
G27  23247720.600   122167578.370 7       -18.318          42.125    23247718.720   122167578.370 6       -18.318          40.000    23247739.280    95195583.518 6       -14.274          39.812    23247739.960    95195585.490 7       -14.274          45.562
R06  20770390.220   110834760.747 6      1889.860          39.125    20770392.220   110834760.748 6      1889.860          37.875
R12  21154221.260   113002028.918 5      1705.261          35.687    21154219.300   113002028.948 6      1705.261          37.875    21154235.080    87890545.404 6      1326.314          37.000    21154234.240    87890542.411 6      1326.314          36.312
R07  20715688.400   110892719.482 7      5479.442          47.437    20715688.780   110892719.502 7      5479.442          47.437    20715706.500    86249987.098 8      4261.788          48.562    20715707.100    86249982.094 8      4261.788          48.062
G21  21359116.380   112242909.025 7      1288.945          47.437    21359115.600   112242909.030 5      1288.945          31.562    21359121.100    87462020.621 5      1004.373          31.562
G02  21383353.500   112370278.047 8      2186.279          48.437    21383352.300   112370278.055 6      2186.279          39.312    21383354.960    87561268.891 6      1703.594          39.437
R21  21331364.100   114148443.465 7      1568.315          42.500    21331366.620   114148443.515 6      1568.315          41.375    21331380.300    88782179.307 6      1219.801          41.125    21331379.640    88782178.327 6      1219.801          41.312
G03  20911285.940   109889560.966 7      4937.958          44.000    20911283.460   109889560.979 5      4937.958          32.312    20911295.420    85628257.937 5      3847.759          32.250    20911296.240    85628275.951 7      3847.759          47.312
G08  20865657.020   109649760.671 8      1409.363          49.125    20865656.540   109649760.686 8      1409.363          50.062    20865664.440    85441402.939 8      1098.205          49.937    20865665.820    85441411.956 8      1098.205          49.187
> 2024 05 08 14 53 40.0000000  0 10
G32  24794056.600   130293647.413 5      1976.942          35.312    24794055.700   130293647.394 2      1976.942          14.312    24794077.680   101527537.112 2      1540.474          14.062    24794083.520   101527578.122 4      1540.474          29.937
G27  23247724.100   122167596.842 7       -18.427          42.375    23247722.220   122167596.842 6       -18.427          39.875    23247742.720    95195597.893 6       -14.359          39.562    23247743.440    95195599.869 7       -14.359          45.937
R06  20770036.240   110832871.316 6      1889.116          39.125    20770038.720   110832871.320 6      1889.116          37.875
R12  21153902.720   113000324.148 5      1704.031          35.687    21153898.800   113000324.192 6      1704.031          37.875    21153916.120    87889219.472 6      1325.358          37.625    21153914.700    87889216.477 6      1325.358          36.312
R07  20714664.760   110887240.400 7      5478.878          47.250    20714665.100   110887240.421 7      5478.878          46.812    20714683.000    86245725.605 8      4261.350          48.250    20714683.300    86245720.603 8      4261.350          48.125
G21  21358871.040   112241620.212 7      1288.901          47.187    21358870.340   112241620.220 5      1288.901          31.375    21358876.000    87461016.355 5      1004.339          31.562
G02  21382937.580   112368091.845 8      2186.259          49.250    21382936.260   112368091.852 6      2186.259          39.562    21382938.920    87559565.358 6      1703.579          40.062
R21  21331070.800   114146875.250 7      1568.315          42.500    21331073.640   114146875.305 6      1568.315          41.375    21331087.700    88780959.592 6      1219.800          41.375    21331086.820    88780958.616 6      1219.800          41.500
G03  20910346.360   109884623.440 7      4937.358          43.562    20910343.840   109884623.453 5      4937.358          32.312    20910355.880    85624410.518 5      3847.292          32.250    20910356.800    85624428.544 7      3847.292          47.812
G08  20865388.880   109648351.565 8      1408.984          50.562    20865388.280   109648351.580 8      1408.984          50.437    20865396.360    85440304.930 8      1097.910          50.312    20865397.460    85440313.947 8      1097.910          49.687
> 2024 05 08 14 53 41.0000000  0 10
G32  24793681.340   130291670.963 5      1976.437          35.312    24793679.460   130291670.944 2      1976.437          14.312    24793701.660   101525997.031 2      1540.080          14.062    24793704.800   101526038.061 4      1540.080          29.937
G27  23247727.540   122167615.768 7       -18.917          42.000    23247726.000   122167615.768 6       -18.917          39.625    23247746.440    95195612.628 6       -14.740          39.062    23247746.840    95195614.608 7       -14.740          45.875
R06  20769681.980   110830982.977 6      1887.973          39.125    20769684.720   110830982.972 6      1887.973          37.875
R12  21153584.760   112998620.291 5      1703.941          35.687    21153580.420   112998620.306 6      1703.941          37.875    21153596.360    87887890.228 6      1325.288          37.625    21153596.140    87887887.219 6      1325.288          36.312
R07  20713641.620   110881762.065 7      5478.214          47.750    20713641.560   110881762.088 7      5478.214          46.875    20713659.520    86241464.688 8      4260.833          48.437    20713659.840    86241459.686 7      4260.833          47.562
G21  21358626.120   112240331.635 7      1288.697          47.250    21358625.040   112240331.643 5      1288.697          31.375    21358630.940    87460012.266 5      1004.180          31.562
G02  21382521.420   112365905.908 8      2186.071          48.875    21382520.280   112365905.913 6      2186.071          39.250    21382523.040    87557862.027 6      1703.432          39.375
R21  21330778.460   114145307.305 7      1568.199          42.187    21330781.080   114145307.352 6      1568.199          41.375    21330794.380    88779740.079 6      1219.710          41.375    21330793.620    88779739.104 6      1219.710          41.687
G03  20909406.660   109879686.584 7      4936.691          43.625    20909404.440   109879686.597 5      4936.691          32.562    20909416.520    85620563.625 5      3846.772          32.437    20909417.420    85620581.651 7      3846.772          47.437
G08  20865120.880   109646943.013 8      1408.523          49.625    20865120.160   109646943.028 8      1408.523          50.000    20865128.240    85439207.355 8      1097.551          49.937    20865129.580    85439216.368 8      1097.551          49.625
> 2024 05 08 14 53 42.0000000  0 10
G32  24793305.020   130289695.064 5      1975.723          35.312    24793303.560   130289695.040 2      1975.723          14.312    24793325.600   101524457.380 2      1539.524          14.062    24793330.800   101524498.414 4      1539.524          29.937
G27  23247730.860   122167634.936 7       -19.222          42.375    23247729.880   122167634.941 6       -19.222          40.187    23247750.180    95195627.556 6       -14.978          40.000    23247750.700    95195629.532 7       -14.978          45.500
R06  20769327.840   110829095.491 6      1887.218          39.125    20769331.640   110829095.495 6      1887.218          37.875
R12  21153264.600   112996917.279 5      1702.768          35.687    21153260.720   112996917.320 6      1702.768          37.875    21153277.700    87886563.690 6      1324.375          37.625    21153277.140    87886563.688 6      1324.375          36.312
R07  20712618.440   110876284.295 7      5477.647          46.937    20712618.220   110876284.318 7      5477.647          46.812    20712636.180    86237204.217 8      4260.392          48.750    20712636.700    86237199.217 7      4260.392          47.875
G21  21358380.840   112239043.111 7      1288.605          47.062    21358379.760   112239043.121 5      1288.605          31.375    21358385.620    87459008.221 5      1004.108          31.375
G02  21382105.480   112363720.084 8      2185.907          49.500    21382104.320   112363720.086 6      2185.907          39.250    21382107.020    87556158.791 6      1703.304          39.375
R21  21330485.280   114143739.435 7      1567.993          42.187    21330488.480   114143739.482 6      1567.993          41.562    21330501.440    88778520.617 6      1219.550          41.187    21330500.720    88778519.643 6      1219.550          41.937
G03  20908467.320   109874750.238 7      4936.288          43.312    20908465.200   109874750.245 5      4936.288          32.562    20908477.160    85616717.124 5      3846.458          32.437    20908478.160    85616735.147 8      3846.458          48.000
G08  20864852.820   109645534.860 8      1408.048          50.437    20864852.100   109645534.878 8      1408.048          49.625    20864860.300    85438110.091 8      1097.181          49.875    20864861.580    85438119.102 8      1097.181          49.250
> 2024 05 08 14 53 43.0000000  0  9
G32  24792929.320   130287719.578 5      1975.249          35.062    24792927.600   130287719.556 2      1975.249          14.312    24792949.580   101522918.046 2      1539.155          14.062    24792955.580   101522959.062 4      1539.155          29.937
G27  23247734.760   122167654.337 7       -19.654          42.250    23247733.760   122167654.329 6       -19.654          40.500    23247753.900    95195642.649 6       -15.315          40.000    23247755.020    95195644.627 7       -15.315          46.062
R06  20768974.320   110827208.897 6      1886.039          39.125    20768977.240   110827208.911 6      1886.039          37.875
R07  20711595.240   110870807.039 8      5476.823          48.187    20711594.680   110870807.064 7      5476.823          46.812    20711612.900    86232944.139 8      4259.752          48.437    20711613.360    86232939.139 8      4259.752          48.562
G21  21358135.740   112237754.621 7      1288.352          46.250    21358134.600   112237754.634 5      1288.352          31.125    21358140.540    87458004.203 5      1003.911          31.375
G02  21381689.680   112361534.323 8      2185.593          49.500    21381688.320   112361534.327 6      2185.593          39.562    21381691.020    87554455.603 6      1703.059          40.125
R21  21330192.100   114142171.548 7      1567.832          42.062    21330195.600   114142171.593 6      1567.832          41.562    21330208.360    88777301.150 6      1219.425          41.500    21330207.560    88777300.170 6      1219.425          41.937
G03  20907528.120   109869814.369 7      4935.607          43.750    20907526.140   109869814.382 5      4935.607          32.562    20907537.800    85612871.003 5      3845.927          32.437    20907538.880    85612889.026 7      3845.927          47.687
G08  20864584.840   109644127.052 8      1407.582          50.437    20864584.260   109644127.070 8      1407.582          49.812    20864592.360    85437013.094 8      1096.818          49.875    20864593.800    85437022.105 8      1096.818          49.125
> 2024 05 08 14 53 44.0000000  0  9
G32  24792553.620   130285744.778 5      1974.580          35.062    24792551.300   130285744.754 2      1974.580          14.312    24792574.180   101521379.241 2      1538.634          14.062    24792581.360   101521420.269 4      1538.634          29.937
G27  23247738.320   122167674.083 6       -19.797          41.312    23247737.840   122167674.077 6       -19.797          40.437    23247757.780    95195658.017 6       -15.426          40.250    23247758.500    95195659.997 7       -15.426          46.000
R06  20768621.260   110825323.279 6      1885.121          39.125    20768623.820   110825323.304 6      1885.121          37.875
R07  20710572.240   110865330.427 7      5476.343          47.750    20710571.860   110865330.448 7      5476.343          46.750    20710589.740    86228684.563 8      4259.378          48.250    20710590.120    86228679.563 8      4259.378          48.062
G21  21357890.460   112236466.294 7      1288.322          45.812    21357889.360   112236466.315 5      1288.322          31.125    21357895.620    87457000.313 5      1003.888          31.375
G02  21381273.820   112359348.764 8      2185.500          49.437    21381272.480   112359348.769 6      2185.500          39.437    21381275.060    87552752.570 6      1702.987          39.375
R21  21329899.320   114140603.866 7      1567.620          42.062    21329902.980   114140603.907 6      1567.620          41.562    21329914.900    88776081.843 6      1219.260          41.500    21329914.840    88776080.853 6      1219.260          41.500
G03  20906589.020   109864879.142 7      4934.966          44.062    20906587.200   109864879.155 5      4934.966          32.562    20906598.720    85609025.375 5      3845.428          32.562    20906599.840    85609043.401 8      3845.428          48.062
G08  20864316.940   109642719.759 8      1407.116          50.500    20864316.440   109642719.779 8      1407.116          49.375    20864324.500    85435916.500 8      1096.454          49.687    20864326.000    85435925.508 8      1096.454          49.312
> 2024 05 08 14 53 45.0000000  0  9
G32  24792177.600   130283770.379 5      1974.188          35.062    24792175.840   130283770.355 2      1974.188          14.312    24792198.660   101519840.761 2      1538.328          14.062    24792204.880   101519881.793 4      1538.328          29.937
G27  23247742.060   122167694.013 7       -20.103          42.312    23247741.780   122167694.012 6       -20.103          40.312    23247761.620    95195673.535 6       -15.665          39.750    23247762.380    95195675.519 7       -15.665          45.875
R06  20768268.180   110823438.483 6      1884.121          39.125    20768270.500   110823438.502 6      1884.121          37.875
R07  20709549.660   110859854.309 8      5475.832          48.125    20709548.840   110859854.332 7      5475.832          46.812    20709566.580    86224425.374 8      4258.981          48.437    20709567.420    86224420.378 7      4258.981          47.875
G21  21357645.260   112235177.951 7      1288.239          46.312    21357644.380   112235177.967 5      1288.239          30.687    21357650.520    87455996.410 5      1003.822          31.062
G02  21380857.960   112357163.226 8      2185.421          48.875    21380856.580   112357163.228 6      2185.421          39.750    21380859.360    87551049.551 6      1702.925          39.250
R21  21329605.980   114139036.153 7      1567.649          42.062    21329609.900   114139036.192 6      1567.649          41.312    21329622.380    88774862.509 6      1219.283          41.000    21329621.740    88774861.521 6      1219.283          41.750
G03  20905650.020   109859944.312 7      4934.559          44.375    20905648.140   109859944.324 5      4934.559          32.562    20905659.500    85605180.059 5      3845.111          32.562    20905660.900    85605198.085 8      3845.111          48.312
G08  20864049.260   109641312.773 8      1406.687          51.062    20864048.540   109641312.794 8      1406.687          50.125    20864056.780    85434820.145 8      1096.120          50.125    20864058.160    85434829.154 8      1096.120          49.187
> 2024 05 08 14 53 46.0000000  0  9
G32  24791802.300   130281796.591 5      1973.699          33.312    24791800.220   130281796.567 2      1973.699          14.312    24791823.420   101518302.754 2      1537.947          14.062    24791830.720   101518343.766 4      1537.947          29.937
G27  23247746.300   122167714.287 7       -20.316          43.125    23247745.820   122167714.286 6       -20.316          40.500    23247765.460    95195689.322 6       -15.831          40.312    23247766.140    95195691.300 7       -15.831          45.812
R06  20767915.900   110821554.609 6      1883.440          39.125    20767917.060   110821554.637 6      1883.440          37.875
R07  20708526.420   110854378.875 7      5475.148          47.875    20708525.900   110854378.895 7      5475.148          47.375    20708543.680    86220166.718 8      4258.448          48.250    20708544.440    86220161.722 8      4258.448          48.562
G21  21357399.960   112233889.766 7      1288.122          45.500    21357399.220   112233889.776 5      1288.122          30.687    21357405.320    87454992.627 5      1003.731          31.062
G02  21380442.100   112354977.875 8      2185.332          48.875    21380440.780   112354977.877 6      2185.332          39.187    21380443.580    87549346.684 6      1702.856          39.562
R21  21329313.300   114137468.671 6      1567.407          41.812    21329317.200   114137468.710 6      1567.407          41.312    21329329.160    88773643.358 6      1219.094          41.000    21329328.960    88773642.372 6      1219.094          41.750
G03  20904711.240   109855010.101 7      4933.974          44.250    20904709.460   109855010.114 5      4933.974          32.750    20904720.620    85601335.228 5      3844.655          32.437    20904722.080    85601353.258 8      3844.655          48.312
G08  20863781.840   109639906.268 8      1406.304          50.062    20863780.900   109639906.286 8      1406.304          50.000    20863789.140    85433724.161 8      1095.821          50.125    20863790.280    85433733.168 8      1095.821          49.187
> 2024 05 08 14 53 47.0000000  0  9
G32  24791426.780   130279823.304 5      1972.986          33.312    24791424.640   130279823.280 2      1972.986          13.562    24791448.280   101516765.134 2      1537.391          14.062    24791455.620   101516806.172 4      1537.391          29.937
G27  23247750.340   122167734.852 7       -20.694          43.187    23247749.920   122167734.849 6       -20.694          40.375    23247769.380    95195705.327 6       -16.125          40.000    23247769.980    95195707.307 7       -16.125          45.875
R06  20767563.260   110819671.604 6      1882.703          38.125    20767564.020   110819671.620 6      1882.703          37.125
R07  20707503.840   110848904.014 8      5474.636          48.187    20707503.380   110848904.037 7      5474.636          46.937    20707520.680    86215908.503 8      4258.051          48.125    20707521.640    86215903.511 8      4258.051          48.000
G21  21357155.000   112232601.641 7      1288.052          46.062    21357153.980   112232601.651 5      1288.052          30.687    21357160.200    87453988.893 5      1003.677          31.062
G02  21380026.120   112352792.637 8      2185.211          50.125    21380024.920   112352792.642 6      2185.211          39.562    21380027.580    87547643.904 6      1702.762          39.437
R21  21329019.620   114135901.200 6      1567.556          41.812    21329023.660   114135901.255 6      1567.556          41.625    21329036.340    88772424.226 6      1219.211          40.937    21329035.920    88772423.240 6      1219.211          41.750
G03  20903772.340   109850076.417 7      4933.485          44.687    20903770.880   109850076.429 5      4933.485          32.750    20903781.800    85597490.805 5      3844.274          32.437    20903783.380    85597508.830 8      3844.274          48.375
G08  20863514.240   109638500.165 8      1405.867          49.625    20863513.200   109638500.186 8      1405.867          49.500    20863521.540    85432628.494 8      1095.481          49.375    20863522.620    85432637.503 8      1095.481          48.875
> 2024 05 08 14 53 48.0000000  0  9
G32  24791051.260   130277850.721 5      1972.602          33.312    24791049.440   130277850.702 2      1972.602          13.562    24791073.300   101515228.067 2      1537.092          14.062    24791078.340   101515269.060 4      1537.092          29.937
G27  23247754.240   122167755.807 7       -20.869          43.062    23247754.020   122167755.806 6       -20.869          40.750    23247773.420    95195721.637 6       -16.261          40.437    23247774.160    95195723.621 7       -16.261          45.687
R06  20767209.680   110817789.651 6      1881.794          38.125    20767211.580   110817789.671 6      1881.794          37.125
R07  20706481.200   110843429.943 7      5473.913          46.437    20706480.780   110843429.963 7      5473.913          46.750    20706498.240    86211650.903 7      4257.488          47.687    20706499.160    86211645.911 7      4257.488          47.125
G21  21356910.180   112231313.745 7      1287.918          46.125    21356908.900   112231313.758 5      1287.918          30.625    21356914.980    87452985.338 5      1003.573          30.625
G02  21379610.320   112350607.669 8      2185.014          49.312    21379609.040   112350607.677 6      2185.014          39.375    21379611.700    87545941.333 6      1702.608          39.187
R21  21328726.840   114134334.004 7      1567.314          42.000    21328731.080   114134334.056 6      1567.314          41.625    21328743.100    88771205.296 6      1219.022          40.562    21328743.120    88771204.310 6      1219.022          41.250
G03  20902833.700   109845143.404 7      4932.901          45.187    20902832.260   109845143.415 5      4932.901          32.625    20902843.020    85593646.905 5      3843.819          32.437    20902844.580    85593664.931 8      3843.819          48.312
G08  20863246.620   109637094.616 8      1405.471          50.125    20863245.740   109637094.632 8      1405.471          48.875    20863254.020    85431533.253 8      1095.172          49.187    20863255.280    85431542.258 8      1095.172          49.000
> 2024 05 08 14 53 49.0000000  0 10
G32  24790675.300   130275878.635 5      1971.798          33.312    24790674.140   130275878.619 2      1971.798          13.562    24790698.220   101513691.388 2      1536.466          14.062    24790704.140   101513732.433 4      1536.466          29.937
G27  23247758.240   122167777.058 7       -21.681          43.250    23247758.280   122167777.055 6       -21.681          40.312    23247777.540    95195738.180 6       -16.895          39.875    23247778.380    95195740.164 7       -16.895          46.125
R06  20766857.180   110815908.633 6      1880.056          38.125    20766859.260   110815908.650 6      1880.056          37.125
R22  20837624.020   111232651.764 6      3279.711          41.312
R07  20705458.480   110837956.444 8      5472.811          48.375    20705458.580   110837956.467 7      5472.811          46.937    20705475.700    86207393.754 8      4256.631          48.500    20705476.640    86207388.758 7      4256.631          47.625
G21  21356665.080   112230025.922 7      1287.367          45.437    21356663.820   112230025.932 5      1287.367          30.625    21356670.000    87451981.838 5      1003.143          30.625
G02  21379194.420   112348422.815 8      2184.406          48.625    21379193.380   112348422.820 6      2184.406          39.437    21379195.940    87544238.853 6      1702.135          39.250
R21  21328433.960   114132766.856 7      1566.753          42.000    21328438.520   114132766.895 6      1566.753          41.625    21328450.300    88769986.402 6      1218.586          40.562    21328450.180    88769985.415 6      1218.586          41.437
G03  20901895.160   109840210.918 7      4931.793          45.062    20901893.740   109840210.925 5      4931.793          32.625    20901904.600    85589803.415 5      3842.955          32.562    20901906.100    85589821.439 8      3842.955          48.062
G08  20862979.400   109635689.478 8      1404.476          50.187    20862978.220   109635689.493 8      1404.476          49.625    20862986.720    85430438.338 8      1094.397          49.812    20862987.620    85430447.341 8      1094.397          48.937
> 2024 05 08 14 53 50.0000000  0 10
G32  24790300.820   130273907.088 5      1971.636          32.187    24790298.840   130273907.066 2      1971.636          13.562    24790323.480   101512155.122 2      1536.340          14.062    24790329.760   101512196.148 4      1536.340          29.937
G27  23247762.200   122167798.570 7       -21.384          44.000    23247762.660   122167798.564 6       -21.384          40.937    23247781.780    95195754.926 6       -16.663          40.562    23247781.900    95195756.912 7       -16.663          46.062
R06  20766505.160   110814028.474 6      1879.818          38.125    20766506.580   110814028.480 6      1879.818          37.125
R22  20837009.340   111229371.626 6      3280.284          41.312
R07  20704435.780   110832483.505 8      5472.884          48.187    20704436.220   110832483.534 7      5472.884          46.687    20704453.380    86203137.036 8      4256.688          48.437    20704454.080    86203132.046 8      4256.688          48.312
G21  21356420.100   112228738.168 7      1287.912          45.250    21356418.760   112228738.178 5      1287.912          30.625    21356424.880    87450978.389 5      1003.567          30.625
G02  21378778.680   112346238.073 8      2184.954          50.062    21378777.480   112346238.075 6      2184.954          39.750    21378780.280    87542536.455 6      1702.562          40.000
R21  21328141.000   114131199.770 7      1567.302          42.062    21328145.260   114131199.812 6      1567.302          41.375    21328157.040    88768767.555 6      1219.013          40.375    21328157.040    88768766.569 6      1219.013          41.437
G03  20900956.400   109835278.951 7      4931.920          44.312    20900955.300   109835278.962 5      4931.920          32.625    20900966.180    85585960.331 5      3843.054          32.562    20900967.600    85585978.354 8      3843.054          48.312
G08  20862711.900   109634284.728 8      1404.790          50.125    20862710.900   109634284.741 8      1404.790          49.875    20862719.300    85429343.722 8      1094.641          49.812    20862720.500    85429352.724 8      1094.641          49.062
> 2024 05 08 14 53 51.0000000  0 10
G32  24789925.780   130271936.268 5      1970.556          32.187    24789924.020   130271936.249 2      1970.556          13.562    24789948.600   101510619.429 2      1535.498          13.750    24789952.080   101510660.467 4      1535.498          29.937
G27  23247766.240   122167820.509 7       -21.806          43.437    23247767.060   122167820.509 6       -21.806          40.437    23247785.920    95195772.011 6       -16.992          40.000    23247786.360    95195773.993 7       -16.992          46.062
R06  20766153.300   110812149.366 6      1878.769          38.125    20766153.580   110812149.367 6      1878.769          37.125
R22  20836394.340   111226091.687 6      3280.178          40.875
R07  20703413.820   110827011.294 8      5472.196          48.500    20703414.360   110827011.320 7      5472.196          47.125    20703431.000    86198880.880 8      4256.153          48.500    20703431.920    86198875.890 7      4256.153          47.937
G21  21356175.140   112227450.640 7      1287.688          45.125    21356173.660   112227450.652 5      1287.688          30.625    21356180.000    87449975.122 5      1003.393          30.625
G02  21378363.100   112344053.607 8      2184.588          50.125    21378361.740   112344053.610 6      2184.588          39.187    21378364.480    87540834.274 6      1702.277          39.250
R21  21327847.680   114129632.938 7      1567.065          42.062    21327852.120   114129632.983 6      1567.065          41.375    21327864.120    88767548.910 6      1218.829          40.375    21327864.460    88767547.924 6      1218.829          40.500
G03  20900018.180   109830347.673 7      4931.178          44.937    20900017.220   109830347.684 5      4931.178          33.312    20900027.820    85582117.785 5      3842.476          33.250    20900029.340    85582135.804 8      3842.476          48.187
G08  20862444.720   109632880.551 8      1404.264          50.875    20862443.600   109632880.569 8      1404.264          49.687    20862452.140    85428249.560 8      1094.231          49.937    20862453.380    85428258.561 8      1094.231          48.937
> 2024 05 08 14 53 52.0000000  0 10
G32  24789551.740   130269965.677 5      1969.842          32.187    24789548.840   130269965.661 2      1969.842          13.562    24789574.060   101509083.915 2      1534.942          13.750    24789579.280   101509124.921 4      1534.942          29.937
G27  23247770.480   122167842.449 7       -22.152          43.062    23247771.400   122167842.449 6       -22.152          40.875    23247790.080    95195789.089 6       -17.262          40.687    23247790.920    95195791.077 7       -17.262          45.812
R06  20765801.360   110810270.864 6      1877.924          37.687    20765801.860   110810270.876 6      1877.924          37.125
R22  20835780.240   111222811.570 6      3280.013          40.875
R07  20702391.500   110821539.370 8      5471.585          48.312    20702392.540   110821539.393 7      5471.585          47.187    20702408.760    86194624.947 8      4255.677          48.375    20702409.740    86194619.959 8      4255.677          48.125
G21  21355929.840   112226162.933 7      1287.531          44.687    21355928.540   112226162.948 5      1287.531          30.000    21355934.960    87448971.710 5      1003.271          30.312
G02  21377947.380   112341868.979 8      2184.447          49.437    21377946.000   112341868.984 6      2184.447          39.562    21377948.740    87539131.966 6      1702.167          39.687
R21  21327554.880   114128065.943 7      1566.880          42.062    21327559.780   114128065.985 6      1566.880          41.625    21327571.020    88766330.132 6      1218.684          40.187    21327571.220    88766329.143 6      1218.684          40.500
G03  20899079.740   109825416.640 7      4930.640          45.250    20899079.040   109825416.653 5      4930.640          33.312    20899089.480    85578275.429 5      3842.057          33.250    20899091.140    85578293.448 8      3842.057          48.312
G08  20862177.580   109631476.513 8      1403.758          49.875    20862176.440   109631476.529 8      1403.758          49.687    20862184.960    85427155.500 8      1093.837          49.562    20862186.220    85427164.499 8      1093.837          49.187
> 2024 05 08 14 53 53.0000000  0 10
G32  24789175.820   130267995.470 5      1970.288          32.187    24789174.120   130267995.453 2      1970.288          13.562    24789199.760   101507548.693 2      1535.290          13.750    24789204.140   101507589.691 4      1535.290          29.937
G27  23247774.940   122167864.631 7       -22.473          44.000    23247775.740   122167864.630 6       -22.473          40.750    23247794.160    95195806.359 6       -17.512          40.500    23247794.980    95195808.345 7       -17.512          45.937
R06  20765448.480   110808393.229 6      1877.142          37.687    20765449.260   110808393.238 6      1877.142          36.562
R22  20835165.440   111219531.482 6      3279.857          41.562
R07  20701369.280   110816067.956 8      5471.042          48.937    20701370.380   110816067.977 7      5471.042          47.500    20701386.700    86190369.414 8      4255.255          48.437    20701387.700    86190364.428 8      4255.255          48.187
G21  21355684.720   112224875.244 7      1287.563          44.687    21355683.520   112224875.257 5      1287.563          30.000    21355689.780    87447968.316 5      1003.296          30.312
G02  21377531.760   112339684.413 8      2184.447          49.937    21377530.320   112339684.415 6      2184.447          39.250    21377533.040    87537429.705 6      1702.167          39.687
R21  21327262.360   114126498.994 7      1566.854          42.437    21327266.560   114126499.030 6      1566.854          41.625    21327278.100    88765111.395 6      1218.664          40.187    21327278.200    88765110.405 6      1218.664          40.437
G03  20898141.300   109820486.111 7      4930.070          44.750    20898141.040   109820486.118 5      4930.070          33.812    20898151.300    85574433.462 5      3841.613          33.437    20898152.640    85574451.484 7      3841.613          47.750
G08  20861910.400   109630072.838 8      1403.389          49.875    20861909.260   109630072.851 8      1403.389          49.437    20861917.820    85426061.719 8      1093.550          49.562    20861919.220    85426070.718 8      1093.550          49.125
> 2024 05 08 14 53 54.0000000  0 10
G32  24788799.300   130266025.832 5      1969.819          32.187    24788799.420   130266025.816 2      1969.819          13.562    24788824.940   101506013.921 2      1534.924          13.750    24788827.960   101506054.939 4      1534.924          28.125
G27  23247779.040   122167887.041 7       -22.442          43.000    23247780.160   122167887.035 6       -22.442          41.125    23247798.780    95195823.801 6       -17.487          40.500    23247799.300    95195825.791 7       -17.487          45.937
R06  20765096.420   110806516.477 6      1876.419          37.687    20765097.580   110806516.486 6      1876.419          36.562
R22  20834551.380   111216251.418 6      3280.077          41.562    20834550.420   111216251.422 6      3280.077          40.812    20834560.140    86501561.343 6      2551.171          39.750
R07  20700347.500   110810597.124 7      5470.614          46.937    20700348.620   110810597.147 7      5470.614          46.812    20700364.780    86186114.336 8      4254.922          48.312    20700365.780    86186109.346 8      4254.922          48.000
G21  21355439.400   112223587.621 7      1287.672          45.250    21355438.520   112223587.636 5      1287.672          30.000    21355444.500    87446964.978 5      1003.380          30.312
G02  21377116.020   112337499.958 8      2184.482          50.375    21377114.740   112337499.960 6      2184.482          39.437    21377117.260    87535727.533 6      1702.194          39.500
R21  21326969.520   114124932.092 7      1566.904          42.437    21326973.580   114124932.131 6      1566.904          41.625    21326984.720    88763892.696 6      1218.703          39.812    21326985.280    88763891.702 6      1218.703          40.125
G03  20897203.220   109815556.068 7      4929.875          44.812    20897203.040   109815556.072 5      4929.875          33.812    20897213.160    85570591.876 5      3841.461          33.437    20897214.660    85570609.894 8      3841.461          48.125
G08  20861643.400   109628669.554 8      1403.132          50.000    20861642.200   109628669.567 8      1403.132          49.562    20861650.860    85424968.250 8      1093.349          49.437    20861652.160    85424977.248 8      1093.349          49.500
> 2024 05 08 14 53 55.0000000  0 10
G32  24788424.780   130264056.918 5      1968.279          32.187    24788424.680   130264056.896 2      1968.279          13.562    24788450.320   101504479.708 2      1533.724          13.750    24788455.580   101504520.708 4      1533.724          28.125
G27  23247783.420   122167909.771 7       -22.966          43.000    23247784.700   122167909.766 6       -22.966          41.312    23247802.980    95195841.497 6       -17.896          40.500    23247803.560    95195843.489 7       -17.896          45.687
R06  20764744.420   110804640.640 6      1875.362          37.687    20764745.940   110804640.660 6      1875.362          36.562
R22  20833937.260   111212971.461 6      3279.934          41.812    20833936.060   111212971.454 6      3279.934          40.812    20833945.880    86499010.261 6      2551.060          40.750    20833946.760    86499018.292 6      2551.060          40.187
R07  20699325.580   110805126.928 8      5469.745          48.562    20699327.140   110805126.967 7      5469.745          46.750    20699342.920    86181859.760 8      4254.246          48.500    20699343.860    86181854.775 8      4254.246          48.062
G21  21355194.920   112222300.114 7      1287.296          45.375    21355193.220   112222300.132 4      1287.296          29.250    21355199.360    87445961.723 5      1003.088          30.312
G02  21376700.380   112335315.658 8      2184.095          49.750    21376699.020   112335315.663 6      2184.095          39.187    21376701.540    87534025.487 6      1701.892          39.312
R21  21326677.140   114123365.279 7      1566.630          42.250    21326680.740   114123365.302 6      1566.630          41.750    21326692.240    88762674.051 6      1218.490          39.812    21326692.040    88762673.059 6      1218.490          40.125
G03  20896265.240   109810626.595 7      4929.125          45.062    20896265.140   109810626.602 5      4929.125          33.875    20896275.100    85566750.739 5      3840.877          33.750    20896276.460    85566768.756 8      3840.877          48.312
G08  20861376.360   109627266.707 8      1402.533          49.937    20861375.120   109627266.720 8      1402.533          49.375    20861383.900    85423875.120 8      1092.883          49.687    20861385.500    85423884.116 8      1092.883          49.625
> 2024 05 08 14 53 56.0000000  0 10
G32  24788051.160   130262088.397 5      1967.913          32.187    24788050.300   130262088.373 2      1967.913          13.562    24788076.200   101502945.804 2      1533.439          13.750    24788082.300   101502986.812 4      1533.439          28.125
G27  23247788.180   122167932.836 7       -23.279          44.250    23247789.220   122167932.838 6       -23.279          40.875    23247807.320    95195859.461 6       -18.139          40.562    23247807.660    95195861.449 7       -18.139          45.750
R06  20764393.560   110802765.788 6      1874.364          37.687    20764395.300   110802765.800 6      1874.364          36.562
R22  20833322.780   111209691.661 6      3279.667          41.812    20833322.000   111209691.646 6      3279.667          41.750    20833332.160    86496459.300 6      2550.852          40.750    20833332.000    86496467.316 6      2550.852          40.187
R07  20698303.600   110799657.409 8      5469.167          48.312    20698305.540   110799657.441 8      5469.167          48.000    20698321.360    86177605.695 8      4253.796          48.375    20698321.880    86177600.705 8      4253.796          48.125
G21  21354949.960   112221012.735 7      1287.319          44.437    21354948.100   112221012.750 4      1287.319          29.250    21354954.400    87444958.571 4      1003.106          29.500
G02  21376284.860   112333131.518 8      2184.062          49.937    21376283.340   112333131.520 6      2184.062          39.562    21376285.940    87532323.564 6      1701.867          39.250
R21  21326384.020   114121798.583 7      1566.626          42.250    21326387.980   114121798.614 6      1566.626          41.750    21326399.280    88761455.523 6      1218.487          39.625    21326399.180    88761454.518 6      1218.487          39.875
G03  20895327.180   109805697.721 7      4928.539          45.000    20895327.280   109805697.728 5      4928.539          33.875    20895337.160    85562910.064 5      3840.420          33.750    20895338.220    85562928.076 7      3840.420          47.875
G08  20861109.380   109625864.332 8      1402.158          50.187    20861108.240   109625864.345 8      1402.158          49.125    20861117.060    85422782.354 8      1092.591          49.500    20861118.820    85422791.351 8      1092.591          49.625
> 2024 05 08 14 53 57.0000000  0 10
G32  24787677.480   130260120.510 5      1967.266          30.562    24787675.520   130260120.486 2      1967.266          13.562    24787702.040   101501412.393 2      1532.934          13.750    24787709.440   101501453.381 4      1532.934          28.125
G27  23247792.420   122167956.223 7       -23.612          43.562    23247793.640   122167956.220 6       -23.612          40.875    23247811.960    95195877.664 6       -18.399          40.500    23247812.380    95195879.650 7       -18.399          45.562
R06  20764042.180   110800891.862 6      1873.444          37.687    20764044.020   110800891.854 6      1873.444          36.562
R22  20832708.400   111206411.915 6      3279.649          41.812    20832707.500   111206411.900 6      3279.649          41.750    20832717.520    86493908.382 6      2550.838          41.000    20832717.920    86493916.398 6      2550.838          41.250
R07  20697282.160   110794188.483 8      5468.565          49.062    20697283.760   110794188.516 7      5468.565          47.562    20697299.500    86173352.097 8      4253.328          48.500    20697300.440    86173347.107 8      4253.328          48.125
G21  21354704.720   112219725.469 7      1287.198          44.500    21354703.120   112219725.485 4      1287.198          29.250    21354709.400    87443955.507 4      1003.012          29.500
G02  21375869.140   112330947.541 8      2183.838          49.687    21375867.640   112330947.546 6      2183.838          39.437    21375870.340    87530621.757 6      1701.692          39.562
R21  21326091.720   114120232.054 7      1566.363          42.437    21326095.100   114120232.098 6      1566.363          41.937    21326106.320    88760237.123 6      1218.283          39.625    21326106.340    88760236.114 6      1218.283          39.875
G03  20894389.260   109800769.404 7      4927.995          45.437    20894389.720   109800769.412 5      4927.995          34.062    20894399.340    85559069.821 5      3839.996          33.875    20894400.380    85559087.831 7      3839.996          47.937
G08  20860842.620   109624462.407 8      1401.637          50.000    20860841.420   109624462.417 8      1401.637          49.562    20860850.340    85421689.943 8      1092.185          49.500    20860851.980    85421698.939 8      1092.185          49.125
> 2024 05 08 14 53 58.0000000  0 10
G32  24787303.200   130258153.251 5      1966.979          30.562    24787300.860   130258153.229 2      1966.979          13.937    24787328.120   101499879.472 2      1532.711          13.750    24787334.780   101499920.478 4      1532.711          28.125
G27  23247797.120   122167979.997 7       -23.646          43.937    23247798.180   122167979.994 6       -23.646          40.187    23247816.480    95195896.173 6       -18.425          40.125    23247816.760    95195898.163 7       -18.425          45.250
R06  20763691.760   110799018.973 6      1872.597          36.812    20763692.300   110799018.963 6      1872.597          36.562
R22  20832094.240   111203132.412 6      3279.658          41.812    20832093.180   111203132.394 7      3279.658          42.062    20832103.740    86491357.659 6      2550.845          41.437    20832103.620    86491365.669 6      2550.845          41.812
R07  20696260.440   110788720.262 8      5468.168          48.937    20696262.320   110788720.299 7      5468.168          47.875    20696278.440    86169099.049 7      4253.019          47.812    20696278.920    86169094.062 8      4253.019          48.000
G21  21354459.980   112218438.425 7      1287.268          44.062    21354457.980   112218438.437 4      1287.268          29.250    21354464.520    87442952.615 4      1003.066          29.500
G02  21375453.620   112328763.808 8      2183.937          49.937    21375452.120   112328763.813 6      2183.937          39.312    21375454.720    87528920.147 6      1701.769          39.375
R21  21325798.880   114118665.778 7      1566.459          42.437    21325802.320   114118665.825 6      1566.459          41.937    21325813.720    88759018.907 6      1218.357          39.500    21325814.020    88759017.896 6      1218.357          39.875
G03  20893451.860   109795841.747 7      4927.684          44.500    20893452.340   109795841.752 5      4927.684          34.062    20893461.800    85555230.095 5      3839.754          33.875    20893462.420    85555248.108 7      3839.754          47.312
G08  20860576.020   109623061.028 8      1401.397          49.687    20860574.660   109623061.039 8      1401.397          48.500    20860583.640    85420597.953 8      1091.997          48.750    20860585.220    85420606.950 8      1091.997          49.375
> 2024 05 08 14 53 59.0000000  0 10
G32  24786929.160   130256186.401 5      1966.710          30.562    24786926.800   130256186.382 2      1966.710          13.937    24786953.860   101498346.866 2      1532.501          13.750    24786958.860   101498387.891 4      1532.501          28.125
G27  23247801.640   122168003.984 7       -24.383          43.000    23247802.780   122168003.986 6       -24.383          41.187    23247821.100    95195914.847 6       -19.000          40.687    23247821.120    95195916.838 7       -19.000          45.437
R06  20763340.340   110797146.858 6      1871.546          36.812    20763341.540   110797146.854 6      1871.546          36.000
R22  20831479.900   111199852.855 6      3279.374          41.625    20831478.600   111199852.848 7      3279.374          42.062    20831489.660    86488806.897 6      2550.624          41.437    20831489.100    86488814.906 7      2550.624          42.625
R07  20695238.960   110783252.513 7      5467.345          47.937    20695240.880   110783252.552 7      5467.345          47.562    20695256.800    86164846.366 8      4252.380          49.125    20695257.820    86164841.380 8      4252.380          48.687
G21  21354214.840   112217151.353 7      1286.961          43.937    21354212.920   112217151.369 4      1286.961          29.250    21354219.540    87441949.700 4      1002.827          29.500
G02  21375037.980   112326580.115 8      2183.449          49.875    21375036.520   112326580.120 6      2183.449          39.375    21375039.200    87527218.570 6      1701.389          39.625
R21  21325506.280   114117099.495 7      1566.063          42.312    21325509.480   114117099.539 7      1566.063          42.125    21325521.180    88757800.691 6      1218.049          39.500    21325521.080    88757799.677 6      1218.049          39.875
G03  20892514.440   109790914.552 7      4926.775          45.125    20892514.880   109790914.554 5      4926.775          33.812    20892524.180    85551390.728 5      3839.046          33.875    20892524.760    85551408.735 7      3839.046          47.562
G08  20860309.400   109621659.941 8      1400.838          50.125    20860307.960   109621659.954 8      1400.838          49.437    20860317.100    85419506.197 8      1091.562          49.500    20860318.660    85419515.196 8      1091.562          50.062
> 2024 05 08 14 54  0.0000000  0 10
G32  24786554.500   130254220.101 5      1966.221          30.562    24786552.560   130254220.085 2      1966.221          13.937    24786579.740   101496814.684 2      1532.120          13.750    24786583.260   101496855.678 4      1532.120          28.125
G27  23247806.520   122168028.146 7       -24.210          44.687    23247807.460   122168028.146 6       -24.210          41.062    23247825.660    95195933.659 6       -18.865          40.750    23247825.820    95195935.651 7       -18.865          45.625
R06  20762990.320   110795275.616 6      1870.983          36.812    20762990.740   110795275.606 6      1870.983          36.000
R22  20830865.800   111196573.333 6      3279.526          41.625    20830864.560   111196573.315 6      3279.526          41.687    20830875.860    86486256.155 6      2550.743          41.750    20830875.040    86486264.155 7      2550.743          42.625
R07  20694217.680   110777785.307 8      5466.978          48.125    20694219.820   110777785.343 7      5466.978          47.312    20694235.780    86160594.105 8      4252.094          48.312    20694236.400    86160589.117 8      4252.094          48.750
G21  21353969.760   112215864.319 7      1287.114          43.250    21353968.000   112215864.337 4      1287.114          28.750    21353974.420    87440946.820 4      1002.946          28.687
G02  21374622.460   112324396.467 8      2183.579          49.875    21374620.900   112324396.469 6      2183.579          39.125    21374623.740    87525517.028 6      1701.490          39.250
R21  21325213.360   114115533.206 7      1566.384          42.312    21325217.200   114115533.248 7      1566.384          42.125    21325228.460    88756582.460 6      1218.299          39.500    21325228.820    88756581.461 6      1218.299          40.187
G03  20891576.640   109785987.812 7      4926.539          45.000    20891577.400   109785987.817 5      4926.539          33.812    20891586.580    85547551.716 5      3838.862          33.875    20891587.320    85547569.725 7      3838.862          47.625
G08  20860042.820   109620259.233 8      1400.628          48.937    20860041.460   109620259.243 8      1400.628          49.437    20860050.540    85418414.730 8      1091.399          49.312    20860052.420    85418423.728 8      1091.399          50.187
> 2024 05 08 14 54  1.0000000  0 10
G32  24786179.300   130252254.213 5      1965.491          30.562    24786178.540   130252254.200 2      1965.491          13.937    24786205.800   101495282.834 2      1531.551          13.750    24786211.620   101495323.846 4      1531.551          28.125
G27  23247811.080   122168052.538 7       -24.512          45.125    23247812.020   122168052.537 6       -24.512          40.500    23247830.280    95195952.649 6       -19.101          40.250    23247830.460    95195954.643 7       -19.101          45.562
R06  20762639.880   110793405.179 6      1870.003          36.812    20762639.980   110793405.186 6      1870.003          36.000
R22  20830251.300   111193293.787 6      3279.513          41.500    20830250.240   111193293.769 6      3279.513          41.687    20830261.600    86483705.393 6      2550.733          41.750    20830260.740    86483713.396 7      2550.733          42.562
R07  20693196.400   110772318.636 8      5466.352          48.875    20693198.420   110772318.673 7      5466.352          47.375    20693214.300    86156342.261 8      4251.607          48.750    20693215.180    86156337.273 8      4251.607          48.812
G21  21353724.920   112214577.295 7      1286.964          44.000    21353723.140   112214577.316 4      1286.964          28.750    21353729.640    87439943.944 4      1002.829          28.687
G02  21374206.900   112322212.863 8      2183.537          49.750    21374205.280   112322212.868 6      2183.537          39.187    21374208.300    87523815.518 6      1701.457          39.125
R21  21324920.760   114113966.925 7      1566.295          43.062    21324924.700   114113966.972 7      1566.295          42.062    21324935.740    88755364.250 6      1218.229          39.312    21324936.380    88755363.247 6      1218.229          40.187
G03  20890639.340   109781061.534 7      4926.009          45.250    20890640.080   109781061.536 5      4926.009          34.000    20890649.140    85543713.062 5      3838.449          33.812    20890650.060    85543731.065 7      3838.449          47.625
G08  20859776.200   109618858.863 8      1400.149          49.437    20859774.940   109618858.876 8      1400.149          50.125    20859784.080    85417323.528 8      1091.025          49.875    20859785.820    85417332.529 8      1091.025          50.125
> 2024 05 08 14 54  2.0000000  0 10
G32  24785806.040   130250288.859 5      1965.124          30.562    24785804.840   130250288.851 2      1965.124          13.937    24785832.160   101493751.399 2      1531.265          13.750    24785838.320   101493792.389 4      1531.265          28.125
G27  23247815.780   122168077.173 7       -24.802          45.062    23247816.780   122168077.178 6       -24.802          41.062    23247835.060    95195971.831 6       -19.327          40.375    23247835.300    95195973.823 7       -19.327          45.187
R06  20762289.540   110791535.658 6      1868.948          36.812    20762290.040   110791535.662 6      1868.948          36.000
R22  20829636.840   111190014.305 6      3279.468          41.500    20829635.980   111190014.281 6      3279.468          41.687    20829647.480    86481154.680 7      2550.697          42.375    20829646.140    86481162.684 7      2550.697          42.500
R07  20692175.360   110766852.579 8      5465.682          48.562    20692177.540   110766852.610 7      5465.682          47.375    20692193.420    86152090.889 8      4251.086          48.687    20692194.120    86152085.903 8      4251.086          49.187
G21  21353480.100   112213290.324 7      1286.820          44.750    21353478.220   112213290.342 4      1286.820          28.750    21353484.680    87438941.110 4      1002.717          28.687
G02  21373791.520   112320029.367 8      2183.355          49.562    21373789.760   112320029.372 6      2183.355          38.625    21373792.800    87522114.093 6      1701.315          39.375
R21  21324627.640   114112400.741 7      1566.181          43.062    21324631.940   114112400.780 7      1566.181          42.062    21324642.560    88754146.102 6      1218.141          39.312    21324643.520    88754145.101 6      1218.141          40.375
G03  20889702.140   109776135.774 7      4925.348          45.500    20889702.780   109776135.779 5      4925.348          34.000    20889711.760    85539874.813 5      3837.933          33.812    20889712.620    85539892.825 7      3837.933          47.500
G08  20859509.880   109617458.887 8      1399.652          49.500    20859508.520   109617458.897 8      1399.652          50.000    20859517.760    85416232.636 8      1090.638          49.375    20859519.580    85416241.633 8      1090.638          50.437
> 2024 05 08 14 54  3.0000000  0 10
G32  24785431.860   130248323.985 5      1965.197          30.562    24785430.740   130248323.972 2      1965.197          13.937    24785458.580   101492220.329 2      1531.323          13.750    24785462.640   101492261.327 4      1531.323          28.125
G27  23247820.580   122168102.119 7       -25.165          44.625    23247821.460   122168102.121 6       -25.165          41.125    23247839.720    95195991.255 6       -19.609          40.875    23247840.060    95195993.247 7       -19.609          45.187
R06  20761938.880   110789667.060 6      1867.878          36.812    20761939.500   110789667.066 6      1867.878          36.000
R22  20829022.600   111186734.903 7      3279.273          42.062    20829021.660   111186734.893 7      3279.273          42.375    20829032.840    86478604.049 7      2550.545          42.687    20829032.100    86478612.050 7      2550.545          43.062
R07  20691154.400   110761387.121 8      5465.038          49.187    20691156.620   110761387.157 8      5465.038          48.250    20691172.480    86147839.995 8      4250.585          48.437    20691173.100    86147835.010 8      4250.585          48.812
G21  21353235.400   112212003.434 7      1286.843          44.687    21353233.180   112212003.457 4      1286.843          28.750    21353239.860    87437938.336 4      1002.735          28.687
G02  21373375.940   112317846.012 8      2183.223          49.687    21373374.180   112317846.017 6      2183.223          38.875    21373377.300    87520412.780 6      1701.213          39.375
R21  21324334.640   114110834.690 7      1566.021          43.437    21324339.060   114110834.724 7      1566.021          42.562    21324350.720    88752928.054 6      1218.016          39.437    21324350.980    88752927.060 6      1218.016          40.375
G03  20888764.700   109771210.550 7      4924.950          44.937    20888765.660   109771210.549 5      4924.950          34.000    20888774.440    85536036.981 5      3837.623          34.187    20888775.420    85536054.984 7      3837.623          47.625
G08  20859243.760   109616059.337 8      1399.265          50.125    20859242.160   109616059.342 8      1399.265          50.000    20859251.380    85415142.068 8      1090.337          49.937    20859253.320    85415151.070 8      1090.337          50.000
> 2024 05 08 14 54  4.0000000  0 10
G32  24785057.980   130246359.790 4      1963.849          29.562    24785056.560   130246359.776 2      1963.849          13.937    24785084.960   101490689.801 2      1530.272          12.562    24785090.080   101490730.774 4      1530.272          28.125
G27  23247825.300   122168127.340 7       -25.471          44.750    23247826.240   122168127.345 6       -25.471          40.812    23247844.660    95196010.894 6       -19.848          40.562    23247844.940    95196012.886 7       -19.848          45.250
R06  20761588.940   110787799.361 6      1867.065          36.312    20761588.500   110787799.351 6      1867.065          36.000
R22  20828408.420   111183455.589 7      3279.006          42.062    20828407.320   111183455.584 7      3279.006          42.375    20828418.700    86476053.476 7      2550.338          42.687    20828417.880    86476061.479 7      2550.338          43.125
R07  20690133.660   110755922.238 8      5464.492          49.500    20690135.740   110755922.272 7      5464.492          47.750    20690151.680    86143589.542 8      4250.161          49.125    20690152.380    86143584.556 8      4250.161          49.187
G21  21352990.400   112210716.644 7      1286.656          44.562    21352988.060   112210716.670 4      1286.656          28.312    21352994.760    87436935.645 4      1002.589          28.687
G02  21372960.440   112315662.776 8      2183.047          49.625    21372958.780   112315662.779 6      2183.047          39.187    21372961.740    87518711.557 6      1701.076          39.312
R21  21324042.020   114109268.698 7      1565.830          43.750    21324046.960   114109268.735 7      1565.830          42.562    21324057.200    88751710.063 6      1217.867          39.437    21324058.480    88751709.064 6      1217.867          40.000
G03  20887827.760   109766285.885 7      4924.274          45.812    20887828.500   109766285.882 5      4924.274          34.500    20887837.580    85532199.586 5      3837.096          34.187    20887838.660    85532217.593 7      3837.096          47.875
G08  20858977.460   109614660.210 8      1398.722          50.062    20858975.880   109614660.215 8      1398.722          49.812    20858985.220    85414051.841 8      1089.913          49.250    20858987.240    85414060.841 8      1089.913          50.625
> 2024 05 08 14 54  5.0000000  0 10
G32  24784684.760   130244395.838 4      1964.198          29.562    24784683.060   130244395.830 2      1964.198          13.937    24784711.640   101489159.458 2      1530.544          12.562    24784715.220   101489200.439 4      1530.544          28.125
G27  23247830.200   122168152.727 7       -25.530          43.937    23247831.000   122168152.732 6       -25.530          40.875    23247849.420    95196030.659 6       -19.894          40.250    23247849.760    95196032.646 7       -19.894          45.375
R06  20761239.520   110785932.406 6      1866.511          36.312    20761238.480   110785932.388 6      1866.511          36.000
R22  20827793.900   111180176.219 7      3279.268          42.312    20827793.040   111180176.212 7      3279.268          42.312    20827804.220    86473502.855 7      2550.542          42.562    20827803.700    86473510.862 7      2550.542          43.250
R07  20689112.800   110750457.821 8      5464.071          49.062    20689114.940   110750457.857 7      5464.071          47.750    20689130.700    86139339.452 8      4249.833          48.750    20689131.600    86139334.468 8      4249.833          49.062
G21  21352745.580   112209429.838 7      1286.669          43.375    21352743.000   112209429.859 4      1286.669          28.312    21352749.740    87435932.937 4      1002.599          28.187
G02  21372545.160   112313479.551 8      2183.134          49.375    21372543.260   112313479.553 6      2183.134          38.937    21372546.440    87517010.340 6      1701.144          39.187
R21  21323749.660   114107702.672 7      1565.812          43.750    21323753.980   114107702.724 7      1565.812          42.625    21323765.240    88750492.052 6      1217.854          39.000    21323765.800    88750491.062 6      1217.854          40.000
G03  20886890.680   109761361.625 7      4923.980          45.062    20886891.500   109761361.620 5      4923.980          34.500    20886900.560    85528362.506 5      3836.867          34.562    20886901.440    85528380.513 7      3836.867          47.937
G08  20858711.160   109613261.367 8      1398.591          49.312    20858709.640   109613261.372 8      1398.591          49.187    20858719.100    85412961.829 8      1089.811          49.312    20858720.860    85412970.834 8      1089.811          50.187
> 2024 05 08 14 54  6.0000000  0 10
G32  24784312.100   130242432.694 4      1962.958          29.562    24784309.720   130242432.696 2      1962.958          13.937    24784338.120   101487629.743 2      1529.578          12.562    24784341.980   101487670.780 4      1529.578          28.125
G27  23247835.260   122168178.564 7       -26.051          43.750    23247835.780   122168178.571 6       -26.051          40.562    23247854.440    95196050.775 6       -20.299          40.000    23247854.900    95196052.768 7       -20.299          45.062
R06  20760890.000   110784066.527 6      1865.414          36.312    20760888.940   110784066.522 6      1865.414          36.000
R22  20827179.620   111176897.078 7      3279.022          42.312    20827178.540   111176897.076 7      3279.022          42.312    20827189.740    86470952.416 7      2550.350          42.250    20827189.460    86470960.420 7      2550.350          43.312
R07  20688092.100   110744994.148 7      5463.279          47.687    20688093.980   110744994.192 7      5463.279          47.750    20688110.300    86135089.949 8      4249.217          48.812    20688110.900    86135084.964 8      4249.217          49.312
G21  21352500.400   112208143.253 7      1286.348          43.687    21352498.080   112208143.274 4      1286.348          28.312    21352504.960    87434930.397 4      1002.349          28.187
G02  21372129.680   112311296.609 8      2182.811          49.125    21372127.760   112311296.617 6      2182.811          38.937    21372130.940    87515309.351 6      1700.892          39.312
R21  21323457.100   114106136.913 7      1565.647          43.375    21323461.640   114106136.954 7      1565.647          42.625    21323471.820    88749274.219 6      1217.726          39.000    21323473.220    88749273.245 6      1217.726          39.812
G03  20885953.520   109756438.075 7      4923.175          44.562    20885954.540   109756438.072 5      4923.175          34.500    20885963.600    85524525.984 5      3836.240          34.312    20885964.400    85524543.991 7      3836.240          47.687
G08  20858444.900   109611863.113 8      1397.966          48.687    20858443.580   109611863.118 8      1397.966          49.125    20858453.080    85411872.278 8      1089.324          49.312    20858454.600    85411881.283 8      1089.324          50.187
> 2024 05 08 14 54  7.0000000  0 10
G32  24783938.260   130240470.274 4      1961.971          29.562    24783935.920   130240470.279 2      1961.971          13.937    24783964.720   101486100.589 2      1528.809          12.562    24783966.240   101486141.605 4      1528.809          28.125
G27  23247840.060   122168204.810 7       -26.375          44.562    23247840.560   122168204.804 6       -26.375          40.687    23247859.480    95196071.202 6       -20.552          40.187    23247859.800    95196073.186 7       -20.552          45.312
R06  20760540.480   110782201.642 6      1864.578          36.312    20760540.500   110782201.627 5      1864.578          35.187
R22  20826565.640   111173618.157 7      3278.975          42.125    20826564.460   111173618.155 7      3278.975          42.187    20826575.520    86468402.144 7      2550.314          42.375    20826575.380    86468410.149 7      2550.314          43.312
R07  20687071.540   110739531.182 8      5462.724          48.062    20687073.720   110739531.221 8      5462.724          48.062    20687089.740    86130840.982 8      4248.786          48.750    20687090.280    86130835.992 8      4248.786          49.125
G21  21352255.700   112206856.849 7      1286.449          43.687    21352253.220   112206856.870 4      1286.449          28.312    21352259.960    87433928.002 4      1002.428          28.187
G02  21371714.400   112309113.909 8      2182.726          49.500    21371712.480   112309113.914 6      2182.726          38.687    21371715.540    87513608.548 6      1700.826          38.875
R21  21323164.060   114104571.368 7      1565.586          43.375    21323169.080   114104571.409 7      1565.586          42.625    21323180.280    88748056.571 6      1217.678          39.000    21323180.600    88748055.591 6      1217.678          39.812
G03  20885016.940   109751515.168 7      4922.714          45.875    20885017.720   109751515.170 5      4922.714          34.500    20885026.760    85520689.959 5      3835.881          34.312    20885027.440    85520707.970 7      3835.881          47.375
G08  20858178.980   109610465.371 8      1397.696          49.562    20858177.580   109610465.378 8      1397.696          49.250    20858187.020    85410783.126 8      1089.114          49.125    20858188.900    85410792.131 8      1089.114          50.500
> 2024 05 08 14 54  8.0000000  0 10
G32  24783565.100   130238508.183 4      1961.758          29.562    24783562.500   130238508.183 2      1961.758          13.937    24783591.720   101484571.695 2      1528.642          12.562    24783592.920   101484612.683 4      1528.642          28.125
G27  23247845.460   122168231.185 7       -26.511          44.187    23247845.380   122168231.187 6       -26.511          40.125    23247864.580    95196091.742 6       -20.658          39.562    23247864.100    95196093.738 7       -20.658          45.187
R06  20760191.160   110780337.572 6      1863.732          36.312    20760190.160   110780337.551 5      1863.732          35.187
R22  20825951.260   111170339.190 7      3278.993          42.125    20825950.280   111170339.183 7      3278.993          42.187    20825961.040    86465851.824 7      2550.328          42.437    20825961.180    86465859.834 7      2550.328          43.312
R07  20686051.260   110734068.689 8      5462.139          48.687    20686053.060   110734068.731 7      5462.139          47.687    20686069.220    86126592.387 7      4248.330          47.937    20686069.920    86126587.401 8      4248.330          48.750
G21  21352010.780   112205570.445 7      1286.450          43.812    21352008.360   112205570.463 4      1286.450          28.312    21352015.080    87432925.610 4      1002.428          28.187
G02  21371298.980   112306931.222 8      2182.657          49.500    21371297.160   112306931.225 6      2182.657          38.562    21371300.280    87511907.751 6      1700.772          38.562
R21  21322871.520   114103005.809 7      1565.394          43.187    21322876.080   114103005.867 7      1565.394          42.500    21322887.940    88746838.923 6      1217.528          38.875    21322887.520    88746837.943 6      1217.528          39.187
G03  20884080.100   109746592.697 7      4922.175          46.187    20884081.020   109746592.697 5      4922.175          34.500    20884090.040    85516854.275 5      3835.461          34.562    20884090.680    85516872.285 7      3835.461          47.750
G08  20857913.220   109609067.965 8      1397.249          49.125    20857911.640   109609067.967 8      1397.249          48.937    20857921.120    85409694.230 8      1088.765          48.812    20857923.180    85409703.237 8      1088.765          50.437
> 2024 05 08 14 54  9.0000000  0 10
G32  24783191.860   130236546.773 4      1961.056          29.562    24783189.460   130236546.775 2      1961.056          13.937    24783218.720   101483043.326 2      1528.096          12.562    24783216.640   101483084.317 4      1528.096          28.125
G27  23247850.580   122168257.978 7       -26.935          43.937    23247850.360   122168257.978 6       -26.935          40.500    23247869.600    95196112.603 6       -20.988          40.125    23247869.260    95196114.593 7       -20.988          44.875
R06  20759842.420   110778474.545 6      1862.520          36.312    20759841.180   110778474.513 5      1862.520          35.187
R22  20825336.700   111167060.396 7      3278.738          42.562    20825335.740   111167060.392 7      3278.738          42.312    20825346.440    86463301.655 7      2550.129          42.437    20825346.840    86463309.667 7      2550.129          42.875
R07  20685030.880   110728606.903 8      5461.454          48.875    20685032.820   110728606.948 8      5461.454          48.250    20685049.000    86122344.344 8      4247.797          48.750    20685049.560    86122339.358 8      4247.797          48.875
G21  21351766.540   112204284.247 7      1286.170          43.750    21351763.660   112204284.262 4      1286.170          28.312    21351770.420    87431923.375 4      1002.210          28.187
G02  21370883.700   112304748.767 8      2182.376          49.625    21370881.860   112304748.766 6      2182.376          38.687    21370885.120    87510207.134 6      1700.553          38.750
R21  21322578.800   114101440.444 7      1565.329          43.187    21322583.440   114101440.496 7      1565.329          42.500    21322595.660    88745621.414 6      1217.478          38.875    21322594.660    88745620.426 6      1217.478          39.187
G03  20883143.620   109741670.852 7      4921.608          45.750    20883144.520   109741670.857 5      4921.608          34.687    20883153.440    85513019.078 5      3835.019          34.562    20883153.840    85513037.093 7      3835.019          47.437
G08  20857647.280   109607671.074 8      1396.653          49.562    20857645.820   109607671.081 8      1396.653          49.500    20857655.320    85408605.748 8      1088.301          49.375    20857657.420    85408614.755 8      1088.301          50.500
> 2024 05 08 14 54 10.0000000  0 10
G32  24782819.120   130234585.914 5      1960.469          30.750    24782816.460   130234585.924 1      1960.469          10.437    24782845.260   101481515.392 2      1527.638          12.562    24782842.980   101481556.398 4      1527.638          28.125
G27  23247855.660   122168285.139 7       -27.538          44.562    23247855.280   122168285.143 6       -27.538          40.125    23247874.820    95196133.751 6       -21.458          39.562    23247874.400    95196135.741 7       -21.458          44.875
R06  20759493.480   110776612.481 6      1861.346          36.312    20759491.420   110776612.455 5      1861.346          35.187
R22  20824722.480   111163781.768 7      3278.350          42.562    20824721.300   111163781.777 7      3278.350          42.625    20824731.680    86460751.618 7      2549.828          42.437    20824732.420    86460759.634 7      2549.828          42.937
R07  20684010.700   110723145.837 8      5460.510          49.187    20684012.520   110723145.884 7      5460.510          47.875    20684028.740    86118096.865 8      4247.064          48.812    20684029.360    86118091.877 8      4247.064          49.062
G21  21351521.960   112202998.221 7      1285.691          42.812    21351518.640   112202998.237 4      1285.691          26.937    21351525.700    87430921.281 4      1001.837          28.187
G02  21370468.420   112302566.516 8      2181.957          49.312    21370466.620   112302566.518 6      2181.957          39.125    21370469.840    87508506.681 6      1700.226          39.437
R21  21322286.680   114099875.289 7      1564.759          43.062    21322290.420   114099875.352 7      1564.759          42.687    21322303.160    88744404.074 6      1217.035          38.687    21322302.480    88744403.079 6      1217.035          38.687
G03  20882207.200   109736749.669 7      4920.748          45.125    20882208.000   109736749.674 5      4920.748          34.687    20882217.040    85509184.394 5      3834.349          34.250    20882217.480    85509202.399 7      3834.349          47.312
G08  20857381.480   109606274.700 8      1395.929          49.250    20857380.040   109606274.705 8      1395.929          49.812    20857389.700    85407517.655 8      1087.737          49.687    20857391.600    85407526.666 8      1087.737          50.625
> 2024 05 08 14 54 11.0000000  0 10
G32  24782445.520   130232625.634 5      1960.282          30.750    24782443.360   130232625.633 1      1960.282          10.437    24782472.080   101479987.896 2      1527.493          12.562    24782469.900   101480028.937 4      1527.493          28.125
G27  23247860.800   122168312.544 7       -27.325          43.875    23247860.240   122168312.551 6       -27.325          39.562    23247879.880    95196155.091 6       -21.292          39.125    23247879.420    95196157.079 7       -21.292          45.000
R06  20759144.560   110774751.313 6      1860.840          36.000    20759142.740   110774751.287 5      1860.840          35.187
R22  20824107.980   111160503.191 7      3278.679          42.312    20824107.320   111160503.200 7      3278.679          42.625    20824117.920    86458201.617 7      2550.084          42.125    20824118.420    86458209.633 7      2550.084          42.937
R07  20682990.880   110717685.360 7      5460.323          47.750    20682992.760   110717685.407 7      5460.323          47.937    20683008.620    86113849.842 8      4246.918          48.937    20683009.600    86113844.850 8      4246.918          49.375
G21  21351277.400   112201712.238 7      1286.067          43.937    21351274.040   112201712.251 4      1286.067          26.937    21351281.000    87429919.214 4      1002.130          26.812
G02  21370053.220   112300384.368 8      2182.202          49.812    21370051.280   112300384.373 6      2182.202          39.250    21370054.560    87506806.306 6      1700.417          39.562
R21  21321994.080   114098310.167 7      1565.265          43.062    21321997.880   114098310.219 7      1565.265          42.687    21322010.860    88743186.752 6      1217.429          38.687    21322010.060    88743185.752 6      1217.429          38.687
G03  20881270.840   109731828.985 7      4920.619          45.125    20881271.560   109731828.985 5      4920.619          34.375    20881280.800    85505350.101 5      3834.249          34.250    20881281.000    85505368.112 7      3834.249          47.750
G08  20857115.960   109604878.695 8      1395.949          48.812    20857114.400   109604878.703 8      1395.949          49.437    20857124.000    85406429.862 8      1087.752          49.312    20857126.100    85406438.869 8      1087.752          50.875
> 2024 05 08 14 54 12.0000000  0 10
G32  24782072.800   130230665.687 5      1959.650          30.750    24782070.780   130230665.689 1      1959.650          10.437    24782098.480   101478460.675 2      1527.000          12.562    24782094.060   101478501.769 4      1527.000          28.125
G27  23247865.700   122168340.080 7       -27.580          43.687    23247865.500   122168340.085 6       -27.580          39.500    23247884.980    95196176.530 6       -21.491          39.500    23247884.840    95196178.516 7       -21.491          44.562
R06  20758795.840   110772890.898 6      1859.750          36.000    20758794.100   110772890.893 5      1859.750          35.187
R22  20823494.060   111157224.531 7      3278.697          42.625    20823492.840   111157224.532 7      3278.697          42.187    20823502.920    86455651.532 7      2550.098          42.625    20823504.280    86455659.546 7      2550.098          42.750
R07  20681970.860   110712225.322 8      5459.833          48.750    20681972.740   110712225.372 8      5459.833          48.500    20681988.780    86109603.156 8      4246.537          49.000    20681989.460    86109598.166 8      4246.537          49.375
G21  21351032.480   112200426.173 7      1286.145          43.625    21351029.320   112200426.183 4      1286.145          26.937    21351036.160    87428917.086 4      1002.191          26.812
G02  21369638.200   112298202.172 8      2182.211          50.250    21369636.060   112298202.172 6      2182.211          39.500    21369639.380    87505105.891 6      1700.424          39.375
R21  21321701.660   114096745.010 7      1565.071          42.125    21321705.200   114096745.068 7      1565.071          42.375    21321718.860    88741969.404 6      1217.277          38.687    21321717.620    88741968.413 6      1217.277          38.687
G03  20880334.520   109726908.664 7      4920.116          45.750    20880334.920   109726908.664 5      4920.116          34.375    20880344.480    85501516.094 5      3833.856          34.250    20880344.780    85501534.110 7      3833.856          47.437
G08  20856850.320   109603482.944 8      1395.711          50.687    20856848.960   109603482.944 8      1395.711          49.062    20856858.440    85405342.256 8      1087.567          48.937    20856860.420    85405351.263 8      1087.567          50.812
