     3.05           OBSERVATION DATA    MIXED               RINEX VERSION / TYPE
TPS2RIN 1.0.29.3920 TPS-USER            20240511 192056 UTC PGM / RUN BY / DATE
Win64 build Feb 23, 2024 (c) Topcon Positioning Systems     COMMENT
SRC: 20240508_GUI15.tps                                     COMMENT
OPT: -S -v 3.05                                             COMMENT
Observer            Agency                                  OBSERVER / AGENCY
O0M3X53SBGM         TPS HIPER_SR        4.8 HSR Jul,08,2022 REC # / TYPE / VERS
FW: 4.8 HSR Jul,08,2022 p3                                  COMMENT
SN: HiPer SR 1212-12575                                     COMMENT
000                 TPSHIPER_SR     NONE                    ANT # / TYPE
        1.8000        0.0000        0.0000                  ANTENNA: DELTA H/E/N
GUI15                                                       MARKER NAME
  5389297.0594 -1589868.9847  3009628.4300                  APPROX POSITION XYZ
  2024     5     8    13    50   25.0000000     GPS         TIME OF FIRST OBS
  2024     5     8    14     5   26.0000000     GPS         TIME OF LAST OBS
     1.000                                                  INTERVAL
   902 EPOCHS                                               COMMENT
G   16 C1C L1C D1C S1C C1W L1W D1W S1W C2W L2W D2W S2W C2X  SYS / # / OBS TYPES
       L2X D2X S2X                                          SYS / # / OBS TYPES
R   16 C1C L1C D1C S1C C1P L1P D1P S1P C2P L2P D2P S2P C2C  SYS / # / OBS TYPES
       L2C D2C S2C                                          SYS / # / OBS TYPES
    15                                                      # OF SATELLITES
   G02   903   903   903   903   903   903   903   903   903PRN / # OF OBS
         903   903   903     0     0     0     0            PRN / # OF OBS
   G03   903   903   903   903   903   903   903   903   903PRN / # OF OBS
         903   903   903   903   903   903   903            PRN / # OF OBS
   G08   903   903   903   903   903   903   903   903   903PRN / # OF OBS
         903   903   903   903   903   903   903            PRN / # OF OBS
   G10   903   903   903   903   903   903   903   903   903PRN / # OF OBS
         903   903   903   903   903   903   903            PRN / # OF OBS
   G16   903   903   903   903   903   903   903   903   903PRN / # OF OBS
         903   903   903     0     0     0     0            PRN / # OF OBS
   G21   903   903   903   903   903   903   903   903   903PRN / # OF OBS
         903   903   903     0     0     0     0            PRN / # OF OBS
   G27   823   823   823   823   816   816   816   816   816PRN / # OF OBS
         816   816   816   812   812   812   812            PRN / # OF OBS
   G32   431   431   431   431   427   427   427   427   427PRN / # OF OBS
         427   427   427   423   423   423   423            PRN / # OF OBS
   R05   903   903   903   903   903   903   903   903   903PRN / # OF OBS
         903   903   903   903   903   903   903            PRN / # OF OBS
   R07   903   903   903   903   903   903   903   903   903PRN / # OF OBS
         903   903   903   903   903   903   903            PRN / # OF OBS
   R10   903   903   903   903   903   903   903   903     0PRN / # OF OBS
           0     0     0     0     0     0     0            PRN / # OF OBS
   R11   903   903   903   903   903   903   903   903   903PRN / # OF OBS
         903   903   903   903   903   903   903            PRN / # OF OBS
   R12   808   808   808   808   802   802   802   802   802PRN / # OF OBS
         802   802   802   801   801   801   801            PRN / # OF OBS
   R21   804   804   804   804   798   798   798   798   798PRN / # OF OBS
         798   798   798   797   797   797   797            PRN / # OF OBS
   R22   705   705   705   705   699   699   699   699   686PRN / # OF OBS
         686   686   686   678   678   678   678            PRN / # OF OBS
G L1C                                                       SYS / PHASE SHIFT
G L1W -0.25000                                              SYS / PHASE SHIFT
G L2W  0.00000                                              SYS / PHASE SHIFT
G L2X  0.25000                                              SYS / PHASE SHIFT
R L1C                                                       SYS / PHASE SHIFT
R L1P -0.25000                                              SYS / PHASE SHIFT
R L2P -0.25000                                              SYS / PHASE SHIFT
R L2C                                                       SYS / PHASE SHIFT
  7 R05  1 R07  5 R10 -7 R11  0 R12 -1 R21  4 R22 -3        GLONASS SLOT / FRQ #
                                                            GLONASS COD/PHS/BIS
    18    18  1929     7GPS                                 LEAP SECONDS
                                                            END OF HEADER
> 2024 05 08 13 50 25.0000000  0 14
R07  23531817.840   125967665.950 6      6335.522          38.625    23531814.520   125967665.944 6      6335.522          37.062    23531841.660    97974949.276 7      4927.628          45.312    23531842.300    97974949.285 7      4927.628          45.562
G16  23212277.060   121981341.261 7      -892.374          42.437    23212275.080   121981341.279 4      -892.374          29.625    23212290.560    95050444.470 4      -695.356          29.500
R12  21947252.500   117238283.454 7      4739.632          43.500    21947252.920   117238283.460 7      4739.632          43.812    21947265.200    91185376.279 7      3686.381          43.500    21947264.780    91185379.284 7      3686.381          44.312
R05  23234993.500   124204351.782 6      1089.157          40.937    23234992.800   124204351.810 6      1089.157          40.562    23235006.380    96603442.964 7       847.122          43.937    23235007.260    96603444.960 7       847.122          43.875
R10  23127103.860   123280481.642 6     -1825.122          39.625    23127103.080   123280481.637 6     -1825.122          38.625
R11  20305616.140   108507056.581 8       471.810          50.437    20305615.660   108507056.588 8       471.810          48.875    20305626.140    84394413.163 8       366.964          50.625    20305625.580    84394415.165 8       366.964          51.000
R21  20963010.900   112177304.811 7      1657.843          44.437    20963010.520   112177304.821 7      1657.843          44.750    20963020.160    87249062.188 7      1289.433          43.062    20963021.000    87249062.196 7      1289.433          42.562
G10  23661952.220   124344395.828 7      -227.998          44.062    23661950.240   124344395.833 6      -227.998          40.062    23661961.420    96891778.342 6      -177.660          40.375    23661961.460    96891778.340 7      -177.660          43.500
G03  23489372.940   123437477.958 7      6164.497          44.625    23489372.760   123437477.965 5      6164.497          32.000    23489390.840    96185114.734 5      4803.504          31.625    23489391.960    96185131.753 7      4803.504          44.875
R22  21732353.180   116008792.236 6      3546.245          39.062    21732355.700   116008792.224 6      3546.245          39.437    21732369.760    90229094.801 5      2758.190          35.875    21732370.140    90229096.813 6      2758.190          36.187
G08  20830018.480   109462490.261 7      2600.627          47.250    20830016.760   109462490.269 7      2600.627          47.625    20830024.800    85295469.700 7      2026.462          47.812    20830025.680    85295487.703 8      2026.462          49.937
G02  21623303.740   113631231.191 7      2772.690          44.187    21623302.060   113631231.196 5      2772.690          34.312    21623305.760    88543821.377 5      2160.538          33.750
G27  22054949.600   115899543.693 7       901.662          42.312    22054949.360   115899543.703 5       901.662          31.687    22054957.700    90311363.678 5       702.594          31.937    22054958.140    90311367.632 6       702.594          37.000
G21  20907629.700   109870335.679 8      1780.251          49.187    20907628.340   109870335.676 6      1780.251          39.437    20907631.980    85613259.091 6      1387.208          39.500
> 2024 05 08 13 50 26.0000000  0 14
R07  23530635.040   125961330.654 6      6335.234          38.625    23530632.220   125961330.645 6      6335.234          37.062    23530658.220    97970021.820 7      4927.404          45.625    23530658.720    97970021.826 7      4927.404          44.937
G16  23212446.780   121982233.795 7      -892.733          43.000    23212444.940   121982233.813 4      -892.733          29.625    23212460.280    95051139.938 4      -695.636          29.500
R12  21946365.220   117233544.273 7      4738.773          44.375    21946366.000   117233544.274 7      4738.773          43.812    21946377.740    91181690.240 7      3685.712          43.562    21946377.520    91181693.244 7      3685.712          44.562
R05  23234789.780   124203263.068 6      1088.104          40.937    23234789.520   124203263.099 6      1088.104          40.562    23234802.900    96602596.194 7       846.303          43.437    23234803.980    96602598.195 7       846.303          44.312
R10  23127446.120   123282307.109 6     -1825.540          39.625    23127445.540   123282307.123 6     -1825.540          38.625
R11  20305527.960   108506585.147 8       471.065          50.312    20305527.760   108506585.151 8       471.065          49.062    20305537.860    84394046.483 8       366.384          50.937    20305537.420    84394048.481 8       366.384          51.125
R21  20962701.120   112175647.126 7      1657.589          44.625    20962700.420   112175647.147 7      1657.589          44.187    20962709.920    87247772.882 7      1289.236          43.312    20962711.100    87247772.888 7      1289.236          42.500
G10  23661995.600   124344624.120 7      -228.563          44.062    23661993.640   124344624.127 6      -228.563          39.937    23662004.980    96891956.228 6      -178.101          39.750    23662004.480    96891956.226 7      -178.101          43.625
G03  23488200.020   123431313.575 7      6164.185          44.312    23488199.780   123431313.582 5      6164.185          32.000    23488217.960    96180311.329 5      4803.261          31.937    23488218.920    96180328.352 7      4803.261          45.125
R22  21731688.660   116005246.131 6      3546.023          39.750    21731691.000   116005246.140 6      3546.023          39.437    21731705.060    90226336.721 5      2758.018          35.875    21731706.460    90226338.725 6      2758.018          36.187
G08  20829523.640   109459889.744 7      2600.290          46.562    20829522.020   109459889.752 7      2600.290          47.875    20829529.760    85293443.322 8      2026.200          48.000    20829530.840    85293461.326 8      2026.200          49.125
G02  21622776.180   113628458.700 7      2772.324          44.562    21622774.420   113628458.700 5      2772.324          34.250    21622778.200    88541660.995 5      2160.253          33.750
G27  22054778.480   115898642.386 6       901.197          41.500    22054777.880   115898642.402 5       901.197          31.750    22054786.600    90310661.359 5       702.231          31.937    22054787.060    90310665.317 6       702.231          37.000
G21  20907291.000   109868555.681 8      1779.791          48.125    20907289.580   109868555.678 6      1779.791          39.125    20907293.280    85611872.075 6      1386.850          39.375
> 2024 05 08 13 50 27.0000000  0 14
R07  23529452.380   125954995.324 6      6335.317          37.500    23529448.660   125954995.317 6      6335.317          37.062    23529474.800    97965094.338 7      4927.469          45.375    23529475.040    97965094.338 7      4927.469          45.687
G16  23212616.820   121983126.631 7      -892.966          42.375    23212615.000   121983126.646 4      -892.966          29.062    23212630.200    95051835.632 4      -695.817          29.500
R12  21945477.960   117228805.884 7      4737.976          44.250    21945478.880   117228805.887 7      4737.976          43.500    21945490.540    91178004.834 7      3685.093          43.187    21945490.440    91178007.843 7      3685.093          43.750
R05  23234585.920   124202175.177 6      1087.386          40.937    23234586.000   124202175.213 6      1087.386          40.312    23234599.340    96601750.057 7       845.745          43.937    23234600.020    96601752.057 7       845.745          44.062
R10  23127789.100   123284132.747 6     -1825.782          39.625    23127787.640   123284132.745 6     -1825.782          38.187
R11  20305439.840   108506114.565 8       470.201          50.375    20305439.540   108506114.572 8       470.201          49.375    20305449.640    84393680.469 8       365.712          50.562    20305449.700    84393682.467 8       365.712          50.750
R21  20962391.180   112173989.560 7      1657.589          44.250    20962390.780   112173989.569 7      1657.589          43.750    20962400.140    87246483.655 7      1289.236          43.062    20962401.540    87246483.659 7      1289.236          42.750
G10  23662039.000   124344852.819 7      -228.851          44.312    23662037.240   124344852.821 6      -228.851          40.187    23662048.540    96892134.425 6      -178.325          40.375    23662047.980    96892134.419 7      -178.325          43.562
G03  23487026.860   123425149.408 7      6164.119          44.875    23487026.760   123425149.418 5      6164.119          32.062    23487044.960    96175508.093 5      4803.209          31.937    23487045.940    96175525.113 7      4803.209          45.250
R22  21731024.160   116001700.252 6      3545.917          39.750    21731026.860   116001700.272 6      3545.917          39.750    21731040.180    90223578.812 5      2757.935          35.875    21731041.880    90223580.824 6      2757.935          36.187
G08  20829028.900   109457289.545 7      2600.076          47.750    20829027.220   109457289.552 7      2600.076          47.187    20829034.960    85291417.191 7      2026.033          47.625    20829036.080    85291435.194 8      2026.033          49.687
G02  21622248.680   113625686.543 7      2771.965          44.000    21622246.940   113625686.548 5      2771.965          34.250    21622250.780    88539500.876 5      2159.973          33.812
G27  22054606.760   115897741.405 6       900.891          41.312    22054606.340   115897741.415 5       900.891          31.750    22054615.160    90309959.290 5       701.993          32.062    22054616.280    90309963.252 6       701.993          37.000
G21  20906952.420   109866776.002 8      1779.514          48.562    20906950.860   109866776.002 6      1779.514          39.812    20906954.700    85610485.310 6      1386.634          39.875
> 2024 05 08 13 50 28.0000000  0 14
R07  23528268.380   125948659.808 6      6335.677          37.500    23528264.960   125948659.810 6      6335.677          37.062    23528291.000    97960166.730 7      4927.749          45.062    23528291.380    97960166.732 7      4927.749          45.125
G16  23212786.780   121984019.611 7      -893.091          42.437    23212785.000   121984019.629 4      -893.091          29.062    23212800.240    95052531.446 4      -695.915          29.500
R12  21944591.300   117224068.113 7      4737.478          44.125    21944592.040   117224068.120 7      4737.478          43.250    21944603.500    91174319.904 7      3684.705          43.562    21944603.520    91174322.912 7      3684.705          44.562
R05  23234382.480   124201088.002 6      1086.670          40.187    23234382.780   124201088.041 6      1086.670          40.312    23234395.840    96600904.475 7       845.188          43.312    23234396.920    96600906.475 7       845.188          43.125
R10  23128130.700   123285958.294 6     -1825.589          39.000    23128130.000   123285958.300 6     -1825.589          38.187
R11  20305352.180   108505644.646 8       469.584          50.000    20305351.780   108505644.652 8       469.584          49.125    20305361.660    84393314.974 8       365.232          50.875    20305361.680    84393316.974 8       365.232          50.875
R21  20962081.400   112172331.934 7      1657.613          44.250    20962080.580   112172331.954 7      1657.613          44.062    20962090.460    87245194.398 7      1289.255          43.250    20962091.380    87245194.395 7      1289.255          42.750
G10  23662082.540   124345081.805 7      -229.096          44.000    23662080.940   124345081.812 6      -229.096          40.125    23662092.080    96892312.853 6      -178.516          40.562    23662092.280    96892312.845 7      -178.516          43.562
G03  23485853.840   123418985.335 7      6164.015          43.937    23485853.680   123418985.348 5      6164.015          32.062    23485871.960    96170704.927 5      4803.128          31.937    23485872.580    96170721.948 7      4803.128          45.375
R22  21730360.520   115998154.476 6      3545.791          40.062    21730362.200   115998154.479 6      3545.791          39.750    21730375.940    90220820.962 5      2757.838          35.875    21730377.360    90220822.977 6      2757.838          36.187
G08  20828534.220   109454689.545 7      2599.865          47.562    20828532.440   109454689.552 7      2599.865          47.562    20828540.240    85289391.215 7      2025.869          47.500    20828541.240    85289409.220 8      2025.869          49.500
G02  21621721.520   113622914.567 7      2771.796          43.875    21621719.380   113622914.567 5      2771.796          33.937    21621723.280    88537340.893 5      2159.841          33.812
G27  22054435.420   115896840.579 7       900.783          42.062    22054434.840   115896840.589 5       900.783          31.750    22054443.900    90309257.339 5       701.909          32.062    22054446.140    90309261.297 6       701.909          37.000
G21  20906614.040   109864996.498 8      1779.400          48.500    20906612.260   109864996.497 6      1779.400          39.375    20906616.000    85609098.689 6      1386.545          39.500
> 2024 05 08 13 50 29.0000000  0 14
R07  23527084.720   125942324.266 6      6335.577          37.500    23527081.860   125942324.257 6      6335.577          36.000    23527107.400    97955239.082 7      4927.671          45.000    23527108.140    97955239.086 7      4927.671          45.500
G16  23212956.900   121984912.767 7      -893.136          43.125    23212955.120   121984912.785 4      -893.136          29.062    23212970.300    95053227.396 4      -695.950          29.500
R12  21943704.880   117219331.032 7      4736.843          44.125    21943705.320   117219331.041 7      4736.843          43.687    21943717.100    91170635.507 7      3684.211          43.312    21943716.720    91170638.518 7      3684.211          43.812
R05  23234179.120   124200001.480 6      1086.269          40.187    23234179.820   124200001.516 6      1086.269          40.250    23234192.560    96600059.408 7       844.876          43.687    23234193.460    96600061.412 7       844.876          43.875
R10  23128473.540   123287783.897 6     -1825.626          39.000    23128472.640   123287783.898 6     -1825.626          38.187
R11  20305264.260   108505175.445 8       468.930          50.312    20305264.080   108505175.454 8       468.930          49.687    20305273.960    84392950.036 8       364.723          50.312    20305273.760    84392952.038 8       364.723          50.437
R21  20961771.560   112170674.321 7      1657.664          44.312    20961770.940   112170674.339 7      1657.664          44.187    20961780.860    87243905.136 7      1289.294          43.125    20961781.880    87243905.136 7      1289.294          42.562
G10  23662126.260   124345311.129 7      -229.370          45.062    23662124.740   124345311.134 6      -229.370          39.875    23662135.680    96892491.539 6      -178.730          39.812    23662135.660    96892491.535 7      -178.730          43.687
G03  23484680.960   123412821.349 7      6164.060          44.687    23484680.540   123412821.362 5      6164.060          32.062    23484699.060    96165901.830 5      4803.164          32.187    23484699.880    96165918.846 7      4803.164          45.625
R22  21729696.360   115994608.808 6      3545.707          40.062    21729698.260   115994608.806 6      3545.707          39.750    21729711.600    90218063.227 5      2757.772          35.875    21729712.620    90218065.204 6      2757.772          36.187
G08  20828039.380   109452089.750 7      2599.734          46.437    20828037.740   109452089.758 7      2599.734          47.937    20828045.500    85287365.403 7      2025.767          47.750    20828046.500    85287383.410 8      2025.767          49.562
G02  21621193.680   113620142.775 7      2771.730          43.750    21621192.000   113620142.777 5      2771.730          33.937    21621195.860    88535181.053 5      2159.789          33.500
G27  22054264.020   115895939.960 6       900.634          41.125    22054263.440   115895939.971 5       900.634          32.062    22054272.740    90308555.548 5       701.793          32.062    22054273.480    90308559.504 6       701.793          36.562
G21  20906275.480   109863217.216 8      1779.198          48.937    20906273.640   109863217.216 6      1779.198          39.500    20906277.480    85607712.234 6      1386.388          39.625
> 2024 05 08 13 50 30.0000000  0 14
R07  23525901.400   125935988.820 6      6335.465          37.500    23525897.580   125935988.808 6      6335.465          36.000    23525924.160    97950311.515 7      4927.584          44.937    23525924.600    97950311.517 7      4927.584          45.375
G16  23213126.820   121985806.363 7      -893.607          43.625    23213125.240   121985806.383 4      -893.607          29.062    23213140.360    95053923.687 4      -696.317          29.187
R12  21942818.080   117214594.886 7      4735.901          43.187    21942818.900   117214594.895 7      4735.901          43.687    21942830.520    91166951.838 7      3683.479          43.375    21942830.020    91166954.843 7      3683.479          44.250
R05  23233975.700   124198915.936 6      1085.147          39.812    23233976.180   124198915.969 6      1085.147          40.250    23233989.340    96599215.106 7       844.003          43.937    23233990.760    96599217.106 7       844.003          43.625
R10  23128815.700   123289609.756 6     -1825.943          39.000    23128815.420   123289609.757 6     -1825.943          38.187
R11  20305176.660   108504707.212 8       467.988          50.437    20305176.420   108504707.218 8       467.988          49.375    20305186.340    84392585.848 8       363.990          50.812    20305186.040    84392587.848 8       363.990          50.500
R21  20961462.120   112169016.974 7      1657.382          44.812    20961461.080   112169016.989 7      1657.382          44.250    20961471.040    87242616.090 7      1289.075          43.062    20961471.780    87242616.094 7      1289.075          42.187
G10  23662169.820   124345540.984 7      -229.970          44.312    23662168.540   124345540.994 6      -229.970          40.375    23662179.400    96892670.647 6      -179.198          40.375    23662179.500    96892670.645 7      -179.198          43.312
G03  23483508.340   123406657.724 7      6163.674          44.562    23483507.600   123406657.734 5      6163.674          32.000    23483526.040    96161099.013 5      4802.863          32.187    23483526.960    96161116.031 7      4802.863          45.312
R22  21729032.440   115991063.445 6      3545.465          40.062    21729033.660   115991063.443 6      3545.465          39.750    21729046.760    90215305.727 5      2757.584          35.875    21729048.680    90215307.704 6      2757.584          36.187
G08  20827544.660   109449490.394 7      2599.320          46.500    20827543.020   109449490.404 7      2599.320          47.625    20827550.700    85285339.929 7      2025.444          47.625    20827551.780    85285357.934 8      2025.444          49.500
G02  21620666.440   113617371.440 7      2771.325          44.562    21620664.680   113617371.440 5      2771.325          33.875    21620668.520    88533021.571 5      2159.474          33.500
G27  22054092.980   115895039.765 6       900.154          41.125    22054091.980   115895039.773 5       900.154          32.062    22054101.240    90307854.091 5       701.419          32.187    22054102.060    90307858.039 6       701.419          36.562
G21  20905936.820   109861438.368 7      1778.801          47.875    20905935.200   109861438.370 6      1778.801          39.687    20905938.980    85606326.119 6      1386.078          40.062
> 2024 05 08 13 50 31.0000000  0 14
R07  23524717.900   125929653.345 6      6335.605          37.500    23524715.060   125929653.331 6      6335.605          36.000    23524740.280    97945383.910 7      4927.693          45.125    23524740.920    97945383.913 7      4927.693          44.937
G16  23213296.920   121986700.202 7      -893.899          42.937    23213295.340   121986700.223 4      -893.899          29.437    23213310.520    95054620.167 4      -696.545          29.187
R12  21941931.160   117209859.456 7      4735.096          43.500    21941932.260   117209859.470 7      4735.096          43.875    21941943.920    91163268.730 7      3682.853          43.500    21941943.740    91163271.741 7      3682.853          44.562
R05  23233773.400   124197831.100 6      1084.624          39.812    23233773.520   124197831.136 6      1084.624          40.250    23233786.320    96598371.343 7       843.596          43.625    23233787.340    96598373.347 7       843.596          43.625
R10  23129158.340   123291435.666 6     -1826.011          39.000    23129157.460   123291435.648 6     -1826.011          37.625
R11  20305089.320   108504239.774 8       467.167          50.250    20305089.180   108504239.784 8       467.167          49.625    20305098.920    84392222.274 8       363.352          50.437    20305098.600    84392224.271 8       363.352          50.625
R21  20961152.480   112167359.720 7      1657.243          43.187    20961151.780   112167359.732 7      1657.243          44.125    20961161.500    87241327.111 7      1288.966          43.187    20961162.320    87241327.115 7      1288.966          42.250
G10  23662213.620   124345771.205 7      -230.352          44.125    23662212.340   124345771.220 6      -230.352          40.187    23662223.340    96892850.042 6      -179.495          40.562    23662223.340    96892850.042 7      -179.495          43.312
G03  23482335.560   123400494.263 7      6163.473          44.750    23482334.860   123400494.268 5      6163.473          32.000    23482353.340    96156296.322 5      4802.706          32.312    23482354.620    96156313.343 7      4802.706          45.875
R22  21728368.160   115987518.290 6      3545.151          39.687    21728369.280   115987518.285 6      3545.151          39.750    21728382.760    90212548.361 5      2757.339          35.875    21728385.000    90212550.359 6      2757.339          36.187
G08  20827050.320   109446891.324 7      2599.019          47.250    20827048.500   109446891.335 7      2599.019          47.625    20827056.240    85283314.680 7      2025.209          47.187    20827057.380    85283332.685 8      2025.209          49.812
G02  21620138.960   113614600.373 7      2771.028          44.500    21620137.420   113614600.378 5      2771.028          34.000    21620141.220    88530862.298 5      2159.243          33.875
G27  22053921.620   115894139.824 6       899.946          41.437    22053920.680   115894139.832 5       899.946          32.062    22053930.160    90307152.835 5       701.257          32.187    22053931.560    90307156.788 6       701.257          36.562
G21  20905598.240   109859659.786 8      1778.602          49.062    20905596.640   109859659.788 6      1778.602          38.937    20905600.520    85604940.210 6      1385.923          39.625
> 2024 05 08 13 50 32.0000000  0 14
R07  23523533.600   125923317.677 6      6335.644          38.187    23523529.440   125923317.692 6      6335.644          36.000    23523557.120    97940456.210 7      4927.723          44.500    23523557.380    97940456.213 7      4927.723          44.875
G16  23213467.080   121987594.162 7      -893.883          42.437    23213465.520   121987594.180 4      -893.883          29.437    23213480.620    95055316.741 4      -696.532          29.187
R12  21941044.720   117205124.645 7      4734.665          43.625    21941046.240   117205124.654 7      4734.665          43.625    21941057.640    91159586.091 7      3682.517          43.500    21941057.620    91159589.097 7      3682.517          43.937
R05  23233570.540   124196746.948 6      1083.968          39.812    23233571.140   124196746.984 6      1083.968          40.000    23233583.700    96597528.109 7       843.086          43.625    23233584.580    96597530.112 7       843.086          43.875
R10  23129500.420   123293261.538 6     -1825.860          38.812    23129499.740   123293261.531 6     -1825.860          37.625
R11  20305002.180   108503772.989 8       466.561          50.937    20305001.800   108503772.993 8       466.561          49.750    20305011.460    84391859.208 8       362.881          50.250    20305011.280    84391861.206 8       362.881          50.250
R21  20960842.900   112165702.372 7      1657.467          44.437    20960841.940   112165702.379 7      1657.467          44.125    20960851.720    87240038.058 7      1289.141          43.000    20960852.640    87240038.059 7      1289.141          42.375
G10  23662257.380   124346001.706 7      -230.549          45.187    23662256.120   124346001.719 6      -230.549          39.875    23662267.140    96893029.653 6      -179.648          39.812    23662267.220    96893029.643 7      -179.648          43.312
G03  23481162.620   123394330.824 7      6163.619          45.062    23481162.040   123394330.829 5      6163.619          32.562    23481180.500    96151493.651 5      4802.820          32.312    23481181.540    96151510.663 7      4802.820          45.500
R22  21727704.660   115983973.196 6      3545.075          39.687    21727706.320   115983973.178 6      3545.075          40.062    21727718.680    90209791.051 5      2757.280          32.937    21727720.660    90209793.031 5      2757.280          33.562
G08  20826555.620   109444292.407 7      2598.938          47.312    20826553.960   109444292.415 7      2598.938          47.687    20826561.680    85281289.545 7      2025.146          47.437    20826562.460    85281307.551 8      2025.146          48.937
G02  21619611.820   113611829.485 7      2770.906          44.062    21619610.140   113611829.490 5      2770.906          34.000    21619614.040    88528703.167 5      2159.147          33.875
G27  22053750.160   115893240.039 6       899.720          41.625    22053749.440   115893240.049 5       899.720          31.937    22053759.100    90306451.701 5       701.080          32.187    22053759.740    90306455.661 6       701.080          36.562
G21  20905259.960   109857881.374 8      1778.483          49.125    20905258.340   109857881.374 6      1778.483          39.250    20905262.120    85603554.433 6      1385.831          39.750
> 2024 05 08 13 50 33.0000000  0 14
R07  23522349.940   125916982.036 6      6335.551          38.187    23522346.400   125916982.035 6      6335.551          36.000    23522373.940    97935528.479 7      4927.651          45.312    23522373.780    97935528.481 7      4927.651          45.500
G16  23213637.200   121988488.422 7      -894.352          43.062    23213635.660   121988488.438 4      -894.352          29.437    23213650.880    95056013.545 4      -696.897          29.187
R12  21940158.620   117200390.662 7      4733.482          43.937    21940160.140   117200390.666 7      4733.482          43.875    21940171.500    91155904.106 7      3681.597          43.750    21940171.220    91155907.109 7      3681.597          44.250
R05  23233367.760   124195663.628 6      1082.923          40.375    23233368.600   124195663.648 6      1082.923          40.000    23233381.480    96596685.521 7       842.274          44.000    23233382.040    96596687.519 7       842.274          43.750
R10  23129843.240   123295087.568 6     -1826.238          38.812    23129842.680   123295087.563 6     -1826.238          37.625
R11  20304914.860   108503307.030 8       465.376          50.250    20304914.620   108503307.036 8       465.376          49.437    20304924.240    84391496.805 8       361.959          50.187    20304923.960    84391498.805 8       361.959          50.875
R21  20960532.740   112164045.145 7      1657.049          43.937    20960532.060   112164045.152 7      1657.049          44.000    20960542.500    87238749.104 7      1288.816          43.250    20960543.200    87238749.104 7      1288.816          42.125
G10  23662301.580   124346232.642 7      -231.212          44.625    23662300.200   124346232.649 6      -231.212          39.250    23662311.380    96893209.593 6      -180.165          39.562    23662311.280    96893209.587 7      -180.165          43.187
G03  23479989.780   123388167.655 7      6162.995          44.812    23479989.400   123388167.655 5      6162.995          32.562    23480007.700    96146691.190 5      4802.334          32.312    23480008.660    96146708.208 7      4802.334          45.187
R22  21727040.380   115980428.316 6      3544.535          40.250    21727041.840   115980428.306 6      3544.535          40.062    21727053.980    90207033.945 5      2756.861          32.937    21727055.980    90207035.926 5      2756.861          33.562
G08  20826061.060   109441693.842 7      2598.271          47.375    20826059.580   109441693.850 7      2598.271          47.437    20826067.120    85279264.685 7      2024.626          47.375    20826068.180    85279282.686 8      2024.626          49.625
G02  21619084.760   113609058.920 7      2770.396          44.125    21619082.980   113609058.919 5      2770.396          33.625    21619086.680    88526544.281 5      2158.750          33.375
G27  22053579.340   115892340.553 6       899.348          41.062    22053578.180   115892340.563 5       899.348          31.937    22053588.160    90305750.797 5       700.791          32.187    22053587.500    90305754.757 6       700.791          36.562
G21  20904921.380   109856103.309 8      1777.783          48.937    20904919.940   109856103.311 6      1777.783          39.437    20904923.700    85602168.926 6      1385.286          39.562
> 2024 05 08 13 50 34.0000000  0 14
R07  23521166.500   125910646.264 6      6335.632          38.187    23521162.600   125910646.279 6      6335.632          36.000    23521190.240    97930600.656 7      4927.714          45.375    23521190.200    97930600.658 7      4927.714          45.875
G16  23213807.480   121989382.850 7      -894.535          42.812    23213805.900   121989382.863 4      -894.535          29.437    23213821.360    95056710.483 4      -697.040          29.250
R12  21939272.700   117195657.291 7      4732.999          43.250    21939274.180   117195657.300 7      4732.999          43.687    21939285.600    91152222.593 7      3681.222          44.062    21939285.240    91152225.600 7      3681.222          44.000
R05  23233164.760   124194580.973 6      1082.213          40.375    23233166.840   124194580.995 6      1082.213          40.312    23233178.900    96595843.456 7       841.722          44.437    23233179.160    96595845.462 7       841.722          44.125
R10  23130186.680   123296913.557 6     -1826.119          38.812    23130185.820   123296913.563 6     -1826.119          37.625
R11  20304827.640   108502841.751 8       464.867          50.812    20304827.340   108502841.763 8       464.867          49.625    20304837.240    84391134.905 8       361.563          50.437    20304836.840    84391136.905 8       361.563          50.750
R21  20960223.300   112162387.873 7      1657.225          44.375    20960222.320   112162387.885 7      1657.225          43.687    20960232.480    87237460.114 7      1288.952          42.750    20960233.480    87237460.114 7      1288.952          42.500
G10  23662345.500   124346463.871 7      -231.492          44.625    23662344.280   124346463.878 6      -231.492          40.000    23662355.240    96893389.765 6      -180.384          39.937    23662355.040    96893389.751 7      -180.384          43.187
G03  23478817.080   123382004.531 7      6162.939          44.812    23478816.400   123382004.542 5      6162.939          32.562    23478834.840    96141888.768 5      4802.290          32.250    23478836.120    96141905.790 7      4802.290          45.125
R22  21726376.600   115976883.457 6      3544.689          40.250    21726377.600   115976883.472 6      3544.689          40.312    21726389.400    90204276.843 5      2756.981          32.937    21726392.020    90204278.839 5      2756.981          33.562
G08  20825566.720   109439095.437 7      2598.250          47.500    20825564.960   109439095.442 7      2598.250          47.500    20825572.720    85277239.952 7      2024.610          47.312    20825573.700    85277257.957 8      2024.610          49.500
G02  21618557.740   113606288.552 7      2770.049          44.187    21618556.020   113606288.551 5      2770.049          33.625    21618559.440    88524385.554 5      2158.480          33.375
G27  22053407.900   115891441.248 6       899.149          41.000    22053407.040   115891441.258 5       899.149          31.875    22053417.200    90305050.034 5       700.636          32.187    22053416.200    90305053.991 6       700.636          36.875
G21  20904582.900   109854325.397 8      1777.725          49.437    20904581.680   109854325.396 6      1777.725          39.187    20904585.320    85600783.537 6      1385.240          39.312
> 2024 05 08 13 50 35.0000000  0 14
R07  23519982.480   125904310.628 6      6335.742          38.187    23519978.900   125904310.632 6      6335.742          36.000    23520006.780    97925672.933 7      4927.800          45.562    23520006.760    97925672.935 7      4927.800          45.750
G16  23213977.440   121990277.694 7      -894.852          42.687    23213976.160   121990277.709 4      -894.852          29.437    23213991.480    95057407.749 4      -697.287          29.250
R12  21938386.820   117190924.860 7      4732.172          43.937    21938388.280   117190924.864 7      4732.172          43.625    21938399.600    91148541.814 7      3680.579          43.875    21938399.080    91148544.818 7      3680.579          43.625
R05  23232962.140   124193499.280 6      1081.373          40.375    23232964.240   124193499.308 6      1081.373          40.312    23232976.460    96595002.139 7       841.068          43.937    23232977.060    96595004.148 7       841.068          44.375
R10  23130529.160   123298739.829 6     -1826.226          38.875    23130527.940   123298739.824 6     -1826.226          37.625
R11  20304740.860   108502377.464 8       463.953          50.437    20304740.460   108502377.471 8       463.953          49.625    20304750.500    84390773.791 8       360.852          50.250    20304750.100    84390775.791 8       360.852          50.937
R21  20959913.740   112160730.894 7      1657.070          44.500    20959912.760   112160730.907 7      1657.070          43.937    20959922.840    87236171.357 7      1288.832          42.937    20959923.520    87236171.358 7      1288.832          42.437
G10  23662389.760   124346695.642 7      -232.000          44.437    23662388.480   124346695.647 6      -232.000          39.687    23662399.200    96893570.364 6      -180.779          39.875    23662399.580    96893570.364 7      -180.779          43.250
G03  23477644.360   123375841.736 7      6162.927          45.562    23477643.840   123375841.746 5      6162.927          32.250    23477662.060    96137086.598 5      4802.280          32.250    23477663.000    96137103.618 7      4802.280          45.500
R22  21725712.440   115973338.975 6      3544.535          40.312    21725713.960   115973338.986 6      3544.535          40.312    21725725.920    90201520.030 5      2756.860          32.937    21725728.260    90201522.036 5      2756.860          33.562
G08  20825072.040   109436497.482 7      2597.963          47.000    20825070.680   109436497.487 7      2597.963          47.375    20825078.280    85275215.569 7      2024.387          47.187    20825079.500    85275233.572 8      2024.387          49.812
G02  21618030.540   113603518.588 7      2769.937          44.437    21618028.860   113603518.588 5      2769.937          33.875    21618032.400    88522227.139 5      2158.393          34.000
G27  22053236.640   115890542.393 6       898.717          41.187    22053236.060   115890542.403 5       898.717          31.875    22053246.180    90304349.621 5       700.299          32.187    22053246.300    90304353.578 6       700.299          36.875
G21  20904244.800   109852547.936 8      1777.427          49.437    20904243.380   109852547.938 6      1777.427          39.437    20904247.240    85599398.503 6      1385.008          39.500
> 2024 05 08 13 50 36.0000000  0 14
R07  23518798.600   125897974.877 6      6335.506          38.187    23518795.500   125897974.889 6      6335.506          36.000    23518823.340    97920745.131 7      4927.616          45.312    23518823.060    97920745.131 7      4927.616          45.875
G16  23214147.940   121991172.755 7      -895.343          42.687    23214146.560   121991172.770 4      -895.343          29.437    23214161.880    95058105.179 4      -697.670          29.250
R12  21937500.940   117186193.113 7      4731.253          43.937    21937502.280   117186193.122 7      4731.253          43.375    21937513.840    91144861.568 7      3679.864          43.375    21937513.180    91144864.575 7      3679.864          43.875
R05  23232760.340   124192418.333 6      1080.358          39.937    23232761.680   124192418.363 6      1080.358          40.312    23232774.580    96594161.409 7       840.278          43.687    23232774.860    96594163.424 7       840.278          44.250
R10  23130872.060   123300566.091 6     -1826.307          38.875    23130869.780   123300566.105 6     -1826.307          37.500
R11  20304654.100   108501913.912 8       463.024          51.000    20304653.540   108501913.918 8       463.024          49.062    20304663.760    84390413.244 8       360.130          50.625    20304663.360    84390415.240 8       360.130          51.187
R21  20959603.920   112159073.991 7      1656.778          43.125    20959603.000   112159073.995 7      1656.778          44.125    20959613.160    87234882.646 7      1288.605          42.875    20959614.000    87234882.643 7      1288.605          42.375
G10  23662433.660   124346927.707 7      -232.296          45.250    23662432.640   124346927.719 6      -232.296          40.312    23662443.260    96893751.196 6      -181.010          40.437    23662443.540    96893751.184 7      -181.010          43.375
G03  23476471.620   123369679.074 7      6162.616          45.375    23476471.220   123369679.079 5      6162.616          32.250    23476489.400    96132284.534 5      4802.038          32.250    23476490.440    96132301.554 7      4802.038          45.562
R22  21725048.340   115969794.674 6      3543.875          40.312    21725050.180   115969794.694 6      3543.875          40.375    21725062.300    90198763.345 5      2756.347          32.937    21725064.780    90198765.343 5      2756.347          33.562
G08  20824577.780   109433899.765 7      2597.505          47.750    20824576.500   109433899.770 7      2597.505          47.437    20824583.960    85273191.373 7      2024.030          47.812    20824585.300    85273209.376 8      2024.030          49.750
G02  21617503.300   113600748.877 7      2769.474          44.875    21617501.680   113600748.877 5      2769.474          33.875    21617505.460    88520068.929 5      2158.032          34.000
G27  22053066.000   115889643.711 6       898.542          40.437    22053064.880   115889643.716 5       898.542          31.875    22053075.260    90303649.339 5       700.163          31.875    22053075.800    90303653.299 6       700.163          36.875
G21  20903906.560   109850770.720 8      1776.926          49.125    20903905.140   109850770.717 6      1776.926          39.187    20903909.040    85598013.653 6      1384.617          39.250
> 2024 05 08 13 50 37.0000000  0 14
R07  23517614.860   125891639.072 6      6335.726          38.187    23517612.620   125891639.071 5      6335.726          35.500    23517639.600    97915817.281 7      4927.787          45.312    23517639.640    97915817.283 7      4927.787          46.312
G16  23214318.480   121992068.050 7      -895.520          42.187    23214316.820   121992068.068 4      -895.520          29.437    23214332.260    95058802.795 4      -697.808          29.250
R12  21936615.200   117181462.111 7      4730.574          42.937    21936616.640   117181462.131 7      4730.574          43.375    21936628.400    91141181.904 7      3679.336          43.812    21936627.680    91141184.913 7      3679.336          44.312
R05  23232557.980   124191338.201 6      1079.671          39.937    23232559.140   124191338.218 6      1079.671          40.187    23232572.840    96593321.294 7       839.744          44.000    23232572.800    96593323.304 7       839.744          44.375
R10  23131214.500   123302392.493 6     -1826.412          38.875    23131212.480   123302392.494 6     -1826.412          37.500
R11  20304567.120   108501451.156 8       462.235          50.250    20304567.040   108501451.162 8       462.235          49.562    20304577.120    84390053.308 8       359.516          50.500    20304576.880    84390055.306 8       359.516          51.000
R21  20959294.540   112157417.141 7      1656.779          43.125    20959293.280   112157417.153 7      1656.779          43.937    20959303.560    87233593.988 7      1288.606          43.312    20959304.360    87233593.990 7      1288.606          42.625
G10  23662478.220   124347160.208 7      -232.703          44.000    23662477.040   124347160.215 6      -232.703          40.125    23662487.480    96893932.355 6      -181.327          39.937    23662487.760    96893932.345 7      -181.327          43.375
G03  23475299.060   123363516.636 7      6162.209          44.937    23475298.480   123363516.644 5      6162.209          32.250    23475316.720    96127482.642 5      4801.722          32.625    23475317.880    96127499.658 7      4801.722          45.562
R22  21724384.340   115966250.490 6      3544.039          40.812    21724386.100   115966250.505 6      3544.039          40.375    21724399.000    90196006.762 5      2756.475          32.937    21724401.200    90196008.772 5      2756.475          33.562
G08  20824083.520   109431302.348 7      2597.218          47.812    20824082.280   109431302.353 7      2597.218          47.812    20824089.580    85271167.407 7      2023.806          47.937    20824090.760    85271185.410 8      2023.806          49.437
G02  21616976.560   113597979.437 7      2769.242          44.062    21616974.700   113597979.444 5      2769.242          33.750    21616978.540    88517910.932 5      2157.851          33.375
G27  22052895.040   115888745.331 6       898.245          41.250    22052893.760   115888745.344 5       898.245          31.687    22052904.320    90302949.300 5       699.931          31.875    22052904.480    90302953.266 6       699.931          36.875
G21  20903568.360   109848993.761 8      1776.747          48.437    20903567.060   109848993.761 6      1776.747          39.187    20903571.040    85596629.014 6      1384.478          39.562
> 2024 05 08 13 50 38.0000000  0 14
R07  23516430.940   125885303.252 6      6335.899          36.812    23516427.680   125885303.264 5      6335.899          35.500    23516456.180    97910889.423 7      4927.922          45.375    23516456.120    97910889.429 7      4927.922          45.812
G16  23214488.920   121992963.650 7      -895.739          42.062    23214487.280   121992963.668 4      -895.739          29.437    23214502.660    95059500.651 4      -697.978          29.375
R12  21935729.620   117176731.891 7      4729.883          43.875    21935731.260   117176731.909 7      4729.883          43.687    21935742.840    91137502.838 7      3678.798          43.687    21935742.300    91137505.849 7      3678.798          44.250
R05  23232355.840   124190258.844 6      1079.013          39.937    23232357.220   124190258.867 6      1079.013          40.187    23232370.620    96592481.808 7       839.232          43.875    23232371.160    96592483.811 7       839.232          44.250
R10  23131556.800   123304219.013 6     -1826.452          38.875    23131554.640   123304219.001 6     -1826.452          37.500
R11  20304481.100   108500989.185 8       461.682          50.437    20304480.480   108500989.189 8       461.682          49.437    20304490.660    84389693.994 8       359.086          50.437    20304490.420    84389695.987 8       359.086          50.750
R21  20958984.820   112155760.417 7      1656.745          43.250    20958983.660   112155760.424 7      1656.745          43.937    20958994.620    87232305.418 7      1288.580          43.312    20958994.880    87232305.418 7      1288.580          42.875
G10  23662522.480   124347393.093 7      -232.870          45.250    23662521.340   124347393.105 6      -232.870          39.812    23662531.860    96894113.824 6      -181.457          39.937    23662532.080    96894113.814 7      -181.457          43.312
G03  23474126.340   123357354.342 7      6162.291          45.437    23474125.920   123357354.350 5      6162.291          32.437    23474144.100    96122680.867 5      4801.785          32.625    23474145.160    96122697.896 7      4801.785          45.500
R22  21723720.240   115962706.542 6      3544.055          40.812    21723722.360   115962706.540 6      3544.055          40.375    21723735.840    90193250.360 5      2756.487          32.937    21723737.420    90193252.358 5      2756.487          33.562
G08  20823589.380   109428705.226 7      2597.027          47.875    20823588.060   109428705.233 7      2597.027          47.312    20823595.500    85269143.677 7      2023.657          47.062    20823596.540    85269161.679 8      2023.657          49.375
G02  21616449.760   113595210.317 7      2769.182          44.187    21616447.740   113595210.319 5      2769.182          33.750    21616451.680    88515753.172 5      2157.804          34.000
G27  22052724.520   115887847.253 6       897.970          40.687    22052722.760   115887847.266 5       897.970          31.687    22052733.520    90302249.493 5       699.717          31.875    22052734.180    90302253.457 6       699.717          36.875
G21  20903230.240   109847217.120 8      1776.603          48.687    20903228.880   109847217.120 6      1776.603          39.437    20903232.720    85595244.615 6      1384.366          39.500
> 2024 05 08 13 50 39.0000000  0 14
R07  23515247.280   125878967.375 6      6335.833          36.812    23515244.540   125878967.369 5      6335.833          35.500    23515272.800    97905961.506 7      4927.870          45.437    23515272.620    97905961.511 7      4927.870          45.937
G16  23214659.160   121993859.429 7      -895.945          42.937    23214657.660   121993859.449 4      -895.945          29.437    23214672.920    95060198.642 4      -698.139          29.375
R12  21934844.360   117172002.404 7      4728.926          43.312    21934845.800   117172002.413 7      4728.926          43.062    21934857.620    91133824.350 7      3678.053          43.625    21934857.040    91133827.356 7      3678.053          45.000
R05  23232154.620   124189180.233 6      1078.167          40.250    23232155.380   124189180.250 6      1078.167          40.187    23232168.900    96591642.880 7       838.574          44.687    23232169.120    96591644.887 7       838.574          44.000
R10  23131900.260   123306045.525 6     -1826.559          38.312    23131897.660   123306045.518 6     -1826.559          37.500
R11  20304394.280   108500527.997 8       460.666          49.437    20304394.360   108500527.998 8       460.666          49.062    20304404.220    84389335.282 8       358.296          50.625    20304404.240    84389337.275 8       358.296          51.562
R21  20958675.440   112154103.682 7      1656.708          43.750    20958674.000   112154103.689 7      1656.708          43.750    20958684.820    87231016.847 7      1288.551          43.062    20958685.200    87231016.851 7      1288.551          43.062
G10  23662566.680   124347626.358 7      -233.462          44.875    23662565.880   124347626.366 6      -233.462          40.250    23662576.260    96894295.585 6      -181.918          40.500    23662576.380    96894295.573 7      -181.918          43.187
G03  23472953.460   123351192.222 7      6161.912          45.250    23472953.460   123351192.232 5      6161.912          32.437    23472971.500    96117879.229 5      4801.490          32.687    23472972.960    96117896.250 7      4801.490          45.437
R22  21723056.260   115959162.735 6      3543.639          40.625    21723058.100   115959162.738 6      3543.639          40.437    21723071.340    90190494.044 5      2756.163          32.937    21723073.600    90190496.036 5      2756.163          33.562
G08  20823095.280   109426108.345 7      2596.687          47.187    20823093.880   109426108.350 7      2596.687          47.500    20823101.340    85267120.132 7      2023.393          47.187    20823102.440    85267138.131 8      2023.393          49.625
G02  21615922.680   113592441.441 7      2768.733          44.187    21615921.040   113592441.449 5      2768.733          34.125    21615924.780    88513595.608 5      2157.454          34.000
G27  22052553.340   115886949.378 6       897.737          40.750    22052551.940   115886949.393 5       897.737          32.125    22052562.640    90301549.846 5       699.535          32.312    22052562.720    90301553.820 6       699.535          37.562
G21  20902892.240   109845440.721 8      1776.175          48.125    20902890.820   109845440.723 6      1776.175          38.750    20902894.760    85593860.412 6      1384.033          39.000
> 2024 05 08 13 50 40.0000000  0 14
R07  23514064.260   125872631.595 6      6335.445          36.812    23514060.200   125872631.621 5      6335.445          35.500    23514088.920    97901033.710 7      4927.569          45.625    23514089.180    97901033.719 7      4927.569          45.687
G16  23214829.860   121994755.698 7      -896.627          42.187    23214828.260   121994755.719 4      -896.627          29.125    23214843.540    95060897.016 4      -698.670          29.375
R12  21933959.120   117167273.854 7      4727.938          43.750    21933960.820   117167273.871 7      4727.938          42.875    21933972.120    91130146.589 7      3677.285          43.625    21933971.880    91130149.593 7      3677.285          44.625
R05  23231952.860   124188102.558 6      1076.927          40.250    23231953.060   124188102.599 6      1076.927          39.687    23231967.260    96590804.715 7       837.610          43.687    23231967.720    96590806.724 7       837.610          44.312
R10  23132242.120   123307872.363 6     -1827.163          38.312    23132239.340   123307872.371 6     -1827.163          37.500
R11  20304308.500   108500067.769 8       459.538          49.812    20304308.080   108500067.775 8       459.538          49.437    20304318.280    84388977.332 8       357.419          50.687    20304318.020    84388979.328 8       357.419          51.312
R21  20958365.920   112152447.277 7      1656.141          43.562    20958364.420   112152447.291 7      1656.141          43.937    20958375.560    87229728.533 7      1288.110          43.250    20958375.480    87229728.535 7      1288.110          42.812
G10  23662611.560   124347860.197 7      -234.242          44.875    23662610.540   124347860.204 6      -234.242          40.000    23662620.780    96894477.797 6      -182.526          40.187    23662621.100    96894477.781 7      -182.526          43.187
G03  23471781.120   123345030.467 7      6161.440          44.500    23471780.780   123345030.472 5      6161.440          32.687    23471798.880    96113077.872 5      4801.122          32.687    23471800.280    96113094.882 7      4801.122          45.375
R22  21722392.840   115955619.307 6      3543.134          40.625    21722393.700   115955619.305 6      3543.134          40.437    21722407.400    90187738.041 5      2755.771          32.937    21722410.300    90187740.057 5      2755.771          33.562
G08  20822601.240   109423511.963 7      2596.032          47.125    20822599.920   109423511.966 7      2596.032          47.375    20822607.260    85265096.975 7      2022.882          47.625    20822608.620    85265114.978 8      2022.882          49.312
G02  21615395.720   113589673.062 7      2768.058          43.562    21615394.300   113589673.075 5      2768.058          34.125    21615397.800    88511438.436 5      2156.928          33.875
G27  22052382.280   115886052.031 6       896.965          40.312    22052381.020   115886052.046 5       896.965          32.125    22052392.140    90300850.613 5       698.934          32.312    22052391.780    90300854.597 6       698.934          37.562
G21  20902554.360   109843664.827 8      1775.447          48.500    20902552.940   109843664.826 6      1775.447          39.125    20902557.020    85592476.594 6      1383.465          38.812
> 2024 05 08 13 50 41.0000000  0 14
R07  23512881.420   125866295.753 6      6335.796          36.812    23512877.460   125866295.741 5      6335.796          35.500    23512905.980    97896105.808 7      4927.841          45.187    23512905.680    97896105.813 7      4927.841          45.562
G16  23215000.640   121995652.105 7      -896.458          42.375    23214998.940   121995652.126 4      -896.458          29.125    23215014.000    95061595.496 4      -698.538          29.375
R12  21933074.240   117162545.963 7      4727.498          43.687    21933075.580   117162545.967 7      4727.498          43.000    21933086.840    91126469.336 7      3676.943          43.625    21933086.660    91126472.339 7      3676.943          44.562
R05  23231751.100   124187025.593 6      1076.594          40.250    23231751.640   124187025.621 6      1076.594          39.687    23231766.440    96589967.072 7       837.351          44.000    23231766.560    96589969.083 7       837.351          44.437
R10  23132585.060   123309699.186 6     -1826.756          38.312    23132582.380   123309699.158 6     -1826.756          37.500
R11  20304222.320   108499608.235 8       459.179          50.000    20304221.940   108499608.247 8       459.179          50.062    20304232.220    84388619.909 8       357.139          50.437    20304232.160    84388621.904 8       357.139          51.187
R21  20958056.100   112150790.865 7      1656.323          43.875    20958055.020   112150790.878 7      1656.323          44.125    20958065.960    87228440.213 7      1288.251          43.000    20958066.020    87228440.216 7      1288.251          42.875
G10  23662656.140   124348094.340 7      -234.355          44.562    23662655.080   124348094.353 6      -234.355          40.062    23662665.300    96894660.244 6      -182.614          40.250    23662665.420    96894660.239 7      -182.614          43.062
G03  23470608.560   123338868.793 7      6161.706          45.437    23470608.080   123338868.796 5      6161.706          32.687    23470626.220    96108276.576 5      4801.329          32.687    23470627.300    96108293.590 7      4801.329          45.437
R22  21721728.560   115952075.956 6      3543.216          39.812    21721730.740   115952075.967 6      3543.216          40.500    21721743.380    90184982.114 5      2755.835          32.937    21721746.620    90184984.124 5      2755.835          33.562
G08  20822107.120   109420915.766 7      2596.090          47.875    20822105.860   109420915.776 7      2596.090          47.812    20822113.240    85263073.964 7      2022.928          47.625    20822114.640    85263091.967 8      2022.928          49.500
G02  21614869.060   113586904.878 7      2768.023          44.625    21614867.700   113586904.888 5      2768.023          34.250    21614871.080    88509281.403 5      2156.901          33.875
G27  22052211.540   115885154.812 6       897.186          41.312    22052210.380   115885154.822 5       897.186          32.125    22052221.480    90300151.471 5       699.106          32.312    22052221.920    90300155.439 6       699.106          37.562
G21  20902216.400   109841889.095 8      1775.574          48.625    20902214.980   109841889.092 6      1775.574          39.312    20902219.060    85591092.903 6      1383.564          39.312
> 2024 05 08 13 50 42.0000000  0 14
R07  23511697.020   125859959.791 6      6336.051          36.812    23511694.100   125859959.768 5      6336.051          35.500    23511722.040    97891177.829 7      4928.040          46.062    23511722.020    97891177.840 7      4928.040          45.812
G16  23215171.080   121996548.756 7      -896.844          42.437    23215169.420   121996548.771 4      -896.844          29.125    23215184.640    95062294.164 4      -698.840          29.375
R12  21932189.080   117157818.727 7      4726.892          43.687    21932189.940   117157818.723 7      4726.892          43.000    21932201.880    91122792.585 7      3676.471          43.500    21932201.760    91122795.589 7      3676.471          44.562
R05  23231549.580   124185949.374 6      1075.823          39.375    23231549.640   124185949.402 6      1075.823          39.687    23231564.740    96589130.007 7       836.751          44.437    23231565.000    96589132.024 7       836.751          44.312
R10  23132927.920   123311526.002 6     -1826.619          38.312    23132924.780   123311525.976 6     -1826.619          37.500
R11  20304136.880   108499149.444 8       458.344          50.062    20304136.180   108499149.450 8       458.344          49.250    20304146.240    84388263.065 8       356.490          49.875    20304146.080    84388265.059 8       356.490          50.625
R21  20957746.480   112149134.481 7      1656.316          44.000    20957745.460   112149134.485 7      1656.316          43.687    20957756.860    87227151.906 7      1288.246          43.125    20957756.620    87227151.911 7      1288.246          42.625
G10  23662700.560   124348328.804 7      -234.726          45.562    23662699.760   124348328.814 6      -234.726          39.875    23662710.000    96894842.935 6      -182.904          40.125    23662709.740    96894842.921 7      -182.904          42.875
G03  23469436.160   123332707.264 7      6161.437          45.375    23469435.540   123332707.267 5      6161.437          32.687    23469453.440    96103475.393 5      4801.120          32.500    23469454.900    96103492.407 7      4801.120          45.000
R22  21721065.220   115948532.736 6      3543.188          39.812    21721066.980   115948532.739 6      3543.188          40.500    21721079.080    90182226.255 5      2755.813          32.937    21721082.500    90182228.297 5      2755.813          33.562
G08  20821613.020   109418319.815 7      2595.779          47.312    20821611.920   109418319.822 7      2595.779          47.500    20821619.380    85261051.141 7      2022.685          47.250    20821620.660    85261069.144 8      2022.685          49.000
G02  21614342.380   113584136.917 7      2767.644          44.375    21614340.800   113584136.927 5      2767.644          34.312    21614344.220    88507124.552 5      2156.606          34.312
G27  22052041.140   115884257.827 6       896.868          40.562    22052039.700   115884257.838 5       896.868          32.000    22052050.760    90299452.518 5       698.858          32.125    22052050.820    90299456.494 6       698.858          37.562
G21  20901878.580   109840113.608 8      1775.310          48.562    20901877.080   109840113.607 6      1775.310          39.062    20901881.100    85589709.404 6      1383.358          39.000
> 2024 05 08 13 50 43.0000000  0 14
R07  23510513.260   125853623.834 6      6335.789          36.812    23510510.440   125853623.811 5      6335.789          35.500    23510538.640    97886249.881 7      4927.836          45.500    23510538.420    97886249.888 7      4927.836          45.562
G16  23215341.920   121997445.609 7      -897.064          42.437    23215339.920   121997445.627 4      -897.064          29.125    23215355.480    95062992.995 4      -699.011          29.250
R12  21931304.320   117153092.242 7      4726.105          42.875    21931305.020   117153092.243 7      4726.105          42.875    21931316.940    91119116.440 7      3675.859          44.000    21931316.960    91119119.442 7      3675.859          44.687
R05  23231348.300   124184873.928 6      1075.070          39.375    23231348.620   124184873.934 6      1075.070          39.500    23231363.880    96588293.538 7       836.166          43.812    23231364.040    96588295.553 7       836.166          44.187
R10  23133270.680   123313352.946 6     -1827.151          38.312    23133268.200   123313352.922 6     -1827.151          37.500
R11  20304050.780   108498691.395 8       457.669          50.062    20304050.420   108498691.405 8       457.669          50.312    20304060.560    84387906.797 8       355.965          50.375    20304060.460    84387908.797 8       355.965          50.687
R21  20957437.580   112147478.140 7      1656.349          44.000    20957436.080   112147478.146 7      1656.349          44.250    20957447.260    87225863.645 7      1288.272          43.000    20957446.820    87225863.647 7      1288.272          42.750
G10  23662745.380   124348563.647 7      -235.148          45.062    23662744.580   124348563.649 6      -235.148          40.312    23662754.760    96895025.921 6      -183.232          40.250    23662754.280    96895025.905 7      -183.232          42.875
G03  23468263.800   123326545.885 7      6161.234          45.875    23468263.160   123326545.887 5      6161.234          32.125    23468281.000    96098674.326 5      4800.961          32.500    23468282.020    96098691.336 7      4800.961          45.125
R22  21720402.080   115944989.673 6      3543.017          40.250    21720403.360   115944989.674 6      3543.017          40.500    21720416.980    90179470.546 5      2755.680          32.937    21720418.140    90179472.577 5      2755.680          33.562
G08  20821119.240   109415724.101 7      2595.585          47.250    20821117.940   109415724.105 7      2595.585          47.125    20821125.280    85259028.505 7      2022.533          47.375    20821126.440    85259046.508 8      2022.533          49.500
G02  21613815.660   113581369.184 7      2767.663          44.125    21613814.240   113581369.197 5      2767.663          34.312    21613817.540    88504967.880 5      2156.621          34.312
G27  22051870.620   115883361.071 6       896.674          41.062    22051869.020   115883361.082 5       896.674          32.000    22051880.180    90298753.745 5       698.707          32.125    22051879.260    90298757.744 6       698.707          37.562
G21  20901540.860   109838338.370 8      1775.101          48.312    20901539.220   109838338.370 6      1775.101          39.812    20901543.320    85588326.102 6      1383.196          39.687
> 2024 05 08 13 50 44.0000000  0 14
R07  23509329.600   125847287.604 6      6336.439          37.000    23509326.680   125847287.578 5      6336.439          35.500    23509354.680    97881321.700 7      4928.341          45.812    23509354.600    97881321.713 7      4928.341          45.812
G16  23215512.600   121998342.526 7      -896.967          42.750    23215510.740   121998342.541 4      -896.967          29.250    23215526.060    95063691.868 4      -698.935          29.250
R12  21930419.800   117148366.309 7      4725.749          43.125    21930420.360   117148366.310 7      4725.749          43.250    21930432.340    91115440.714 7      3675.582          43.562    21930431.940    91115443.717 7      3675.582          44.812
R05  23231147.140   124183799.029 6      1074.800          39.375    23231146.980   124183799.033 6      1074.800          39.500    23231163.060    96587457.510 7       835.956          45.000    23231163.080    96587459.523 7       835.956          44.062
R10  23133612.720   123315179.695 6     -1826.670          37.562    23133609.800   123315179.693 6     -1826.670          37.500
R11  20303965.620   108498233.956 8       457.270          50.062    20303964.940   108498233.965 8       457.270          49.687    20303975.020    84387551.011 8       355.654          50.750    20303974.880    84387553.013 8       355.654          50.937
R21  20957128.020   112145821.694 7      1656.526          44.687    20957126.520   112145821.703 7      1656.526          44.250    20957137.860    87224575.302 7      1288.409          43.187    20957137.580    87224575.302 7      1288.409          42.750
G10  23662790.040   124348798.641 7      -235.093          44.750    23662789.380   124348798.646 6      -235.093          40.375    23662799.400    96895209.036 6      -183.190          40.687    23662799.500    96895209.030 7      -183.190          43.187
G03  23467091.120   123320384.474 7      6161.461          45.562    23467090.980   123320384.476 5      6161.461          32.125    23467108.600    96093873.233 5      4801.139          32.500    23467109.480    96093890.245 7      4801.139          45.437
R22  21719738.400   115941446.589 6      3543.104          40.250    21719738.720   115941446.598 6      3543.104          40.562    21719752.600    90176714.831 5      2755.747          32.937    21719753.920    90176716.849 5      2755.747          33.562
G08  20820625.340   109413128.468 7      2595.720          47.187    20820624.080   109413128.478 7      2595.720          47.000    20820631.340    85257005.938 7      2022.639          47.187    20820632.380    85257023.941 8      2022.639          49.250
G02  21613288.800   113578601.575 7      2767.726          44.125    21613287.760   113578601.580 5      2767.726          34.687    21613290.960    88502811.299 5      2156.669          34.312
G27  22051699.680   115882464.399 6       896.782          41.312    22051698.320   115882464.420 5       896.782          32.000    22051709.620    90298055.041 5       698.791          32.125    22051709.320    90298059.022 6       698.791          38.000
G21  20901202.880   109836563.216 8      1775.202          48.750    20901201.320   109836563.219 6      1775.202          39.375    20901205.480    85586942.867 6      1383.274          39.500
> 2024 05 08 13 50 45.0000000  0 14
R07  23508145.640   125840951.347 6      6336.237          37.000    23508142.180   125840951.324 5      6336.237          35.437    23508171.000    97876393.501 7      4928.185          45.687    23508171.020    97876393.507 7      4928.185          45.875
G16  23215683.660   121999239.697 6      -897.420          41.750    23215681.540   121999239.709 4      -897.420          29.250    23215696.800    95064390.946 4      -699.289          29.250
R12  21929535.480   117143641.156 7      4724.710          43.125    21929535.880   117143641.155 7      4724.710          42.812    21929547.440    91111765.595 7      3674.774          43.937    21929547.600    91111768.600 7      3674.774          44.500
R05  23230946.680   124182724.975 6      1073.626          39.875    23230946.660   124182724.976 6      1073.626          39.500    23230961.940    96586622.124 7       835.042          44.500    23230962.180    96586624.143 7       835.042          45.000
R10  23133955.300   123317006.586 6     -1827.011          37.562    23133952.120   123317006.567 6     -1827.011          36.812
R11  20303879.920   108497777.343 8       456.133          49.875    20303879.580   108497777.355 8       456.133          49.312    20303889.740    84387195.861 8       354.770          50.937    20303889.320    84387197.861 8       354.770          50.687
R21  20956818.300   112144165.315 7      1656.221          44.187    20956816.760   112144165.322 7      1656.221          44.375    20956827.820    87223287.007 7      1288.172          42.750    20956827.960    87223287.010 7      1288.172          42.625
G10  23662834.920   124349034.048 7      -235.706          45.937    23662834.100   124349034.056 6      -235.706          40.437    23662844.320    96895392.468 6      -183.667          40.687    23662844.600    96895392.458 7      -183.667          43.000
G03  23465918.480   123314223.258 7      6160.965          46.000    23465918.740   123314223.263 5      6160.965          32.812    23465936.020    96089072.297 5      4800.752          32.812    23465937.260    96089089.310 7      4800.752          45.250
R22  21719074.680   115937903.700 6      3542.724          40.125    21719075.860   115937903.699 6      3542.724          40.562    21719089.820    90173959.267 4      2755.452          29.562    21719089.960    90173961.257 4      2755.452          29.937
G08  20820131.380   109410533.171 7      2595.051          47.500    20820130.280   109410533.176 7      2595.051          47.187    20820137.500    85254983.623 7      2022.118          47.250    20820138.580    85255001.622 8      2022.118          49.125
G02  21612761.920   113575834.252 7      2767.050          44.625    21612761.180   113575834.254 5      2767.050          34.687    21612764.340    88500654.942 5      2156.143          34.312
G27  22051529.120   115881568.040 6       896.124          40.687    22051527.680   115881568.058 5       896.124          31.562    22051539.100    90297356.571 5       698.278          31.812    22051540.020    90297360.548 6       698.278          38.000
G21  20900865.400   109834788.381 8      1774.541          49.000    20900863.740   109834788.383 6      1774.541          39.312    20900867.820    85585559.881 6      1382.760          39.437
> 2024 05 08 13 50 46.0000000  0 14
R07  23506962.720   125834615.082 6      6336.248          37.000    23506959.540   125834615.057 5      6336.248          35.437    23506987.200    97871465.301 7      4928.193          46.312    23506987.340    97871465.301 7      4928.193          46.250
G16  23215854.540   122000137.173 7      -897.544          42.250    23215852.240   122000137.188 4      -897.544          29.250    23215867.640    95065090.260 4      -699.385          29.250
R12  21928651.400   117138916.770 7      4724.024          43.125    21928651.180   117138916.785 7      4724.024          42.812    21928663.120    91108091.079 7      3674.241          43.750    21928662.880    91108094.084 7      3674.241          44.250
R05  23230745.860   124181651.728 6      1072.803          39.875    23230745.500   124181651.754 6      1072.803          39.312    23230761.440    96585787.400 7       834.402          44.375    23230761.480    96585789.419 7       834.402          44.437
R10  23134298.600   123318833.553 6     -1826.874          37.562    23134294.840   123318833.581 6     -1826.874          36.812
R11  20303794.760   108497321.579 8       455.359          50.750    20303794.220   108497321.585 8       455.359          49.062    20303804.380    84386841.363 8       354.168          50.562    20303804.200    84386843.367 8       354.168          50.687
R21  20956508.660   112142509.083 7      1656.172          44.250    20956507.500   112142509.085 7      1656.172          44.000    20956518.600    87221998.823 7      1288.134          43.250    20956518.500    87221998.823 7      1288.134          42.625
G10  23662879.880   124349269.871 7      -235.914          45.562    23662879.140   124349269.886 6      -235.914          40.000    23662889.140    96895576.228 6      -183.829          40.250    23662889.540    96895576.220 7      -183.829          43.000
G03  23464746.220   123308062.265 7      6160.848          45.812    23464746.560   123308062.272 5      6160.848          32.812    23464763.760    96084271.534 5      4800.661          32.812    23464764.840    96084288.540 7      4800.661          45.812
R22  21718411.440   115934361.020 6      3542.617          40.125    21718411.520   115934361.031 6      3542.617          40.500    21718427.480    90171203.855 4      2755.368          29.562    21718426.880    90171205.896 4      2755.368          29.937
G08  20819637.660   109407938.172 7      2594.796          47.437    20819636.360   109407938.177 7      2594.796          47.750    20819643.620    85252961.545 7      2021.919          47.750    20819644.760    85252979.546 8      2021.919          49.125
G02  21612235.600   113573067.237 7      2766.844          44.937    21612234.520   113573067.244 5      2766.844          34.062    21612237.740    88498498.830 5      2155.982          34.062
G27  22051359.020   115880671.952 6       895.976          40.500    22051357.200   115880671.964 5       895.976          31.562    22051368.800    90296658.312 5       698.163          31.812    22051368.600    90296662.303 6       698.163          38.000
G21  20900527.700   109833013.855 8      1774.319          48.125    20900525.980   109833013.857 6      1774.319          39.187    20900530.020    85584177.133 6      1382.586          39.125
> 2024 05 08 13 50 47.0000000  0 14
R07  23505779.460   125828278.742 6      6336.427          37.000    23505775.820   125828278.720 5      6336.427          35.437    23505803.460    97866537.037 7      4928.332          46.062    23505803.540    97866537.043 7      4928.332          46.000
G16  23216024.900   122001034.909 7      -897.807          42.187    23216022.900   122001034.922 4      -897.807          29.250    23216038.500    95065789.776 4      -699.590          29.250
R12  21927766.840   117134193.148 7      4723.269          43.250    21927767.000   117134193.173 7      4723.269          42.375    21927778.800    91104417.153 7      3673.654          44.125    21927778.840    91104420.155 7      3673.654          44.125
R05  23230544.800   124180579.273 6      1072.147          39.875    23230544.900   124180579.298 6      1072.147          39.312    23230560.840    96584953.270 7       833.892          44.187    23230561.020    96584955.280 7       833.892          44.312
R10  23134641.360   123320660.705 6     -1827.089          37.562    23134638.000   123320660.727 6     -1827.089          36.812
R11  20303709.460   108496866.563 8       454.712          50.687    20303709.280   108496866.569 8       454.712          49.812    20303719.380    84386487.460 8       353.665          50.625    20303718.900    84386489.462 8       353.665          51.062
R21  20956199.200   112140852.921 7      1656.151          44.500    20956197.860   112140852.922 7      1656.151          44.375    20956209.100    87220710.695 7      1288.117          43.250    20956209.100    87220710.697 7      1288.117          42.875
G10  23662924.720   124349506.100 7      -236.280          45.062    23662923.980   124349506.100 6      -236.280          40.375    23662933.980    96895760.291 6      -184.115          40.562    23662933.900    96895760.285 7      -184.115          43.187
G03  23463573.920   123301901.437 7      6160.840          45.937    23463574.340   123301901.445 5      6160.840          32.750    23463591.440    96079470.893 5      4800.655          32.687    23463592.600    96079487.901 7      4800.655          45.625
R22  21717747.720   115930818.550 6      3542.468          40.125    21717748.360   115930818.542 6      3542.468          40.500    21717762.140    90168448.600 4      2755.253          29.562    21717764.320    90168450.640 4      2755.253          29.937
G08  20819143.740   109405343.466 7      2594.617          47.125    20819142.700   109405343.474 7      2594.617          47.312    20819149.880    85250939.695 7      2021.779          47.062    20819151.240    85250957.692 8      2021.779          49.312
G02  21611709.260   113570300.516 7      2766.627          44.875    21611708.100   113570300.529 5      2766.627          34.062    21611711.400    88496342.943 5      2155.813          34.062
G27  22051188.460   115879776.149 6       895.742          40.937    22051186.620   115879776.162 5       895.742          31.562    22051198.300    90295960.274 5       697.981          31.812    22051198.420    90295964.251 6       697.981          38.000
G21  20900190.020   109831239.600 8      1774.190          48.062    20900188.180   109831239.602 6      1774.190          39.000    20900192.380    85582794.597 6      1382.486          39.125
> 2024 05 08 13 50 48.0000000  0 14
R07  23504595.260   125821942.386 6      6336.372          37.000    23504592.520   125821942.361 5      6336.372          35.437    23504619.940    97861608.766 7      4928.289          45.437    23504620.320    97861608.773 7      4928.289          45.875
G16  23216195.500   122001932.902 7      -898.228          42.125    23216193.660   122001932.910 4      -898.228          29.250    23216209.580    95066489.491 4      -699.918          28.750
R12  21926882.560   117129470.295 7      4722.407          42.375    21926882.940   117129470.315 6      4722.407          41.812    21926894.460    91100743.818 7      3672.983          43.812    21926894.820    91100746.817 7      3672.983          44.437
R05  23230344.240   124179507.590 6      1071.283          39.687    23230344.560   124179507.623 6      1071.283          39.312    23230360.220    96584119.738 7       833.220          44.437    23230360.340    96584121.757 7       833.220          44.812
R10  23134984.460   123322487.910 6     -1827.056          37.562    23134980.400   123322487.913 6     -1827.056          36.812
R11  20303624.400   108496412.338 8       453.709          50.875    20303624.100   108496412.347 8       453.709          49.562    20303634.480    84386134.172 8       352.885          51.062    20303633.800    84386136.172 8       352.885          51.187
R21  20955890.360   112139196.852 7      1656.055          44.500    20955888.300   112139196.854 7      1656.055          43.875    20955899.540    87219422.643 7      1288.043          43.000    20955899.680    87219422.646 7      1288.043          43.125
G10  23662969.780   124349742.714 7      -236.902          45.062    23662969.080   124349742.721 6      -236.902          40.437    23662979.000    96895944.669 6      -184.599          40.625    23662980.140    96895944.663 7      -184.599          43.000
G03  23462401.320   123295740.804 7      6160.486          45.437    23462402.040   123295740.809 5      6160.486          32.750    23462419.180    96074670.410 5      4800.379          32.687    23462420.140    96074687.418 7      4800.379          45.187
R22  21717084.220   115927276.253 6      3542.161          40.500    21717084.420   115927276.249 6      3542.161          40.187    21717099.580    90165693.502 4      2755.014          29.562    21717101.260    90165695.578 4      2755.014          29.937
G08  20818650.180   109402749.037 7      2594.242          46.875    20818648.900   109402749.045 7      2594.242          47.562    20818656.160    85248918.061 7      2021.487          47.750    20818657.120    85248936.061 8      2021.487          49.562
G02  21611183.060   113567534.079 7      2766.200          44.750    21611181.640   113567534.084 5      2766.200          34.250    21611185.040    88494187.278 5      2155.481          34.062
G27  22051018.220   115878880.636 6       895.203          40.812    22051016.220   115878880.646 5       895.203          31.687    22051028.080    90295262.460 5       697.561          31.937    22051027.880    90295266.450 6       697.561          38.187
G21  20899852.360   109829465.634 7      1773.821          47.312    20899850.720   109829465.636 6      1773.821          39.250    20899854.900    85581412.286 6      1382.198          39.125
> 2024 05 08 13 50 49.0000000  0 14
R07  23503411.240   125815606.205 6      6336.263          37.000    23503408.820   125815606.182 5      6336.263          35.437    23503436.040    97856680.627 7      4928.205          45.312    23503436.400    97856680.629 7      4928.205          45.750
G16  23216366.300   122002831.309 6      -898.553          41.687    23216364.500   122002831.319 4      -898.553          28.875    23216380.580    95067189.531 4      -700.171          28.750
R12  21925998.400   117124748.377 7      4721.628          42.375    21925998.740   117124748.383 6      4721.628          41.812    21926010.180    91097071.205 7      3672.377          43.500    21926011.060    91097074.207 7      3672.377          44.562
R05  23230143.920   124178436.901 6      1070.359          39.687    23230144.760   124178436.934 6      1070.359          39.375    23230160.000    96583286.980 7       832.501          45.000    23230160.440    96583288.995 7       832.501          44.062
R10  23135327.680   123324315.437 6     -1827.664          36.812    23135323.180   123324315.435 6     -1827.664          36.812
R11  20303539.540   108495959.091 8       452.857          50.937    20303539.420   108495959.095 8       452.857          49.250    20303549.600    84385781.634 8       352.222          50.500    20303549.160    84385783.634 8       352.222          51.187
R21  20955580.840   112137541.089 7      1655.754          44.500    20955578.760   112137541.090 7      1655.754          43.875    20955590.300    87218134.821 7      1287.808          42.937    20955590.620    87218134.832 7      1287.808          43.000
G10  23663014.880   124349979.892 7      -237.328          45.625    23663014.360   124349979.902 6      -237.328          39.812    23663024.100    96896129.481 6      -184.931          40.312    23663024.500    96896129.479 7      -184.931          43.000
G03  23461229.400   123289580.531 7      6160.175          45.437    23461229.820   123289580.538 5      6160.175          32.750    23461246.880    96069870.205 5      4800.136          32.687    23461247.720    96069887.217 7      4800.136          45.687
R22  21716420.480   115923734.312 6      3541.834          40.500    21716420.760   115923734.312 6      3541.834          40.187    21716435.800    90162938.660 4      2754.759          29.562    21716438.220    90162940.737 4      2754.759          29.937
G08  20818156.600   109400155.091 7      2593.817          46.750    20818155.360   109400155.096 7      2593.817          47.562    20818162.560    85246896.801 7      2021.156          47.687    20818163.620    85246914.798 8      2021.156          49.000
G02  21610656.520   113564768.114 7      2765.791          44.437    21610655.300   113564768.125 5      2765.791          34.125    21610658.700    88492031.985 5      2155.162          34.187
G27  22050847.700   115877985.538 6       895.012          40.125    22050845.780   115877985.551 5       895.012          31.687    22050857.960    90294564.977 5       697.412          31.937    22050858.000    90294568.973 6       697.412          38.187
G21  20899514.980   109827692.138 7      1773.448          47.687    20899513.340   109827692.143 6      1773.448          39.187    20899517.380    85580030.343 6      1381.908          39.125
> 2024 05 08 13 50 50.0000000  0 14
R07  23502228.360   125809270.084 6      6336.188          37.625    23502225.900   125809270.075 5      6336.188          35.437    23502252.360    97851752.540 7      4928.146          44.875    23502252.660    97851752.542 7      4928.146          45.375
G16  23216537.500   122003730.064 6      -898.812          41.625    23216535.720   122003730.074 4      -898.812          28.875    23216551.580    95067889.846 4      -700.373          28.750
R12  21925114.500   117120027.289 7      4720.783          42.437    21925114.780   117120027.303 7      4720.783          42.250    21925126.540    91093399.252 7      3671.720          43.500    21925126.960    91093402.255 7      3671.720          44.375
R05  23229943.640   124177367.075 6      1069.547          39.687    23229944.800   124177367.082 6      1069.547          39.375    23229959.960    96582454.873 7       831.870          44.562    23229960.120    96582456.884 7       831.870          44.312
R10  23135669.700   123326143.042 6     -1827.531          36.812    23135665.120   123326143.051 6     -1827.531          36.812
R11  20303454.920   108495506.736 8       451.944          51.000    20303454.740   108495506.746 8       451.944          49.312    20303465.080    84385429.796 8       351.512          50.625    20303464.700    84385431.794 8       351.512          51.250
R21  20955271.300   112135885.451 7      1655.621          43.625    20955269.780   112135885.450 7      1655.621          43.875    20955280.560    87216847.101 7      1287.705          43.000    20955281.280    87216847.109 7      1287.705          43.125
G10  23663059.940   124350217.530 7      -237.720          45.937    23663059.720   124350217.537 6      -237.720          40.437    23663069.360    96896314.653 6      -185.236          40.687    23663069.400    96896314.641 7      -185.236          42.937
G03  23460057.320   123283420.513 7      6159.978          45.875    23460057.600   123283420.523 5      6159.978          32.812    23460074.860    96065070.201 5      4799.983          32.875    23460075.520    96065087.211 7      4799.983          45.687
R22  21715757.100   115920192.613 6      3541.660          40.937    21715758.060   115920192.619 6      3541.660          40.812    21715771.480    90160183.995 4      2754.625          29.562    21715774.340    90160186.097 4      2754.625          29.937
G08  20817663.000   109397561.503 7      2593.471          47.625    20817661.820   109397561.507 7      2593.471          47.062    20817669.060    85244875.821 7      2020.886          47.125    20817670.140    85244893.818 8      2020.886          49.250
G02  21610129.980   113562002.489 7      2765.513          44.375    21610128.880   113562002.505 5      2765.513          34.125    21610132.380    88489876.955 5      2154.945          34.187
G27  22050677.420   115877090.816 6       894.654          40.312    22050675.540   115877090.831 5       894.654          31.750    22050687.880    90293867.788 5       697.133          31.937    22050687.980    90293871.775 6       697.133          38.187
G21  20899177.480   109825919.011 8      1772.998          48.250    20899175.940   109825919.013 6      1772.998          38.875    20899180.040    85578648.683 6      1381.557          38.812
> 2024 05 08 13 50 51.0000000  0 14
R07  23501043.940   125802933.887 6      6335.914          37.625    23501041.360   125802933.907 5      6335.914          35.437    23501068.440    97846824.413 7      4927.933          45.375    23501068.800    97846824.413 7      4927.933          45.437
G16  23216708.640   122004629.046 6      -899.198          41.125    23216706.760   122004629.058 4      -899.198          28.875    23216722.620    95068590.336 4      -700.674          28.750
R12  21924230.520   117115306.874 6      4720.103          41.375    21924231.240   117115306.886 7      4720.103          42.250    21924242.780    91089727.812 7      3671.191          43.500    21924243.520    91089730.813 7      3671.191          43.687
R05  23229743.540   124176297.971 6      1068.474          39.562    23229744.640   124176297.989 6      1068.474          39.375    23229759.920    96581623.362 7       831.035          44.687    23229760.060    96581625.379 7       831.035          44.687
R10  23136012.520   123327970.775 6     -1828.089          36.812    23136008.980   123327970.797 6     -1828.089          36.500
R11  20303370.420   108495055.125 8       451.079          50.625    20303370.120   108495055.136 8       451.079          49.375    20303380.620    84385078.541 8       350.840          50.937    20303380.260    84385080.538 8       350.840          51.375
R21  20954961.520   112134229.837 7      1655.435          43.625    20954960.260   112134229.836 7      1655.435          43.437    20954971.480    87215559.401 7      1287.560          43.250    20954971.820    87215559.408 7      1287.560          42.625
G10  23663105.260   124350455.535 7      -238.345          46.000    23663105.120   124350455.543 6      -238.345          40.625    23663114.660    96896500.112 6      -185.724          40.812    23663114.400    96896500.098 7      -185.724          42.875
G03  23458884.980   123277260.634 7      6159.697          45.437    23458885.400   123277260.644 5      6159.697          32.812    23458902.520    96060270.304 5      4799.764          32.875    23458903.260    96060287.320 7      4799.764          45.500
R22  21715093.540   115916651.090 6      3541.307          41.312    21715094.340   115916651.089 6      3541.307          40.812    21715107.440    90157429.463 4      2754.350          29.562    21715109.760    90157431.513 4      2754.350          29.937
G08  20817169.520   109394968.148 7      2593.164          47.437    20817168.360   109394968.158 7      2593.164          47.125    20817175.640    85242855.027 7      2020.647          47.187    20817176.620    85242873.024 8      2020.647          49.125
G02  21609603.980   113559237.134 7      2765.045          44.687    21609602.740   113559237.150 5      2765.045          33.812    21609606.220    88487722.133 5      2154.580          33.687
G27  22050507.300   115876196.327 6       894.174          40.562    22050505.240   115876196.345 5       894.174          31.750    22050517.900    90293170.782 5       696.759          31.625    22050517.660    90293174.777 6       696.759          38.187
G21  20898840.220   109824146.119 8      1772.624          48.375    20898838.420   109824146.122 6      1772.624          38.437    20898842.620    85577267.209 6      1381.265          38.812
> 2024 05 08 13 50 52.0000000  0 14
R07  23499859.760   125796597.670 6      6336.460          37.625    23499858.540   125796597.671 5      6336.460          35.937    23499884.960    97841896.228 7      4928.358          45.062    23499885.240    97841896.230 7      4928.358          44.937
G16  23216880.160   122005528.343 6      -899.399          41.625    23216877.840   122005528.358 4      -899.399          28.875    23216893.580    95069291.069 4      -700.831          28.750
R12  21923347.740   117110587.307 6      4719.372          41.375    21923347.080   117110587.302 6      4719.372          41.375    21923359.240    91086057.023 7      3670.623          43.562    21923359.660    91086060.021 7      3670.623          43.625
R05  23229542.900   124175229.659 6      1067.892          39.562    23229544.600   124175229.703 6      1067.892          39.312    23229560.160    96580792.473 7       830.583          44.500    23229560.140    96580794.488 7       830.583          43.937
R10  23136355.220   123329798.553 6     -1827.750          36.812    23136351.640   123329798.564 6     -1827.750          36.500
R11  20303286.000   108494604.330 8       450.539          50.312    20303285.920   108494604.334 8       450.539          49.437    20303296.180    84384727.908 8       350.419          50.500    20303295.740    84384729.908 8       350.419          49.812
R21  20954651.980   112132574.362 7      1655.420          45.000    20954650.880   112132574.359 7      1655.420          43.812    20954661.680    87214271.810 7      1287.549          42.500    20954662.580    87214271.818 7      1287.549          42.687
G10  23663150.600   124350693.959 7      -238.493          45.625    23663150.500   124350693.964 6      -238.493          40.812    23663160.000    96896685.889 6      -185.839          40.937    23663159.960    96896685.872 7      -185.839          42.875
G03  23457712.680   123271100.996 7      6159.620          44.875    23457713.240   123271101.007 5      6159.620          32.625    23457730.260    96055470.599 5      4799.704          32.687    23457731.380    96055487.609 7      4799.704          45.250
R22  21714430.360   115913109.771 6      3541.386          41.312    21714430.760   115913109.764 6      3541.386          40.812    21714447.560    90154675.108 4      2754.411          29.562    21714447.240    90154677.129 4      2754.411          29.937
G08  20816676.120   109392375.150 7      2592.962          47.812    20816674.900   109392375.155 7      2592.962          47.062    20816682.120    85240834.505 7      2020.490          46.875    20816683.280    85240852.500 8      2020.490          49.062
G02  21609077.700   113556472.085 7      2765.008          44.812    21609076.600   113556472.100 5      2765.008          33.812    21609079.940    88485567.550 5      2154.552          33.687
G27  22050337.100   115875302.149 6       894.076          41.125    22050335.120   115875302.167 5       894.076          31.750    22050347.880    90292474.014 5       696.683          31.625    22050348.140    90292478.004 6       696.683          38.125
G21  20898503.100   109822373.556 8      1772.462          48.500    20898501.020   109822373.559 6      1772.462          39.187    20898505.360    85575885.992 6      1381.139          39.187
> 2024 05 08 13 50 53.0000000  0 14
R07  23498676.200   125790261.389 6      6336.400          37.625    23498674.400   125790261.399 5      6336.400          35.937    23498701.360    97836968.018 7      4928.311          45.500    23498701.600    97836968.018 7      4928.311          45.312
G16  23217051.400   122006427.821 6      -899.664          41.875    23217049.080   122006427.839 4      -899.664          28.875    23217064.720    95069991.942 4      -701.037          28.437
R12  21922464.520   117105868.433 6      4718.563          41.375    21922463.080   117105868.431 6      4718.563          41.375    21922475.560    91082386.796 7      3669.993          43.062    21922476.000    91082389.797 7      3669.993          43.437
R05  23229343.480   124174162.126 6      1067.172          39.562    23229345.420   124174162.149 6      1067.172          39.312    23229360.620    96579962.155 7       830.023          44.687    23229360.360    96579964.170 7       830.023          44.437
R10  23136697.700   123331626.381 6     -1827.839          36.812    23136694.200   123331626.387 6     -1827.839          36.500
R11  20303202.000   108494154.287 8       449.630          50.375    20303201.620   108494154.296 8       449.630          49.187    20303212.080    84384377.870 8       349.712          49.500    20303211.560    84384379.868 8       349.712          50.312
R21  20954342.600   112130918.923 7      1655.380          42.562    20954341.580   112130918.932 7      1655.380          43.812    20954352.500    87212984.258 7      1287.518          43.062    20954353.260    87212984.266 7      1287.518          42.750
G10  23663196.040   124350932.735 7      -239.090          46.125    23663196.080   124350932.740 6      -239.090          40.437    23663205.260    96896871.941 6      -186.304          40.312    23663206.020    96896871.931 7      -186.304          42.937
G03  23456540.400   123264941.490 7      6159.348          45.500    23456540.940   123264941.506 5      6159.348          32.625    23456558.240    96050670.994 5      4799.492          32.687    23456558.860    96050688.006 7      4799.492          45.187
R22  21713766.740   115909568.566 6      3541.164          41.000    21713767.740   115909568.572 6      3541.164          40.312    21713782.920    90151920.868 4      2754.238          29.562    21713784.220    90151922.908 4      2754.238          29.937
G08  20816182.820   109389782.405 8      2592.534          48.187    20816181.520   109389782.413 7      2592.534          47.250    20816188.780    85238814.182 7      2020.156          47.187    20816189.880    85238832.179 8      2020.156          49.437
G02  21608551.540   113553707.311 7      2764.491          44.187    21608550.420   113553707.331 5      2764.491          34.000    21608553.960    88483413.183 5      2154.149          33.875
G27  22050167.220   115874408.223 6       893.683          41.062    22050164.940   115874408.241 5       893.683          31.687    22050177.920    90291777.442 5       696.377          31.625    22050177.720    90291781.430 6       696.377          38.125
G21  20898165.800   109820601.227 7      1772.180          47.625    20898163.680   109820601.230 6      1772.180          38.562    20898168.120    85574504.954 6      1380.919          38.687
> 2024 05 08 13 50 54.0000000  0 14
R07  23497492.420   125783925.025 6      6336.368          37.625    23497491.980   125783925.021 5      6336.368          35.937    23497517.380    97832039.730 7      4928.286          45.312    23497517.820    97832039.728 7      4928.286          45.250
G16  23217222.440   122007327.498 6      -899.816          40.937    23217220.200   122007327.514 4      -899.816          28.312    23217235.960    95070692.972 4      -701.155          28.437
R12  21921581.400   117101150.316 6      4717.668          40.125    21921579.980   117101150.306 6      4717.668          40.812    21921592.320    91078717.135 7      3669.297          43.500    21921592.920    91078720.133 7      3669.297          43.375
R05  23229144.200   124173095.291 6      1066.522          38.687    23229145.740   124173095.309 6      1066.522          39.312    23229161.340    96579132.391 7       829.517          44.875    23229160.620    96579134.402 7       829.517          44.750
R10  23137041.380   123333454.197 6     -1827.709          36.812    23137037.260   123333454.205 6     -1827.709          36.500
R11  20303117.980   108493704.962 8       448.936          50.437    20303117.620   108493704.971 8       448.936          49.062    20303127.900    84384028.391 8       349.173          50.687    20303127.720    84384030.389 8       349.173          51.125
R21  20954033.420   112129263.547 7      1655.361          43.625    20954032.000   112129263.546 7      1655.361          43.625    20954043.200    87211696.733 7      1287.503          43.062    20954043.620    87211696.742 7      1287.503          42.687
G10  23663241.520   124351171.818 7      -239.307          46.312    23663241.720   124351171.820 6      -239.307          40.812    23663250.720    96897058.234 6      -186.473          40.875    23663251.580    96897058.228 7      -186.473          42.937
G03  23455368.220   123258782.090 7      6159.331          45.000    23455368.800   123258782.102 5      6159.331          32.625    23455386.060    96045871.469 5      4799.479          32.687    23455386.860    96045888.481 7      4799.479          45.062
R22  21713103.520   115906027.508 6      3540.992          41.000    21713104.260   115906027.509 6      3540.992          40.312    21713121.420    90149166.712 4      2754.105          29.562    21713121.020    90149168.745 4      2754.105          29.937
G08  20815689.640   109387189.844 8      2592.445          48.500    20815688.220   109387189.849 7      2592.445          47.500    20815695.460    85236794.001 7      2020.087          47.625    20815696.440    85236811.996 8      2020.087          49.062
G02  21608025.320   113550942.705 7      2764.550          43.937    21608024.240   113550942.723 5      2764.550          34.000    21608027.920    88481258.943 5      2154.195          33.875
G27  22049997.360   115873514.485 6       893.390          41.125    22049994.940   115873514.498 5       893.390          31.687    22050007.980    90291081.015 5       696.148          31.687    22050007.760    90291085.004 6       696.148          38.125
G21  20897828.480   109818829.124 7      1771.924          47.687    20897826.440   109818829.127 6      1771.924          38.812    20897830.960    85573124.094 6      1380.720          39.062
> 2024 05 08 13 50 55.0000000  0 14
R07  23496308.360   125777588.779 6      6335.847          37.625    23496307.640   125777588.802 5      6335.847          35.937    23496333.760    97827111.549 7      4927.881          44.500    23496334.280    97827111.552 7      4927.881          45.312
G16  23217393.880   122008227.568 6      -900.272          41.000    23217391.480   122008227.586 4      -900.272          28.312    23217407.220    95071394.308 4      -701.510          28.437
R12  21920698.200   117096433.007 6      4716.817          40.125    21920696.320   117096433.016 6      4716.817          40.812    21920709.200    91075048.136 7      3668.635          43.750    21920709.400    91075051.138 7      3668.635          44.000
R05  23228944.780   124172029.392 6      1065.421          38.687    23228946.300   124172029.396 6      1065.421          39.062    23228961.780    96578303.354 7       828.660          44.625    23228961.140    96578305.361 7       828.660          44.875
R10  23137384.820   123335282.295 6     -1828.206          36.437    23137380.640   123335282.306 6     -1828.206          36.500
R11  20303033.840   108493256.597 8       447.891          49.500    20303033.540   108493256.600 8       447.891          49.812    20303043.920    84383679.650 8       348.360          50.875    20303043.800    84383681.650 8       348.360          51.562
R21  20953724.340   112127608.391 7      1654.934          43.625    20953722.880   112127608.390 7      1654.934          43.750    20953733.800    87210409.387 7      1287.171          43.125    20953734.280    87210409.392 7      1287.171          42.687
G10  23663287.340   124351411.445 7      -239.939          46.250    23663287.100   124351411.447 6      -239.939          40.812    23663296.260    96897244.954 6      -186.965          40.750    23663296.940    96897244.940 7      -186.965          42.875
G03  23454196.360   123252623.023 7      6158.864          45.250    23454196.800   123252623.035 5      6158.864          32.437    23454214.180    96041072.204 5      4799.115          32.437    23454214.460    96041089.214 7      4799.115          45.500
R22  21712440.200   115902486.792 7      3540.447          42.187    21712440.740   115902486.792 6      3540.447          40.500    21712461.100    90146412.780 4      2753.681          29.562    21712458.460    90146414.791 4      2753.681          29.937
G08  20815196.220   109384597.727 7      2591.927          47.750    20815194.880   109384597.737 7      2591.927          47.125    20815202.160    85234774.171 7      2019.684          47.187    20815203.020    85234792.170 8      2019.684          49.250
G02  21607499.640   113548178.567 7      2763.899          44.062    21607498.340   113548178.579 5      2763.899          34.125    21607501.820    88479105.069 5      2153.687          33.937
G27  22049826.880   115872621.137 7       893.120          42.000    22049825.000   115872621.147 5       893.120          31.687    22049838.160    90290384.889 5       695.937          31.687    22049838.220    90290388.884 6       695.937          38.125
G21  20897491.360   109817057.434 7      1771.537          47.750    20897489.400   109817057.433 6      1771.537          38.625    20897493.860    85571743.554 6      1380.418          38.937
> 2024 05 08 13 50 56.0000000  0 14
R07  23495125.020   125771252.343 6      6336.356          37.187    23495123.800   125771252.366 5      6336.356          35.937    23495149.820    97822183.212 7      4928.277          44.750    23495150.560    97822183.217 7      4928.277          45.437
G16  23217565.460   122009127.824 6      -900.553          40.875    23217562.760   122009127.842 4      -900.553          28.312    23217578.580    95072095.788 4      -701.729          28.437
R12  21919815.560   117091716.356 6      4716.193          40.562    21919813.440   117091716.360 6      4716.193          40.625    21919826.120    91071379.619 7      3668.150          43.437    21919826.620    91071382.619 7      3668.150          43.625
R05  23228745.040   124170964.158 6      1064.672          38.687    23228747.040   124170964.176 6      1064.672          39.062    23228762.320    96577474.847 7       828.078          44.937    23228762.240    96577476.858 7       828.078          44.875
R10  23137727.600   123337110.355 6     -1828.227          36.437    23137723.360   123337110.358 6     -1828.227          36.312
R11  20302950.200   108492808.934 8       447.069          49.625    20302949.720   108492808.938 8       447.069          48.875    20302960.160    84383331.462 8       347.720          50.562    20302959.780    84383333.459 8       347.720          51.562
R21  20953415.480   112125953.208 7      1654.990          44.437    20953413.520   112125953.204 7      1654.990          43.750    20953424.620    87209122.017 7      1287.214          42.250    20953424.860    87209122.021 7      1287.214          42.437
G10  23663332.840   124351651.356 7      -240.256          46.312    23663332.860   124351651.355 6      -240.256          40.562    23663341.920    96897431.893 6      -187.213          40.562    23663342.160    96897431.881 7      -187.213          42.687
G03  23453024.200   123246464.040 7      6158.726          44.937    23453024.560   123246464.052 5      6158.726          32.437    23453042.080    96036273.007 5      4799.008          32.437    23453042.520    96036290.017 7      4799.008          45.125
R22  21711776.700   115898946.107 7      3540.534          42.187    21711777.000   115898946.108 6      3540.534          40.500    21711800.320    90143658.960 4      2753.749          29.562    21711797.720    90143660.973 4      2753.749          29.937
G08  20814702.880   109382005.825 7      2591.555          47.875    20814701.640   109382005.833 7      2591.555          47.250    20814708.920    85232754.503 7      2019.393          47.375    20814709.860    85232772.502 8      2019.393          49.562
G02  21606974.000   113545414.604 7      2763.588          44.250    21606972.260   113545414.620 5      2763.588          34.125    21606975.900    88476951.330 5      2153.446          33.937
G27  22049657.160   115871727.999 6       892.827          41.562    22049655.280   115871728.010 5       892.827          31.562    22049668.500    90289688.932 5       695.710          31.687    22049668.960    90289692.916 6       695.710          38.562
G21  20897154.160   109815285.954 7      1771.137          47.625    20897152.180   109815285.956 6      1771.137          38.437    20897156.680    85570363.182 6      1380.107          38.625
> 2024 05 08 13 50 57.0000000  0 14
R07  23493941.200   125764916.164 6      6336.005          37.187    23493939.860   125764916.195 5      6336.005          35.937    23493966.120    97817255.083 7      4928.004          44.812    23493967.040    97817255.081 7      4928.004          45.062
G16  23217737.000   122010028.521 6      -900.901          40.687    23217734.000   122010028.536 4      -900.901          28.312    23217750.080    95072797.615 4      -702.001          28.437
R12  21918932.360   117087000.690 6      4715.117          40.562    21918930.260   117087000.681 6      4715.117          40.625    21918943.440    91067711.875 7      3667.313          43.500    21918943.720    91067714.871 7      3667.313          43.375
R05  23228546.540   124169899.940 6      1063.722          39.625    23228548.340   124169899.955 6      1063.722          39.062    23228563.740    96576647.122 7       827.340          45.125    23228563.040    96576649.135 7       827.340          44.812
R10  23138070.380   123338938.711 6     -1828.514          36.437    23138066.260   123338938.696 6     -1828.514          36.312
R11  20302866.520   108492362.241 8       446.156          49.937    20302866.000   108492362.253 8       446.156          49.125    20302876.560    84382984.034 8       347.011          50.937    20302876.200    84382986.031 8       347.011          50.625
R21  20953106.120   112124298.295 7      1654.868          43.812    20953104.400   112124298.294 7      1654.868          43.750    20953115.640    87207834.864 7      1287.120          42.875    20953115.700    87207834.869 7      1287.120          42.687
G10  23663378.760   124351891.852 7      -240.817          46.687    23663378.560   124351891.855 6      -240.817          40.562    23663387.680    96897619.296 6      -187.650          40.937    23663387.660    96897619.283 7      -187.650          42.687
G03  23451852.240   123240305.435 7      6158.410          45.187    23451852.560   123240305.450 5      6158.410          32.187    23451870.040    96031474.104 5      4798.761          32.437    23451870.920    96031491.115 7      4798.761          45.125
R22  21711113.580   115895405.828 6      3540.197          41.250    21711114.140   115895405.835 6      3540.197          40.375    21711135.200    90140905.412 4      2753.486          29.562    21711135.840    90140907.443 4      2753.486          29.937
G08  20814209.700   109379414.381 8      2591.218          48.312    20814208.560   109379414.388 7      2591.218          47.000    20814215.840    85230735.196 7      2019.131          47.187    20814216.840    85230753.193 8      2019.131          49.000
G02  21606447.740   113542651.115 7      2763.227          44.000    21606446.360   113542651.131 5      2763.227          33.937    21606450.140    88474797.960 5      2153.164          33.750
G27  22049486.960   115870835.308 6       892.559          41.250    22049485.560   115870835.313 5       892.559          31.562    22049498.740    90288993.322 5       695.501          31.750    22049498.340    90288997.312 6       695.501          38.562
G21  20896817.460   109813514.938 8      1770.744          48.562    20896815.200   109813514.943 6      1770.744          39.125    20896819.740    85568983.172 6      1379.801          39.187
> 2024 05 08 13 50 58.0000000  0 14
R07  23492757.740   125758579.827 6      6336.369          37.187    23492756.180   125758579.823 6      6336.369          36.750    23492782.260    97812326.790 7      4928.287          44.500    23492783.360    97812326.794 7      4928.287          44.875
G16  23217908.260   122010929.363 6      -901.016          41.875    23217905.400   122010929.378 4      -901.016          28.312    23217921.520    95073499.549 4      -702.090          28.437
R12  21918049.420   117082285.655 6      4714.489          40.562    21918047.020   117082285.653 6      4714.489          40.625    21918060.360    91064044.629 7      3666.825          43.562    21918061.060    91064047.632 7      3666.825          43.312
R05  23228348.000   124168836.425 6      1062.973          39.625    23228348.620   124168836.435 6      1062.973          39.375    23228364.700    96575819.933 7       826.756          44.937    23228364.080    96575821.946 7       826.756          45.187
R10  23138413.860   123340767.044 6     -1828.435          36.437    23138409.180   123340767.039 6     -1828.435          36.312
R11  20302783.120   108491916.248 8       445.544          50.312    20302782.660   108491916.252 8       445.544          49.187    20302793.300    84382637.142 8       346.534          50.687    20302792.940    84382639.140 8       346.534          51.125
R21  20952796.200   112122643.380 7      1654.856          43.312    20952795.640   112122643.384 7      1654.856          43.562    20952806.020    87206547.708 7      1287.110          42.875    20952806.500    87206547.714 7      1287.110          42.375
G10  23663424.360   124352132.617 7      -241.038          45.562    23663424.420   124352132.619 6      -241.038          40.187    23663433.720    96897806.896 6      -187.822          40.312    23663434.380    96897806.892 7      -187.822          42.625
G03  23450680.280   123234146.896 7      6158.358          44.437    23450680.460   123234146.914 5      6158.358          32.187    23450698.100    96026675.257 5      4798.720          32.187    23450699.160    96026692.269 7      4798.720          44.625
R22  21710450.480   115891865.643 6      3539.996          41.250    21710451.000   115891865.647 6      3539.996          40.375    21710468.540    90138151.974 4      2753.330          29.562    21710470.600    90138154.049 4      2753.330          29.937
G08  20813716.640   109376823.120 8      2591.109          48.000    20813715.540   109376823.130 7      2591.109          47.687    20813722.620    85228716.028 7      2019.046          46.937    20813724.000    85228734.029 8      2019.046          49.812
G02  21605921.700   113539887.792 7      2763.129          44.062    21605920.460   113539887.804 5      2763.129          33.937    21605924.160    88472644.721 5      2153.087          33.750
G27  22049317.360   115869942.803 6       892.367          41.062    22049315.540   115869942.811 5       892.367          31.562    22049328.980    90288297.855 5       695.351          31.750    22049327.880    90288301.838 6       695.351          38.562
G21  20896480.320   109811744.083 8      1770.720          48.375    20896478.140   109811744.083 6      1770.720          38.937    20896482.700    85567603.279 6      1379.782          38.875
> 2024 05 08 13 50 59.0000000  0 14
R07  23491574.080   125752243.434 6      6336.671          37.187    23491574.020   125752243.440 6      6336.671          36.750    23491598.140    97807398.494 7      4928.522          44.312    23491599.420    97807398.497 7      4928.522          45.000
G16  23218079.620   122011830.478 6      -901.031          40.875    23218076.720   122011830.493 4      -901.031          28.312    23218093.120    95074201.699 4      -702.102          28.062
R12  21917167.120   117077571.418 6      4714.212          39.000    21917164.700   117077571.398 6      4714.212          40.250    21917177.780    91060377.992 7      3666.609          43.375    21917178.400    91060380.991 7      3666.609          43.437
R05  23228149.480   124167773.760 6      1062.241          39.625    23228149.680   124167773.761 6      1062.241          39.375    23228166.120    96574993.414 7       826.188          45.125    23228165.660    96574995.423 7       826.188          45.437
R10  23138757.180   123342595.517 6     -1828.386          36.437    23138752.220   123342595.507 6     -1828.386          36.312
R11  20302699.700   108491471.112 8       444.877          49.687    20302699.280   108491471.122 8       444.877          49.000    20302709.840    84382290.922 8       346.015          50.562    20302709.640    84382292.917 8       346.015          50.937
R21  20952486.840   112120988.614 7      1654.892          43.812    20952486.340   112120988.613 7      1654.892          43.562    20952496.820    87205260.670 7      1287.138          42.812    20952497.140    87205260.670 7      1287.138          42.375
G10  23663470.200   124352373.831 7      -241.326          46.562    23663470.460   124352373.833 6      -241.326          40.687    23663479.660    96897994.855 6      -188.046          41.062    23663479.840    96897994.845 7      -188.046          42.625
G03  23449508.620   123227988.588 7      6158.416          45.125    23449508.480   123227988.601 5      6158.416          32.187    23449526.220    96021876.584 5      4798.766          32.187    23449527.180    96021893.590 7      4798.766          44.625
R22  21709787.220   115888325.655 6      3540.122          40.875    21709787.780   115888325.659 6      3540.122          40.312    21709810.860    90135398.574 4      2753.428          29.562
G08  20813223.660   109374232.196 8      2590.982          48.312    20813222.420   109374232.198 7      2590.982          46.812    20813229.700    85226697.123 7      2018.947          46.875    20813231.060    85226715.125 8      2018.947          49.125
G02  21605395.720   113537124.820 7      2762.874          43.625    21605394.600   113537124.841 5      2762.874          33.375    21605398.440    88470491.762 5      2152.889          33.312
G27  22049147.340   115869050.588 6       892.273          40.625    22049145.620   115869050.595 5       892.273          31.687    22049159.060    90287602.618 5       695.278          31.750    22049157.380    90287606.625 6       695.278          38.562
G21  20896143.280   109809973.572 8      1770.609          48.312    20896141.320   109809973.575 6      1770.609          38.625    20896145.760    85566223.662 6      1379.695          39.125
> 2024 05 08 13 51  0.0000000  0 14
R07  23490390.440   125745907.019 6      6336.348          38.125    23490391.060   125745907.039 6      6336.348          36.750    23490414.340    97802470.172 7      4928.271          44.187    23490415.780    97802470.176 7      4928.271          44.187
G16  23218251.080   122012731.885 6      -901.759          40.750    23218248.160   122012731.897 4      -901.759          28.312    23218264.880    95074904.073 4      -702.669          28.062
R12  21916284.840   117072857.908 6      4712.966          39.000    21916281.620   117072857.920 6      4712.966          40.250    21916295.740    91056711.954 7      3665.641          43.375    21916296.040    91056714.954 7      3665.641          43.375
R05  23227950.440   124166711.822 6      1061.239          39.312    23227950.720   124166711.812 6      1061.239          39.375    23227967.380    96574167.454 7       825.408          44.812    23227967.160    96574169.462 7       825.408          45.000
R10  23139099.480   123344424.079 6     -1828.887          36.312    23139095.240   123344424.074 6     -1828.887          36.312
R11  20302616.400   108491026.736 8       443.822          50.187    20302616.000   108491026.740 8       443.822          48.562    20302626.640    84381945.287 8       345.195          51.187    20302626.560    84381947.281 8       345.195          51.000
R21  20952177.760   112119333.907 7      1654.494          44.000    20952176.900   112119333.906 7      1654.494          43.812    20952187.740    87203973.670 7      1286.829          42.625    20952187.660    87203973.674 7      1286.829          42.437
G10  23663516.340   124352615.405 7      -241.880          46.250    23663516.320   124352615.399 6      -241.880          40.937    23663525.720    96898183.084 6      -188.478          41.187    23663526.080    96898183.072 7      -188.478          42.812
G03  23448336.660   123221830.462 7      6157.869          44.562    23448336.460   123221830.474 5      6157.869          31.875    23448354.380    96017078.058 5      4798.340          32.187    23448355.100    96017095.066 7      4798.340          45.000
R22  21709124.020   115884785.873 6      3539.429          40.875    21709124.540   115884785.874 6      3539.429          40.312    21709148.840    90132645.482 4      2752.889          29.562
G08  20812730.500   109371641.566 8      2590.282          48.000    20812729.360   109371641.570 7      2590.282          46.750    20812736.700    85224678.449 7      2018.402          46.937    20812738.120    85224696.452 8      2018.402          49.812
G02  21604869.960   113534362.122 7      2762.241          43.375    21604868.800   113534362.140 5      2762.241          33.375    21604872.760    88468339.012 5      2152.395          33.312
G27  22048977.380   115868158.685 6       891.479          41.187    22048975.760   115868158.695 5       891.479          31.687    22048989.440    90286907.627 5       694.659          32.062    22048988.400    90286911.620 6       694.659          38.750
G21  20895806.440   109808203.348 7      1769.906          47.687    20895804.400   109808203.348 6      1769.906          38.812    20895808.840    85564844.267 6      1379.148          38.750
> 2024 05 08 13 51  1.0000000  0 14
R07  23489206.260   125739570.604 6      6336.396          38.125    23489207.020   125739570.611 6      6336.396          36.750    23489230.820    97797541.849 7      4928.308          44.312    23489231.980    97797541.852 7      4928.308          44.625
G16  23218422.520   122013633.528 6      -901.763          41.000    23218419.600   122013633.538 4      -901.763          28.312    23218436.360    95075606.636 4      -702.672          28.062
R12  21915402.640   117068145.154 6      4712.400          39.000    21915399.180   117068145.152 6      4712.400          39.187    21915413.560    91053046.474 7      3665.200          43.312    21915414.040    91053049.472 7      3665.200          43.562
R05  23227752.500   124165650.608 6      1061.011          39.312    23227752.280   124165650.607 6      1061.011          39.062    23227768.740    96573342.071 7       825.231          44.875    23227768.280    96573344.080 7       825.231          45.250
R10  23139442.660   123346252.721 6     -1828.781          36.312    23139438.600   123346252.724 6     -1828.781          36.312
R11  20302533.460   108490583.169 8       443.216          49.500    20302532.840   108490583.178 8       443.216          48.687    20302543.640    84381600.297 8       344.724          51.625    20302543.420    84381602.292 8       344.724          51.062
R21  20951868.640   112117679.268 7      1654.602          44.000    20951867.640   112117679.272 7      1654.602          43.812    20951878.180    87202686.734 7      1286.913          42.562    20951878.620    87202686.728 7      1286.913          42.500
G10  23663562.320   124352857.384 7      -242.140          46.625    23663562.440   124352857.383 6      -242.140          40.625    23663571.680    96898371.641 6      -188.680          40.750    23663572.340    96898371.637 7      -188.680          42.875
G03  23447164.720   123215672.509 7      6157.862          44.812    23447164.580   123215672.519 5      6157.862          31.875    23447182.600    96012279.666 5      4798.334          31.625    23447183.100    96012296.680 7      4798.334          44.812
R22  21708460.820   115881246.256 6      3539.513          39.687    21708460.880   115881246.263 6      3539.513          40.312    21708488.040    90129892.410 4      2752.955          29.562
G08  20812237.580   109369051.211 8      2590.247          49.250    20812236.340   109369051.219 7      2590.247          46.812    20812243.780    85222659.991 7      2018.374          47.187    20812244.940    85222677.998 8      2018.374          49.500
G02  21604344.220   113531599.668 7      2762.477          43.125    21604343.020   113531599.686 5      2762.477          33.562    21604346.980    88466186.449 5      2152.580          33.125
G27  22048807.520   115867267.026 6       891.472          41.187    22048806.040   115867267.041 5       891.472          31.687    22048819.660    90286212.826 5       694.654          32.062    22048819.440    90286216.814 6       694.654          38.750
G21  20895469.560   109806433.407 8      1769.791          48.250    20895467.520   109806433.410 6      1769.791          38.500    20895472.140    85563465.090 6      1379.058          38.687
> 2024 05 08 13 51  2.0000000  0 14
R07  23488022.780   125733234.085 6      6336.633          38.125    23488022.400   125733234.103 6      6336.633          36.750    23488047.220    97792613.452 7      4928.493          43.937    23488048.220    97792613.458 7      4928.493          44.750
G16  23218594.320   122014535.426 6      -902.095          41.000    23218591.320   122014535.439 4      -902.095          28.312    23218607.980    95076309.397 4      -702.931          28.062
R12  21914520.000   117063433.163 6      4711.601          39.000    21914516.840   117063433.159 6      4711.601          39.187    21914531.240    91049381.586 7      3664.579          43.437    21914531.760    91049384.587 7      3664.579          43.375
R05  23227553.380   124164590.231 6      1059.960          39.312    23227553.080   124164590.227 6      1059.960          39.062    23227570.320    96572517.338 7       824.413          44.750    23227570.060    96572519.344 7       824.413          45.437
R10  23139785.700   123348081.482 6     -1829.127          36.312    23139782.060   123348081.501 6     -1829.127          36.437
R11  20302450.280   108490140.382 8       442.386          49.812    20302450.100   108490140.394 8       442.386          48.250    20302460.820    84381255.905 8       344.078          50.687    20302460.560    84381257.899 8       344.078          50.812
R21  20951559.520   112116024.735 7      1654.383          42.937    20951558.440   112116024.744 7      1654.383          43.937    20951569.240    87201399.877 7      1286.742          42.187    20951569.460    87201399.879 7      1286.742          42.625
G10  23663608.360   124353099.762 7      -242.582          46.437    23663608.640   124353099.759 6      -242.582          40.375    23663617.680    96898560.503 6      -189.025          40.687    23663618.340    96898560.495 7      -189.025          42.875
G03  23445993.040   123209514.761 7      6157.635          44.125    23445992.860   123209514.773 5      6157.635          31.875    23446010.740    96007481.431 5      4798.157          31.625    23446011.100    96007498.437 7      4798.157          44.937
R22  21707798.200   115877706.816 6      3539.333          39.687    21707798.160   115877706.822 6      3539.333          40.312    21707823.380    90127139.482 4      2752.815          29.562
G08  20811744.820   109366461.162 8      2589.819          48.187    20811743.500   109366461.164 7      2589.819          46.562    20811750.940    85220641.767 7      2018.041          46.750    20811752.260    85220659.768 8      2018.041          48.937
G02  21603818.940   113528837.569 7      2761.920          44.000    21603817.360   113528837.582 5      2761.920          33.562    21603821.460    88464034.168 5      2152.146          33.125
G27  22048638.020   115866375.649 6       891.236          41.937    22048636.600   115866375.661 5       891.236          31.750    22048650.140    90285518.242 5       694.470          32.062    22048650.120    90285522.239 6       694.470          38.750
G21  20895132.960   109804663.738 7      1769.538          47.750    20895130.780   109804663.740 6      1769.538          38.562    20895135.280    85562086.126 6      1378.861          39.125
> 2024 05 08 13 51  3.0000000  0 14
R07  23486839.120   125726897.499 6      6337.136          38.125    23486839.300   125726897.522 6      6337.136          37.875    23486863.700    97787684.996 7      4928.883          44.500    23486864.540    97787684.998 7      4928.883          44.312
G16  23218765.940   122015437.492 6      -901.866          40.562    23218762.800   122015437.510 4      -901.866          28.312    23218779.720    95077012.290 4      -702.753          28.062
R12  21913637.860   117058721.859 6      4711.188          38.187    21913634.440   117058721.863 6      4711.188          39.187    21913649.260    91045717.253 7      3664.257          43.062    21913649.780    91045720.247 7      3664.257          43.062
R05  23227354.780   124163530.492 6      1059.685          39.312    23227354.480   124163530.496 6      1059.685          39.062    23227372.040    96571693.099 7       824.200          44.500    23227372.120    96571695.103 7       824.200          45.062
R10  23140128.740   123349910.198 6     -1828.456          36.312    23140125.320   123349910.199 6     -1828.456          36.437
R11  20302367.760   108489698.309 8       441.937          49.500    20302367.420   108489698.326 8       441.937          49.500    20302378.120    84380912.062 8       343.729          50.687    20302377.760    84380914.060 8       343.729          51.000
R21  20951250.780   112114370.210 7      1654.803          43.875    20951249.280   112114370.214 7      1654.803          43.187    20951260.140    87200113.022 7      1287.069          42.312    20951260.040    87200113.019 7      1287.069          42.312
G10  23663654.580   124353342.410 7      -242.453          46.437    23663654.760   124353342.410 6      -242.453          40.250    23663663.980    96898749.582 6      -188.924          40.562    23663664.080    96898749.566 7      -188.924          42.375
G03  23444821.160   123203357.099 7      6157.853          44.437    23444821.040   123203357.104 5      6157.853          31.687    23444839.080    96002683.261 5      4798.327          31.625    23444839.660    96002700.269 7      4798.327          44.812
R22  21707134.480   115874167.468 6      3539.536          39.937    21707134.880   115874167.488 6      3539.536          40.312    21707157.540    90124386.727 4      2752.972          29.562
G08  20811251.920   109363871.305 7      2589.972          47.750    20811250.580   109363871.309 7      2589.972          46.750    20811258.240    85218623.696 7      2018.160          46.812    20811259.540    85218641.699 8      2018.160          50.000
G02  21603293.380   113526075.633 7      2762.100          43.687    21603291.680   113526075.645 5      2762.100          33.250    21603295.820    88461882.010 5      2152.286          33.312
G27  22048468.580   115865484.455 6       891.341          41.937    22048467.060   115865484.468 5       891.341          31.750    22048480.560    90284823.801 5       694.551          32.187    22048480.580    90284827.800 6       694.551          39.062
G21  20894796.140   109802894.286 7      1769.527          47.875    20894794.120   109802894.285 6      1769.527          38.750    20894798.520    85560707.331 6      1378.853          38.812
> 2024 05 08 13 51  4.0000000  0 14
R07  23485655.660   125720560.405 6      6337.432          38.875    23485655.900   125720560.420 6      6337.432          37.875    23485679.480    97782756.132 7      4929.114          44.000    23485680.720    97782756.137 7      4929.114          43.937
G16  23218937.740   122016339.319 6      -901.702          40.312    23218934.380   122016339.337 4      -901.702          28.312    23218951.280    95077715.000 4      -702.625          27.875
R12  21912755.360   117054010.803 6      4710.990          38.187    21912752.700   117054010.805 6      4710.990          39.187    21912767.260    91042053.088 7      3664.104          43.187    21912767.560    91042056.089 7      3664.104          43.250
R05  23227157.280   124162471.088 6      1059.153          39.000    23227156.840   124162471.084 6      1059.153          39.062    23227174.160    96570869.111 7       823.786          45.250    23227173.760    96570871.107 7       823.786          45.062
R10  23140471.680   123351738.485 6     -1827.874          36.312    23140467.560   123351738.489 6     -1827.874          36.437
R11  20302285.020   108489256.495 8       441.614          50.375    20302284.700   108489256.509 8       441.614          48.625    20302295.380    84380568.422 8       343.478          50.500    20302294.980    84380570.424 8       343.478          51.500
R21  20950941.580   112112715.305 7      1655.149          43.875    20950940.520   112112715.304 7      1655.149          43.437    20950950.980    87198825.870 7      1287.338          42.687    20950950.660    87198825.870 7      1287.338          42.687
G10  23663700.840   124353584.975 7      -242.461          45.562    23663700.860   124353584.972 6      -242.461          40.500    23663710.100    96898938.587 6      -188.930          40.437    23663710.100    96898938.583 7      -188.930          42.375
G03  23443649.680   123197199.112 7      6158.232          44.750    23443649.180   123197199.117 5      6158.232          31.687    23443667.360    95997884.840 5      4798.623          31.875    23443667.860    95997901.846 7      4798.623          44.812
R22  21706471.700   115870627.804 6      3539.788          39.937    21706471.480   115870627.823 6      3539.788          40.250    21706495.700    90121633.640 4      2753.168          29.562
G08  20810759.080   109361281.224 7      2590.156          47.687    20810757.700   109361281.231 7      2590.156          47.250    20810765.340    85216605.453 7      2018.304          46.937    20810766.540    85216623.456 8      2018.304          49.750
G02  21602767.660   113523313.486 7      2762.146          43.375    21602766.080   113523313.501 5      2762.146          33.250    21602770.220    88459729.694 5      2152.322          33.312
G27  22048298.720   115864593.043 6       891.443          41.312    22048297.520   115864593.056 5       891.443          32.062    22048310.820    90284129.193 5       694.631          32.187    22048310.540    90284133.185 6       694.631          39.062
G21  20894459.360   109801124.579 7      1769.891          47.750    20894457.420   109801124.578 6      1769.891          38.187    20894461.580    85559328.338 6      1379.136          38.437
> 2024 05 08 13 51  5.0000000  0 14
R07  23484472.280   125714223.968 6      6336.541          38.875    23484472.560   125714223.973 6      6336.541          37.875    23484495.940    97777827.781 7      4928.421          44.062    23484496.640    97777827.787 7      4928.421          44.125
G16  23219109.740   122017242.124 6      -902.966          40.500    23219106.160   122017242.142 4      -902.966          27.812    23219122.860    95078418.463 4      -703.610          27.875
R12  21911874.260   117049301.203 6      4709.390          38.187    21911870.800   117049301.183 6      4709.390          38.812    21911885.320    91038390.050 7      3662.859          43.312    21911885.660    91038393.052 7      3662.859          42.875
R05  23226959.140   124161413.186 6      1057.404          39.000    23226959.040   124161413.181 6      1057.404          38.375    23226976.300    96570046.294 7       822.425          45.562    23226975.880    96570048.297 7       822.425          45.500
R10  23140815.040   123353567.615 6     -1829.021          36.312    23140811.200   123353567.615 6     -1829.021          36.437
R11  20302202.560   108488816.188 8       439.945          49.937    20302202.380   108488816.199 8       439.945          49.250    20302213.100    84380225.959 8       342.180          51.125    20302212.700    84380227.959 8       342.180          51.062
R21  20950632.140   112111061.131 7      1654.152          44.375    20950630.640   112111061.138 7      1654.152          43.812    20950641.820    87197539.296 7      1286.562          42.687    20950641.720    87197539.303 7      1286.562          43.062
G10  23663747.260   124353828.622 7      -243.830          46.250    23663747.020   124353828.622 6      -243.830          40.375    23663756.360    96899128.444 6      -189.998          40.625    23663756.300    96899128.432 7      -189.998          42.562
G03  23442478.120   123191042.031 7      6157.031          45.375    23442477.680   123191042.036 5      6157.031          31.687    23442495.840    95993087.123 5      4797.687          31.875    23442496.300    95993104.133 7      4797.687          45.250
R22  21705808.660   115867089.033 6      3538.713          40.125    21705808.480   115867089.037 6      3538.713          40.250    21705831.460    90118881.252 4      2752.332          29.562
G08  20810266.480   109358692.144 8      2588.965          48.562    20810264.980   109358692.151 7      2588.965          46.750    20810272.700    85214587.988 7      2017.375          46.500    20810273.960    85214605.991 8      2017.375          49.562
G02  21602242.180   113520552.288 7      2761.213          43.750    21602240.700   113520552.306 5      2761.213          33.437    21602244.720    88457578.111 5      2151.595          33.312
G27  22048129.440   115863702.585 6       890.438          40.187    22048128.200   115863702.590 5       890.438          32.062    22048141.580    90283435.317 5       693.848          32.187    22048141.140    90283439.304 6       693.848          39.062
G21  20894122.820   109799355.894 8      1768.556          48.437    20894120.920   109799355.896 6      1768.556          38.687    20894125.180    85557950.147 6      1378.095          38.937
> 2024 05 08 13 51  6.0000000  0 14
R07  23483288.320   125707887.570 6      6336.302          38.875    23483288.160   125707887.585 6      6336.302          37.875    23483312.460    97772899.479 7      4928.235          43.812    23483313.000    97772899.477 7      4928.235          44.500
G16  23219281.500   122018145.236 6      -903.413          40.812    23219278.160   122018145.251 4      -903.413          27.812    23219294.620    95079122.171 4      -703.958          27.875
R12  21910993.160   117044592.423 6      4708.277          38.000    21910989.080   117044592.406 6      4708.277          38.812    21911004.020    91034727.673 7      3661.994          42.750    21911004.280    91034730.678 7      3661.994          43.500
R05  23226761.480   124160356.128 6      1056.741          39.000    23226761.680   124160356.121 6      1056.741          38.375    23226778.500    96569224.134 7       821.909          45.187    23226778.140    96569226.136 7       821.909          45.125
R10  23141158.440   123355396.888 6     -1829.486          36.187    23141153.860   123355396.899 6     -1829.486          36.437
R11  20302120.440   108488376.751 8       438.892          49.312    20302120.260   108488376.758 8       438.892          49.437    20302130.880    84379884.169 8       341.361          51.125    20302130.340    84379886.169 8       341.361          51.312
R21  20950323.140   112109407.101 7      1653.751          43.750    20950321.640   112109407.114 7      1653.751          43.812    20950332.860    87196252.837 7      1286.251          42.562    20950332.680    87196252.844 7      1286.251          43.187
G10  23663793.980   124354072.745 7      -244.554          46.437    23663793.500   124354072.742 6      -244.554          40.375    23663802.860    96899318.663 6      -190.561          40.625    23663803.000    96899318.660 7      -190.561          42.562
G03  23441306.020   123184885.198 7      6156.605          45.000    23441305.980   123184885.202 5      6156.605          31.687    23441324.320    95988289.606 5      4797.354          31.875    23441324.540    95988306.618 7      4797.354          45.375
R22  21705145.660   115863550.524 6      3538.145          40.125    21705146.260   115863550.541 6      3538.145          40.312    21705169.400    90116129.093 4      2751.890          29.562    21705165.840    90116167.114 4      2751.890          24.625
G08  20809773.840   109356103.443 8      2588.360          48.125    20809772.300   109356103.453 7      2588.360          47.312    20809780.120    85212570.814 7      2016.904          46.687    20809781.320    85212588.824 8      2016.904          49.875
G02  21601716.880   113517791.513 7      2760.528          43.937    21601715.280   113517791.529 5      2760.528          33.437    21601719.380    88455426.860 5      2151.061          33.187
G27  22047960.380   115862812.519 6       889.719          40.125    22047958.760   115862812.524 5       889.719          32.062    22047972.240    90282741.753 5       693.287          32.312    22047971.640    90282745.735 6       693.287          39.062
G21  20893786.320   109797587.554 8      1768.060          48.625    20893784.400   109797587.559 6      1768.060          39.062    20893788.620    85556572.217 6      1377.709          39.000
> 2024 05 08 13 51  7.0000000  0 14
R07  23482104.400   125701551.142 6      6336.366          38.875    23482104.200   125701551.165 6      6336.366          37.875    23482128.720    97767971.148 7      4928.285          44.375    23482129.020    97767971.146 7      4928.285          44.250
G16  23219453.200   122019048.627 6      -903.591          40.562    23219450.140   122019048.642 4      -903.591          27.812    23219466.620    95079826.095 4      -704.097          27.875
R12  21910111.440   117039884.447 6      4707.522          38.000    21910108.140   117039884.432 6      4707.522          38.812    21910122.520    91031065.920 7      3661.406          43.250    21910122.940    91031068.921 7      3661.406          42.875
R05  23226563.200   124159299.944 6      1055.712          39.000    23226563.980   124159299.948 6      1055.712          38.375    23226580.580    96568402.666 7       821.109          45.125    23226580.600    96568404.669 7       821.109          45.062
R10  23141501.640   123357226.228 6     -1829.428          36.187    23141496.980   123357226.247 6     -1829.428          36.312
R11  20302038.200   108487938.114 8       438.164          50.437    20302038.060   108487938.123 8       438.164          50.000    20302049.040    84379543.011 8       340.794          51.312    20302048.480    84379545.009 8       340.794          51.062
R21  20950013.920   112107753.176 7      1653.751          43.750    20950012.440   112107753.183 7      1653.751          43.875    20950023.900    87194966.444 7      1286.251          42.812    20950023.860    87194966.453 7      1286.251          43.000
G10  23663840.520   124354317.240 7      -244.741          46.062    23663839.900   124354317.229 6      -244.741          40.687    23663849.380    96899509.167 6      -190.707          40.875    23663849.580    96899509.163 7      -190.707          42.562
G03  23440134.660   123178728.566 7      6156.471          45.312    23440134.520   123178728.568 5      6156.471          31.687    23440152.860    95983492.239 5      4797.250          31.687    23440153.200    95983509.249 7      4797.250          45.250
R22  21704482.560   115860012.218 6      3538.116          40.250    21704483.260   115860012.210 6      3538.116          40.312    21704507.440    90113377.044 4      2751.868          29.562    21704504.900    90113415.121 4      2751.868          24.500
G08  20809281.200   109353515.017 8      2588.153          48.250    20809279.700   109353515.027 7      2588.153          47.500    20809287.560    85210553.861 7      2016.743          47.125    20809288.880    85210571.869 8      2016.743          49.500
G02  21601191.820   113515031.006 7      2760.360          43.500    21601190.000   113515031.024 5      2760.360          33.125    21601194.080    88453275.818 5      2150.930          33.187
G27  22047790.920   115861922.679 6       889.666          41.250    22047789.420   115861922.686 5       889.666          32.250    22047803.060    90282048.371 5       693.246          32.312    22047803.200    90282052.367 6       693.246          39.187
G21  20893449.680   109795819.521 8      1767.770          49.125    20893448.020   109795819.523 6      1767.770          38.750    20893452.140    85555194.525 6      1377.483          38.875
> 2024 05 08 13 51  8.0000000  0 14
R07  23480920.720   125695214.714 6      6336.478          39.625    23480920.620   125695214.742 6      6336.478          38.500    23480944.800    97763042.819 7      4928.372          44.000    23480945.340    97763042.817 7      4928.372          44.750
G16  23219625.380   122019952.301 6      -903.831          40.937    23219621.900   122019952.319 4      -903.831          27.812    23219638.540    95080530.238 4      -704.284          27.875
R12  21909229.560   117035177.272 6      4706.853          38.000    21909226.580   117035177.255 6      4706.853          39.125    21909241.380    91027404.774 7      3660.885          42.812    21909241.500    91027407.770 7      3660.885          43.312
R05  23226366.060   124158244.552 6      1055.163          38.750    23226367.600   124158244.556 6      1055.163          38.375    23226383.100    96567581.795 7       820.682          44.937    23226383.020    96567583.795 7       820.682          45.125
R10  23141844.700   123359055.717 6     -1829.511          36.187    23141840.320   123359055.723 6     -1829.511          36.312
R11  20301956.280   108487500.289 8       437.551          51.312    20301955.840   108487500.293 8       437.551          50.375    20301967.180    84379202.474 8       340.317          51.062    20301966.640    84379204.474 8       340.317          50.812
R21  20949704.600   112106099.390 7      1653.814          45.312    20949703.560   112106099.383 7      1653.814          44.625    20949714.740    87193680.156 7      1286.300          42.812    20949714.840    87193680.169 7      1286.300          43.000
G10  23663887.160   124354562.146 7      -244.985          46.062    23663886.400   124354562.143 6      -244.985          40.250    23663896.000    96899700.009 6      -190.898          40.500    23663896.100    96899700.005 7      -190.898          42.125
G03  23438963.160   123172572.142 7      6156.400          46.125    23438963.120   123172572.145 5      6156.400          31.687    23438981.300    95978695.036 5      4797.195          31.687    23438982.180    95978712.050 7      4797.195          45.375
R22  21703820.060   115856474.085 6      3538.193          40.250    21703819.660   115856474.088 6      3538.193          40.312    21703842.940    90110625.223 4      2751.928          25.437    21703840.860    90110663.242 4      2751.928          24.250
G08  20808788.880   109350926.923 8      2588.048          48.500    20808787.280   109350926.930 7      2588.048          47.875    20808795.080    85208537.158 7      2016.661          47.375    20808796.440    85208555.167 8      2016.661          49.750
G02  21600666.260   113512270.817 7      2760.126          43.500    21600664.560   113512270.835 5      2760.126          33.125    21600668.880    88451125.021 5      2150.748          32.812
G27  22047621.740   115861033.169 6       889.550          41.687    22047620.080   115861033.179 5       889.550          32.250    22047633.920    90281355.246 5       693.156          32.312    22047633.160    90281359.243 6       693.156          39.187
G21  20893113.300   109794051.782 8      1767.642          48.625    20893111.580   109794051.782 6      1767.642          38.625    20893115.720    85553817.064 6      1377.383          38.750
> 2024 05 08 13 51  9.0000000  0 14
R07  23479737.080   125688878.435 6      6336.243          39.625    23479737.160   125688878.461 6      6336.243          38.500    23479761.440    97758114.601 7      4928.189          44.125    23479761.580    97758114.601 7      4928.189          44.312
G16  23219797.340   122020856.367 6      -904.042          40.937    23219793.980   122020856.385 4      -904.042          27.812    23219810.820    95081234.687 4      -704.449          27.875
R12  21908348.980   117030470.976 6      4705.945          38.000    21908345.520   117030470.953 6      4705.945          39.125    21908360.600    91023744.324 7      3660.179          43.000    21908360.580    91023747.322 7      3660.179          43.000
R05  23226167.980   124157190.119 6      1054.106          38.750    23226170.640   124157190.123 6      1054.106          39.062    23226185.780    96566761.684 7       819.860          45.000    23226185.520    96566763.683 7       819.860          45.000
R10  23142188.240   123360885.419 6     -1829.691          36.187    23142183.600   123360885.428 6     -1829.691          36.312
R11  20301874.760   108487063.431 8       436.547          51.000    20301874.220   108487063.432 8       436.547          50.000    20301885.420    84378862.687 8       339.537          51.000    20301884.660    84378864.687 8       339.537          51.375
R21  20949395.960   112104445.857 7      1653.584          45.250    20949394.260   112104445.856 7      1653.584          44.625    20949406.040    87192394.086 7      1286.121          42.937    20949405.740    87192394.094 7      1286.121          43.250
G10  23663933.820   124354807.606 7      -245.508          46.125    23663933.140   124354807.600 6      -245.508          40.875    23663942.720    96899891.273 6      -191.305          41.187    23663943.120    96899891.267 7      -191.305          42.125
G03  23437791.580   123166416.065 7      6156.015          46.375    23437791.660   123166416.065 5      6156.015          32.250    23437809.980    95973898.103 5      4796.895          31.687    23437810.600    95973915.122 7      4796.895          45.437
R22  21703157.260   115852936.310 6      3537.846          41.187    21703157.340   115852936.318 6      3537.846          41.187    21703179.540    90107873.641 4      2751.658          25.437    21703177.380    90107911.666 4      2751.658          24.125
G08  20808296.540   109348339.259 7      2587.626          47.625    20808294.740   109348339.269 7      2587.626          47.250    20808302.700    85206520.799 7      2016.332          47.187    20808303.880    85206538.808 8      2016.332          49.562
G02  21600141.240   113509511.070 7      2759.612          43.250    21600139.380   113509511.088 5      2759.612          33.125    21600143.620    88448974.568 5      2150.347          32.812
G27  22047452.720   115860144.101 6       889.105          41.375    22047450.940   115860144.114 5       889.105          32.000    22047464.860    90280662.466 5       692.809          32.187    22047463.880    90280666.461 6       692.809          39.187
G21  20892776.900   109792284.477 8      1767.223          48.000    20892775.320   109792284.476 6      1767.223          39.125    20892779.360    85552439.945 6      1377.057          38.812
> 2024 05 08 13 51 10.0000000  0 14
R07  23478553.600   125682542.120 6      6336.153          39.625    23478553.840   125682542.143 6      6336.153          38.500    23478577.500    97753186.347 7      4928.119          44.125    23478577.740    97753186.347 7      4928.119          44.375
G16  23219969.260   122021760.735 6      -904.653          40.187    23219966.320   122021760.753 4      -904.653          27.687    23219983.000    95081939.373 4      -704.925          27.625
R12  21907468.000   117025765.393 6      4705.049          38.812    21907464.960   117025765.378 6      4705.049          39.125    21907479.540    91020084.432 7      3659.482          43.187    21907479.400    91020087.430 7      3659.482          43.187
R05  23225971.440   124156136.455 6      1053.167          38.750    23225973.500   124156136.446 6      1053.167          39.062    23225988.700    96565942.156 7       819.130          44.562    23225988.360    96565944.161 7       819.130          45.250
R10  23142530.860   123362715.295 6     -1830.180          36.187    23142527.200   123362715.274 6     -1830.180          36.312
R11  20301793.160   108486627.375 8       435.410          49.375    20301792.440   108486627.376 8       435.410          49.125    20301803.780    84378523.530 8       338.652          51.250    20301803.040    84378525.532 8       338.652          51.437
R21  20949086.700   112102792.443 7      1653.054          45.062    20949085.400   112102792.437 7      1653.054          44.625    20949096.560    87191108.086 7      1285.709          43.062    20949097.060    87191108.099 7      1285.709          43.250
G10  23663980.680   124355053.489 7      -246.262          45.687    23663979.880   124355053.486 6      -246.262          40.375    23663989.420    96900082.866 6      -191.893          40.375    23663989.540    96900082.856 7      -191.893          42.312
G03  23436620.160   123160260.178 7      6155.567          45.187    23436620.300   123160260.180 5      6155.567          32.250    23436638.480    95969101.320 5      4796.546          32.187    23436639.300    95969118.336 7      4796.546          45.500
R22  21702494.320   115849398.751 6      3537.203          41.187    21702494.680   115849398.746 6      3537.203          41.187    21702517.280    90105122.196 4      2751.158          25.437
G08  20807804.260   109345751.929 8      2586.959          48.062    20807802.380   109345751.934 7      2586.959          46.312    20807810.420    85204504.692 7      2015.812          46.625    20807811.460    85204522.703 8      2015.812          49.687
G02  21599616.320   113506751.640 7      2758.939          43.625    21599614.260   113506751.653 5      2758.939          33.187    21599618.560    88446824.357 5      2149.822          33.125
G27  22047282.960   115859255.330 6       888.417          41.187    22047281.840   115859255.340 5       888.417          32.000    22047295.800    90279969.911 5       692.273          32.187    22047294.740    90279973.900 6       692.273          39.062
G21  20892440.720   109790517.482 7      1766.669          47.375    20892439.160   109790517.484 6      1766.669          38.625    20892443.080    85551063.064 6      1376.625          38.875
> 2024 05 08 13 51 11.0000000  0 14
R07  23477369.840   125676205.938 6      6336.407          39.500    23477370.460   125676205.958 6      6336.407          38.500    23477394.040    97748258.206 7      4928.317          44.312    23477394.100    97748258.200 7      4928.317          44.437
G16  23220141.220   122022665.510 6      -904.713          40.687    23220138.500   122022665.530 4      -904.713          27.687    23220155.080    95082644.378 4      -704.971          27.625
R12  21906586.880   117021060.799 6      4704.190          38.812    21906584.140   117021060.802 6      4704.190          39.000    21906598.960    91016425.315 7      3658.814          42.875    21906598.640    91016428.311 7      3658.814          43.375
R05  23225774.400   124155083.712 6      1052.602          38.875    23225776.800   124155083.702 6      1052.602          39.062    23225791.980    96565123.357 7       818.690          44.437    23225791.460    96565125.356 7       818.690          45.312
R10  23142873.980   123364545.354 6     -1830.099          36.187    23142869.720   123364545.357 6     -1830.099          36.312
R11  20301711.800   108486192.275 8       434.814          49.187    20301711.040   108486192.276 8       434.814          48.437    20301722.540    84378185.115 8       338.189          51.187    20301721.760    84378187.115 8       338.189          51.187
R21  20948777.440   112101139.219 7      1653.353          43.562    20948776.160   112101139.215 7      1653.353          42.812    20948787.700    87189822.251 7      1285.941          42.812    20948788.000    87189822.262 7      1285.941          43.125
G10  23664027.560   124355299.919 7      -246.499          45.562    23664026.600   124355299.916 6      -246.499          40.062    23664036.260    96900274.883 6      -192.077          40.250    23664036.560    96900274.879 7      -192.077          42.312
G03  23435448.980   123154104.660 7      6155.515          44.750    23435448.940   123154104.668 5      6155.515          32.250    23435467.220    95964304.821 5      4796.505          32.187    23435468.060    95964321.844 7      4796.505          45.312
R22  21701831.820   115845861.509 6      3537.128          39.750    21701832.020   115845861.532 6      3537.128          40.312    21701849.640    90102371.046 4      2751.099          25.437
G08  20807311.980   109343165.043 7      2586.841          46.812    20807310.020   109343165.048 7      2586.841          46.312    20807318.120    85202488.937 7      2015.720          46.687    20807319.120    85202506.946 8      2015.720          49.375
G02  21599091.100   113503992.597 7      2759.129          43.437    21599089.300   113503992.609 5      2759.129          33.187    21599093.440    88444674.453 5      2149.971          33.125
G27  22047113.700   115858366.990 6       888.358          40.312    22047112.820   115858367.003 5       888.358          32.000    22047126.840    90279277.692 5       692.227          32.187    22047126.340    90279281.675 6       692.227          39.062
G21  20892104.740   109788750.946 7      1766.525          47.750    20892102.920   109788750.951 6      1766.525          38.312    20892106.900    85549686.547 6      1376.513          38.562
> 2024 05 08 13 51 12.0000000  0 14
R07  23476186.120   125669869.547 6      6336.501          39.500    23476186.900   125669869.584 6      6336.501          38.687    23476210.320    97743329.904 7      4928.390          44.312    23476210.360    97743329.904 7      4928.390          44.812
G16  23220313.560   122023570.395 6      -904.801          40.937    23220310.580   122023570.416 4      -904.801          27.687    23220327.300    95083349.465 4      -705.040          27.625
R12  21905706.620   117016356.805 6      4703.843          38.812    21905703.960   117016356.793 6      4703.843          39.000    21905718.320    91012766.643 7      3658.545          43.062    21905718.340    91012769.648 7      3658.545          43.250
R05  23225577.000   124154031.532 6      1052.262          38.875    23225579.860   124154031.552 6      1052.262          38.312    23225594.660    96564305.020 7       818.426          44.375    23225594.540    96564307.023 7       818.426          45.187
R10  23143217.240   123366375.368 6     -1829.850          36.375    23143213.400   123366375.342 6     -1829.850          36.312
R11  20301630.340   108485757.798 8       434.239          48.625    20301629.520   108485757.801 8       434.239          48.625    20301641.200    84377847.170 8       337.742          50.250    20301640.620    84377849.167 8       337.742          51.250
R21  20948468.760   112099485.965 7      1653.243          44.187    20948466.940   112099485.972 7      1653.243          43.250    20948478.960    87188536.393 7      1285.856          43.312    20948478.980    87188536.404 7      1285.856          43.062
G10  23664074.420   124355546.564 7      -246.709          44.437    23664073.340   124355546.561 6      -246.709          40.625    23664083.040    96900467.072 6      -192.241          40.687    23664083.660    96900467.070 6      -192.241          41.937
G03  23434277.680   123147949.151 7      6155.495          45.875    23434277.560   123147949.156 5      6155.495          32.250    23434296.020    95959508.330 5      4796.490          32.187    23434296.560    95959525.353 7      4796.490          45.062
R22  21701169.520   115842324.324 6      3537.156          39.750    21701169.140   115842324.349 6      3537.156          40.312    21701188.560    90099619.868 4      2751.121          25.437
G08  20806819.420   109340578.294 7      2586.648          47.812    20806817.800   109340578.304 7      2586.648          47.187    20806825.780    85200473.292 7      2015.570          47.000    20806826.920    85200491.301 8      2015.570          49.000
G02  21598566.160   113501233.742 7      2758.816          43.687    21598564.460   113501233.753 5      2758.816          33.187    21598568.520    88442524.699 5      2149.727          32.937
G27  22046944.780   115857478.758 6       888.280          40.125    22046943.760   115857478.773 5       888.280          31.875    22046957.960    90278585.557 5       692.166          32.062    22046956.820    90278589.550 6       692.166          39.062
G21  20891768.420   109786984.529 8      1766.427          48.875    20891766.840   109786984.534 6      1766.427          38.312    20891770.800    85548310.116 6      1376.437          38.562
> 2024 05 08 13 51 13.0000000  0 14
R07  23475002.740   125663533.288 6      6336.304          39.500    23475003.020   125663533.316 6      6336.304          38.687    23475026.340    97738401.700 7      4928.236          44.562    23475026.720    97738401.700 7      4928.236          44.062
G16  23220486.100   122024475.712 6      -905.516          40.562    23220482.880   122024475.730 4      -905.516          27.687    23220499.760    95084054.888 4      -705.597          27.625
R12  21904826.380   117011653.770 6      4702.736          38.812    21904823.900   117011653.747 6      4702.736          39.000    21904837.680    91009108.719 7      3657.684          42.750    21904838.200    91009111.719 7      3657.684          43.812
R05  23225380.960   124152980.421 6      1050.682          38.875    23225383.320   124152980.433 6      1050.682          38.312    23225397.560    96563487.496 7       817.197          44.000    23225397.940    96563489.498 7       817.197          44.875
R10  23143561.220   123368205.644 6     -1830.391          36.375    23143556.640   123368205.626 5     -1830.391          35.937
R11  20301549.400   108485324.266 8       433.212          49.625    20301548.560   108485324.267 8       433.212          48.562    20301560.160    84377509.968 8       336.942          50.062    20301559.460    84377511.966 8       336.942          50.812
R21  20948159.980   112097832.965 7      1653.032          44.187    20948158.060   112097832.956 7      1653.032          43.250    20948169.620    87187250.712 7      1285.692          42.750    20948170.220    87187250.719 7      1285.692          43.000
G10  23664121.320   124355793.777 7      -247.408          45.062    23664120.360   124355793.768 6      -247.408          40.000    23664130.260    96900659.695 6      -192.785          40.250    23664129.980    96900659.685 6      -192.785          41.937
G03  23433106.480   123141794.001 7      6155.003          45.375    23433106.400   123141794.009 5      6155.003          32.250    23433124.660    95954712.122 5      4796.106          32.062    23433125.180    95954729.149 7      4796.106          45.062
R22  21700507.020   115838787.488 6      3536.662          39.750    21700506.160   115838787.495 6      3536.662          40.000    21700528.440    90096868.971 4      2750.737          25.437
G08  20806327.340   109337991.986 8      2586.162          48.000    20806325.780   109337991.991 7      2586.162          46.937    20806333.520    85198457.981 7      2015.191          46.750    20806334.500    85198475.990 8      2015.191          49.375
G02  21598041.140   113498475.322 7      2758.279          43.187    21598039.680   113498475.329 5      2758.279          33.187    21598043.720    88440375.278 5      2149.309          32.937
G27  22046775.800   115856590.972 6       887.636          40.062    22046774.740   115856590.990 5       887.636          31.875    22046789.080    90277893.770 5       691.664          32.062    22046788.400    90277897.779 6       691.664          39.062
G21  20891432.480   109785218.548 8      1765.920          48.312    20891430.860   109785218.548 6      1765.920          38.312    20891434.800    85546934.023 6      1376.041          38.500
> 2024 05 08 13 51 14.0000000  0 14
R07  23473818.880   125657196.951 6      6336.312          39.500    23473819.420   125657196.982 6      6336.312          38.687    23473843.100    97733473.432 7      4928.242          44.750    23473843.560    97733473.428 7      4928.242          45.000
G16  23220658.460   122025381.165 6      -905.535          40.500    23220655.060   122025381.183 4      -905.535          27.687    23220672.100    95084760.418 4      -705.612          27.625
R12  21903945.780   117006951.368 6      4702.103          38.625    21903944.020   117006951.366 6      4702.103          38.687    21903957.600    91005451.307 7      3657.191          42.812    21903957.780    91005454.302 7      3657.191          43.375
R05  23225184.220   124151929.968 6      1050.105          38.875    23225186.200   124151929.972 6      1050.105          38.312    23225201.380    96562670.466 7       816.748          44.500    23225201.540    96562672.475 7       816.748          44.625
R10  23143904.880   123370035.852 6     -1830.094          36.375    23143899.920   123370035.856 5     -1830.094          35.937
R11  20301468.440   108484891.459 8       432.460          49.625    20301467.400   108484891.460 8       432.460          48.250    20301479.020    84377173.338 8       336.358          50.750    20301478.460    84377175.336 8       336.358          51.687
R21  20947851.560   112096179.965 7      1652.902          44.125    20947848.620   112096179.970 7      1652.902          43.187    20947861.160    87185965.061 7      1285.590          42.812    20947861.200    87185965.065 7      1285.590          42.812
G10  23664168.400   124356041.265 7      -247.578          45.562    23664167.560   124356041.257 6      -247.578          39.625    23664177.400    96900852.543 6      -192.918          40.187    23664177.140    96900852.541 6      -192.918          41.812
G03  23431935.000   123135638.946 7      6154.927          45.687    23431935.040   123135638.954 5      6154.927          32.125    23431953.200    95949915.986 5      4796.047          32.062    23431953.380    95949933.008 7      4796.047          45.312
R22  21699844.660   115835250.727 6      3536.764          39.125    21699843.700   115835250.720 6      3536.764          40.000    21699864.720    90094118.192 4      2750.817          25.437
G08  20805835.300   109335405.892 7      2585.977          47.437    20805833.660   109335405.891 7      2585.977          46.812    20805841.460    85196442.836 7      2015.047          46.687    20805842.320    85196460.845 8      2015.047          49.062
G02  21597516.360   113495717.088 7      2758.075          43.937    21597514.680   113495717.093 5      2758.075          33.125    21597518.720    88438226.007 5      2149.149          33.187
G27  22046606.880   115855703.391 6       887.425          39.937    22046605.880   115855703.409 5       887.425          31.875    22046620.100    90277202.142 5       691.500          32.125    22046619.440    90277206.137 6       691.500          39.000
G21  20891096.340   109783452.798 8      1765.633          48.500    20891095.040   109783452.795 6      1765.633          38.375    20891098.580    85545558.112 6      1375.818          38.500
> 2024 05 08 13 51 15.0000000  0 14
R07  23472634.940   125650860.531 6      6336.469          39.875    23472635.200   125650860.570 6      6336.469          38.687    23472659.700    97728545.122 7      4928.365          44.062    23472659.520    97728545.122 7      4928.365          44.625
G16  23220830.220   122026286.855 6      -905.720          40.312    23220827.400   122026286.873 4      -905.720          27.812    23220844.340    95085466.131 4      -705.756          27.625
R12  21903066.420   117002249.687 6      4701.466          38.625    21903063.520   117002249.667 6      4701.466          38.687    21903077.480    91001794.436 7      3656.696          43.000    21903077.520    91001797.428 7      3656.696          42.937
R05  23224988.500   124150880.276 6      1049.429          38.187    23224990.260   124150880.296 6      1049.429          38.312    23225004.720    96561854.054 7       816.223          44.375    23225004.900    96561856.061 7       816.223          44.562
R10  23144247.400   123371866.170 6     -1830.176          36.375    23144243.680   123371866.163 5     -1830.176          35.937
R11  20301387.480   108484459.394 8       431.759          49.625    20301386.780   108484459.395 8       431.759          48.562    20301398.260    84376837.282 8       335.813          51.062    20301397.680    84376839.279 8       335.813          51.250
R21  20947542.200   112094526.958 7      1653.202          43.000    20947539.860   112094526.954 7      1653.202          42.812    20947552.340    87184679.388 7      1285.824          43.187    20947552.400    87184679.394 7      1285.824          43.250
G10  23664215.700   124356289.108 7      -247.891          45.437    23664214.620   124356289.103 6      -247.891          39.687    23664224.460    96901045.667 6      -193.162          40.000    23664224.440    96901045.668 6      -193.162          41.812
G03  23430763.640   123129484.020 7      6155.001          45.187    23430763.680   123129484.025 5      6155.001          32.125    23430781.920    95945119.950 5      4796.105          32.062    23430782.640    95945136.974 7      4796.105          45.187
R22  21699182.220   115831714.129 6      3536.591          39.125    21699181.000   115831714.114 6      3536.591          40.000
G08  20805342.940   109332820.020 7      2585.849          46.812    20805341.500   109332820.027 7      2585.849          46.625    20805349.440    85194427.877 7      2014.948          46.375    20805350.120    85194445.889 8      2014.948          49.437
G02  21596991.580   113492959.085 7      2758.036          44.500    21596989.840   113492959.090 5      2758.036          33.125    21596993.920    88436076.914 5      2149.119          33.187
G27  22046437.780   115854816.029 6       887.243          39.937    22046436.920   115854816.042 5       887.243          32.250    22046451.180    90276510.683 5       691.358          32.125    22046451.100    90276514.677 6       691.358          39.000
G21  20890760.360   109781687.262 7      1765.456          47.937    20890759.040   109781687.261 6      1765.456          38.625    20890762.680    85544182.371 6      1375.680          38.625
> 2024 05 08 13 51 16.0000000  0 14
R07  23471450.560   125644524.079 6      6336.329          39.875    23471452.040   125644524.102 6      6336.329          38.562    23471475.900    97723616.753 7      4928.256          44.937    23471475.980    97723616.756 7      4928.256          45.312
G16  23221002.780   122027192.720 6      -906.139          41.062    23220999.680   122027192.741 4      -906.139          27.812    23221016.820    95086171.982 4      -706.082          27.687
R12  21902186.320   116997548.685 6      4700.530          38.625    21902183.760   116997548.659 6      4700.530          38.687    21902197.380    90998138.089 7      3655.968          43.000    21902197.560    90998141.091 7      3655.968          43.250
R05  23224791.660   124149831.309 6      1048.564          38.187    23224794.600   124149831.335 6      1048.564          37.875    23224808.640    96561038.203 7       815.550          44.625    23224808.820    96561040.202 7       815.550          44.312
R10  23144590.780   123373696.496 6     -1830.423          36.375    23144586.800   123373696.492 5     -1830.423          35.937
R11  20301306.700   108484028.056 8       430.843          49.562    20301306.180   108484028.057 8       430.843          48.125    20301317.380    84376501.791 8       335.100          50.812    20301317.000    84376503.790 8       335.100          51.000
R21  20947233.400   112092873.996 7      1652.714          43.750    20947231.000   112092873.986 7      1652.714          42.812    20947243.360    87183393.749 7      1285.444          43.000    20947243.500    87183393.753 7      1285.444          43.062
G10  23664263.100   124356537.285 7      -248.436          45.937    23664261.740   124356537.280 6      -248.436          39.375    23664271.500    96901239.048 6      -193.586          39.750    23664271.020    96901239.042 6      -193.586          41.562
G03  23429592.460   123123329.231 7      6154.622          45.625    23429592.520   123123329.233 5      6154.622          32.125    23429610.720    95940324.018 5      4795.809          31.937    23429611.380    95940341.049 7      4795.809          45.187
R22  21698519.400   115828177.625 6      3536.304          39.125    21698518.260   115828177.612 6      3536.304          40.062
G08  20804851.180   109330234.401 7      2585.439          47.125    20804849.340   109330234.400 7      2585.439          46.750    20804857.480    85192413.101 7      2014.628          46.750    20804858.160    85192431.114 8      2014.628          49.312
G02  21596466.660   113490201.326 7      2757.515          44.125    21596465.160   113490201.339 5      2757.515          33.062    21596469.060    88433928.011 5      2148.713          33.187
G27  22046269.140   115853928.858 6       886.918          40.562    22046268.000   115853928.868 5       886.918          32.250    22046282.440    90275819.374 5       691.105          32.125    22046282.280    90275823.367 6       691.105          39.000
G21  20890424.300   109779921.935 8      1765.124          48.375    20890423.040   109779921.932 6      1765.124          38.375    20890426.820    85542806.794 6      1375.421          38.437
> 2024 05 08 13 51 17.0000000  0 14
R07  23470267.080   125638187.835 6      6336.518          39.875    23470268.480   125638187.861 6      6336.518          38.562    23470292.080    97718688.574 7      4928.403          44.687    23470292.360    97718688.572 7      4928.403          45.437
G16  23221174.860   122028099.140 6      -906.286          40.812    23221172.240   122028099.156 4      -906.286          27.812    23221189.400    95086878.267 4      -706.197          27.687
R12  21901306.220   116992848.695 6      4700.004          38.625    21901304.040   116992848.672 6      4700.004          38.687    21901317.480    90994482.549 7      3655.559          42.562    21901317.680    90994485.547 7      3655.559          43.375
R05  23224595.340   124148783.451 6      1048.004          38.187    23224599.180   124148783.461 6      1048.004          37.875    23224612.580    96560223.182 7       815.114          44.187    23224612.780    96560225.184 7       815.114          45.000
R10  23144934.900   123375527.225 6     -1830.581          36.375    23144931.400   123375527.223 5     -1830.581          35.937
R11  20301226.280   108483597.766 8       430.287          49.062    20301225.720   108483597.767 8       430.287          48.687    20301237.000    84376167.116 8       334.667          50.875    20301236.540    84376169.116 8       334.667          51.375
R21  20946924.600   112091221.376 7      1652.776          43.750    20946921.960   112091221.367 7      1652.776          42.187    20946934.460    87182108.376 7      1285.492          43.500    20946934.820    87182108.382 7      1285.492          43.125
G10  23664310.320   124356786.098 7      -248.604          45.687    23664309.080   124356786.095 6      -248.604          39.937    23664318.840    96901432.924 6      -193.717          40.000    23664319.040    96901432.928 6      -193.717          41.562
G03  23428421.140   123117174.904 7      6154.489          45.437    23428421.460   123117174.911 5      6154.489          32.000    23428439.580    95935528.455 5      4795.705          31.937    23428440.640    95935545.488 7      4795.705          45.062
R22  21697857.080   115824641.595 6      3536.281          38.750    21697856.020   115824641.567 6      3536.281          40.062
G08  20804359.200   109327649.341 7      2585.255          47.375    20804357.460   109327649.348 7      2585.255          46.500    20804365.420    85190398.773 7      2014.484          46.812    20804366.260    85190416.782 8      2014.484          49.375
G02  21595942.160   113487444.127 7      2757.311          44.500    21595940.540   113487444.138 5      2757.311          33.062    21595944.140    88431779.546 5      2148.554          32.875
G27  22046100.680   115853042.239 6       886.877          40.062    22046099.100   115853042.252 5       886.877          32.250    22046113.860    90275128.490 5       691.073          32.000    22046112.600    90275132.499 6       691.073          39.500
G21  20890088.620   109778157.191 7      1764.901          47.937    20890087.220   109778157.188 6      1764.901          38.500    20890090.940    85541431.665 6      1375.248          38.500
> 2024 05 08 13 51 18.0000000  0 14
R07  23469083.440   125631851.437 6      6336.505          39.937    23469084.220   125631851.476 6      6336.505          38.562    23469108.920    97713760.268 7      4928.392          45.062    23469108.600    97713760.269 7      4928.392          44.687
G16  23221347.580   122029005.681 6      -906.480          40.000    23221344.640   122029005.697 4      -906.480          27.812    23221361.860    95087584.646 4      -706.348          27.687
R12  21900426.920   116988149.404 6      4699.248          38.625    21900424.420   116988149.357 6      4699.248          39.125    21900437.900    90990827.529 7      3654.970          43.062    21900438.100    90990830.527 7      3654.970          42.875
R05  23224399.380   124147736.299 6      1046.665          38.187    23224402.820   124147736.311 6      1046.665          37.875    23224416.580    96559408.734 7       814.073          44.187    23224416.820    96559410.743 7       814.073          44.625
R10  23145278.040   123377357.908 6     -1830.790          36.000    23145274.900   123377357.925 5     -1830.790          35.937
R11  20301145.920   108483168.197 8       429.290          49.437    20301145.360   108483168.198 8       429.290          48.125    20301156.580    84375832.992 8       333.893          51.000    20301156.080    84375834.992 8       333.893          51.625
R21  20946616.240   112089568.775 7      1652.695          43.375    20946612.820   112089568.758 7      1652.695          42.187    20946625.780    87180823.011 7      1285.430          43.187    20946625.880    87180823.015 7      1285.430          43.250
G10  23664357.740   124357035.231 7      -249.177          46.312    23664356.400   124357035.228 6      -249.177          39.500    23664366.180    96901627.056 6      -194.164          40.000    23664366.820    96901627.058 6      -194.164          41.562
G03  23427250.240   123111020.661 7      6154.254          45.562    23427250.200   123111020.668 5      6154.254          32.000    23427268.520    95930732.953 5      4795.523          32.375    23427269.540    95930749.982 7      4795.523          45.375
R22  21697194.780   115821105.632 6      3535.935          38.750    21697194.120   115821105.620 6      3535.935          39.750
G08  20803867.320   109325064.486 7      2584.799          47.125    20803865.640   109325064.486 7      2584.799          47.000    20803873.560    85188384.592 7      2014.129          47.000    20803874.320    85188402.601 8      2014.129          49.062
G02  21595417.520   113484687.094 7      2757.082          44.312    21595415.900   113484687.104 5      2757.082          33.062    21595419.500    88429631.209 5      2148.376          32.875
G27  22045932.160   115852155.822 6       886.430          40.250    22045930.420   115852155.838 5       886.430          32.125    22045945.200    90274437.774 5       690.724          32.000    22045944.300    90274441.787 6       690.724          39.500
G21  20889752.880   109776392.624 8      1764.539          48.062    20889751.340   109776392.626 6      1764.539          37.937    20889755.240    85540056.679 6      1374.965          38.437
> 2024 05 08 13 51 19.0000000  0 14
R07  23467899.680   125625514.966 6      6336.334          39.937    23467901.340   125625514.989 6      6336.334          38.562    23467925.040    97708831.894 7      4928.260          44.625    23467925.220    97708831.896 7      4928.260          44.812
G16  23221519.940   122029912.451 6      -906.940          40.687    23221517.080   122029912.469 4      -906.940          27.812    23221534.320    95088291.206 4      -706.706          27.687
R12  21899546.860   116983450.806 6      4698.058          38.625    21899545.220   116983450.794 6      4698.058          39.125    21899557.700    90987173.088 7      3654.045          43.187    21899558.560    90987176.085 7      3654.045          43.437
R05  23224202.980   124146689.775 6      1046.041          38.937    23224206.100   124146689.765 6      1046.041          37.875    23224220.840    96558594.763 7       813.587          44.062    23224221.060    96558596.769 7       813.587          44.750
R10  23145621.840   123379188.634 6     -1830.894          36.000    23145618.200   123379188.621 6     -1830.894          36.062
R11  20301065.900   108482739.330 8       428.391          50.250    20301065.400   108482739.334 8       428.391          48.875    20301076.100    84375499.427 8       333.193          50.812    20301075.900    84375501.423 8       333.193          51.125
R21  20946307.800   112087916.235 7      1652.389          42.312    20946303.880   112087916.229 7      1652.389          42.500    20946316.920    87179537.709 7      1285.192          43.312    20946317.060    87179537.713 7      1285.192          43.500
G10  23664405.160   124357284.691 7      -249.794          46.000    23664403.860   124357284.690 6      -249.794          39.687    23664413.720    96901821.436 6      -194.645          40.250    23664413.800    96901821.434 6      -194.645          41.312
G03  23426079.280   123104866.539 7      6153.896          45.875    23426079.220   123104866.544 5      6153.896          32.000    23426097.400    95925937.546 5      4795.244          32.375    23426098.220    95925954.578 7      4795.244          45.125
R22  21696531.920   115817569.784 6      3535.611          38.312    21696531.460   115817569.774 6      3535.611          39.750
G08  20803375.500   109322479.844 7      2584.360          47.000    20803373.800   109322479.847 7      2584.360          46.875    20803381.840    85186370.587 7      2013.787          46.500    20803382.720    85186388.593 8      2013.787          49.375
G02  21594892.980   113481930.300 7      2756.542          43.750    21594891.240   113481930.315 5      2756.542          33.125    21594894.980    88427483.061 5      2147.955          33.000
G27  22045763.400   115851269.621 6       885.923          40.187    22045761.840   115851269.628 5       885.923          32.125    22045776.500    90273747.217 5       690.329          32.000    22045776.020    90273751.226 6       690.329          39.500
G21  20889416.960   109774628.262 8      1764.176          48.125    20889415.440   109774628.259 6      1764.176          38.500    20889419.360    85538681.847 6      1374.683          38.750
> 2024 05 08 13 51 20.0000000  0 14
R07  23466715.940   125619178.498 6      6336.512          39.937    23466717.640   125619178.537 6      6336.512          39.000    23466741.440    97703903.544 7      4928.398          44.687    23466741.560    97703903.544 7      4928.398          45.187
G16  23221692.760   122030819.546 6      -907.142          40.437    23221689.740   122030819.561 4      -907.142          27.812    23221707.060    95088998.011 4      -706.864          27.687
R12  21898667.380   116978753.049 6      4697.319          39.250    21898665.560   116978753.034 6      4697.319          39.437    21898678.740    90983519.267 7      3653.471          42.625    21898679.300    90983522.253 7      3653.471          43.312
R05  23224008.020   124145644.082 6      1045.458          38.937    23224009.320   124145644.083 6      1045.458          37.750    23224024.900    96557781.446 7       813.134          44.187    23224025.620    96557783.448 7       813.134          44.437
R10  23145966.060   123381019.490 6     -1830.939          36.000    23145961.500   123381019.493 6     -1830.939          36.062
R11  20300985.600   108482311.354 8       427.669          49.312    20300985.200   108482311.357 8       427.669          48.437    20300996.020    84375166.548 8       332.631          50.937    20300995.840    84375168.548 8       332.631          51.312
R21  20945998.420   112086263.824 7      1652.546          42.312    20945994.940   112086263.818 7      1652.546          42.000    20946007.980    87178252.500 7      1285.314          43.312    20946008.360    87178252.502 7      1285.314          43.250
G10  23664452.760   124357534.570 7      -250.018          45.562    23664451.340   124357534.564 6      -250.018          39.687    23664461.140    96902016.139 6      -194.819          39.875    23664461.580    96902016.135 6      -194.819          41.312
G03  23424908.180   123098712.669 7      6153.864          45.687    23424908.080   123098712.676 5      6153.864          32.187    23424926.340    95921142.333 5      4795.218          32.375    23424927.220    95921159.367 7      4795.218          45.187
R22  21695869.420   115814034.219 6      3535.434          38.312    21695868.880   115814034.201 6      3535.434          39.750
G08  20802883.800   109319895.560 7      2584.149          47.687    20802882.040   109319895.567 7      2584.149          46.875    20802890.100    85184356.859 7      2013.622          46.687    20802891.160    85184374.868 8      2013.622          49.250
G02  21594368.880   113479173.866 7      2756.365          43.812    21594366.840   113479173.881 5      2756.365          33.125    21594370.420    88425335.190 5      2147.817          33.000
G27  22045595.020   115850383.714 6       885.791          39.625    22045593.360   115850383.727 5       885.791          32.250    22045607.920    90273056.900 5       690.227          32.250    22045606.960    90273060.923 6       690.227          39.875
G21  20889081.240   109772864.262 8      1763.839          48.187    20889079.940   109772864.262 6      1763.839          38.125    20889083.800    85537307.306 6      1374.420          38.375
> 2024 05 08 13 51 21.0000000  0 14
R07  23465532.040   125612842.080 6      6336.357          40.562    23465534.380   125612842.106 6      6336.357          39.000    23465557.820    97698975.215 7      4928.278          45.125    23465557.780    97698975.218 7      4928.278          45.687
G16  23221865.520   122031726.894 6      -907.472          41.375    23221862.280   122031726.909 4      -907.472          27.937    23221879.680    95089705.018 4      -707.121          27.875
R12  21897788.320   116974056.031 6      4696.588          39.250    21897786.960   116974056.022 6      4696.588          39.437    21897799.480    90979866.033 7      3652.902          42.875    21897799.900    90979869.025 7      3652.902          43.375
R05  23223812.480   124144599.217 6      1044.474          38.937    23223814.140   124144599.213 6      1044.474          37.750    23223829.580    96556968.774 7       812.368          44.250    23223830.060    96556970.782 7       812.368          44.437
R10  23146308.520   123382850.440 6     -1831.169          36.000    23146305.200   123382850.448 6     -1831.169          36.062
R11  20300905.720   108481884.186 8       426.663          50.375    20300905.440   108481884.193 8       426.663          48.375    20300916.120    84374834.307 8       331.849          50.875    20300915.700    84374836.305 8       331.849          51.500
R21  20945689.580   112084611.512 7      1652.135          42.437    20945686.420   112084611.506 7      1652.135          42.000    20945699.360    87176967.366 7      1284.994          43.000    20945699.560    87176967.367 7      1284.994          42.937
G10  23664500.220   124357784.886 7      -250.600          44.937    23664498.980   124357784.883 6      -250.600          39.250    23664508.740    96902211.190 6      -195.273          39.812    23664509.280    96902211.186 6      -195.273          40.937
G03  23423737.280   123092559.025 7      6153.473          45.812    23423737.160   123092559.032 5      6153.473          32.187    23423755.500    95916347.296 5      4794.914          32.125    23423756.660    95916364.318 7      4794.914          44.937
R22  21695207.600   115810498.838 6      3535.157          38.312    21695206.840   115810498.815 6      3535.157          39.937                                                                    21695229.980    90074917.216 3      2749.567          23.687
G08  20802391.840   109317311.601 7      2583.689          47.437    20802390.320   109317311.601 7      2583.689          46.937    20802398.340    85182343.377 7      2013.264          46.562    20802399.440    85182361.384 8      2013.264          49.375
G02  21593844.020   113476417.736 7      2755.899          43.812    21593842.280   113476417.751 5      2755.899          32.875    21593846.060    88423187.557 5      2147.454          33.000
G27  22045426.540   115849498.154 6       885.321          39.500    22045424.620   115849498.166 5       885.321          32.250    22045439.360    90272366.847 5       689.861          32.250    22045438.840    90272370.858 6       689.861          39.875
G21  20888745.480   109771100.564 8      1763.448          48.062    20888744.420   109771100.564 6      1763.448          38.625    20888748.000    85535932.994 6      1374.116          38.625
> 2024 05 08 13 51 22.0000000  0 14
R07  23464348.720   125606505.714 6      6336.284          40.562    23464350.640   125606505.742 6      6336.284          39.000    23464374.040    97694046.928 7      4928.221          45.000    23464374.380    97694046.931 7      4928.221          45.000
G16  23222038.560   122032634.619 6      -908.058          40.625    23222035.020   122032634.635 4      -908.058          27.937    23222052.480    95090412.323 4      -707.578          27.875
R12  21896909.240   116969359.893 6      4695.660          40.437    21896908.220   116969359.875 6      4695.660          39.437    21896920.420    90976213.477 7      3652.180          42.750    21896920.680    90976216.467 7      3652.180          43.562
R05  23223617.200   124143555.224 6      1043.458          37.875    23223618.420   124143555.217 6      1043.458          37.750    23223634.220    96556156.777 7       811.579          43.875    23223634.660    96556158.786 7       811.579          44.375
R10  23146652.660   123384681.555 6     -1831.230          36.000    23146649.600   123384681.553 6     -1831.230          36.062
R11  20300825.720   108481457.848 8       425.836          50.125    20300825.720   108481457.851 8       425.836          48.687    20300836.320    84374502.700 8       331.206          50.062    20300835.960    84374504.700 8       331.206          50.812
R21  20945380.840   112082959.272 7      1652.072          42.437    20945377.320   112082959.269 7      1652.072          42.187    20945390.600    87175682.293 7      1284.945          42.875    20945390.660    87175682.291 7      1284.945          43.125
G10  23664548.080   124358035.651 7      -251.110          46.000    23664546.620   124358035.651 6      -251.110          39.687    23664556.420    96902406.593 6      -195.670          39.750    23664556.260    96902406.591 6      -195.670          40.937
G03  23422566.180   123086405.636 7      6153.148          45.750    23422566.460   123086405.641 5      6153.148          32.312    23422584.400    95911552.457 5      4794.661          32.125    23422585.580    95911569.478 7      4794.661          45.187
R22  21694545.140   115806963.726 6      3534.771          38.812    21694544.860   115806963.698 6      3534.771          39.937                                                                    21694566.480    90072167.735 3      2749.266          23.625
G08  20801900.340   109314727.986 7      2583.366          46.937    20801898.720   109314727.991 7      2583.366          47.125    20801906.720    85180330.172 7      2013.012          46.750    20801907.820    85180348.178 8      2013.012          48.937
G02  21593319.600   113473661.956 7      2755.551          44.375    21593318.020   113473661.966 5      2755.551          32.875    21593321.740    88421040.196 5      2147.183          32.687
G27  22045258.080   115848612.922 6       885.024          39.500    22045255.920   115848612.935 5       885.024          32.250    22045271.060    90271677.048 5       689.629          32.250    22045270.700    90271681.053 6       689.629          39.875
G21  20888410.120   109769337.227 7      1762.973          47.250    20888408.760   109769337.229 6      1762.973          37.812    20888412.520    85534558.965 6      1373.745          38.125
> 2024 05 08 13 51 23.0000000  0 14
R07  23463165.040   125600169.433 6      6336.527          41.125    23463167.220   125600169.448 6      6336.527          39.000    23463190.380    97689118.704 7      4928.410          44.437    23463190.460    97689118.706 7      4928.410          44.937
G16  23222211.320   122033542.637 6      -907.804          40.625    23222207.740   122033542.655 4      -907.804          27.937    23222225.400    95091119.851 4      -707.380          27.875
R12  21896029.840   116964664.598 6      4695.130          40.437    21896029.060   116964664.583 6      4695.130          39.687    21896041.380    90972561.581 7      3651.768          42.937    21896041.700    90972564.579 7      3651.768          43.250
R05  23223422.200   124142512.142 6      1042.940          37.875    23223423.100   124142512.114 6      1042.940          37.750    23223439.340    96555345.479 7       811.175          43.750    23223439.580    96555347.481 7       811.175          44.000
R10  23146996.100   123386512.838 6     -1830.971          36.937    23146992.720   123386512.828 6     -1830.971          36.062
R11  20300746.020   108481032.407 8       425.225          50.062    20300745.920   108481032.410 8       425.225          48.187    20300756.820    84374171.803 8       330.731          49.750    20300756.280    84374173.807 8       330.731          49.812
R21  20945072.120   112081307.284 6      1652.180          41.687    20945068.620   112081307.280 7      1652.180          42.187    20945082.000    87174397.415 7      1285.029          43.187    20945081.900    87174397.414 7      1285.029          43.125
G10  23664595.960   124358286.894 7      -251.161          45.750    23664594.280   124358286.894 6      -251.161          39.187    23664604.260    96902602.359 6      -195.710          39.625    23664603.960    96902602.359 6      -195.710          41.125
G03  23421395.320   123080252.517 7      6153.304          45.875    23421395.620   123080252.522 5      6153.304          32.312    23421413.480    95906757.824 5      4794.782          32.125    23421413.960    95906774.852 7      4794.782          44.812
R22  21693882.980   115803428.871 6      3534.956          38.812    21693882.680   115803428.848 6      3534.956          40.375
G08  20801408.960   109312144.763 7      2583.387          47.625    20801407.320   109312144.771 7      2583.387          46.500    20801415.140    85178317.276 7      2013.029          46.250    20801416.040    85178335.277 8      2013.029          48.937
G02  21592795.200   113470906.575 7      2755.406          44.250    21592793.820   113470906.586 5      2755.406          32.687    21592797.420    88418893.144 5      2147.070          32.687
G27  22045089.720   115847728.066 6       884.910          39.187    22045087.440   115847728.084 5       884.910          32.000    22045102.760    90270987.547 5       689.541          32.062    22045103.220    90270991.565 6       689.541          40.250
G21  20888074.580   109767574.254 7      1763.077          47.687    20888073.220   109767574.251 6      1763.077          37.812    20888077.000    85533185.216 6      1373.826          37.812
> 2024 05 08 13 51 24.0000000  0 14
R07  23461981.400   125593832.954 6      6336.613          41.125    23461983.200   125593832.972 6      6336.613          39.250    23462006.960    97684190.335 7      4928.477          45.000    23462007.000    97684190.340 7      4928.477          45.062
G16  23222384.020   122034450.844 6      -908.277          40.500    23222380.700   122034450.870 4      -908.277          27.937    23222398.460    95091827.528 4      -707.749          27.875
R12  21895151.000   116959969.936 6      4694.376          40.437    21895150.120   116959969.911 6      4694.376          39.687    21895162.420    90968910.169 7      3651.181          43.000    21895162.800    90968913.163 7      3651.181          43.375
R05  23223227.440   124141469.732 6      1041.991          37.875    23223228.000   124141469.712 6      1041.991          37.562    23223244.160    96554534.719 7       810.438          43.562    23223244.440    96554536.725 7       810.438          43.875
R10  23147340.460   123388344.086 6     -1831.196          36.937    23147336.380   123388344.078 6     -1831.196          36.937
R11  20300666.680   108480607.615 8       424.496          49.625    20300666.360   108480607.618 8       424.496          48.375    20300677.300    84373841.403 8       330.163          50.812    20300676.820    84373843.405 8       330.163          50.937
R21  20944762.780   112079655.315 6      1651.966          41.687    20944759.940   112079655.316 7      1651.966          42.062    20944773.220    87173112.552 7      1284.863          43.062    20944773.400    87173112.553 7      1284.863          42.937
G10  23664643.900   124358538.426 7      -251.668          45.937    23664642.180   124358538.426 6      -251.668          38.812    23664652.160    96902798.356 6      -196.105          39.062    23664651.980    96902798.356 6      -196.105          41.125
G03  23420224.240   123074099.488 7      6152.945          46.312    23420224.960   123074099.493 5      6152.945          32.312    23420242.420    95901963.266 5      4794.503          32.312    23420243.260    95901980.294 7      4794.503          45.125
R22  21693220.960   115799894.075 6      3534.769          39.250    21693220.400   115799894.052 6      3534.769          40.375                                                                    21693243.660    90066669.154 3      2749.265          23.125
G08  20800917.280   109309561.727 7      2583.007          47.625    20800915.560   109309561.729 7      2583.007          46.625    20800923.680    85176304.514 7      2012.733          46.625    20800924.540    85176322.515 8      2012.733          49.062
G02  21592271.080   113468151.345 7      2755.099          44.437    21592269.580   113468151.355 5      2755.099          32.687    21592272.900    88416746.215 5      2146.831          32.687
G27  22044921.120   115846843.378 6       884.588          39.187    22044919.140   115846843.396 5       884.588          32.000    22044934.380    90270298.180 5       689.289          32.062    22044934.700    90270302.189 6       689.289          40.250
G21  20887739.200   109765811.463 8      1762.656          48.437    20887737.760   109765811.457 6      1762.656          38.125    20887741.500    85531811.615 6      1373.498          38.250
> 2024 05 08 13 51 25.0000000  0 14
R07  23460797.520   125587496.619 6      6336.292          41.125    23460799.800   125587496.656 6      6336.292          39.250    23460823.020    97679262.088 7      4928.227          44.937    23460823.340    97679262.092 7      4928.227          45.062
G16  23222557.180   122035359.439 6      -908.830          40.500    23222553.600   122035359.465 4      -908.830          27.937    23222571.680    95092535.510 4      -708.179          27.875
R12  21894272.400   116955276.191 6      4693.233          40.500    21894271.380   116955276.173 6      4693.233          39.687    21894283.800    90965259.484 7      3650.292          42.625    21894284.120    90965262.483 7      3650.292          43.125
R05  23223032.460   124140428.254 6      1041.063          37.875    23223033.080   124140428.252 6      1041.063          37.562    23223049.200    96553724.695 7       809.716          44.062    23223049.500    96553726.697 7       809.716          43.687
R10  23147683.680   123390175.601 6     -1831.695          36.937    23147680.120   123390175.596 6     -1831.695          36.937
R11  20300587.220   108480183.814 8       423.242          49.812    20300586.840   108480183.818 8       423.242          48.500    20300597.880    84373511.787 8       329.188          50.750    20300597.400    84373513.787 8       329.188          51.250
R21  20944454.500   112078003.642 7      1651.585          42.187    20944451.740   112078003.633 7      1651.585          42.062    20944464.540    87171827.912 7      1284.566          43.187    20944464.600    87171827.908 7      1284.566          43.312
G10  23664691.860   124358790.500 7      -252.375          45.125    23664690.060   124358790.494 6      -252.375          39.500    23664700.160    96902994.771 6      -196.656          39.500    23664700.480    96902994.773 6      -196.656          41.125
G03  23419053.360   123067946.798 7      6152.440          45.812    23419054.280   123067946.803 5      6152.440          32.125    23419071.540    95897168.970 5      4794.109          32.312    23419072.580    95897185.995 7      4794.109          44.937
R22  21692558.760   115796359.630 6      3534.241          39.250    21692559.400   115796359.613 6      3534.241          40.375                                                                    21692581.900    90063920.125 3      2748.854          23.062
G08  20800425.700   109306979.140 7      2582.355          47.750    20800424.280   109306979.147 7      2582.355          46.500    20800432.300    85174292.108 7      2012.224          46.750    20800433.100    85174310.111 8      2012.224          49.687
G02  21591746.840   113465396.558 7      2754.549          44.750    21591745.560   113465396.565 5      2754.549          33.062    21591748.740    88414599.626 5      2146.402          32.687
G27  22044752.980   115845959.116 6       883.967          38.750    22044750.780   115845959.129 5       883.967          32.000    22044766.300    90269609.132 5       688.805          32.062    22044766.660    90269613.156 6       688.805          40.250
G21  20887404.100   109764049.105 8      1762.115          48.125    20887402.320   109764049.102 6      1762.115          38.500    20887406.100    85530438.347 6      1373.077          38.312
> 2024 05 08 13 51 26.0000000  0 14
R07  23459614.380   125581160.432 6      6336.120          40.812    23459616.300   125581160.466 6      6336.120          39.250    23459639.100    97674333.942 7      4928.093          44.875    23459639.460    97674333.942 7      4928.093          45.437
G16  23222729.980   122036268.448 6      -909.041          40.500    23222726.560   122036268.471 4      -909.041          27.937    23222744.540    95093243.808 4      -708.344          27.875
R12  21893393.960   116950583.338 6      4692.541          40.500    21893393.140   116950583.317 6      4692.541          39.875    21893405.520    90961609.483 7      3649.754          43.187    21893405.460    90961612.481 7      3649.754          43.125
R05  23222837.360   124139387.725 6      1040.187          37.875    23222838.580   124139387.728 6      1040.187          37.562    23222854.580    96552915.401 7       809.035          44.125    23222854.940    96552917.405 7       809.035          44.312
R10  23148026.700   123392007.328 6     -1831.845          36.937    23148023.840   123392007.329 6     -1831.845          36.937
R11  20300508.300   108479760.943 8       422.540          48.625    20300507.620   108479760.939 8       422.540          48.875    20300518.800    84373182.881 8       328.642          50.562    20300518.400    84373184.885 8       328.642          51.437
R21  20944146.100   112076352.135 7      1651.433          42.187    20944143.140   112076352.129 6      1651.433          41.687    20944155.640    87170543.402 7      1284.448          43.000    20944155.700    87170543.407 7      1284.448          42.875
G10  23664739.820   124359043.102 7      -252.871          45.937    23664738.180   124359043.101 6      -252.871          39.125    23664748.000    96903191.603 6      -197.042          39.500    23664748.860    96903191.608 6      -197.042          41.250
G03  23417882.720   123061794.418 7      6152.349          45.062    23417883.340   123061794.423 5      6152.349          32.125    23417900.780    95892374.918 5      4794.038          32.312    23417901.980    95892391.938 7      4794.038          44.937
R22  21691896.840   115792825.501 6      3534.179          39.250    21691897.000   115792825.481 6      3534.179          40.000                                                                    21691920.120    90061171.358 3      2748.806          23.250
G08  20799934.400   109304396.986 7      2582.000          46.625    20799932.940   109304396.991 7      2582.000          46.937    20799940.900    85172280.036 7      2011.948          46.687    20799941.760    85172298.039 8      2011.948          49.312
G02  21591222.440   113462642.183 7      2754.265          44.812    21591221.420   113462642.194 5      2754.265          33.062    21591224.580    88412453.360 5      2146.181          32.875
G27  22044585.440   115845075.256 6       883.724          38.750    22044582.460   115845075.274 5       883.724          31.562    22044598.000    90268920.408 5       688.616          31.562    22044597.960    90268924.423 6       688.616          39.875
G21  20887068.700   109762287.174 7      1761.814          47.375    20887066.940   109762287.176 6      1761.814          38.125    20887070.880    85529065.413 6      1372.842          38.812
> 2024 05 08 13 51 27.0000000  0 14
R07  23458430.480   125574824.184 6      6336.383          40.812    23458432.720   125574824.225 6      6336.383          39.562    23458455.760    97669405.755 7      4928.298          45.062    23458455.780    97669405.755 7      4928.298          45.375
G16  23222902.820   122037177.687 6      -909.173          40.500    23222899.580   122037177.708 4      -909.173          27.687    23222917.600    95093952.287 4      -708.447          27.562
R12  21892515.460   116945891.237 6      4691.969          40.500    21892515.020   116945891.214 6      4691.969          39.875    21892527.360    90957960.070 7      3649.309          43.062    21892527.300    90957963.072 7      3649.309          43.500
R05  23222642.940   124138347.968 6      1039.558          37.750    23222643.780   124138347.953 6      1039.558          37.562    23222660.140    96552106.693 7       808.545          43.750    23222660.280    96552108.693 7       808.545          44.500
R10  23148370.040   123393839.120 6     -1831.576          38.062    23148368.580   123393839.116 6     -1831.576          36.937
R11  20300429.220   108479338.877 8       421.760          49.125    20300428.520   108479338.873 8       421.760          48.125    20300439.920    84372854.605 8       328.035          51.000    20300439.480    84372856.607 8       328.035          51.625
R21  20943837.060   112074700.669 7      1651.427          42.187    20943834.480   112074700.662 6      1651.427          41.687    20943846.960    87169258.931 7      1284.443          42.812    20943847.200    87169258.931 7      1284.443          43.312
G10  23664787.980   124359296.063 7      -253.008          44.875    23664786.300   124359296.060 6      -253.008          38.625    23664796.140    96903388.708 6      -197.149          38.750    23664796.940    96903388.713 6      -197.149          41.250
G03  23416712.040   123055642.238 7      6152.156          46.437    23416712.580   123055642.245 5      6152.156          32.125    23416730.000    95887581.023 5      4793.887          32.187    23416731.400    95887598.050 7      4793.887          45.062
R22  21691234.920   115789291.577 6      3534.090          40.062    21691234.600   115789291.562 6      3534.090          40.000                                                                    21691259.400    90058422.792 3      2748.737          23.437
G08  20799443.080   109301815.116 7      2581.766          47.187    20799441.640   109301815.116 7      2581.766          46.687    20799449.480    85170268.185 7      2011.766          46.875    20799450.480    85170286.187 8      2011.766          49.687
G02  21590698.520   113459888.085 7      2754.153          44.562    21590697.340   113459888.098 5      2754.153          33.062    21590700.480    88410307.310 5      2146.093          32.875
G27  22044417.680   115844191.700 6       883.489          38.625    22044414.380   115844191.716 5       883.489          31.562    22044429.860    90268231.917 5       688.433          31.562    22044429.820    90268235.926 6       688.433          39.875
G21  20886733.860   109760525.531 7      1761.614          46.812    20886731.760   109760525.533 6      1761.614          38.000    20886735.600    85527692.704 6      1372.686          37.750
> 2024 05 08 13 51 28.0000000  0 14
R07  23457246.820   125568488.015 6      6336.278          40.812    23457248.740   125568488.057 6      6336.278          39.562    23457272.100    97664477.620 7      4928.216          45.062    23457272.120    97664477.626 7      4928.216          44.687
G16  23223075.960   122038087.257 6      -909.629          39.812    23223072.720   122038087.281 4      -909.629          27.687    23223090.800    95094661.025 4      -708.802          27.562
R12  21891637.280   116941199.957 6      4691.082          40.500    21891636.600   116941199.947 6      4691.082          39.875    21891648.900    90954311.304 7      3648.619          43.062    21891648.860    90954314.311 7      3648.619          43.562
R05  23222448.280   124137309.045 6      1038.585          37.750    23222448.580   124137309.041 6      1038.585          37.562    23222465.540    96551298.654 7       807.789          43.375    23222466.000    96551300.654 7       807.789          44.312
R10  23148713.880   123395671.091 6     -1831.834          38.062    23148712.400   123395671.081 6     -1831.834          37.625
R11  20300350.480   108478917.638 8       420.930          48.687    20300349.520   108478917.632 8       420.930          48.687    20300361.220    84372526.971 8       327.390          51.187    20300360.700    84372528.973 8       327.390          51.062
R21  20943528.380   112073049.336 6      1651.343          41.750    20943525.940   112073049.335 7      1651.343          42.000    20943538.280    87167974.561 7      1284.378          43.062    20943538.480    87167974.563 7      1284.378          42.687
G10  23664836.140   124359549.482 7      -253.482          46.062    23664834.460   124359549.484 6      -253.482          38.875    23664844.320    96903586.179 6      -197.518          39.125    23664844.700    96903586.180 6      -197.518          40.937
G03  23415541.520   123049490.310 7      6151.847          45.625    23415541.880   123049490.317 5      6151.847          32.312    23415559.400    95882787.319 5      4793.647          32.187    23415560.620    95882804.346 7      4793.647          44.812
R22  21690573.220   115785757.907 6      3533.591          40.062    21690572.900   115785757.887 6      3533.591          40.125    21690589.600    90055652.773 3      2748.348          22.000    21690599.680    90055674.395 3      2748.348          23.625
G08  20798951.920   109299233.570 7      2581.553          46.937    20798950.480   109299233.572 7      2581.553          47.125    20798958.240    85168256.593 7      2011.600          46.875    20798959.580    85168274.594 8      2011.600          49.750
G02  21590174.640   113457134.365 7      2753.630          43.937    21590173.540   113457134.375 5      2753.630          32.812    21590176.380    88408161.558 5      2145.686          32.937
G27  22044249.100   115843308.442 6       883.210          39.750    22044246.200   115843308.457 5       883.210          32.125    22044261.700    90267543.656 5       688.215          31.562    22044261.840    90267547.681 6       688.215          39.875
G21  20886398.560   109758764.221 7      1761.253          46.687    20886396.540   109758764.218 6      1761.253          38.375    20886400.380    85526320.255 6      1372.405          38.625
> 2024 05 08 13 51 29.0000000  0 14
R07  23456063.400   125562151.764 6      6336.159          41.125    23456065.300   125562151.808 6      6336.159          39.562    23456088.460    97659549.424 7      4928.124          44.812    23456088.280    97659549.431 7      4928.124          44.750
G16  23223249.420   122038997.043 6      -909.973          40.125    23223245.780   122038997.061 4      -909.973          27.687    23223263.940    95095369.929 4      -709.070          27.562
R12  21890759.400   116936509.414 6      4690.093          40.500    21890758.920   116936509.396 6      4690.093          39.875    21890770.880    90950663.102 7      3647.850          43.375    21890770.800    90950666.109 7      3647.850          43.500
R05  23222254.040   124136270.817 6      1037.822          37.750    23222254.660   124136270.789 6      1037.822          37.312    23222271.300    96550491.131 7       807.195          43.750    23222272.140    96550493.129 7       807.195          44.437
R10  23149057.960   123397503.155 6     -1832.214          38.062    23149055.680   123397503.129 6     -1832.214          37.625
R11  20300271.900   108478497.175 8       419.976          49.750    20300270.900   108478497.168 8       419.976          48.687    20300282.480    84372199.938 8       326.648          50.500    20300281.900    84372201.942 8       326.648          51.000
R21  20943219.840   112071398.102 6      1651.163          41.750    20943217.200   112071398.088 7      1651.163          42.000    20943229.820    87166690.257 7      1284.238          42.937    20943229.820    87166690.262 7      1284.238          42.625
G10  23664884.580   124359803.248 7      -253.943          45.125    23664882.820   124359803.250 6      -253.943          38.750    23664892.620    96903783.913 6      -197.878          38.875    23664892.320    96903783.913 6      -197.878          40.937
G03  23414371.020   123043338.529 7      6151.557          45.937    23414371.200   123043338.539 5      6151.557          32.312    23414388.760    95877993.736 5      4793.421          32.187    23414390.000    95878010.754 7      4793.421          44.875
R22  21689911.620   115782224.365 6      3533.316          39.937    21689910.380   115782224.350 6      3533.316          40.125    21689931.400    90052904.413 3      2748.135          22.062    21689939.000    90052926.059 3      2748.135          23.812
G08  20798460.660   109296652.312 7      2581.019          47.250    20798459.260   109296652.317 7      2581.019          46.750    20798467.060    85166245.225 7      2011.184          46.687    20798468.360    85166263.226 8      2011.184          49.312
G02  21589650.700   113454380.858 7      2753.369          44.187    21589649.440   113454380.868 5      2753.369          32.812    21589652.480    88406015.970 5      2145.482          32.937
G27  22044081.220   115842425.449 6       882.875          39.937    22044078.320   115842425.461 5       882.875          32.125    22044093.740    90266855.603 5       687.955          32.187    22044093.720    90266859.606 6       687.955          40.000
G21  20886063.200   109757003.172 8      1760.749          48.062    20886061.420   109757003.172 6      1760.749          37.937    20886065.300    85524948.009 6      1372.012          38.000
> 2024 05 08 13 51 30.0000000  0 14
R07  23454879.660   125555815.563 6      6336.295          41.125    23454882.000   125555815.594 6      6336.295          40.062    23454904.820    97654621.258 7      4928.229          45.062    23454904.580    97654621.264 7      4928.229          45.062
G16  23223422.360   122039907.197 6      -910.360          39.562    23223418.900   122039907.215 4      -910.360          27.687    23223437.240    95096079.123 4      -709.371          27.562
R12  21889881.520   116931819.726 6      4689.203          40.500    21889881.520   116931819.705 6      4689.203          39.875    21889893.080    90947015.563 7      3647.158          43.187    21889893.200    90947018.573 7      3647.158          43.687
R05  23222060.380   124135233.474 6      1036.981          37.750    23222059.640   124135233.472 6      1036.981          37.312    23222077.460    96549684.327 7       806.541          44.375    23222078.040    96549686.330 7       806.541          43.750
R10  23149401.180   123399335.357 6     -1832.339          38.062    23149399.660   123399335.347 6     -1832.339          37.625
R11  20300193.420   108478077.599 8       419.141          49.437    20300192.300   108478077.602 8       419.141          48.125    20300204.040    84371873.599 8       325.999          50.625    20300203.480    84371875.601 8       325.999          51.312
R21  20942911.680   112069747.090 6      1650.945          41.875    20942908.980   112069747.071 6      1650.945          41.750    20942921.140    87165406.131 7      1284.069          42.812    20942921.540    87165406.133 7      1284.069          42.687
G10  23664932.840   124360057.523 7      -254.493          45.750    23664931.140   124360057.523 6      -254.493          38.812    23664940.780    96903982.050 6      -198.306          39.062    23664940.540    96903982.048 6      -198.306          40.937
G03  23413200.380   123037187.024 7      6151.396          46.125    23413200.600   123037187.034 5      6151.396          32.312    23413218.220    95873200.368 5      4793.295          32.062    23413219.260    95873217.390 7      4793.295          45.000
R22  21689249.400   115778691.090 6      3533.055          39.937    21689247.940   115778691.080 6      3533.055          40.125    21689269.400    90050156.387 3      2747.932          22.187    21689274.320    90050177.975 3      2747.932          23.812
G08  20797969.320   109294071.443 7      2580.681          47.625    20797968.140   109294071.448 7      2580.681          47.437    20797976.040    85164234.152 7      2010.920          47.187    20797977.500    85164252.156 8      2010.920          49.625
G02  21589127.060   113451627.758 7      2752.947          44.562    21589125.560   113451627.765 5      2752.947          33.375    21589128.740    88403870.693 5      2145.154          32.937
G27  22043913.280   115841542.831 6       882.369          39.312    22043910.080   115841542.839 5       882.369          32.125    22043925.720    90266167.845 5       687.560          32.187    22043925.600    90266171.860 6       687.560          40.000
G21  20885728.240   109755242.499 7      1760.486          47.375    20885726.400   109755242.496 6      1760.486          38.062    20885730.300    85523576.050 6      1371.808          37.875
> 2024 05 08 13 51 31.0000000  0 14
R07  23453695.900   125549479.360 6      6336.213          41.687    23453697.700   125549479.404 6      6336.213          40.062    23453721.260    97649693.112 7      4928.165          45.062    23453721.180    97649693.121 7      4928.165          45.062
G16  23223596.300   122040817.650 6      -910.657          39.500    23223592.220   122040817.666 4      -910.657          27.687    23223610.500    95096788.547 4      -709.603          27.562
R12  21889004.020   116927130.841 6      4688.456          40.500    21889003.420   116927130.824 6      4688.456          40.500    21889015.400    90943368.659 7      3646.577          43.250    21889015.460    90943371.670 7      3646.577          43.250
R05  23221866.460   124134196.997 6      1036.173          37.750    23221865.820   124134196.990 6      1036.173          37.312    23221883.460    96548878.174 7       805.912          43.437    23221883.980    96548880.179 7       805.912          45.000
R10  23149744.540   123401167.693 6     -1832.491          38.750    23149744.160   123401167.683 6     -1832.491          37.625
R11  20300114.820   108477658.859 8       418.227          49.250    20300113.940   108477658.865 8       418.227          48.750    20300125.640    84371547.906 8       325.288          50.812    20300125.080    84371549.905 8       325.288          51.625
R21  20942603.280   112068096.175 6      1650.837          41.875    20942600.380   112068096.179 7      1650.837          42.250    20942612.120    87164122.098 7      1283.984          42.750    20942612.840    87164122.102 6      1283.984          41.937
G10  23664981.200   124360312.216 7      -254.866          45.500    23664979.520   124360312.216 6      -254.866          38.625    23664989.240    96904180.501 6      -198.596          38.750    23664989.340    96904180.504 6      -198.596          40.625
G03  23412029.720   123031035.755 7      6151.230          45.812    23412029.980   123031035.765 5      6151.230          32.125    23412047.740    95868407.182 5      4793.166          32.062    23412048.680    95868424.198 7      4793.166          45.000
R22  21688587.460   115775158.055 6      3532.856          39.500    21688585.800   115775158.043 6      3532.856          39.375    21688608.120    90047408.442 3      2747.777          22.437    21688610.500    90047430.482 3      2747.777          23.812
G08  20797478.580   109291490.895 7      2580.468          47.125    20797477.100   109291490.900 7      2580.468          46.875    20797484.940    85162223.334 7      2010.754          46.562    20797486.300    85162241.339 8      2010.754          49.375
G02  21588603.140   113448874.992 7      2752.687          44.250    21588601.920   113448874.999 5      2752.687          33.375    21588604.860    88401725.680 5      2144.951          33.312
G27  22043745.100   115840660.524 6       882.124          38.687    22043742.160   115840660.534 5       882.124          32.000    22043757.740    90265480.329 5       687.370          32.187    22043757.480    90265484.332 6       687.370          40.000
G21  20885393.240   109753482.146 7      1760.159          47.312    20885391.480   109753482.143 6      1760.159          38.312    20885395.140    85522204.347 6      1371.552          38.500
> 2024 05 08 13 51 32.0000000  0 14
R07  23452512.300   125543143.119 6      6336.298          41.687    23452513.640   125543143.161 6      6336.298          40.062    23452537.460    97644764.925 7      4928.232          44.875    23452537.580    97644764.933 7      4928.232          45.437
G16  23223769.340   122041728.295 6      -910.699          39.812    23223765.660   122041728.311 4      -910.699          27.625    23223783.920    95097498.116 4      -709.636          27.562
R12  21888125.900   116922442.723 6      4687.782          40.375    21888125.780   116922442.695 6      4687.782          40.500    21888137.620    90939722.336 7      3646.053          43.062    21888137.780    90939725.351 7      3646.053          43.312
R05  23221673.200   124133161.361 6      1035.186          37.000    23221670.620   124133161.314 6      1035.186          37.312    23221689.560    96548072.645 7       805.144          43.937    23221690.420    96548074.645 7       805.144          44.250
R10  23150088.080   123403000.092 6     -1832.446          38.750    23150087.160   123403000.082 6     -1832.446          38.125
R11  20300036.640   108477240.856 8       417.596          49.125    20300035.760   108477240.865 8       417.596          48.562    20300047.420    84371222.788 8       324.797          51.000    20300046.940    84371224.788 8       324.797          51.312
R21  20942294.520   112066445.297 6      1650.756          41.500    20942291.980   112066445.304 7      1650.756          42.250    20942303.720    87162838.090 7      1283.921          42.687    20942304.240    87162838.095 7      1283.921          42.375
G10  23665029.760   124360567.285 7      -255.391          45.500    23665028.160   124360567.288 6      -255.391          38.250    23665037.760    96904379.259 6      -199.006          38.312    23665037.560    96904379.265 6      -199.006          40.625
G03  23410859.120   123024884.668 7      6150.900          45.562    23410859.420   123024884.680 5      6150.900          32.125    23410877.180    95863614.135 5      4792.909          32.062    23410878.500    95863631.161 7      4792.909          45.125
R22  21687925.500   115771625.183 6      3532.721          39.500    21687924.060   115771625.173 6      3532.721          39.375    21687949.420    90044660.702 3      2747.672          22.750    21687947.540    90044682.662 3      2747.672          23.750
G08  20796987.440   109288910.638 7      2580.076          47.187    20796986.000   109288910.646 7      2580.076          46.437    20796993.940    85160212.746 7      2010.449          46.562    20796995.200    85160230.747 8      2010.449          49.500
G02  21588079.360   113446122.467 7      2752.455          44.312    21588078.220   113446122.477 5      2752.455          33.375    21588080.980    88399580.858 5      2144.770          33.312
G27  22043577.420   115839778.458 6       881.938          38.687    22043574.200   115839778.466 5       881.938          32.000    22043589.860    90264793.001 5       687.224          31.937    22043589.340    90264797.016 6       687.224          40.312
G21  20885058.440   109751722.064 7      1759.847          47.812    20885056.380   109751722.066 6      1759.847          38.375    20885060.460    85520832.856 6      1371.310          38.250
> 2024 05 08 13 51 33.0000000  0 14
R07  23451329.220   125536806.959 6      6336.023          41.500    23451330.200   125536806.998 6      6336.023          40.062    23451353.660    97639836.788 7      4928.018          44.750    23451353.700    97639836.790 7      4928.018          44.125
G16  23223942.720   122042639.301 6      -911.053          39.875    23223939.080   122042639.319 4      -911.053          27.625    23223957.220    95098207.973 4      -709.912          27.562
R12  21887247.980   116917755.428 6      4686.891          40.375    21887248.320   116917755.421 6      4686.891          40.437    21887260.220    90936076.675 7      3645.359          43.125    21887260.340    90936079.692 7      3645.359          43.187
R05  23221479.940   124132126.565 6      1034.360          37.000    23221477.760   124132126.500 6      1034.360          37.312    23221495.960    96547267.795 7       804.503          43.500    23221496.480    96547269.793 7       804.503          43.625
R10  23150432.380   123404832.657 6     -1832.634          38.750    23150431.400   123404832.628 6     -1832.634          38.125
R11  20299958.760   108476823.756 8       416.670          49.312    20299957.820   108476823.757 8       416.670          48.562    20299969.300    84370898.363 8       324.077          50.437    20299968.960    84370900.363 8       324.077          50.625
R21  20941986.200   112064794.569 7      1650.668          42.187    20941983.660   112064794.571 7      1650.668          42.000    20941995.080    87161554.170 7      1283.853          42.812    20941995.780    87161554.178 7      1283.853          42.375
G10  23665078.540   124360822.790 7      -255.679          45.312    23665076.780   124360822.790 6      -255.679          38.937    23665086.540    96904578.345 6      -199.231          38.500    23665086.280    96904578.352 6      -199.231          40.562
G03  23409688.620   123018733.856 7      6150.535          45.562    23409688.960   123018733.866 5      6150.535          32.125    23409706.680    95858821.301 5      4792.625          31.937    23409708.120    95858838.321 7      4792.625          44.937
R22  21687263.620   115768092.530 6      3532.475          39.500    21687262.400   115768092.525 6      3532.475          39.375    21687291.680    90041913.139 3      2747.480          22.812    21687286.700    90041935.192 3      2747.480          23.687
G08  20796496.700   109286330.747 7      2579.652          47.187    20796495.160   109286330.757 7      2579.652          46.187    20796503.080    85158202.441 7      2010.118          46.437    20796504.300    85158220.444 8      2010.118          49.687
G02  21587555.420   113443370.329 7      2751.975          44.062    21587554.720   113443370.336 5      2751.975          33.375    21587557.180    88397436.335 5      2144.396          33.375
G27  22043409.400   115838896.787 6       881.447          39.187    22043406.420   115838896.797 5       881.447          32.000    22043422.160    90264105.974 5       686.842          31.937    22043421.220    90264109.987 6       686.842          40.312
G21  20884723.520   109749962.337 7      1759.482          47.750    20884721.520   109749962.339 6      1759.482          38.187    20884725.540    85519461.640 6      1371.025          37.875
> 2024 05 08 13 51 34.0000000  0 14
R07  23450145.240   125530470.820 6      6335.997          41.500    23450146.740   125530470.859 6      6335.997          39.562    23450169.980    97634908.682 7      4927.997          45.437    23450170.300    97634908.686 7      4927.997          44.812
G16  23224116.320   122043550.655 6      -911.515          39.687    23224112.560   122043550.673 4      -911.515          27.625    23224130.680    95098918.103 4      -710.272          27.562
R12  21886370.640   116913068.961 6      4685.905          39.875    21886371.460   116913068.954 6      4685.905          40.437    21886382.440    90932431.645 7      3644.593          43.187    21886383.300    90932434.662 7      3644.593          43.250
R05  23221286.540   124131092.579 6      1033.747          37.000    23221284.520   124131092.532 6      1033.747          36.437    23221302.640    96546463.586 7       804.025          44.062    23221302.860    96546465.590 7       804.025          44.125
R10  23150776.400   123406665.358 6     -1832.911          38.937    23150775.620   123406665.348 6     -1832.911          38.125
R11  20299880.940   108476407.466 8       415.798          49.875    20299880.180   108476407.470 8       415.798          48.000    20299891.380    84370574.576 8       323.399          50.750    20299890.980    84370576.575 8       323.399          51.250
R21  20941677.820   112063144.039 7      1650.301          42.187    20941675.160   112063144.051 7      1650.301          42.000    20941686.820    87160270.441 7      1283.568          42.500    20941687.520    87160270.439 7      1283.568          42.187
G10  23665127.380   124361078.766 7      -256.237          46.312    23665125.500   124361078.771 6      -256.237          38.375    23665134.920    96904777.809 6      -199.665          38.625    23665135.760    96904777.819 6      -199.665          40.562
G03  23408518.380   123012583.263 7      6150.373          45.312    23408518.620   123012583.270 5      6150.373          31.750    23408536.320    95854028.639 5      4792.499          31.937    23408537.740    95854045.663 7      4792.499          44.625
R22  21686601.580   115764560.175 6      3532.042          37.625    21686600.360   115764560.195 6      3532.042          39.312    21686627.120    90039165.692 3      2747.144          22.875    21686625.260    90039187.670 3      2747.144          23.625
G08  20796005.780   109283751.205 7      2579.299          47.375    20796004.360   109283751.205 7      2579.299          46.750    20796012.180    85156192.396 7      2009.844          46.812    20796013.240    85156210.401 8      2009.844          49.375
G02  21587031.680   113440618.543 7      2751.503          45.000    21587031.180   113440618.553 5      2751.503          33.375    21587033.660    88395292.086 5      2144.028          33.375
G27  22043241.240   115838015.433 6       880.988          38.937    22043238.700   115838015.438 5       880.988          31.250    22043254.520    90263419.199 5       686.484          31.937    22043253.180    90263423.206 6       686.484          40.312
G21  20884388.760   109748202.956 8      1759.153          48.062    20884386.840   109748202.956 6      1759.153          38.375    20884390.840    85518090.692 6      1370.769          38.437
> 2024 05 08 13 51 35.0000000  0 14
R07  23448961.460   125524134.737 6      6336.160          40.875    23448962.920   125524134.781 6      6336.160          39.562    23448986.240    97629980.621 7      4928.124          44.812    23448986.660    97629980.622 7      4928.124          44.562
G16  23224289.240   122044462.285 6      -911.708          40.312    23224286.080   122044462.301 4      -911.708          27.625    23224304.240    95099628.444 4      -710.422          27.562
R12  21885493.880   116908383.305 6      4685.337          39.875    21885494.420   116908383.285 6      4685.337          39.875    21885505.560    90928787.240 7      3644.151          43.250    21885505.980    90928790.251 7      3644.151          43.250
R05  23221092.900   124130059.472 6      1032.571          37.000    23221091.240   124130059.457 6      1032.571          36.437    23221109.340    96545660.079 7       803.110          43.375    23221109.600    96545662.073 7       803.110          43.937
R10  23151119.580   123408498.139 6     -1832.780          38.937    23151119.500   123408498.139 6     -1832.780          38.125
R11  20299802.900   108475992.026 8       415.054          48.937    20299802.420   108475992.030 8       415.054          48.750    20299813.620    84370251.460 8       322.820          50.250    20299813.240    84370253.459 8       322.820          51.250
R21  20941369.280   112061493.653 7      1650.429          42.625    20941366.580   112061493.650 7      1650.429          42.187    20941378.420    87158986.799 7      1283.667          43.125    20941379.200    87158986.801 7      1283.667          42.375
G10  23665176.140   124361335.148 7      -256.442          45.875    23665174.240   124361335.151 6      -256.442          38.312    23665183.580    96904977.583 6      -199.825          38.437    23665184.560    96904977.596 6      -199.825          40.562
G03  23407348.120   123006432.895 7      6150.364          45.375    23407348.100   123006432.903 5      6150.364          31.750    23407365.920    95849236.157 5      4792.492          31.937    23407367.500    95849253.188 7      4792.492          44.625
R22  21685939.820   115761028.021 6      3532.162          37.625    21685939.620   115761028.030 6      3532.162          39.312    21685962.200    90036418.405 3      2747.237          22.875    21685963.760    90036440.502 3      2747.237          23.687
G08  20795514.840   109281171.992 7      2579.114          47.875    20795513.480   109281171.997 7      2579.114          47.000    20795521.360    85154182.626 7      2009.699          46.437    20795522.580    85154200.631 8      2009.699          50.000
G02  21586507.960   113437867.064 7      2751.434          44.625    21586507.660   113437867.069 5      2751.434          33.375    21586510.080    88393148.072 5      2143.975          33.312
G27  22043073.540   115837134.348 6       881.245          38.937    22043071.000   115837134.355 5       881.245          31.250    22043086.920    90262732.637 5       686.684          31.312    22043086.160    90262736.648 6       686.684          39.625
G21  20884054.100   109746443.912 8      1758.955          48.812    20884052.060   109746443.909 6      1758.955          38.125    20884056.120    85516720.006 6      1370.614          38.375
> 2024 05 08 13 51 36.0000000  0 14
R07  23447777.620   125517798.689 6      6335.924          40.875    23447779.660   125517798.739 6      6335.924          39.562    23447802.660    97625052.576 7      4927.941          44.937    23447802.860    97625052.578 7      4927.941          45.062
G16  23224462.700   122045374.231 6      -912.158          39.687    23224459.540   122045374.249 4      -912.158          27.625    23224477.680    95100339.033 4      -710.773          27.562
R12  21884616.980   116903698.441 6      4684.462          39.875    21884616.660   116903698.428 6      4684.462          39.875    21884628.560    90925143.465 7      3643.470          43.125    21884628.980    90925146.482 7      3643.470          43.187
R05  23220900.140   124129027.162 6      1031.835          37.000    23220897.740   124129027.126 6      1031.835          36.437    23220916.400    96544857.150 7       802.539          43.375    23220916.380    96544859.140 7       802.539          44.000
R10  23151463.320   123410331.077 6     -1833.072          38.937    23151462.920   123410331.074 6     -1833.072          38.187
R11  20299725.080   108475577.435 8       414.019          48.312    20299724.780   108475577.444 8       414.019          48.312    20299736.000    84369928.998 8       322.014          50.562    20299735.660    84369930.996 8       322.014          51.437
R21  20941060.820   112059843.396 7      1650.146          42.625    20941058.560   112059843.398 7      1650.146          42.187    20941070.180    87157703.268 7      1283.447          43.250    20941070.640    87157703.270 7      1283.447          42.250
G10  23665225.020   124361592.001 7      -257.072          46.250    23665223.300   124361592.001 6      -257.072          38.750    23665232.600    96905177.728 6      -200.316          38.562    23665233.280    96905177.731 6      -200.316          40.500
G03  23406177.840   123000282.809 7      6149.886          44.750    23406177.600   123000282.814 5      6149.886          31.750    23406195.540    95844443.892 5      4792.119          31.937    23406197.000    95844460.909 7      4792.119          45.187
R22  21685278.160   115757496.134 6      3531.620          37.625    21685278.080   115757496.140 6      3531.620          39.250    21685300.040    90033671.496 3      2746.816          22.937    21685299.640    90033693.476 3      2746.816          23.687
G08  20795024.140   109278593.136 7      2578.609          47.500    20795022.700   109278593.140 7      2578.609          46.375    20795030.580    85152173.127 7      2009.306          46.437    20795031.580    85152191.133 8      2009.306          49.250
G02  21585984.640   113435115.956 7      2750.735          45.187    21585984.320   113435115.963 5      2750.735          33.437    21585986.640    88391004.354 5      2143.430          33.312
G27  22042906.140   115836253.680 6       880.387          38.750    22042903.320   115836253.690 5       880.387          31.250    22042919.160    90262046.396 5       686.016          31.312    22042918.440    90262050.411 6       686.016          39.625
G21  20883719.340   109744685.190 8      1758.478          48.000    20883717.180   109744685.190 6      1758.478          38.062    20883721.360    85515349.572 6      1370.242          38.000
> 2024 05 08 13 51 37.0000000  0 14
R07  23446594.480   125511462.652 6      6335.875          40.875    23446595.920   125511462.685 6      6335.875          39.937    23446619.340    97620124.538 7      4927.903          45.062    23446619.140    97620124.537 7      4927.903          44.625
G16  23224636.800   122046286.490 6      -912.584          39.687    23224633.200   122046286.510 4      -912.584          27.625    23224651.560    95101049.869 4      -711.104          27.562
R12  21883740.360   116899014.431 6      4683.542          39.750    21883739.980   116899014.410 6      4683.542          39.875    21883751.420    90921500.339 7      3642.755          43.187    21883752.020    90921503.352 7      3642.755          43.562
R05  23220707.400   124127995.592 6      1031.220          36.375    23220704.760   124127995.572 6      1031.220          36.437    23220723.300    96544054.837 7       802.060          43.312    23220723.340    96544056.831 7       802.060          43.812
R10  23151807.080   123412164.129 6     -1833.147          38.937    23151806.980   123412164.148 6     -1833.147          38.187
R11  20299647.700   108475163.667 8       413.243          48.312    20299647.460   108475163.674 8       413.243          48.750    20299658.520    84369607.166 8       321.411          50.562    20299658.080    84369609.166 8       321.411          51.187
R21  20940752.320   112058193.238 7      1650.026          42.937    20940750.080   112058193.245 7      1650.026          42.312    20940761.940    87156419.820 7      1283.353          42.875    20940762.040    87156419.818 7      1283.353          42.250
G10  23665273.800   124361849.304 7      -257.685          46.312    23665272.240   124361849.303 6      -257.685          38.000    23665281.480    96905378.222 6      -200.794          38.875    23665281.860    96905378.224 6      -200.794          40.500
G03  23405007.460   122994132.944 7      6149.656          45.250    23405007.360   122994132.949 5      6149.656          31.625    23405025.320    95839651.800 5      4791.939          31.937    23405026.520    95839668.830 7      4791.939          44.937
R22  21684616.360   115753964.474 6      3531.448          38.500    21684616.720   115753964.469 6      3531.448          39.250    21684636.420    90030924.559 3      2746.681          23.062    21684637.400    90030946.569 3      2746.681          23.750
G08  20794533.700   109276014.626 7      2578.201          46.937    20794532.080   109276014.631 7      2578.201          46.812    20794539.820    85150163.897 7      2008.988          46.687    20794540.840    85150181.900 8      2008.988          49.875
G02  21585461.220   113432365.155 7      2750.454          45.687    21585460.940   113432365.162 5      2750.454          33.437    21585463.060    88388860.872 5      2143.211          33.750
G27  22042738.740   115835373.291 6       880.377          38.562    22042735.800   115835373.298 5       880.377          31.437    22042751.520    90261360.372 5       686.008          31.312    22042751.520    90261364.363 6       686.008          39.625
G21  20883384.620   109742926.814 7      1758.200          47.312    20883382.460   109742926.816 6      1758.200          37.875    20883386.800    85513979.408 6      1370.026          38.312
> 2024 05 08 13 51 38.0000000  0 14
R07  23445410.480   125505126.478 6      6336.125          41.500    23445412.340   125505126.506 6      6336.125          39.937    23445435.680    97615196.399 7      4928.097          45.000    23445435.500    97615196.397 7      4928.097          45.062
G16  23224810.280   122047198.919 6      -912.717          39.500    23224806.760   122047198.939 4      -912.717          27.875    23224825.160    95101760.837 4      -711.208          27.812
R12  21882863.740   116894331.054 6      4682.976          39.750    21882863.020   116894331.031 6      4682.976          40.000    21882874.680    90917857.702 7      3642.315          42.937    21882875.580    90917860.713 7      3642.315          43.562
R05  23220514.180   124126964.850 6      1030.444          36.375    23220512.360   124126964.830 6      1030.444          36.437    23220530.400    96543253.138 7       801.456          44.187    23220530.860    96543255.135 7       801.456          44.312
R10  23152151.360   123413997.222 6     -1833.109          39.062    23152151.200   123413997.228 6     -1833.109          38.187
R11  20299570.400   108474750.640 8       412.428          48.625    20299570.460   108474750.644 8       412.428          48.000    20299581.160    84369285.920 8       320.777          50.375    20299580.760    84369287.918 8       320.777          51.000
R21  20940443.900   112056543.120 7      1649.941          42.500    20940441.320   112056543.127 7      1649.941          42.562    20940453.240    87155136.390 7      1283.287          43.062    20940453.800    87155136.397 7      1283.287          42.000
G10  23665322.800   124362106.903 7      -257.982          45.437    23665321.340   124362106.905 6      -257.982          37.937    23665330.420    96905578.946 6      -201.025          37.812    23665330.900    96905578.949 6      -201.025          40.500
G03  23403837.200   122987983.212 7      6149.557          45.500    23403837.220   122987983.214 5      6149.557          31.625    23403855.320    95834859.809 5      4791.863          31.937    23403856.520    95834876.832 7      4791.863          45.062
R22  21683954.580   115750432.939 6      3531.312          38.500    21683955.460   115750432.942 6      3531.312          39.250    21683972.940    90028177.858 3      2746.576          23.187    21683976.120    90028199.863 3      2746.576          23.875
G08  20794042.840   109273436.338 7      2578.031          47.062    20794041.500   109273436.343 7      2578.031          46.500    20794049.300    85148154.835 7      2008.856          46.687    20794050.260    85148172.840 8      2008.856          49.812
G02  21584937.860   113429614.575 7      2750.330          45.187    21584937.520   113429614.579 5      2750.330          33.687    21584939.600    88386717.561 5      2143.114          33.750
G27  22042571.140   115834493.138 6       879.954          38.562    22042568.320   115834493.143 5       879.954          31.437    22042584.080    90260674.529 5       685.678          31.312    22042583.920    90260678.546 6       685.678          39.937
G21  20883049.840   109741168.676 7      1757.823          47.562    20883047.760   109741168.683 6      1757.823          38.062    20883052.240    85512609.435 6      1369.732          38.125
> 2024 05 08 13 51 39.0000000  0 14
R07  23444227.180   125498790.443 6      6336.025          41.500    23444229.200   125498790.472 6      6336.025          39.937    23444252.240    97610268.374 7      4928.019          45.500    23444251.940    97610268.377 7      4928.019          45.750
G16  23224984.140   122048111.732 6      -912.780          40.062    23224980.340   122048111.755 4      -912.780          27.875    23224998.780    95102472.101 4      -711.257          27.812
R12  21881987.220   116889648.590 6      4682.272          39.750    21881986.400   116889648.551 6      4682.272          40.000    21881998.140    90914215.776 7      3641.767          43.000    21881999.000    90914218.787 7      3641.767          43.250
R05  23220321.540   124125935.047 6      1029.381          36.375    23220320.080   124125935.006 6      1029.381          36.562    23220337.320    96542452.174 7       800.630          43.750    23220338.300    96542454.168 7       800.630          44.000
R10  23152495.420   123415830.551 6     -1833.347          39.062    23152495.080   123415830.557 6     -1833.347          38.187
R11  20299493.440   108474338.518 8       411.835          48.937    20299493.220   108474338.522 8       411.835          48.250    20299503.900    84368965.369 8       320.316          51.000    20299503.660    84368967.368 8       320.316          51.062
R21  20940135.400   112054893.245 7      1649.940          42.500    20940132.960   112054893.233 7      1649.940          42.562    20940144.940    87153853.146 7      1283.287          43.250    20940145.400    87153853.145 6      1283.287          41.812
G10  23665371.860   124362365.017 7      -258.173          46.937    23665370.560   124362365.019 6      -258.173          37.750    23665379.420    96905780.070 6      -201.174          38.312    23665379.800    96905780.070 6      -201.174          40.125
G03  23402667.160   122981833.799 7      6149.414          45.812    23402667.120   122981833.803 5      6149.414          31.625    23402684.920    95830068.071 5      4791.751          32.125    23402686.500    95830085.099 7      4791.751          44.937
R22  21683293.020   115746901.689 6      3531.492          38.500    21683293.940   115746901.674 6      3531.492          40.062    21683311.900    90025431.337 3      2746.716          23.312    21683314.260    90025453.373 4      2746.716          24.000
G08  20793552.220   109270858.467 7      2577.857          47.750    20793550.860   109270858.469 7      2577.857          46.437    20793558.720    85146146.107 7      2008.720          46.687    20793559.480    85146164.114 8      2008.720          49.562
G02  21584414.500   113426864.410 7      2750.136          45.812    21584414.220   113426864.417 5      2750.136          33.687    21584416.280    88384574.582 5      2142.963          33.437
G27  22042403.700   115833613.372 6       879.940          38.187    22042400.640   115833613.379 5       879.940          31.437    22042416.500    90259988.992 5       685.668          31.187    22042416.140    90259992.997 6       685.668          39.937
G21  20882715.540   109739410.937 7      1757.637          47.250    20882713.280   109739410.945 6      1757.637          37.812    20882717.680    85511239.766 6      1369.587          37.312
> 2024 05 08 13 51 40.0000000  0 14
R07  23443043.300   125492454.366 6      6335.819          41.875    23443045.120   125492454.391 6      6335.819          40.062    23443068.600    97605340.316 7      4927.859          45.125    23443068.260    97605340.316 7      4927.859          44.937
G16  23225157.640   122049024.839 6      -913.381          40.250    23225154.080   122049024.857 4      -913.381          27.875    23225172.380    95103183.595 4      -711.725          27.812
R12  21881110.400   116884966.877 6      4681.246          38.812    21881108.820   116884966.846 6      4681.246          39.812    21881121.480    90910574.444 7      3640.969          43.312    21881122.460    90910577.454 7      3640.969          43.125
R05  23220129.560   124124905.966 6      1028.524          36.375    23220127.680   124124905.935 6      1028.524          36.562    23220144.860    96541651.773 7       799.963          43.562    23220145.680    96541653.763 7       799.963          44.000
R10  23152838.860   123417663.940 6     -1833.664          39.062    23152838.760   123417663.943 6     -1833.664          37.875
R11  20299416.420   108473927.200 8       410.770          49.687    20299416.380   108473927.196 7       410.770          47.937    20299426.840    84368645.444 8       319.488          50.437    20299426.600    84368647.444 8       319.488          50.812
R21  20939827.300   112053243.470 7      1649.541          42.062    20939824.980   112053243.458 7      1649.541          42.000    20939836.560    87152569.990 7      1282.976          43.000    20939837.340    87152569.988 7      1282.976          42.562
G10  23665421.160   124362623.523 7      -258.826          46.000    23665419.640   124362623.528 6      -258.826          38.187    23665428.660    96905981.503 6      -201.683          38.687    23665429.380    96905981.505 6      -201.683          40.125
G03  23401496.900   122975684.569 7      6149.059          46.125    23401496.900   122975684.571 5      6149.059          32.000    23401514.960    95825276.471 5      4791.474          32.125    23401516.160    95825293.496 7      4791.474          45.062
R22  21682631.960   115743370.643 6      3530.833          39.750    21682632.320   115743370.644 6      3530.833          40.062    21682647.060    90022684.973 3      2746.203          23.312    21682651.960    90022707.033 4      2746.203          24.062
G08  20793061.800   109268280.893 7      2577.345          47.812    20793060.460   109268280.893 7      2577.345          46.187    20793068.260    85144137.601 7      2008.321          46.437    20793068.960    85144155.609 8      2008.321          49.375
G02  21583891.040   113424114.528 7      2749.647          45.312    21583890.900   113424114.536 5      2749.647          33.375    21583893.020    88382431.815 5      2142.582          33.437
G27  22042236.660   115832733.899 6       879.231          38.187    22042233.200   115832733.907 5       879.231          31.437    22042248.860    90259303.687 5       685.115          31.187    22042248.500    90259307.690 6       685.115          39.937
G21  20882380.940   109737653.467 7      1757.289          46.687    20882378.820   109737653.469 6      1757.289          38.000    20882383.260    85509870.305 6      1369.316          37.625
> 2024 05 08 13 51 41.0000000  0 14
R07  23441859.940   125486118.248 6      6336.263          41.875    23441861.600   125486118.279 6      6336.263          40.062    23441885.400    97600412.223 7      4928.205          45.437    23441884.600    97600412.221 7      4928.205          45.250
G16  23225331.680   122049938.143 6      -913.325          39.062    23225327.740   122049938.156 4      -913.325          27.875    23225346.160    95103895.242 4      -711.682          27.812
R12  21880234.140   116880285.933 6      4680.559          38.812    21880232.600   116880285.924 6      4680.559          39.812    21880245.320    90906933.728 7      3640.435          43.437    21880245.980    90906936.737 7      3640.435          42.875
R05  23219936.860   124123877.662 6      1027.868          36.375    23219935.320   124123877.644 6      1027.868          36.562    23219952.340    96540851.998 7       799.453          43.062    23219953.100    96540853.990 7       799.453          43.375
R10  23153182.220   123419497.371 6     -1833.456          38.937    23153182.440   123419497.390 6     -1833.456          37.875
R11  20299339.760   108473516.628 8       410.246          49.562    20299339.600   108473516.632 8       410.246          48.625    20299349.860    84368326.113 8       319.080          50.687    20299349.800    84368328.114 8       319.080          50.562
R21  20939518.720   112051593.734 7      1649.751          42.062    20939516.140   112051593.722 7      1649.751          42.000    20939528.440    87151286.862 7      1283.140          43.500    20939529.160    87151286.869 7      1283.140          42.625
G10  23665470.160   124362882.394 7      -258.970          45.937    23665468.800   124362882.393 6      -258.970          37.750    23665477.620    96906183.215 6      -201.795          38.125    23665478.520    96906183.209 6      -201.795          40.125
G03  23400326.540   122969535.499 7      6149.054          46.187    23400326.820   122969535.502 5      6149.054          32.000    23400344.840    95820485.003 5      4791.471          32.125    23400346.100    95820502.019 7      4791.471          45.062
R22  21681970.500   115739839.724 6      3531.062          39.750    21681970.980   115739839.725 6      3531.062          40.062    21681984.960    90019938.730 3      2746.382          23.375    21681989.640    90019960.736 4      2746.382          24.062
G08  20792571.320   109265703.574 7      2577.322          47.187    20792570.000   109265703.579 7      2577.322          46.875    20792577.800    85142129.305 7      2008.303          46.875    20792578.600    85142147.310 8      2008.303          49.000
G02  21583367.880   113421364.899 7      2749.604          45.437    21583367.560   113421364.909 5      2749.604          33.375    21583369.800    88380289.249 5      2142.548          33.500
G27  22042069.060   115831854.658 6       879.177          37.937    22042065.700   115831854.669 5       879.177          31.062    22042081.260    90258618.558 5       685.073          31.187    22042080.700    90258622.571 6       685.073          39.625
G21  20882046.720   109735896.270 7      1757.127          45.750    20882044.420   109735896.275 6      1757.127          38.125    20882048.960    85508501.064 6      1369.190          38.187
> 2024 05 08 13 51 42.0000000  0 14
R07  23440675.860   125479782.203 6      6335.874          41.625    23440677.700   125479782.231 6      6335.874          40.062    23440702.040    97595484.187 7      4927.902          45.562    23440701.300    97595484.192 7      4927.902          44.937
G16  23225505.440   122050851.757 6      -913.789          39.250    23225501.580   122050851.767 4      -913.789          27.875    23225520.120    95104607.131 4      -712.044          27.812
R12  21879358.300   116875605.825 6      4679.604          38.812    21879356.140   116875605.808 6      4679.604          39.812    21879369.080    90903293.642 7      3639.692          43.375    21879369.680    90903296.645 7      3639.692          43.250
R05  23219744.680   124122850.200 6      1026.986          36.375    23219743.560   124122850.185 6      1026.986          36.562    23219759.880    96540052.865 7       798.767          43.250    23219760.640    96540054.865 7       798.767          43.312
R10  23153526.580   123421331.039 6     -1834.023          38.937    23153526.480   123421331.021 6     -1834.023          37.875
R11  20299262.900   108473106.913 8       409.120          49.750    20299262.680   108473106.914 8       409.120          48.062    20299273.220    84368007.439 8       318.204          50.250    20299273.060    84368009.439 8       318.204          50.875
R21  20939210.740   112049944.133 6      1649.353          41.812    20939208.000   112049944.132 7      1649.353          42.562    20939220.540    87150003.843 7      1282.830          43.375    20939220.900    87150003.847 7      1282.830          43.062
G10  23665519.600   124363141.709 7      -259.691          46.625    23665518.180   124363141.708 6      -259.691          37.750    23665526.780    96906385.274 6      -202.357          38.062    23665527.860    96906385.276 6      -202.357          39.812
G03  23399156.340   122963386.706 7      6148.473          46.312    23399156.800   122963386.706 5      6148.473          31.750    23399174.720    95815693.741 5      4791.018          31.812    23399175.880    95815710.758 7      4791.018          44.687
R22  21681309.060   115736309.089 6      3530.221          39.750    21681309.400   115736309.114 6      3530.221          39.562    21681324.340    90017192.699 3      2745.728          23.375    21681328.020    90017214.740 4      2745.728          24.062
G08  20792080.820   109263126.641 8      2576.569          48.000    20792079.600   109263126.649 7      2576.569          46.312    20792087.400    85140121.301 7      2007.716          46.375    20792088.220    85140139.309 8      2007.716          49.187
G02  21582844.960   113418615.646 7      2748.951          45.750    21582844.460   113418615.651 5      2748.951          33.562    21582846.680    88378146.974 5      2142.040          33.500
G27  22041901.860   115830975.780 6       878.621          37.937    22041898.360   115830975.795 5       878.621          31.062    22041913.760    90257933.712 5       684.640          30.937    22041912.700    90257937.713 6       684.640          39.625
G21  20881712.560   109734139.427 7      1756.533          47.687    20881710.160   109734139.427 6      1756.533          38.250    20881714.700    85507132.090 6      1368.727          38.437
> 2024 05 08 13 51 43.0000000  0 14
R07  23439492.000   125473446.323 6      6335.918          41.625    23439494.120   125473446.363 6      6335.918          40.000    23439518.520    97590556.287 7      4927.936          45.562    23439517.740    97590556.288 7      4927.936          45.562
G16  23225679.440   122051765.868 6      -914.261          39.250    23225675.520   122051765.883 4      -914.261          27.687    23225694.120    95105319.408 4      -712.411          27.812
R12  21878482.180   116870926.660 6      4678.923          38.750    21878480.240   116870926.648 6      4678.923          39.750    21878493.380    90899654.285 7      3639.162          43.000    21878493.800    90899657.288 7      3639.162          43.500
R05  23219552.320   124121823.770 6      1026.136          37.000    23219551.060   124121823.757 6      1026.136          36.562    23219568.220    96539254.537 7       798.105          42.937    23219568.680    96539256.539 7       798.105          43.750
R10  23153871.000   123423164.910 6     -1833.861          38.937    23153870.440   123423164.903 6     -1833.861          37.875
R11  20299186.440   108472698.185 8       408.418          48.812    20299186.100   108472698.188 7       408.418          47.625    20299196.640    84367689.531 8       317.658          49.687    20299196.600    84367691.535 8       317.658          49.750
R21  20938902.100   112048294.828 7      1649.278          42.312    20938899.800   112048294.827 7      1649.278          42.562    20938912.660    87148721.050 7      1282.772          43.437    20938913.000    87148721.055 7      1282.772          42.687
G10  23665569.440   124363401.602 7      -259.970          45.437    23665567.540   124363401.607 6      -259.970          37.687    23665576.420    96906587.790 6      -202.574          38.562    23665576.800    96906587.788 6      -202.574          39.812
G03  23397986.160   122957238.272 7      6148.442          46.250    23397987.000   122957238.275 5      6148.442          31.750    23398004.800    95810902.762 5      4790.994          31.812    23398005.640    95810919.781 7      4790.994          44.562
R22  21680648.180   115732778.811 6      3530.327          39.250    21680648.100   115732778.828 6      3530.327          39.562    21680656.860    90014446.942 3      2745.810          23.375    21680666.500    90014468.946 4      2745.810          24.062
G08  20791590.660   109260550.179 7      2576.387          47.500    20791589.360   109260550.186 7      2576.387          45.750    20791597.080    85138113.668 7      2007.575          45.937    20791597.980    85138131.678 8      2007.575          49.125
G02  21582321.740   113415866.845 7      2748.813          45.750    21582321.560   113415866.852 5      2748.813          33.562    21582323.740    88376005.053 5      2141.932          33.125
G27  22041734.440   115830097.356 6       878.525          37.312    22041731.260   115830097.369 5       878.525          31.062    22041746.380    90257249.219 5       684.565          30.937    22041745.780    90257253.218 6       684.565          39.625
G21  20881378.380   109732383.066 7      1756.254          47.000    20881375.780   109732383.065 6      1756.254          37.750    20881380.460    85505763.499 6      1368.510          38.062
> 2024 05 08 13 51 44.0000000  0 14
R07  23438308.240   125467110.441 6      6336.030          41.625    23438310.400   125467110.483 6      6336.030          40.000    23438335.080    97585628.381 7      4928.023          45.687    23438334.280    97585628.386 7      4928.023          46.125
G16  23225854.180   122052680.247 6      -914.376          38.562    23225849.480   122052680.265 4      -914.376          27.687    23225868.180    95106031.895 4      -712.501          27.625
R12  21877605.740   116866248.294 6      4677.937          38.750    21877604.220   116866248.295 6      4677.937          39.750    21877617.320    90896015.562 7      3638.396          43.062    21877617.920    90896018.567 7      3638.396          43.750
R05  23219360.900   124120798.171 6      1025.227          37.000    23219358.880   124120798.161 6      1025.227          36.937    23219376.000    96538456.846 7       797.399          43.062    23219376.880    96538458.849 7       797.399          43.812
R10  23154215.500   123424998.946 6     -1833.979          38.937    23154214.820   123424998.941 6     -1833.979          37.750
R11  20299110.240   108472290.314 8       407.559          48.937    20299109.640   108472290.312 7       407.559          47.500    20299120.160    84367372.298 8       316.991          50.625    20299120.420    84367374.298 8       316.991          50.937
R21  20938594.120   112046645.652 7      1649.298          42.312    20938591.400   112046645.651 7      1649.298          42.312    20938604.420    87147438.364 7      1282.787          43.250    20938604.800    87147438.366 7      1282.787          42.875
G10  23665619.140   124363661.963 7      -260.544          45.812    23665617.220   124363661.973 6      -260.544          37.750    23665625.920    96906790.671 6      -203.021          38.312    23665626.360    96906790.679 6      -203.021          39.812
G03  23396816.220   122951090.110 7      6148.186          45.875    23396817.120   122951090.114 5      6148.186          31.750    23396834.640    95806111.994 5      4790.795          31.812    23396835.760    95806129.019 7      4790.795          44.375
R22  21679986.500   115729248.797 6      3530.101          39.250    21679987.180   115729248.806 6      3530.101          39.812    21679992.600    90011701.347 3      2745.634          23.437    21680002.700    90011723.369 4      2745.634          24.062
G08  20791100.500   109257974.079 7      2576.022          47.375    20791099.180   109257974.084 7      2576.022          46.625    20791106.940    85136106.316 7      2007.290          46.312    20791108.020    85136124.323 8      2007.290          49.375
G02  21581798.740   113413118.424 7      2748.402          45.625    21581798.440   113413118.432 5      2748.402          33.250    21581800.820    88373863.426 5      2141.612          33.125
G27  22041567.780   115829219.311 6       877.987          37.312    22041564.020   115829219.316 5       877.987          30.687    22041579.300    90256565.016 5       684.146          30.937    22041578.900    90256569.011 6       684.146          39.625
G21  20881044.260   109730627.038 7      1755.960          46.812    20881041.600   109730627.037 6      1755.960          37.937    20881046.160    85504395.163 6      1368.281          37.937
> 2024 05 08 13 51 45.0000000  0 14
R07  23437124.240   125460774.650 6      6335.680          41.625    23437126.840   125460774.697 6      6335.680          40.000    23437151.640    97580700.550 7      4927.751          45.562    23437150.740    97580700.552 7      4927.751          46.250
G16  23226027.940   122053595.009 6      -914.912          39.250    23226023.460   122053595.024 4      -914.912          27.687    23226042.100    95106744.680 4      -712.918          27.625
R12  21876730.920   116861570.793 6      4677.114          38.750    21876728.700   116861570.773 6      4677.114          39.750    21876741.520    90892377.485 7      3637.756          43.625    21876742.360    90892380.488 7      3637.756          43.750
R05  23219168.940   124119773.400 6      1024.473          37.000    23219167.400   124119773.388 6      1024.473          36.937    23219184.240    96537659.799 7       796.812          43.375    23219185.340    96537661.803 7       796.812          43.625
R10  23154559.400   123426833.155 6     -1834.215          38.500    23154558.820   123426833.164 6     -1834.215          37.750
R11  20299034.080   108471883.324 8       406.590          49.625    20299033.560   108471883.331 7       406.590          47.562    20299043.700    84367055.742 8       316.237          50.500    20299044.220    84367057.744 8       316.237          50.750
R21  20938285.820   112044996.684 6      1648.952          41.875    20938283.100   112044996.678 7      1648.952          42.312    20938296.000    87146155.831 7      1282.518          43.250    20938296.700    87146155.840 7      1282.518          42.875
G10  23665668.600   124363922.767 7      -260.904          45.250    23665666.760   124363922.777 6      -260.904          38.000    23665675.540    96906993.895 6      -203.302          38.437    23665675.400    96906993.898 6      -203.302          39.687
G03  23395646.680   122944942.230 7      6147.774          46.250    23395647.380   122944942.235 5      6147.774          31.687    23395664.760    95801321.451 5      4790.473          31.812    23395665.500    95801338.468 7      4790.473          44.375
R22  21679325.480   115725719.043 6      3529.756          39.437    21679326.120   115725719.046 6      3529.756          39.812    21679336.080    90008955.988 3      2745.366          23.500    21679341.120    90008977.994 4      2745.366          24.062
G08  20790610.300   109255398.360 8      2575.590          48.187    20790609.020   109255398.362 7      2575.590          46.687    20790616.840    85134099.260 7      2006.953          47.000    20790617.660    85134117.267 8      2006.953          49.125
G02  21581276.020   113410370.354 7      2747.906          46.187    21581275.520   113410370.361 5      2747.906          33.250    21581277.840    88371722.072 5      2141.225          33.312
G27  22041400.400   115828341.604 6       877.417          36.875    22041396.980   115828341.609 5       877.417          30.687    22041412.020    90255881.085 5       683.702          30.937    22041412.580    90255885.081 6       683.702          39.062
G21  20880710.040   109728871.391 7      1755.444          46.750    20880707.440   109728871.393 6      1755.444          38.125    20880712.000    85503027.129 6      1367.878          37.937
> 2024 05 08 13 51 46.0000000  0 14
R07  23435940.840   125454438.771 6      6335.793          41.500    23435943.160   125454438.815 6      6335.793          40.187    23435967.940    97575772.644 7      4927.839          46.000    23435967.300    97575772.650 7      4927.839          46.687
G16  23226201.740   122054509.989 6      -915.269          39.250    23226197.700   122054510.007 4      -915.269          27.687    23226216.200    95107457.636 4      -713.197          27.625
R12  21875855.140   116856894.042 6      4676.312          39.000    21875852.960   116856894.030 6      4676.312          39.312    21875866.020    90888740.021 7      3637.131          43.250    21875866.500    90888743.028 7      3637.131          43.625
R05  23218977.260   124118749.421 6      1023.512          37.000    23218975.660   124118749.406 6      1023.512          36.937    23218992.860    96536863.368 7       796.065          43.625    23218993.180    96536865.366 7       796.065          43.812
R10  23154903.280   123428667.423 6     -1834.366          38.500    23154903.360   123428667.432 6     -1834.366          37.750
R11  20298957.720   108471477.099 8       405.757          49.437    20298957.440   108471477.100 8       405.757          48.125    20298967.820    84366739.779 8       315.589          50.687    20298967.980    84366741.781 8       315.589          50.625
R21  20937977.760   112043347.765 6      1648.778          41.875    20937975.320   112043347.750 7      1648.778          42.312    20937988.160    87144873.328 7      1282.383          43.625    20937988.560    87144873.331 7      1282.383          43.125
G10  23665718.360   124364183.969 7      -261.512          45.375    23665716.640   124364183.976 6      -261.512          37.562    23665725.100    96907197.423 6      -203.776          37.937    23665725.340    96907197.429 6      -203.776          39.687
G03  23394476.680   122938794.488 7      6147.645          46.750    23394477.340   122938794.490 5      6147.645          31.687    23394494.840    95796531.007 5      4790.373          31.750    23394495.940    95796548.021 7      4790.373          44.000
R22  21678664.440   115722189.472 6      3529.331          39.437    21678665.120   115722189.478 6      3529.331          39.812    21678680.240    90006210.754 3      2745.035          23.562    21678679.260    90006232.731 4      2745.035          24.062
G08  20790120.280   109252822.909 8      2575.177          48.812    20790119.020   109252822.909 7      2575.177          46.437    20790126.680    85132092.413 7      2006.631          46.500    20790127.320    85132110.420 8      2006.631          49.250
G02  21580753.000   113407622.545 7      2747.505          45.937    21580752.620   113407622.553 5      2747.505          33.250    21580755.020    88369580.923 5      2140.913          33.312
G27  22041233.280   115827464.121 6       877.226          36.875    22041229.800   115827464.128 5       877.226          30.687    22041244.940    90255197.327 5       683.552          30.687    22041245.040    90255201.322 6       683.552          39.062
G21  20880376.040   109727115.980 7      1755.155          46.687    20880373.400   109727115.985 6      1755.155          37.937    20880378.060    85501659.278 6      1367.653          37.812
> 2024 05 08 13 51 47.0000000  0 14
R07  23434756.820   125448102.942 6      6335.898          41.500    23434758.980   125448102.987 6      6335.898          40.187    23434784.300    97570844.781 7      4927.920          45.750    23434783.760    97570844.788 7      4927.920          46.625
G16  23226376.160   122055425.283 6      -915.509          39.187    23226371.940   122055425.298 4      -915.509          27.687    23226390.360    95108170.831 4      -713.384          27.625
R12  21874979.340   116852218.155 6      4675.455          39.000    21874977.900   116852218.153 6      4675.455          39.312    21874990.920    90885103.228 7      3636.465          43.500    21874991.560    90885106.234 7      3636.465          43.500
R05  23218785.880   124117726.284 6      1022.833          37.000    23218783.760   124117726.234 6      1022.833          36.937    23218801.640    96536067.568 7       795.537          43.750    23218802.080    96536069.560 7       795.537          43.625
R10  23155247.580   123430501.859 6     -1834.480          38.500    23155247.120   123430501.865 6     -1834.480          37.750
R11  20298881.820   108471071.724 8       404.960          49.312    20298881.800   108471071.725 8       404.960          48.500    20298892.120    84366424.483 8       314.969          50.000    20298892.260    84366426.485 8       314.969          49.875
R21  20937669.500   112041698.995 6      1648.746          41.625    20937667.460   112041698.986 7      1648.746          42.687    20937680.060    87143590.954 7      1282.358          43.625    20937680.240    87143590.954 7      1282.358          43.250
G10  23665768.180   124364445.593 7      -261.851          46.000    23665766.460   124364445.604 6      -261.851          37.875    23665774.860    96907401.280 6      -204.040          38.000    23665775.220    96907401.288 6      -204.040          39.687
G03  23393306.800   122932647.032 7      6147.282          46.312    23393307.520   122932647.039 5      6147.282          31.687    23393324.980    95791740.794 5      4790.090          31.750    23393326.100    95791757.810 7      4790.090          44.250
R22  21678003.200   115718660.110 6      3529.251          39.437    21678003.640   115718660.111 6      3529.251          39.750    21678018.480    90003465.691 3      2744.973          23.625    21678019.820    90003487.696 4      2744.973          24.062
G08  20789630.320   109250247.797 8      2574.970          48.125    20789629.020   109250247.802 7      2574.970          46.375    20789636.680    85130085.835 7      2006.470          46.687    20789637.400    85130103.836 8      2006.470          49.125
G02  21580230.140   113404875.089 7      2747.277          46.437    21580229.940   113404875.100 5      2747.277          33.250    21580232.140    88367440.046 5      2140.735          33.312
G27  22041066.780   115826587.029 5       876.865          35.750    22041062.860   115826587.034 5       876.865          30.687    22041077.980    90254513.871 5       683.271          30.687    22041077.500    90254517.854 6       683.271          39.062
G21  20880042.020   109725360.933 7      1754.898          46.750    20880039.280   109725360.938 6      1754.898          38.000    20880044.160    85500291.709 6      1367.453          38.125
> 2024 05 08 13 51 48.0000000  0 14
R07  23433573.520   125441767.114 6      6335.771          41.500    23433575.860   125441767.166 6      6335.771          40.187    23433600.780    97565916.923 7      4927.822          46.375    23433600.300    97565916.927 7      4927.822          45.937
G16  23226550.400   122056340.778 6      -915.505          39.500    23226546.200   122056340.794 4      -915.505          27.687    23226564.740    95108884.185 4      -713.380          27.625
R12  21874103.720   116847542.972 6      4674.798          39.000    21874102.360   116847542.968 6      4674.798          39.312    21874115.580    90881466.968 7      3635.954          43.625    21874116.220    90881469.979 7      3635.954          43.375
R05  23218594.380   124116703.822 6      1022.241          36.875    23218592.320   124116703.800 6      1022.241          36.937    23218610.280    96535272.349 7       795.076          43.562    23218610.560    96535274.354 7       795.076          43.687
R10  23155591.240   123432336.327 6     -1834.440          38.562    23155591.700   123432336.325 6     -1834.440          37.562
R11  20298806.420   108470667.120 8       404.201          49.000    20298806.120   108470667.119 7       404.201          47.750    20298816.160    84366109.785 8       314.378          50.250    20298816.320    84366111.787 8       314.378          50.500
R21  20937361.440   112040050.301 7      1648.798          42.437    20937359.520   112040050.281 7      1648.798          42.687    20937372.040    87142308.632 7      1282.398          43.750    20937372.440    87142308.632 7      1282.398          42.875
G10  23665817.880   124364707.581 7      -262.112          46.187    23665816.360   124364707.593 6      -262.112          37.562    23665824.740    96907605.426 6      -204.243          38.062    23665824.780    96907605.434 6      -204.243          39.812
G03  23392136.880   122926499.712 7      6147.235          46.500    23392137.600   122926499.720 5      6147.235          31.687    23392155.140    95786950.681 5      4790.053          31.750    23392156.040    95786967.697 7      4790.053          44.000
R22  21677342.440   115715130.921 6      3529.169          39.250    21677342.360   115715130.925 6      3529.169          39.750    21677359.880    90000720.729 3      2744.909          23.687    21677357.280    90000742.763 4      2744.909          24.062
G08  20789140.700   109247672.967 7      2574.705          47.125    20789139.140   109247672.972 7      2574.705          46.562    20789146.560    85128079.473 7      2006.264          46.312    20789147.440    85128097.478 8      2006.264          48.875
G02  21579707.620   113402127.909 7      2746.919          46.250    21579707.240   113402127.917 5      2746.919          33.250    21579709.440    88365299.386 5      2140.456          33.250
G27  22040899.560   115825710.114 5       876.943          35.750    22040895.980   115825710.116 5       876.943          30.437    22040910.820    90253830.552 5       683.332          30.687    22040911.080    90253834.549 6       683.332          39.062
G21  20879707.980   109723606.137 7      1754.726          46.437    20879705.340   109723606.139 6      1754.726          38.375    20879710.340    85498924.333 6      1367.319          38.750
> 2024 05 08 13 51 49.0000000  0 14
R07  23432389.800   125435431.168 6      6335.836          40.812    23432392.180   125435431.207 6      6335.836          40.000    23432417.100    97560988.954 7      4927.873          46.312    23432416.820    97560988.959 7      4927.873          46.125
G16  23226724.540   122057256.423 6      -915.656          39.625    23226720.540   122057256.441 4      -915.656          27.937    23226739.020    95109597.661 4      -713.498          27.625
R12  21873228.700   116842868.388 6      4674.315          39.000    21873227.180   116842868.399 6      4674.315          39.187    21873240.900    90877831.191 7      3635.578          43.312    21873241.320    90877834.195 7      3635.578          43.750
R05  23218403.500   124115682.104 6      1021.436          36.875    23218400.840   124115682.084 6      1021.436          36.812    23218419.340    96534477.680 7       794.450          43.437    23218419.840    96534479.684 7       794.450          43.250
R10  23155935.400   123434170.750 6     -1834.475          38.562    23155936.480   123434170.745 6     -1834.475          37.562
R11  20298730.780   108470263.177 8       403.554          49.062    20298730.700   108470263.175 7       403.554          47.625    20298740.420    84365795.607 8       313.875          49.875    20298740.700    84365797.609 8       313.875          50.437
R21  20937053.500   112038401.531 7      1648.788          42.437    20937051.400   112038401.514 7      1648.788          42.250    20937064.120    87141026.262 7      1282.391          43.687    20937064.220    87141026.262 7      1282.391          42.937
G10  23665867.740   124364969.825 7      -262.389          46.125    23665866.180   124364969.835 6      -262.389          37.250    23665874.500    96907809.774 6      -204.459          37.812    23665875.580    96907809.770 6      -204.459          39.812
G03  23390967.120   122920352.480 7      6147.061          46.125    23390967.700   122920352.487 5      6147.061          31.437    23390985.280    95782160.635 5      4789.918          31.687    23390986.460    95782177.652 7      4789.918          44.000
R22  21676680.920   115711601.794 6      3528.913          39.250    21676680.740   115711601.792 6      3528.913          40.000    21676696.880    89997975.895 3      2744.710          23.750    21676696.160    89997997.897 4      2744.710          24.062
G08  20788650.340   109245098.307 7      2574.495          47.812    20788649.120   109245098.309 7      2574.495          46.187    20788656.720    85126073.238 7      2006.100          46.562    20788657.540    85126091.241 8      2006.100          49.125
G02  21579184.960   113399380.847 7      2746.856          45.500    21579184.400   113399380.855 5      2746.856          33.250    21579186.700    88363158.821 5      2140.407          33.250
G27  22040733.400   115824833.424 5       876.475          35.750    22040729.180   115824833.426 5       876.475          30.437    22040743.840    90253147.417 5       682.968          30.687    22040743.500    90253151.416 6       682.968          39.062
G21  20879374.260   109721851.512 7      1754.390          46.312    20879371.380   109721851.514 6      1754.390          37.875    20879376.420    85497557.093 6      1367.057          37.750
> 2024 05 08 13 51 50.0000000  0 14
R07  23431206.600   125429095.224 6      6335.729          40.812    23431208.020   125429095.263 6      6335.729          40.000    23431233.360    97556060.998 7      4927.789          46.562    23431233.260    97556061.007 7      4927.789          46.500
G16  23226898.920   122058172.376 6      -916.188          39.750    23226894.820   122058172.397 4      -916.188          27.937    23226913.240    95110311.372 4      -713.913          27.812
R12  21872354.080   116838194.655 6      4673.224          38.812    21872352.580   116838194.667 6      4673.224          39.187    21872365.940    90874196.065 7      3634.730          43.625    21872366.480    90874199.072 7      3634.730          43.812
R05  23218212.240   124114661.209 6      1020.506          36.875    23218210.060   124114661.195 6      1020.506          36.812    23218228.220    96533683.648 7       793.727          43.375    23218228.960    96533685.661 7       793.727          42.937
R10  23156279.760   123436005.297 6     -1834.744          38.562    23156279.920   123436005.295 6     -1834.744          37.562
R11  20298655.380   108469860.032 8       402.646          49.250    20298655.540   108469860.033 7       402.646          47.812    20298664.940    84365482.044 8       313.169          50.187    20298665.340    84365484.046 8       313.169          49.625
R21  20936745.760   112036752.871 7      1648.546          42.687    20936743.680   112036752.846 7      1648.546          42.250    20936756.040    87139743.958 7      1282.202          44.062    20936755.900    87139743.956 7      1282.202          43.375
G10  23665917.800   124365232.498 7      -262.891          45.187    23665916.180   124365232.503 6      -262.891          37.500    23665924.620    96908014.448 6      -204.850          37.812    23665925.240    96908014.449 6      -204.850          39.812
G03  23389797.480   122914205.436 7      6146.834          46.312    23389797.840   122914205.446 5      6146.834          31.437    23389815.360    95777370.737 5      4789.741          31.687    23389815.800    95777387.764 7      4789.741          43.937
R22  21676019.860   115708072.840 6      3528.677          39.625    21676020.020   115708072.848 6      3528.677          40.000    21676032.840    89995231.180 3      2744.526          23.750    21676033.600    89995253.169 4      2744.526          24.062
G08  20788160.500   109242523.952 7      2574.067          47.812    20788159.280   109242523.954 7      2574.067          46.437    20788166.640    85124067.247 7      2005.766          46.687    20788167.580    85124085.252 8      2005.766          48.937
G02  21578662.080   113396634.135 7      2746.384          45.437    21578661.680   113396634.142 5      2746.384          33.250    21578663.880    88361018.523 5      2140.040          33.062
G27  22040567.340   115823956.994 5       876.228          35.375    22040562.420   115823957.002 5       876.228          30.437    22040576.940    90252464.479 5       682.775          30.250    22040576.320    90252468.468 6       682.775          39.062
G21  20879040.400   109720097.171 7      1754.061          47.062    20879037.700   109720097.171 6      1754.061          37.937    20879042.620    85496190.070 6      1366.800          38.187
> 2024 05 08 13 51 51.0000000  0 14
R07  23430022.960   125422759.240 6      6335.985          40.875    23430024.860   125422759.277 6      6335.985          40.000    23430049.720    97551133.009 7      4927.988          46.375    23430049.640    97551133.009 7      4927.988          46.250
G16  23227073.700   122059088.589 6      -916.442          39.750    23227069.200   122059088.607 4      -916.442          27.937    23227087.840    95111025.279 4      -714.110          27.812
R12  21871479.440   116833521.695 6      4672.549          38.812    21871478.380   116833521.696 6      4672.549          39.187    21871491.040    90870561.524 7      3634.205          43.687    21871491.620    90870564.527 7      3634.205          43.500
R05  23218021.060   124113641.132 6      1019.686          36.875    23218019.700   124113641.112 6      1019.686          36.812    23218037.380    96532890.238 7       793.089          43.375    23218038.020    96532892.253 7       793.089          42.937
R10  23156624.220   123437839.893 6     -1834.607          38.562    23156624.620   123437839.888 6     -1834.607          37.562
R11  20298580.220   108469457.711 8       401.951          49.687    20298580.220   108469457.715 8       401.951          48.375    20298589.640    84365169.121 8       312.629          50.187    20298589.840    84365171.127 8       312.629          49.750
R21  20936437.560   112035104.292 7      1648.496          42.937    20936435.500   112035104.272 7      1648.496          42.250    20936447.840    87138461.740 7      1282.163          43.875    20936447.900    87138461.734 7      1282.163          44.062
G10  23665967.800   124365495.547 7      -263.255          46.437    23665966.380   124365495.552 6      -263.255          37.250    23665974.540    96908219.415 6      -205.134          38.250    23665975.940    96908219.413 6      -205.134          39.687
G03  23388627.860   122908058.600 7      6146.755          45.875    23388628.080   122908058.610 5      6146.755          31.437    23388645.480    95772581.001 5      4789.679          31.687    23388646.140    95772598.009 7      4789.679          43.750
R22  21675358.960   115704544.112 6      3528.563          39.625    21675359.100   115704544.103 6      3528.563          40.000    21675368.500    89992486.633 3      2744.438          23.750    21675371.840    89992508.612 4      2744.438          24.062
G08  20787670.560   109239949.891 7      2573.931          47.500    20787669.380   109239949.893 7      2573.931          46.125    20787676.840    85122061.483 7      2005.661          46.375    20787677.580    85122079.487 8      2005.661          48.750
G02  21578139.220   113393887.672 7      2746.402          46.125    21578139.060   113393887.677 5      2746.402          33.375    21578141.360    88358878.424 5      2140.053          33.062
G27  22040399.900   115823080.888 5       875.859          35.375    22040395.660   115823080.890 5       875.859          30.437    22040410.080    90251781.788 5       682.488          30.250    22040409.260    90251785.777 6       682.488          39.062
G21  20878706.620   109718343.119 7      1753.888          46.812    20878703.740   109718343.124 6      1753.888          38.000    20878708.940    85494823.280 6      1366.666          38.000
> 2024 05 08 13 51 52.0000000  0 14
R07  23428839.700   125416423.473 6      6335.652          40.875    23428841.660   125416423.504 6      6335.652          40.500    23428866.220    97546205.192 7      4927.729          46.437    23428866.100    97546205.199 7      4927.729          45.875
G16  23227247.660   122060005.201 6      -916.765          39.562    23227243.600   122060005.216 4      -916.765          27.937    23227262.260    95111739.508 4      -714.362          27.812
R12  21870605.340   116828849.634 6      4671.879          38.812    21870603.280   116828849.625 6      4671.879          38.875    21870616.980    90866927.687 7      3633.684          43.562    21870617.040    90866930.689 7      3633.684          44.250
R05  23217830.240   124112622.015 6      1018.506          36.875    23217829.600   124112621.998 6      1018.506          36.812    23217846.740    96532097.595 7       792.171          43.500    23217847.480    96532099.598 7       792.171          43.125
R10  23156968.500   123439674.798 6     -1835.039          39.125    23156968.580   123439674.820 6     -1835.039          37.750
R11  20298504.940   108469056.375 8       400.897          49.687    20298505.500   108469056.382 8       400.897          48.625    20298514.500    84364856.969 8       311.808          49.812    20298514.840    84364858.975 8       311.808          49.687
R21  20936129.780   112033456.065 7      1648.012          42.187    20936127.900   112033456.048 7      1648.012          42.812    20936140.080    87137179.788 7      1281.787          44.187    20936139.800    87137179.786 7      1281.787          43.375
G10  23666017.840   124365759.197 7      -263.896          46.687    23666016.680   124365759.202 6      -263.896          37.500    23666024.720    96908424.851 6      -205.633          38.562    23666026.060    96908424.845 6      -205.633          39.687
G03  23387458.180   122901912.169 7      6146.313          46.125    23387458.480   122901912.176 5      6146.313          30.937    23387475.780    95767791.584 5      4789.335          31.187    23387476.420    95767808.603 7      4789.335          44.000
R22  21674697.620   115701015.740 6      3528.219          39.625    21674698.040   115701015.749 6      3528.219          39.750    21674705.100    89989742.365 3      2744.170          23.875    21674709.560    89989764.321 4      2744.170          24.062
G08  20787180.920   109237376.342 7      2573.371          47.625    20787179.740   109237376.347 7      2573.371          46.312    20787187.120    85120056.119 7      2005.224          46.187    20787188.000    85120074.122 8      2005.224          49.062
G02  21577616.580   113391141.743 7      2745.641          45.750    21577616.500   113391141.747 5      2745.641          33.375    21577618.880    88356738.739 5      2139.460          33.187
G27  22040232.680   115822205.205 6       875.464          36.250    22040229.240   115822205.204 5       875.464          30.500    22040243.320    90251099.430 5       682.180          30.250    22040243.200    90251103.445 6       682.180          38.750
G21  20878372.960   109716589.574 7      1753.323          46.000    20878369.920   109716589.577 6      1753.323          38.125    20878375.080    85493456.878 6      1366.226          37.750
